{"objectIdFieldName":"OBJECTID","globalIdFieldName":"","geometryType":"esriGeometryPoint","spatialReference":{"wkid":102100,"latestWkid":3857},"fields":[{"name":"OBJECTID","type":"esriFieldTypeOID","alias":"OBJECTID","sqlType":"sqlTypeOther","domain":null,"defaultValue":null},{"name":"ولایت","type":"esriFieldTypeString","alias":"ولایت","sqlType":"sqlTypeOther","length":255,"domain":null,"defaultValue":null},{"name":"Province","type":"esriFieldTypeString","alias":"Province","sqlType":"sqlTypeOther","length":255,"domain":null,"defaultValue":null},{"name":"PC_Code","type":"esriFieldTypeString","alias":"PC_Code","sqlType":"sqlTypeOther","length":255,"domain":null,"defaultValue":null},{"name":"ولسوالي","type":"esriFieldTypeString","alias":"ولسوالي","sqlType":"sqlTypeOther","length":255,"domain":null,"defaultValue":null},{"name":"District","type":"esriFieldTypeString","alias":"District","sqlType":"sqlTypeOther","length":255,"domain":null,"defaultValue":null},{"name":"د_مرکز_نوم__نام_مرکز","type":"esriFieldTypeString","alias":"د_مرکز_نوم__نام_مرکز","sqlType":"sqlTypeOther","length":255,"domain":null,"defaultValue":null},{"name":"Polling_Center_Name","type":"esriFieldTypeString","alias":"Polling_Center_Name","sqlType":"sqlTypeOther","length":255,"domain":null,"defaultValue":null},{"name":"د_مرکز_ځای__موقعیت_مرکز","type":"esriFieldTypeString","alias":"د_مرکز_ځای__موقعیت_مرکز","sqlType":"sqlTypeOther","length":255,"domain":null,"defaultValue":null},{"name":"Polling_Center_Location","type":"esriFieldTypeString","alias":"Polling_Center_Location","sqlType":"sqlTypeOther","length":255,"domain":null,"defaultValue":null},{"name":"Verification_Note","type":"esriFieldTypeString","alias":"Verification_Note","sqlType":"sqlTypeOther","length":250,"domain":null,"defaultValue":null},{"name":"PS_Male","type":"esriFieldTypeSmallInteger","alias":"PS_Male","sqlType":"sqlTypeOther","domain":null,"defaultValue":null},{"name":"PS_Female","type":"esriFieldTypeSmallInteger","alias":"PS_Female","sqlType":"sqlTypeOther","domain":null,"defaultValue":null},{"name":"Map_Accuracy","type":"esriFieldTypeString","alias":"Map_Accuracy","sqlType":"sqlTypeOther","length":10,"domain":null,"defaultValue":null}],"features":[{"attributes":{"OBJECTID":1,"ولایت":"کابل","Province":"KABUL","PC_Code":"0101001","ولسوالي":"کابل - ناحیه 01","District":"KABUL-D01","د_مرکز_نوم__نام_مرکز":" ليسه عاشقان و عارفان","Polling_Center_Name":"Ashuqan-o-Arifan High School","د_مرکز_ځای__موقعیت_مرکز":"کوچه اچکزی","Polling_Center_Location":"Achekzai Street","Verification_Note":"Building","PS_Male":3,"PS_Female":2,"Map_Accuracy":"تعمیر"},"geometry":{"x":7701156.2268816419,"y":4097310.8068457767}},{"attributes":{"OBJECTID":2,"ولایت":"پکتيا","Province":"PAKTYA","PC_Code":"1308138","ولسوالي":" لجه احمد خیل","District":"LAJA AHMAD KHEL","د_مرکز_نوم__نام_مرکز":"مسجد ونس خیل  ","Polling_Center_Name":"Venus Khel Mosque","د_مرکز_ځای__موقعیت_مرکز":"کوندی حسن خیل کلی ","Polling_Center_Location":"Kwandi Hassan Khel Village","Verification_Note":"District","PS_Male":3,"PS_Female":0,"Map_Accuracy":"ولسوالی"},"geometry":{"x":7751552.4260784239,"y":4012138.4387822077}},{"attributes":{"OBJECTID":3,"ولایت":"ننگرهار","Province":"NANGARHAR","PC_Code":"0605160","ولسوالي":"کامه","District":"KAMA","د_مرکز_نوم__نام_مرکز":"دار بنګ مکتب","Polling_Center_Name":"Darbang School","د_مرکز_ځای__موقعیت_مرکز":"داربنګ","Polling_Center_Location":"Darbang ","Verification_Note":"Village","PS_Male":2,"PS_Female":1,"Map_Accuracy":"قریه"},"geometry":{"x":7858520.3316664807,"y":4090229.6240432188}},{"attributes":{"OBJECTID":4,"ولایت":"ننگرهار","Province":"NANGARHAR","PC_Code":"0619243","ولسوالي":"شیرزاد","District":"SHER ZAD","د_مرکز_نوم__نام_مرکز":"ماماخيل ليسه","Polling_Center_Name":"Mama Khel High School","د_مرکز_ځای__موقعیت_مرکز":"ماما خيل","Polling_Center_Location":"Mama Khel ","Verification_Note":"Village","PS_Male":0,"PS_Female":2,"Map_Accuracy":"قریه"},"geometry":{"x":7792028.8129804209,"y":4061980.1395108625}},{"attributes":{"OBJECTID":5,"ولایت":"ننگرهار","Province":"NANGARHAR","PC_Code":"0614499","ولسوالي":"ګوشته","District":"GOSHTA","د_مرکز_نوم__نام_مرکز":"شخصي کور ","Polling_Center_Name":"Private House","د_مرکز_ځای__موقعیت_مرکز":"علي خيل کلی","Polling_Center_Location":"Ali Khel Village","Verification_Note":"Village","PS_Male":0,"PS_Female":2,"Map_Accuracy":"قریه"},"geometry":{"x":7894788.3180582821,"y":4093373.6519761607}},{"attributes":{"OBJECTID":6,"ولایت":"ننگرهار","Province":"NANGARHAR","PC_Code":"0615385","ولسوالي":"اچین","District":"ACHIN","د_مرکز_نوم__نام_مرکز":"بندرخوله جامع جومات","Polling_Center_Name":"Bandar Khola Jaame Mosque","د_مرکز_ځای__موقعیت_مرکز":"باندرخوله","Polling_Center_Location":"Bandar Khola","Verification_Note":"Village","PS_Male":2,"PS_Female":0,"Map_Accuracy":"قریه"},"geometry":{"x":7877384.0923077166,"y":4038177.7541916594}},{"attributes":{"OBJECTID":7,"ولایت":"هرات","Province":"HERAT","PC_Code":"3214301","ولسوالي":"شیندند","District":"SHINDAND","د_مرکز_نوم__نام_مرکز":"مسجد قدیمی قندیز ","Polling_Center_Name":"Qandiz Qademi Mosque ","د_مرکز_ځای__موقعیت_مرکز":"قندیز ","Polling_Center_Location":"Qandiz ","Verification_Note":"Building","PS_Male":3,"PS_Female":1,"Map_Accuracy":"تعمیر"},"geometry":{"x":6917698.0007535927,"y":3936045.4886692017}},{"attributes":{"OBJECTID":8,"ولایت":"هرات","Province":"HERAT","PC_Code":"3203117","ولسوالي":"گذره","District":"GUZARA","د_مرکز_نوم__نام_مرکز":"موقعیت کوچی های گمبدی","Polling_Center_Name":"Kochis Location","د_مرکز_ځای__موقعیت_مرکز":"قریه گمبدی","Polling_Center_Location":"Gumbadi Village","Verification_Note":"Village","PS_Male":1,"PS_Female":1,"Map_Accuracy":"قریه"},"geometry":{"x":6943696.8693166412,"y":4036913.0511103049}},{"attributes":{"OBJECTID":9,"ولایت":"بلخ","Province":"BALKH","PC_Code":"2106177","ولسوالي":"بلخ","District":"BALKH","د_مرکز_نوم__نام_مرکز":"مسجد جامع خواجه ولی ","Polling_Center_Name":"Shamsullah Private House","د_مرکز_ځای__موقعیت_مرکز":"شهاب افغانیه","Polling_Center_Location":"Shahab Afghania Village","Verification_Note":"Building","PS_Male":1,"PS_Female":1,"Map_Accuracy":"تعمیر"},"geometry":{"x":7441523.933161296,"y":4426660.5436408445}},{"attributes":{"OBJECTID":10,"ولایت":"کاپيسا","Province":"KAPISA","PC_Code":"0206095","ولسوالي":"تگاب ","District":"TAGAB","د_مرکز_نوم__نام_مرکز":"متوسطه شهید حفیظ الله","Polling_Center_Name":"Shaheed Hafizullah Secondary School","د_مرکز_ځای__موقعیت_مرکز":" شکوت","Polling_Center_Location":"Shokut","Verification_Note":"Building","PS_Male":3,"PS_Female":0,"Map_Accuracy":"تعمیر"},"geometry":{"x":7757335.8532245979,"y":4148542.527681984}},{"attributes":{"OBJECTID":11,"ولایت":"پروان","Province":"PARWAN","PC_Code":"0310131","ولسوالي":"شیخ علی ","District":"SHAYKH ALI","د_مرکز_نوم__نام_مرکز":"کیلینک حیوانی ولسوالی","Polling_Center_Name":"District Building ","د_مرکز_ځای__موقعیت_مرکز":"بازار ولسوالی دشت گذار","Polling_Center_Location":"District Bazar Dasht-e-Guzar","Verification_Note":"Building","PS_Male":1,"PS_Female":1,"Map_Accuracy":"تعمیر"},"geometry":{"x":7629983.9669521451,"y":4156621.66004131}},{"attributes":{"OBJECTID":12,"ولایت":"هرات","Province":"HERAT","PC_Code":"3212376","ولسوالي":"اوبه ","District":"OBE","د_مرکز_نوم__نام_مرکز":"مسجد پشت پاجی","Polling_Center_Name":"Posht-e- Paji Mosque","د_مرکز_ځای__موقعیت_مرکز":"پشت پاجی ","Polling_Center_Location":"Posht-e- Paji ","Verification_Note":"Village","PS_Male":1,"PS_Female":1,"Map_Accuracy":"قریه"},"geometry":{"x":7040008.5290751643,"y":4065955.2023234293}},{"attributes":{"OBJECTID":13,"ولایت":"هرات","Province":"HERAT","PC_Code":"3212377","ولسوالي":"اوبه ","District":"OBE","د_مرکز_نوم__نام_مرکز":"مکتب سیروان","Polling_Center_Name":"Sarwan School ","د_مرکز_ځای__موقعیت_مرکز":"قریه سیروان","Polling_Center_Location":"Sarwan Village","Verification_Note":"Building","PS_Male":3,"PS_Female":2,"Map_Accuracy":"تعمیر"},"geometry":{"x":7019565.6007128768,"y":4067684.5687021092}},{"attributes":{"OBJECTID":14,"ولایت":"پروان","Province":"PARWAN","PC_Code":"0307090","ولسوالي":"سیاه گرد غوربند","District":"SYAHGIRDI GHORBAND","د_مرکز_نوم__نام_مرکز":"مسجد جامع دو آب ","Polling_Center_Name":"Du Aab Mosque","د_مرکز_ځای__موقعیت_مرکز":"سرپل دو آب ","Polling_Center_Location":"Sar-e-Pul Du Aab","Verification_Note":"District","PS_Male":2,"PS_Female":1,"Map_Accuracy":"ولسوالی"},"geometry":{"x":7665584.5366689786,"y":4164602.423276253}},{"attributes":{"OBJECTID":15,"ولایت":"غور","Province":"GHOR","PC_Code":"2301039","ولسوالي":"چغچران","District":"CHIGHCHERAN","د_مرکز_نوم__نام_مرکز":"مکتب جنداک","Polling_Center_Name":"Jandak School","د_مرکز_ځای__موقعیت_مرکز":" جنداک","Polling_Center_Location":"Jandak","Verification_Note":"Village","PS_Male":3,"PS_Female":2,"Map_Accuracy":"قریه"},"geometry":{"x":7314133.7224824615,"y":4163278.2238062546}},{"attributes":{"OBJECTID":16,"ولایت":"لغمان","Province":"LAGHMAN","PC_Code":"0704076","ولسوالي":"علینګار","District":"ALINGAR","د_مرکز_نوم__نام_مرکز":"دپړوائي ښوونځی","Polling_Center_Name":"Parwayee School","د_مرکز_ځای__موقعیت_مرکز":"پړوایی","Polling_Center_Location":"Parwayee","Verification_Note":"Building","PS_Male":1,"PS_Female":1,"Map_Accuracy":"تعمیر"},"geometry":{"x":7833544.7714187279,"y":4145043.0466409996}},{"attributes":{"OBJECTID":17,"ولایت":"لغمان","Province":"LAGHMAN","PC_Code":"0704080","ولسوالي":"علینګار","District":"ALINGAR","د_مرکز_نوم__نام_مرکز":"دمنګو ښوونځی اوخېمه","Polling_Center_Name":"Mango School and Tent","د_مرکز_ځای__موقعیت_مرکز":"منګو","Polling_Center_Location":"Mango","Verification_Note":"Building","PS_Male":1,"PS_Female":1,"Map_Accuracy":"تعمیر"},"geometry":{"x":7834604.7556100637,"y":4148483.6776527241}},{"attributes":{"OBJECTID":18,"ولایت":"لغمان","Province":"LAGHMAN","PC_Code":"0704081","ولسوالي":"علینګار","District":"ALINGAR","د_مرکز_نوم__نام_مرکز":"دکوټلي اسلامي مدرسۀ","Polling_Center_Name":"Kotaly Islamic Madrassa","د_مرکز_ځای__موقعیت_مرکز":"کوټلی","Polling_Center_Location":"Kotaly","Verification_Note":"Building","PS_Male":1,"PS_Female":1,"Map_Accuracy":"تعمیر"},"geometry":{"x":7835997.17876273,"y":4153459.29380247}},{"attributes":{"OBJECTID":19,"ولایت":"کنړ ","Province":"KUNAR","PC_Code":"1506063","ولسوالي":"شیګل و شیلتن","District":"SHIGAL WA SHILTAN","د_مرکز_نوم__نام_مرکز":"مکتب ابتدائیه","Polling_Center_Name":"Primary School","د_مرکز_ځای__موقعیت_مرکز":"شین کوړک","Polling_Center_Location":"Shenkorak","Verification_Note":"Building","PS_Male":3,"PS_Female":2,"Map_Accuracy":"تعمیر"},"geometry":{"x":7929074.2982085422,"y":4157062.1178766936}},{"attributes":{"OBJECTID":20,"ولایت":"کنړ ","Province":"KUNAR","PC_Code":"1506064","ولسوالي":"شیګل و شیلتن","District":"SHIGAL WA SHILTAN","د_مرکز_نوم__نام_مرکز":"تعمیر ولسوالی","Polling_Center_Name":"District Compound","د_مرکز_ځای__موقعیت_مرکز":"شیگل واشیلتن","Polling_Center_Location":"Shegal Washilton","Verification_Note":"Building","PS_Male":3,"PS_Female":2,"Map_Accuracy":"تعمیر"},"geometry":{"x":7934278.6580615379,"y":4159323.5184441879}},{"attributes":{"OBJECTID":21,"ولایت":"کنړ ","Province":"KUNAR","PC_Code":"1512054","ولسوالي":"دانګام","District":"DANGAM","د_مرکز_نوم__نام_مرکز":"مکتب ابتدائیه","Polling_Center_Name":"Byadad Primary School","د_مرکز_ځای__موقعیت_مرکز":"بیاداد","Polling_Center_Location":"Byadad","Verification_Note":"Village","PS_Male":2,"PS_Female":2,"Map_Accuracy":"قریه"},"geometry":{"x":7948073.3181536719,"y":4166001.4570900723}},{"attributes":{"OBJECTID":22,"ولایت":"غور","Province":"GHOR","PC_Code":"2305113","ولسوالي":"پسابند ","District":"PASABAND","د_مرکز_نوم__نام_مرکز":"خیمه بازار تخته ترمه","Polling_Center_Name":"Takhta Tarma Bazar Tent","د_مرکز_ځای__موقعیت_مرکز":"قریه تخته ترمه","Polling_Center_Location":"Takhta Tarma Village","Verification_Note":"Building","PS_Male":2,"PS_Female":1,"Map_Accuracy":"تعمیر"},"geometry":{"x":7223700.0357400328,"y":4000323.1042036489}},{"attributes":{"OBJECTID":23,"ولایت":"غور","Province":"GHOR","PC_Code":"2305134","ولسوالي":"پسابند ","District":"PASABAND","د_مرکز_نوم__نام_مرکز":"مسجد قریه سرخک","Polling_Center_Name":"Surkhak Village Mosque","د_مرکز_ځای__موقعیت_مرکز":" قریه سرخک","Polling_Center_Location":"Surkhak Village","Verification_Note":"Building","PS_Male":1,"PS_Female":1,"Map_Accuracy":"تعمیر"},"geometry":{"x":7261369.8812811486,"y":3976016.5418600962}},{"attributes":{"OBJECTID":24,"ولایت":"غور","Province":"GHOR","PC_Code":"2309178","ولسوالي":"تولک ","District":"TULAK","د_مرکز_نوم__نام_مرکز":"مکتب تولک","Polling_Center_Name":"Tolak School","د_مرکز_ځای__موقعیت_مرکز":"قریه خوا جه ها","Polling_Center_Location":"Khwajaha Village","Verification_Note":"Building","PS_Male":2,"PS_Female":1,"Map_Accuracy":"تعمیر"},"geometry":{"x":7093264.9879663065,"y":4025024.7332163304}},{"attributes":{"OBJECTID":25,"ولایت":"غور","Province":"GHOR","PC_Code":"2309186","ولسوالي":"تولک ","District":"TULAK","د_مرکز_نوم__نام_مرکز":"مکتب متوسطه تگاب اشلان","Polling_Center_Name":"Tagab Ashlan Secondary School","د_مرکز_ځای__موقعیت_مرکز":" تگاب اشلان","Polling_Center_Location":"Tagab Ashlan","Verification_Note":"Village","PS_Male":3,"PS_Female":1,"Map_Accuracy":"قریه"},"geometry":{"x":7083466.13765661,"y":4044937.352252923}},{"attributes":{"OBJECTID":26,"ولایت":"غور","Province":"GHOR","PC_Code":"2309192","ولسوالي":"تولک ","District":"TULAK","د_مرکز_نوم__نام_مرکز":"منزل ارباب میرگل","Polling_Center_Name":"Arbab Mir Gul Private House","د_مرکز_ځای__موقعیت_مرکز":" لراق","Polling_Center_Location":"Laraq","Verification_Note":"Village","PS_Male":1,"PS_Female":1,"Map_Accuracy":"قریه"},"geometry":{"x":7070965.8816791065,"y":4049432.0645300373}},{"attributes":{"OBJECTID":27,"ولایت":"غور","Province":"GHOR","PC_Code":"2309193","ولسوالي":"تولک ","District":"TULAK","د_مرکز_نوم__نام_مرکز":"مکتب ابتدای سنگ خلق ","Polling_Center_Name":"Sang Khalq Primary School","د_مرکز_ځای__موقعیت_مرکز":"سنگ خلق","Polling_Center_Location":"Sang Khalq","Verification_Note":"Building","PS_Male":2,"PS_Female":1,"Map_Accuracy":"تعمیر"},"geometry":{"x":7101883.4520366229,"y":4021544.2494069189}},{"attributes":{"OBJECTID":28,"ولایت":"هلمند","Province":"HELMAND","PC_Code":"3007196","ولسوالي":"نوزاد","District":"NAWZAD","د_مرکز_نوم__نام_مرکز":"اسعد سوري ليسه","Polling_Center_Name":"Asad Suri High School","د_مرکز_ځای__موقعیت_مرکز":"نوزاد کلان","Polling_Center_Location":"Nawzad Kalan","Verification_Note":"Village","PS_Male":6,"PS_Female":1,"Map_Accuracy":"قریه"},"geometry":{"x":7176862.96222721,"y":3816527.5547524393}},{"attributes":{"OBJECTID":29,"ولایت":"هلمند","Province":"HELMAND","PC_Code":"3009184","ولسوالي":"موسی قلعه","District":"MUSA QALA","د_مرکز_نوم__نام_مرکز":"د نور محمد كور","Polling_Center_Name":"Noor Mohammad Private House","د_مرکز_ځای__موقعیت_مرکز":" شیرغزی","Polling_Center_Location":"Sher Ghazai","Verification_Note":"Village","PS_Male":3,"PS_Female":2,"Map_Accuracy":"قریه"},"geometry":{"x":7202182.86872562,"y":3793855.8292902708}},{"attributes":{"OBJECTID":30,"ولایت":"هلمند","Province":"HELMAND","PC_Code":"3009185","ولسوالي":"موسی قلعه","District":"MUSA QALA","د_مرکز_نوم__نام_مرکز":"خان محمد مسجد","Polling_Center_Name":"Khan Mohammad Mosque","د_مرکز_ځای__موقعیت_مرکز":"کاڼی مانده","Polling_Center_Location":"Kaani Manda","Verification_Note":"Village","PS_Male":3,"PS_Female":2,"Map_Accuracy":"قریه"},"geometry":{"x":7207405.4270889685,"y":3797515.4005356878}},{"attributes":{"OBJECTID":31,"ولایت":"بادغيس","Province":"BADGHIS","PC_Code":"3105153","ولسوالي":"بالا مرغاب","District":"BALA MURGHAB","د_مرکز_نوم__نام_مرکز":"مکتب اکازی ها","Polling_Center_Name":"Akazi School","د_مرکز_ځای__موقعیت_مرکز":" اکازی ها","Polling_Center_Location":"Akaziha ","Verification_Note":"Building","PS_Male":1,"PS_Female":1,"Map_Accuracy":"تعمیر"},"geometry":{"x":7047718.8175701275,"y":4247601.7197858989}},{"attributes":{"OBJECTID":32,"ولایت":"بادغيس","Province":"BADGHIS","PC_Code":"3105158","ولسوالي":"بالا مرغاب","District":"BALA MURGHAB","د_مرکز_نوم__نام_مرکز":"مکتب جوی کار","Polling_Center_Name":"Joy-e- Kar School","د_مرکز_ځای__موقعیت_مرکز":"جوی کار","Polling_Center_Location":"Joy-e-Kar","Verification_Note":"Building","PS_Male":2,"PS_Female":1,"Map_Accuracy":"تعمیر"},"geometry":{"x":7054358.6611812115,"y":4234992.8448038027}},{"attributes":{"OBJECTID":33,"ولایت":"بادغيس","Province":"BADGHIS","PC_Code":"3105168","ولسوالي":"بالا مرغاب","District":"BALA MURGHAB","د_مرکز_نوم__نام_مرکز":"مکتب محله پایین","Polling_Center_Name":"Mahalla-e- Paheen  School","د_مرکز_ځای__موقعیت_مرکز":" محله پایین","Polling_Center_Location":"Mahalla-e- Paheen ","Verification_Note":"Village","PS_Male":3,"PS_Female":2,"Map_Accuracy":"قریه"},"geometry":{"x":7084522.9414500929,"y":4208185.3327447027}},{"attributes":{"OBJECTID":34,"ولایت":"بادغيس","Province":"BADGHIS","PC_Code":"3105188","ولسوالي":"بالا مرغاب","District":"BALA MURGHAB","د_مرکز_نوم__نام_مرکز":"مسجد سر خلنگ جوی گنج","Polling_Center_Name":"Sarkhlang Joy-e-Ganj Mosque","د_مرکز_ځای__موقعیت_مرکز":"سرخلنک جوی گنج","Polling_Center_Location":"Sarkhlang Joy-e-Ganj","Verification_Note":"Village","PS_Male":1,"PS_Female":1,"Map_Accuracy":"قریه"},"geometry":{"x":7049289.5400379971,"y":4247384.8069795743}},{"attributes":{"OBJECTID":35,"ولایت":" فراه","Province":"FARAH","PC_Code":"3303055","ولسوالي":"خاک سفید ","District":"KHAK-E-SAFED","د_مرکز_نوم__نام_مرکز":"مسجد کاریز صادق","Polling_Center_Name":"Kariz Sadiq Mosque ","د_مرکز_ځای__موقعیت_مرکز":"کاریز صادق ","Polling_Center_Location":"Kariz Sadiq","Verification_Note":"Village","PS_Male":1,"PS_Female":1,"Map_Accuracy":"قریه"},"geometry":{"x":6891074.0253823549,"y":3882912.1375516355}},{"attributes":{"OBJECTID":36,"ولایت":" فراه","Province":"FARAH","PC_Code":"3303239","ولسوالي":"خاک سفید ","District":"KHAK-E-SAFED","د_مرکز_نوم__نام_مرکز":"مسجد غورچی","Polling_Center_Name":"Ghorchi Mosque ","د_مرکز_ځای__موقعیت_مرکز":"مسجد غورچی","Polling_Center_Location":"Ghorchi","Verification_Note":"Building","PS_Male":1,"PS_Female":1,"Map_Accuracy":"تعمیر"},"geometry":{"x":6912202.7519392073,"y":3842695.2829244658}},{"attributes":{"OBJECTID":37,"ولایت":" فراه","Province":"FARAH","PC_Code":"3304072","ولسوالي":"قلعه کاه ","District":"QALA-E-KAH","د_مرکز_نوم__نام_مرکز":"مسجد حسن آباد علیا","Polling_Center_Name":"Hassan Abad Ulya Mosque ","د_مرکز_ځای__موقعیت_مرکز":"حسن آباد علیا","Polling_Center_Location":"Hassan Abad Ulya ","Verification_Note":"Building","PS_Male":1,"PS_Female":1,"Map_Accuracy":"تعمیر"},"geometry":{"x":6823563.0400166288,"y":3802666.1832931489}},{"attributes":{"OBJECTID":38,"ولایت":" فراه","Province":"FARAH","PC_Code":"3306149","ولسوالي":"بالا بلوک ","District":"BALA BULUK","د_مرکز_نوم__نام_مرکز":"خیمه قریه تودنک  ( کوچی ) ","Polling_Center_Name":"Todanak Village Tent (Kuchi)","د_مرکز_ځای__موقعیت_مرکز":"قریه تودنک","Polling_Center_Location":"Todanak Village","Verification_Note":"Village","PS_Male":1,"PS_Female":1,"Map_Accuracy":"قریه"},"geometry":{"x":6966202.5511829071,"y":3864063.7160137445}},{"attributes":{"OBJECTID":39,"ولایت":" فراه","Province":"FARAH","PC_Code":"3310177","ولسوالي":"گلستان","District":"GULISTAN","د_مرکز_نوم__نام_مرکز":" مسجد مغل آباد","Polling_Center_Name":"Mughol Abad Mosque ","د_مرکز_ځای__موقعیت_مرکز":"مغل آباد","Polling_Center_Location":"Mughol Abad ","Verification_Note":"Village","PS_Male":1,"PS_Female":1,"Map_Accuracy":"قریه"},"geometry":{"x":7039160.94915143,"y":3836448.6185322404}},{"attributes":{"OBJECTID":40,"ولایت":"کاپيسا","Province":"KAPISA","PC_Code":"0205039","ولسوالي":"نجراب ","District":"NIJRAB","د_مرکز_نوم__نام_مرکز":"مکتب قاضی عبدالجمیل ","Polling_Center_Name":"Qazi Abdul Jamil  School ","د_مرکز_ځای__موقعیت_مرکز":"افغانیه ","Polling_Center_Location":"Afghania","Verification_Note":"Building","PS_Male":1,"PS_Female":2,"Map_Accuracy":"تعمیر"},"geometry":{"x":7747660.5386066139,"y":4157378.1450461373}},{"attributes":{"OBJECTID":41,"ولایت":"کاپيسا","Province":"KAPISA","PC_Code":"0206078","ولسوالي":"تگاب ","District":"TAGAB","د_مرکز_نوم__نام_مرکز":"لیسه غازی عثمان","Polling_Center_Name":"Ghazi Usman High School","د_مرکز_ځای__موقعیت_مرکز":"مرکز ولسوالی ","Polling_Center_Location":"District Compound","Verification_Note":"Building","PS_Male":3,"PS_Female":0,"Map_Accuracy":"تعمیر"},"geometry":{"x":7752887.0610570349,"y":4144002.1392730474}},{"attributes":{"OBJECTID":42,"ولایت":"پروان","Province":"PARWAN","PC_Code":"0308143","ولسوالي":"کوه صافی","District":"KOHI SAFI","د_مرکز_نوم__نام_مرکز":"مکتب ملا احمد خیل","Polling_Center_Name":"Mula Ahmad Khel School","د_مرکز_ځای__موقعیت_مرکز":"ملا احمد خیل ","Polling_Center_Location":"Mula Ahmad Khel","Verification_Note":"Building","PS_Male":1,"PS_Female":1,"Map_Accuracy":"تعمیر"},"geometry":{"x":7724786.3113021813,"y":4144492.7471804172}},{"attributes":{"OBJECTID":43,"ولایت":"پروان","Province":"PARWAN","PC_Code":"0308144","ولسوالي":"کوه صافی","District":"KOHI SAFI","د_مرکز_نوم__نام_مرکز":"مکتب دندر","Polling_Center_Name":"Dandar School","د_مرکز_ځای__موقعیت_مرکز":"دندر ","Polling_Center_Location":"Dandar","Verification_Note":"Building","PS_Male":1,"PS_Female":1,"Map_Accuracy":"تعمیر"},"geometry":{"x":7732694.1930065006,"y":4136034.7657991648}},{"attributes":{"OBJECTID":44,"ولایت":"لغمان","Province":"LAGHMAN","PC_Code":"0703093","ولسوالي":"علیشنګ","District":"ALISHING","د_مرکز_نوم__نام_مرکز":"دکوټوال خنډودکلي جومات اوعامه برنډه","Polling_Center_Name":"Kotwal Khando Village Mosque","د_مرکز_ځای__موقعیت_مرکز":"عليشنګ","Polling_Center_Location":"Alishang","Verification_Note":"Village","PS_Male":2,"PS_Female":1,"Map_Accuracy":"قریه"},"geometry":{"x":7805113.6799617521,"y":4133986.1451648027}},{"attributes":{"OBJECTID":45,"ولایت":"کنړ ","Province":"KUNAR","PC_Code":"1513082","ولسوالي":"چپه دره","District":"CHAPA DARA","د_مرکز_نوم__نام_مرکز":"مکتب ابتدائیه","Polling_Center_Name":"Morchal Village Primary School","د_مرکز_ځای__موقعیت_مرکز":"مورچل","Polling_Center_Location":"Morchal Village","Verification_Note":"Village","PS_Male":3,"PS_Female":1,"Map_Accuracy":"قریه"},"geometry":{"x":7874368.7044501528,"y":4163527.2914442867}},{"attributes":{"OBJECTID":46,"ولایت":"کنړ ","Province":"KUNAR","PC_Code":"1514083","ولسوالي":"نور ګل","District":"NOOR GAL","د_مرکز_نوم__نام_مرکز":"لیسه ذکور","Polling_Center_Name":"Bar Noor Gul Boys High School","د_مرکز_ځای__موقعیت_مرکز":"برنورگل","Polling_Center_Location":"Bar Noor Gul","Verification_Note":"Building","PS_Male":1,"PS_Female":2,"Map_Accuracy":"تعمیر"},"geometry":{"x":7877190.7069751211,"y":4111559.0571341887}},{"attributes":{"OBJECTID":47,"ولایت":"بدخشان","Province":"BADAKHSHAN","PC_Code":"1702054","ولسوالي":"ارگو","District":"ARGO","د_مرکز_نوم__نام_مرکز":"مسجد گزان","Polling_Center_Name":"Gazan Mosque","د_مرکز_ځای__موقعیت_مرکز":"گزان","Polling_Center_Location":"Gazan ","Verification_Note":"Building","PS_Male":2,"PS_Female":1,"Map_Accuracy":"تعمیر"},"geometry":{"x":7862774.50897767,"y":4437188.9621573985}},{"attributes":{"OBJECTID":48,"ولایت":"بدخشان","Province":"BADAKHSHAN","PC_Code":"1702055","ولسوالي":"ارگو","District":"ARGO","د_مرکز_نوم__نام_مرکز":"مکتب باغ مبارک ","Polling_Center_Name":"Bagh Mubarak School","د_مرکز_ځای__موقعیت_مرکز":"باغ مبارک","Polling_Center_Location":"Bagh Mubarak","Verification_Note":"Building","PS_Male":2,"PS_Female":1,"Map_Accuracy":"تعمیر"},"geometry":{"x":7865245.3630744889,"y":4446815.6185567826}},{"attributes":{"OBJECTID":49,"ولایت":"غور","Province":"GHOR","PC_Code":"2308232","ولسوالي":"تیوره","District":"TAYWARA","د_مرکز_نوم__نام_مرکز":"مکتب سیب تلخ","Polling_Center_Name":"Seb Talkh School","د_مرکز_ځای__موقعیت_مرکز":" سیب تلخ","Polling_Center_Location":"Seb Talkh","Verification_Note":"Village","PS_Male":1,"PS_Female":1,"Map_Accuracy":"قریه"},"geometry":{"x":7149161.0735474527,"y":3974204.1634889394}},{"attributes":{"OBJECTID":50,"ولایت":"بادغيس","Province":"BADGHIS","PC_Code":"3104086","ولسوالي":"قادس","District":"QADIS","د_مرکز_نوم__نام_مرکز":"قولی زردک","Polling_Center_Name":"Qoole Zardak","د_مرکز_ځای__موقعیت_مرکز":"قولی زردک","Polling_Center_Location":"Qooli Zardak","Verification_Note":"District","PS_Male":1,"PS_Female":1,"Map_Accuracy":"ولسوالی"},"geometry":{"x":7072005.625760626,"y":4131555.8976054266}},{"attributes":{"OBJECTID":51,"ولایت":" فراه","Province":"FARAH","PC_Code":"3310172","ولسوالي":"گلستان","District":"GULISTAN","د_مرکز_نوم__نام_مرکز":"مکتب ابتایه ذکور قلعه کهنه ","Polling_Center_Name":"Qala Kohna Boys Primary School","د_مرکز_ځای__موقعیت_مرکز":"قلعه کهنه","Polling_Center_Location":"Qala-e-Kohna","Verification_Note":"Village","PS_Male":1,"PS_Female":1,"Map_Accuracy":"قریه"},"geometry":{"x":7088073.3886665441,"y":3844254.65666797}},{"attributes":{"OBJECTID":52,"ولایت":"نيمروز","Province":"NIMROZ","PC_Code":"3406057","ولسوالي":"دلارام","District":"DELARAM","د_مرکز_نوم__نام_مرکز":"دنگر آباد ","Polling_Center_Name":"Dangar Abad ","د_مرکز_ځای__موقعیت_مرکز":"دنگر آباد ","Polling_Center_Location":"Dangar Abad ","Verification_Note":"Village","PS_Male":1,"PS_Female":1,"Map_Accuracy":"قریه"},"geometry":{"x":7075246.0025542267,"y":3788736.3963576183}},{"attributes":{"OBJECTID":53,"ولایت":"پروان","Province":"PARWAN","PC_Code":"0306064","ولسوالي":"سالنگ ","District":"SALANG","د_مرکز_نوم__نام_مرکز":"لیسه تاخمه","Polling_Center_Name":"Takhma Mosque","د_مرکز_ځای__موقعیت_مرکز":"تاخمه بابه مردان صاحب","Polling_Center_Location":"Takhma ","Verification_Note":"Building","PS_Male":2,"PS_Female":1,"Map_Accuracy":"تعمیر"},"geometry":{"x":7705792.9857942872,"y":4187737.7942631915}},{"attributes":{"OBJECTID":54,"ولایت":"بادغيس","Province":"BADGHIS","PC_Code":"3104080","ولسوالي":"قادس","District":"QADIS","د_مرکز_نوم__نام_مرکز":"مسجد شورک","Polling_Center_Name":"Nawa Mullah Gadah Mosque","د_مرکز_ځای__موقعیت_مرکز":"شورک حاجی محمد شاه خان ","Polling_Center_Location":"Nawa Mullah Gadah ","Verification_Note":"Building","PS_Male":1,"PS_Female":1,"Map_Accuracy":"تعمیر"},"geometry":{"x":7109220.16367507,"y":4125260.4955194518}},{"attributes":{"OBJECTID":55,"ولایت":"پروان","Province":"PARWAN","PC_Code":"0309142","ولسوالي":"سرخ پارسا ","District":"SURKHI PARSA","د_مرکز_نوم__نام_مرکز":"لیسه نسوان حضرت زینب","Polling_Center_Name":"Ziarat-e-Shah Daleer Lolenj ","د_مرکز_ځای__موقعیت_مرکز":"دینگک سیل زاده","Polling_Center_Location":"Lolenj ","Verification_Note":"Building","PS_Male":1,"PS_Female":1,"Map_Accuracy":"تعمیر"},"geometry":{"x":7641645.23631401,"y":4152520.1626011878}},{"attributes":{"OBJECTID":56,"ولایت":"کابل","Province":"KABUL","PC_Code":"0101013","ولسوالي":"کابل - ناحیه 01","District":"KABUL-D01","د_مرکز_نوم__نام_مرکز":" تکيه خانه عمومي","Polling_Center_Name":"Takya Khana-e-Umomi","د_مرکز_ځای__موقعیت_مرکز":"چنداول","Polling_Center_Location":"Chendawol","Verification_Note":"Building","PS_Male":3,"PS_Female":2,"Map_Accuracy":"تعمیر"},"geometry":{"x":7700539.0348892622,"y":4097607.4234659225}},{"attributes":{"OBJECTID":57,"ولایت":"کابل","Province":"KABUL","PC_Code":"0101244","ولسوالي":"کابل - ناحیه 11","District":"KABUL-D11","د_مرکز_نوم__نام_مرکز":"مکتب متوسطه نمبر ١٦","Polling_Center_Name":"No.16th Secondary School","د_مرکز_ځای__موقعیت_مرکز":"قلعه نجارها","Polling_Center_Location":"Qala-e-Najarha","Verification_Note":"Building","PS_Male":4,"PS_Female":3,"Map_Accuracy":"تعمیر"},"geometry":{"x":7695858.3965050131,"y":4105530.7250656411}},{"attributes":{"OBJECTID":58,"ولایت":"کابل","Province":"KABUL","PC_Code":"0102417","ولسوالي":"پغمان","District":"PAGHMAN","د_مرکز_نوم__نام_مرکز":"مکتب متوسطه اوریاخیل","Polling_Center_Name":"Orya Khel Secondary School","د_مرکز_ځای__موقعیت_مرکز":"اوريا خيل","Polling_Center_Location":"Orya Khel","Verification_Note":"Building","PS_Male":1,"PS_Female":1,"Map_Accuracy":"تعمیر"},"geometry":{"x":7677076.8814865611,"y":4101919.0540125743}},{"attributes":{"OBJECTID":59,"ولایت":"کابل","Province":"KABUL","PC_Code":"0102418","ولسوالي":"پغمان","District":"PAGHMAN","د_مرکز_نوم__نام_مرکز":" ساحه کوچي ها","Polling_Center_Name":"Saha-e-Kuchiha","د_مرکز_ځای__موقعیت_مرکز":" چوک ارغندي","Polling_Center_Location":"Chawk Arghandi","Verification_Note":"Village","PS_Male":2,"PS_Female":1,"Map_Accuracy":"قریه"},"geometry":{"x":7675374.9133390374,"y":4093444.7561936975}},{"attributes":{"OBJECTID":60,"ولایت":"کابل","Province":"KABUL","PC_Code":"0103422","ولسوالي":"چهار آسیاب","District":"CHAHAR ASYAB","د_مرکز_نوم__نام_مرکز":" منزل ملک خواني","Polling_Center_Name":"Malik Khani House","د_مرکز_ځای__موقعیت_مرکز":"نونياز","Polling_Center_Location":"Nowniaz","Verification_Note":"Village","PS_Male":1,"PS_Female":1,"Map_Accuracy":"قریه"},"geometry":{"x":7694085.3976168148,"y":4076204.928668648}},{"attributes":{"OBJECTID":61,"ولایت":"کابل","Province":"KABUL","PC_Code":"0103423","ولسوالي":"چهار آسیاب","District":"CHAHAR ASYAB","د_مرکز_نوم__نام_مرکز":"لیسه ذکور چهارآسیاب","Polling_Center_Name":"Chahar Asyab Boys High School","د_مرکز_ځای__موقعیت_مرکز":"بالا قلعه","Polling_Center_Location":"Bala Qala","Verification_Note":"Building","PS_Male":2,"PS_Female":1,"Map_Accuracy":"تعمیر"},"geometry":{"x":7697206.3987280764,"y":4084919.5071659386}},{"attributes":{"OBJECTID":62,"ولایت":"کابل","Province":"KABUL","PC_Code":"0104459","ولسوالي":"بگرامی","District":"BAGRAMI","د_مرکز_نوم__نام_مرکز":" مکتب متوسطه شهید محمد عارف ظریف","Polling_Center_Name":"Shaheed Mohammad Arif Zarif Secondary School","د_مرکز_ځای__موقعیت_مرکز":"ولايتي","Polling_Center_Location":"Valayati","Verification_Note":"Building","PS_Male":2,"PS_Female":2,"Map_Accuracy":"تعمیر"},"geometry":{"x":7703384.9123280533,"y":4092101.7021928057}},{"attributes":{"OBJECTID":63,"ولایت":"کابل","Province":"KABUL","PC_Code":"0104460","ولسوالي":"بگرامی","District":"BAGRAMI","د_مرکز_نوم__نام_مرکز":"مکتب ابتدائيه کاريز بکر","Polling_Center_Name":"Kariz Bakr Primary School","د_مرکز_ځای__موقعیت_مرکز":"قريه کاريز بکر","Polling_Center_Location":"Karez Bakr Village","Verification_Note":"Building","PS_Male":2,"PS_Female":1,"Map_Accuracy":"تعمیر"},"geometry":{"x":7715924.9714800417,"y":4091749.932728067}},{"attributes":{"OBJECTID":64,"ولایت":"کابل","Province":"KABUL","PC_Code":"0105472","ولسوالي":"ده سبز","District":"DEHSABZ","د_مرکز_نوم__نام_مرکز":" لیسه نسوان ده سبز خاص","Polling_Center_Name":"Deh Sabz-e-Khas Girls High School","د_مرکز_ځای__موقعیت_مرکز":"ده سبز خاص","Polling_Center_Location":"Deh Sabz Khas","Verification_Note":"Building","PS_Male":1,"PS_Female":1,"Map_Accuracy":"تعمیر"},"geometry":{"x":7724965.0988646746,"y":4115891.0334173143}},{"attributes":{"OBJECTID":65,"ولایت":"کابل","Province":"KABUL","PC_Code":"0105474","ولسوالي":"ده سبز","District":"DEHSABZ","د_مرکز_نوم__نام_مرکز":" مسجد شریف حاجی احمد شاه ","Polling_Center_Name":"Haji Ahmad Shah Mosque","د_مرکز_ځای__موقعیت_مرکز":"قلعه زرین","Polling_Center_Location":"Qala-e-Zarin","Verification_Note":"Building","PS_Male":2,"PS_Female":2,"Map_Accuracy":"تعمیر"},"geometry":{"x":7710253.4816478454,"y":4110786.7276699618}},{"attributes":{"OBJECTID":66,"ولایت":"کابل","Province":"KABUL","PC_Code":"0106394","ولسوالي":"شکردره","District":"SHAKAR DARA","د_مرکز_نوم__نام_مرکز":" ليسه دره شکردره","Polling_Center_Name":"Dara-e-Shakar Dara High School","د_مرکز_ځای__موقعیت_مرکز":"قلعه وزير","Polling_Center_Location":"Qala-e-Wazir","Verification_Note":"Building","PS_Male":4,"PS_Female":3,"Map_Accuracy":"تعمیر"},"geometry":{"x":7684878.69130088,"y":4121216.8446168453}},{"attributes":{"OBJECTID":67,"ولایت":"کابل","Province":"KABUL","PC_Code":"0106395","ولسوالي":"شکردره","District":"SHAKAR DARA","د_مرکز_نوم__نام_مرکز":" ليسه قلعه مراد بيک","Polling_Center_Name":"Qala-e-Murad Big High School","د_مرکز_ځای__موقعیت_مرکز":"قلعه مراد بيک","Polling_Center_Location":"Qala-e-Murad Big","Verification_Note":"Building","PS_Male":3,"PS_Female":3,"Map_Accuracy":"تعمیر"},"geometry":{"x":7689440.0397187881,"y":4118774.9276815653}},{"attributes":{"OBJECTID":68,"ولایت":"کابل","Province":"KABUL","PC_Code":"0114366","ولسوالي":"قره باغ","District":"QARA BAGH","د_مرکز_نوم__نام_مرکز":"مکتب متوسطه عبدالرحمان بابا","Polling_Center_Name":"Abdul Rahman Ba Ba Secondary School","د_مرکز_ځای__موقعیت_مرکز":"دینار خیل","Polling_Center_Location":"Denar Khel","Verification_Note":"Building","PS_Male":2,"PS_Female":2,"Map_Accuracy":"تعمیر"},"geometry":{"x":7701604.421415478,"y":4145670.8496175259}},{"attributes":{"OBJECTID":69,"ولایت":"کابل","Province":"KABUL","PC_Code":"0114367","ولسوالي":"قره باغ","District":"QARA BAGH","د_مرکز_نوم__نام_مرکز":"ليسه عبدالوکيل شهيد","Polling_Center_Name":"Abdul Wakil Shaheed High School","د_مرکز_ځای__موقعیت_مرکز":"مرکز ولسوالی ","Polling_Center_Location":"District Capital","Verification_Note":"Building","PS_Male":3,"PS_Female":2,"Map_Accuracy":"تعمیر"},"geometry":{"x":7698545.3005827516,"y":4142695.6560306028}},{"attributes":{"OBJECTID":70,"ولایت":"کابل","Province":"KABUL","PC_Code":"0115479","ولسوالي":"سروبی","District":"SURUBI","د_مرکز_نوم__نام_مرکز":"مسجد یاردل اوریاخیل","Polling_Center_Name":"Yar Del Orya Khel Mosque","د_مرکز_ځای__موقعیت_مرکز":"لوي کلي","Polling_Center_Location":"Loy Kalai","Verification_Note":"Building","PS_Male":2,"PS_Female":1,"Map_Accuracy":"تعمیر"},"geometry":{"x":7761183.8496475816,"y":4105420.8808202222}},{"attributes":{"OBJECTID":71,"ولایت":"کابل","Province":"KABUL","PC_Code":"0115480","ولسوالي":"سروبی","District":"SURUBI","د_مرکز_نوم__نام_مرکز":"مکتب ابتدائيه تيزين خاص","Polling_Center_Name":"Tezen-e-Khas Primary School","د_مرکز_ځای__موقعیت_مرکز":"لوي کلي","Polling_Center_Location":"Loy Kalai","Verification_Note":"Building","PS_Male":2,"PS_Female":1,"Map_Accuracy":"تعمیر"},"geometry":{"x":7745589.1333518066,"y":4077897.1761633381}},{"attributes":{"OBJECTID":72,"ولایت":"کابل","Province":"KABUL","PC_Code":"0115517","ولسوالي":"سروبی","District":"SURUBI","د_مرکز_نوم__نام_مرکز":" مکتب گوگا مندا","Polling_Center_Name":"Guga Manda School","د_مرکز_ځای__موقعیت_مرکز":"گوگا مندا","Polling_Center_Location":"Guga Manda","Verification_Note":"Building","PS_Male":1,"PS_Female":1,"Map_Accuracy":"تعمیر"},"geometry":{"x":7747367.0815045722,"y":4106648.2886813581}},{"attributes":{"OBJECTID":73,"ولایت":"کابل","Province":"KABUL","PC_Code":"0115518","ولسوالي":"سروبی","District":"SURUBI","د_مرکز_نوم__نام_مرکز":" مکتب سپیر کوندی","Polling_Center_Name":"Sperkundi School","د_مرکز_ځای__موقعیت_مرکز":"سپیر کوندی","Polling_Center_Location":"Sper Kundi","Verification_Note":"Building","PS_Male":1,"PS_Female":1,"Map_Accuracy":"تعمیر"},"geometry":{"x":7774135.1009573042,"y":4118095.5857684538}},{"attributes":{"OBJECTID":74,"ولایت":"ننگرهار","Province":"NANGARHAR","PC_Code":"0603084","ولسوالي":"سرخرود","District":"SURKH RUD","د_مرکز_نوم__نام_مرکز":" کلینيک بختان","Polling_Center_Name":"Bakhtaan Clinic","د_مرکز_ځای__موقعیت_مرکز":"دوسرکه","Polling_Center_Location":"Du Saraka","Verification_Note":"Village","PS_Male":0,"PS_Female":2,"Map_Accuracy":"قریه"},"geometry":{"x":7837221.3892592378,"y":4087037.398158282}},{"attributes":{"OBJECTID":75,"ولایت":"ننگرهار","Province":"NANGARHAR","PC_Code":"0603085","ولسوالي":"سرخرود","District":"SURKH RUD","د_مرکز_نوم__نام_مرکز":"فتح آباد کلینيک","Polling_Center_Name":"Fateh Abad Clinic","د_مرکز_ځای__موقعیت_مرکز":"فتح آباد","Polling_Center_Location":"Fateh Abad","Verification_Note":"Building","PS_Male":3,"PS_Female":0,"Map_Accuracy":"تعمیر"},"geometry":{"x":7817199.1383658648,"y":4076782.2076266706}},{"attributes":{"OBJECTID":76,"ولایت":"باميان","Province":"BAMYAN","PC_Code":"1007150","ولسوالي":"ورس","District":"WARAS","د_مرکز_نوم__نام_مرکز":"مسجد تخته ها","Polling_Center_Name":"Takhta ha Mosque","د_مرکز_ځای__موقعیت_مرکز":"تخته ها","Polling_Center_Location":"Takhta ha","Verification_Note":"Building","PS_Male":1,"PS_Female":1,"Map_Accuracy":"تعمیر"},"geometry":{"x":7450151.9158273153,"y":4039692.621359989}},{"attributes":{"OBJECTID":77,"ولایت":"باميان","Province":"BAMYAN","PC_Code":"1007151","ولسوالي":"ورس","District":"WARAS","د_مرکز_نوم__نام_مرکز":"مسجد واز درغان","Polling_Center_Name":"Waaz Darghan Mosque","د_مرکز_ځای__موقعیت_مرکز":"واز درغان","Polling_Center_Location":"Waaz Darghan","Verification_Note":"Building","PS_Male":1,"PS_Female":1,"Map_Accuracy":"تعمیر"},"geometry":{"x":7455245.5662203245,"y":4033055.7577010319}},{"attributes":{"OBJECTID":78,"ولایت":"باميان","Province":"BAMYAN","PC_Code":"1007159","ولسوالي":"ورس","District":"WARAS","د_مرکز_نوم__نام_مرکز":"مسجد توپ اسمعیل","Polling_Center_Name":"Toop-e-Ismael Mosque","د_مرکز_ځای__موقعیت_مرکز":"نس پتان","Polling_Center_Location":"Nas Patan","Verification_Note":"Building","PS_Male":2,"PS_Female":1,"Map_Accuracy":"تعمیر"},"geometry":{"x":7454865.27546268,"y":4044644.8831623122}},{"attributes":{"OBJECTID":79,"ولایت":"پکتيکا","Province":"PAKTIKA","PC_Code":"1205081","ولسوالي":"سروضه ","District":"SAR RAWZA","د_مرکز_نوم__نام_مرکز":"ستر جومات","Polling_Center_Name":"Big Mosque","د_مرکز_ځای__موقعیت_مرکز":"شاه طوری","Polling_Center_Location":"Shah Tori","Verification_Note":"Village","PS_Male":2,"PS_Female":0,"Map_Accuracy":"قریه"},"geometry":{"x":7689256.96702382,"y":3891446.6926493794}},{"attributes":{"OBJECTID":80,"ولایت":"پکتيکا","Province":"PAKTIKA","PC_Code":"1205082","ولسوالي":"سروضه ","District":"SAR RAWZA","د_مرکز_نوم__نام_مرکز":"محمد حیات میلمستون","Polling_Center_Name":"Mohammad Hayat Guest House","د_مرکز_ځای__موقعیت_مرکز":"شاه طوری","Polling_Center_Location":"Shah Tori","Verification_Note":"Village","PS_Male":0,"PS_Female":2,"Map_Accuracy":"قریه"},"geometry":{"x":7689367.83678386,"y":3891506.8449707851}},{"attributes":{"OBJECTID":81,"ولایت":"پکتيکا","Province":"PAKTIKA","PC_Code":"1208126","ولسوالي":"گومل","District":"GOMAL","د_مرکز_نوم__نام_مرکز":"مولوی سراج الدین مدرسه ","Polling_Center_Name":"Mawlavi Serajuddin Madressa","د_مرکز_ځای__موقعیت_مرکز":"پایندی کلی ","Polling_Center_Location":"Payandi Village","Verification_Note":"Building","PS_Male":3,"PS_Female":1,"Map_Accuracy":"تعمیر"},"geometry":{"x":7681784.2632652633,"y":3787571.7174797654}},{"attributes":{"OBJECTID":82,"ولایت":"پکتيکا","Province":"PAKTIKA","PC_Code":"1208127","ولسوالي":"گومل","District":"GOMAL","د_مرکز_نوم__نام_مرکز":"بازار جومات شکین ","Polling_Center_Name":"Shekin Bazaar Mosque","د_مرکز_ځای__موقعیت_مرکز":"شکین ","Polling_Center_Location":"Shekin","Verification_Note":"Village","PS_Male":2,"PS_Female":0,"Map_Accuracy":"قریه"},"geometry":{"x":7664539.3423851989,"y":3822167.8275823668}},{"attributes":{"OBJECTID":83,"ولایت":"پکتيا","Province":"PAKTYA","PC_Code":"1308207","ولسوالي":" لجه احمد خیل","District":"LAJA AHMAD KHEL","د_مرکز_نوم__نام_مرکز":"دموتي مكتب","Polling_Center_Name":"Moti School","د_مرکز_ځای__موقعیت_مرکز":"موتی کلی، سکندرخیل، احمدخیل","Polling_Center_Location":"Moti Village, Sakander Khel","Verification_Note":"Village","PS_Male":1,"PS_Female":1,"Map_Accuracy":"قریه"},"geometry":{"x":7756482.6060255952,"y":4013475.3210636154}},{"attributes":{"OBJECTID":84,"ولایت":"پکتيا","Province":"PAKTYA","PC_Code":"1309170","ولسوالي":"جانی خیل","District":"JANI KHEL","د_مرکز_نوم__نام_مرکز":"مسجد کوټکی","Polling_Center_Name":"Kotkai Mosque","د_مرکز_ځای__موقعیت_مرکز":"کوټکی، سترکلی","Polling_Center_Location":"Kotkai, Setar Kalai","Verification_Note":"Village","PS_Male":2,"PS_Female":0,"Map_Accuracy":"قریه"},"geometry":{"x":7768410.8167434,"y":3984130.2409280837}},{"attributes":{"OBJECTID":85,"ولایت":"خوست","Province":"KHOST","PC_Code":"1401003","ولسوالي":"خوست","District":"KHOST","د_مرکز_نوم__نام_مرکز":"د عمر کلي درمند","Polling_Center_Name":"Omer Village Dermand","د_مرکز_ځای__موقعیت_مرکز":"د عمر کلي ","Polling_Center_Location":"Omar Village","Verification_Note":"Village","PS_Male":3,"PS_Female":1,"Map_Accuracy":"قریه"},"geometry":{"x":7785996.2906624787,"y":3938675.3633255064}},{"attributes":{"OBJECTID":86,"ولایت":"خوست","Province":"KHOST","PC_Code":"1401004","ولسوالي":"خوست","District":"KHOST","د_مرکز_نوم__نام_مرکز":"د محمد والي شاه هجره ","Polling_Center_Name":"Mohammad Vally Shah Hojra","د_مرکز_ځای__موقعیت_مرکز":"شمل عمر کلى","Polling_Center_Location":"Shamal Omar Village","Verification_Note":"Village","PS_Male":1,"PS_Female":1,"Map_Accuracy":"قریه"},"geometry":{"x":7786140.6787212081,"y":3938875.2802197635}},{"attributes":{"OBJECTID":87,"ولایت":"کندز","Province":"KUNDUZ","PC_Code":"1902115","ولسوالي":"چاردره","District":"CHAR DARA","د_مرکز_نوم__نام_مرکز":"مسجد سالارزی","Polling_Center_Name":"Salarzai Mosque","د_مرکز_ځای__موقعیت_مرکز":"ناقل سالارزی","Polling_Center_Location":"Naqil Salarzai","Verification_Note":"Building","PS_Male":2,"PS_Female":1,"Map_Accuracy":"تعمیر"},"geometry":{"x":7664344.6795501225,"y":4388042.0873182043}},{"attributes":{"OBJECTID":88,"ولایت":"کندز","Province":"KUNDUZ","PC_Code":"1905093","ولسوالي":"حضرت امام صاحب","District":"HAZRAT-E-IMAM SAHIB","د_مرکز_نوم__نام_مرکز":"سر چوک امام صاحب","Polling_Center_Name":"Nomania Secondary school","د_مرکز_ځای__موقعیت_مرکز":"مرکز شهر امام صاحب","Polling_Center_Location":"Imam Sahib City","Verification_Note":"Building","PS_Male":3,"PS_Female":1,"Map_Accuracy":"تعمیر"},"geometry":{"x":7669715.7810835019,"y":4466261.5165387318}},{"attributes":{"OBJECTID":89,"ولایت":"کندز","Province":"KUNDUZ","PC_Code":"1905094","ولسوالي":"حضرت امام صاحب","District":"HAZRAT-E-IMAM SAHIB","د_مرکز_نوم__نام_مرکز":"مکتب اورتبلاقی","Polling_Center_Name":"Ortablaqi School","د_مرکز_ځای__موقعیت_مرکز":"قریه اوته بلاقی ها","Polling_Center_Location":"Ota Blaqiha Village","Verification_Note":"Building","PS_Male":2,"PS_Female":1,"Map_Accuracy":"تعمیر"},"geometry":{"x":7670571.2713702582,"y":4460803.1705368534}},{"attributes":{"OBJECTID":90,"ولایت":"سمنگان","Province":"SAMANGAN","PC_Code":"2005072","ولسوالي":"روی دوآب","District":"ROI-DO-AB","د_مرکز_نوم__نام_مرکز":"مدرسه آبخورک ","Polling_Center_Name":"Aabkhorak Madrassa","د_مرکز_ځای__موقعیت_مرکز":"قریه آب خورک","Polling_Center_Location":"Aabkhorak Village","Verification_Note":"Building","PS_Male":3,"PS_Female":1,"Map_Accuracy":"تعمیر"},"geometry":{"x":7543314.1189863347,"y":4232581.7650341392}},{"attributes":{"OBJECTID":91,"ولایت":"سمنگان","Province":"SAMANGAN","PC_Code":"2005073","ولسوالي":"روی دوآب","District":"ROI-DO-AB","د_مرکز_نوم__نام_مرکز":"مدرسه دو آب","Polling_Center_Name":"Do Aab Madrassa","د_مرکز_ځای__موقعیت_مرکز":"مرکز ولسوالی","Polling_Center_Location":"District Compound","Verification_Note":"Building","PS_Male":2,"PS_Female":1,"Map_Accuracy":"تعمیر"},"geometry":{"x":7549614.2088323459,"y":4240918.9989837259}},{"attributes":{"OBJECTID":92,"ولایت":"جوزجان","Province":"JAWZJAN","PC_Code":"2804069","ولسوالي":"منگجیک","District":"MINGAJIK","د_مرکز_نوم__نام_مرکز":"لیسه چارچنغو","Polling_Center_Name":"Chaar Changhoo High School","د_مرکز_ځای__موقعیت_مرکز":"چارچنغو","Polling_Center_Location":"Chaar Changhoo","Verification_Note":"Building","PS_Male":2,"PS_Female":2,"Map_Accuracy":"تعمیر"},"geometry":{"x":7356444.1614473946,"y":4439920.7792606652}},{"attributes":{"OBJECTID":93,"ولایت":"جوزجان","Province":"JAWZJAN","PC_Code":"2804070","ولسوالي":"منگجیک","District":"MINGAJIK","د_مرکز_نوم__نام_مرکز":"مکتب منگجیک","Polling_Center_Name":"Mangjeek School","د_مرکز_ځای__موقعیت_مرکز":"منگجیک","Polling_Center_Location":"Mangjeek","Verification_Note":"Building","PS_Male":2,"PS_Female":2,"Map_Accuracy":"تعمیر"},"geometry":{"x":7362346.6414493844,"y":4441062.2467422411}},{"attributes":{"OBJECTID":94,"ولایت":"جوزجان","Province":"JAWZJAN","PC_Code":"2806086","ولسوالي":"خم آب","District":"KHAMYAB","د_مرکز_نوم__نام_مرکز":"مکتب قرنس","Polling_Center_Name":"Qarnas School","د_مرکز_ځای__موقعیت_مرکز":"قرنس","Polling_Center_Location":"Qarnas","Verification_Note":"Building","PS_Male":2,"PS_Female":1,"Map_Accuracy":"تعمیر"},"geometry":{"x":7315577.7488982789,"y":4513482.4995094091}},{"attributes":{"OBJECTID":95,"ولایت":"جوزجان","Province":"JAWZJAN","PC_Code":"2806087","ولسوالي":"خم آب","District":"KHAMYAB","د_مرکز_نوم__نام_مرکز":"مکتب چوپلی تپه","Polling_Center_Name":"Chopli Tapa","د_مرکز_ځای__موقعیت_مرکز":"چوپلی","Polling_Center_Location":"Chopli","Verification_Note":"Building","PS_Male":1,"PS_Female":1,"Map_Accuracy":"تعمیر"},"geometry":{"x":7325071.6817643531,"y":4508356.1271434426}},{"attributes":{"OBJECTID":96,"ولایت":"فارياب","Province":"FARYAB","PC_Code":"2907110","ولسوالي":"قیصار ","District":"QAISAR","د_مرکز_نوم__نام_مرکز":"مکت ابتدائیه زوری ها ","Polling_Center_Name":"Zori Ha Primary School","د_مرکز_ځای__موقعیت_مرکز":"زوری ها ","Polling_Center_Location":"Zori Ha","Verification_Note":"Building","PS_Male":2,"PS_Female":1,"Map_Accuracy":"تعمیر"},"geometry":{"x":7141883.3625749573,"y":4262167.3206602782}},{"attributes":{"OBJECTID":97,"ولایت":"فارياب","Province":"FARYAB","PC_Code":"2909158","ولسوالي":"دولت آباد","District":"DAWLAT ABAD","د_مرکز_نوم__نام_مرکز":"لیسه نسوان قوزی بای قلعه","Polling_Center_Name":"Qozi Bay Qala Girls High School","د_مرکز_ځای__موقعیت_مرکز":"قوزی بای قلعه","Polling_Center_Location":"Bay Qala Qozi ","Verification_Note":"Building","PS_Male":2,"PS_Female":2,"Map_Accuracy":"تعمیر"},"geometry":{"x":7222935.1472736523,"y":4358564.386809431}},{"attributes":{"OBJECTID":98,"ولایت":"فارياب","Province":"FARYAB","PC_Code":"2909159","ولسوالي":"دولت آباد","District":"DAWLAT ABAD","د_مرکز_نوم__نام_مرکز":"مکتب جر قلعه","Polling_Center_Name":"Jar Qala School","د_مرکز_ځای__موقعیت_مرکز":"کوک چه قلعه","Polling_Center_Location":"Kokcha Qala","Verification_Note":"Building","PS_Male":2,"PS_Female":2,"Map_Accuracy":"تعمیر"},"geometry":{"x":7224965.602540575,"y":4350962.5452258661}},{"attributes":{"OBJECTID":99,"ولایت":"هرات","Province":"HERAT","PC_Code":"3202078","ولسوالي":"انجیل","District":"ENJIL","د_مرکز_نوم__نام_مرکز":"مكتب متوسطه شهدا ","Polling_Center_Name":"Shohada Secondary School ","د_مرکز_ځای__موقعیت_مرکز":"قریه سر حسن خواجه","Polling_Center_Location":"Sar Hasan Khwaja Village ","Verification_Note":"Building","PS_Male":2,"PS_Female":0,"Map_Accuracy":"تعمیر"},"geometry":{"x":6946000.1063165814,"y":4066408.2816074714}},{"attributes":{"OBJECTID":100,"ولایت":"هرات","Province":"HERAT","PC_Code":"3206128","ولسوالي":"پشتون زرغون","District":"PASHTUN ZARGHUN","د_مرکز_نوم__نام_مرکز":"مکتب شاه آباد","Polling_Center_Name":"Shah Abad School ","د_مرکز_ځای__موقعیت_مرکز":"قریه شاه آباد ","Polling_Center_Location":"Shad Abad Village ","Verification_Note":"Building","PS_Male":3,"PS_Female":2,"Map_Accuracy":"تعمیر"},"geometry":{"x":6971641.3899585232,"y":4059028.8441838846}},{"attributes":{"OBJECTID":101,"ولایت":"هرات","Province":"HERAT","PC_Code":"3206129","ولسوالي":"پشتون زرغون","District":"PASHTUN ZARGHUN","د_مرکز_نوم__نام_مرکز":"لیسه گل میر ","Polling_Center_Name":"Gul Meer High School ","د_مرکز_ځای__موقعیت_مرکز":"قریه گل میر ","Polling_Center_Location":"Gul Meer Village ","Verification_Note":"Village","PS_Male":2,"PS_Female":1,"Map_Accuracy":"قریه"},"geometry":{"x":6967714.011606656,"y":4058113.7084555551}},{"attributes":{"OBJECTID":102,"ولایت":"هرات","Province":"HERAT","PC_Code":"3207180","ولسوالي":"کشک (رباط سنگی)","District":"KUSHK (RUBAT-E-SANGI)","د_مرکز_نوم__نام_مرکز":"مكتب خواجه سبز پوش","Polling_Center_Name":"Khwaja Sabz Posh School","د_مرکز_ځای__موقعیت_مرکز":"خواجه سبز پوش","Polling_Center_Location":"Khwaja Sabz Posh ","Verification_Note":"Building","PS_Male":2,"PS_Female":1,"Map_Accuracy":"تعمیر"},"geometry":{"x":6903935.956159059,"y":4160703.9769403189}},{"attributes":{"OBJECTID":103,"ولایت":" فراه","Province":"FARAH","PC_Code":"3309097","ولسوالي":"لاش جوین ","District":"LASH-E-JUWAYN","د_مرکز_نوم__نام_مرکز":"مکتب متوسطه درق","Polling_Center_Name":"Daraq Secondary School","د_مرکز_ځای__موقعیت_مرکز":" درق","Polling_Center_Location":"Daraq ","Verification_Note":"Building","PS_Male":2,"PS_Female":2,"Map_Accuracy":"تعمیر"},"geometry":{"x":6846729.9785825238,"y":3714546.00401745}},{"attributes":{"OBJECTID":104,"ولایت":" فراه","Province":"FARAH","PC_Code":"3309098","ولسوالي":"لاش جوین ","District":"LASH-E-JUWAYN","د_مرکز_نوم__نام_مرکز":" مسجد ده شیخ","Polling_Center_Name":"Deh Shaikh Mosque","د_مرکز_ځای__موقعیت_مرکز":"ده شیخ","Polling_Center_Location":"Deh Shaikh ","Verification_Note":"Building","PS_Male":1,"PS_Female":1,"Map_Accuracy":"تعمیر"},"geometry":{"x":6846811.1605475731,"y":3697915.8496128246}},{"attributes":{"OBJECTID":105,"ولایت":"پروان","Province":"PARWAN","PC_Code":"0309140","ولسوالي":"سرخ پارسا ","District":"SURKHI PARSA","د_مرکز_نوم__نام_مرکز":"مکتب قطندر","Polling_Center_Name":"Qatandar School ","د_مرکز_ځای__موقعیت_مرکز":"دهن باریک ","Polling_Center_Location":"Dahan-e-barik ","Verification_Note":"Building","PS_Male":1,"PS_Female":1,"Map_Accuracy":"تعمیر"},"geometry":{"x":7652213.5062386394,"y":4126887.0190324113}},{"attributes":{"OBJECTID":106,"ولایت":"بدخشان","Province":"BADAKHSHAN","PC_Code":"1728212","ولسوالي":"واخان","District":"WAKHAN","د_مرکز_نوم__نام_مرکز":"سرحد پامیر_لیسه پتوخ","Polling_Center_Name":"Sarhad Pamir_Patokh High School","د_مرکز_ځای__موقعیت_مرکز":"پتوخ","Polling_Center_Location":"Patokh","Verification_Note":"Building","PS_Male":1,"PS_Female":1,"Map_Accuracy":"تعمیر"},"geometry":{"x":8171651.5701889358,"y":4440486.7703970075}},{"attributes":{"OBJECTID":107,"ولایت":"کابل","Province":"KABUL","PC_Code":"0101038","ولسوالي":"کابل - ناحیه 03","District":"KABUL-D03","د_مرکز_نوم__نام_مرکز":"مکتب تربيه معلم سيد جمال الدين","Polling_Center_Name":"Sayed Jamalluddin Teacher Training School","د_مرکز_ځای__موقعیت_مرکز":"سراي غزني","Polling_Center_Location":"Sarai Ghazni","Verification_Note":"Building","PS_Male":3,"PS_Female":2,"Map_Accuracy":"تعمیر"},"geometry":{"x":7695743.44911202,"y":4097607.4707486182}},{"attributes":{"OBJECTID":108,"ولایت":"کابل","Province":"KABUL","PC_Code":"0101039","ولسوالي":"کابل - ناحیه 03","District":"KABUL-D03","د_مرکز_نوم__نام_مرکز":"مکتب امير دوست محمد خان","Polling_Center_Name":"Amir Dust Mohammad Khan School","د_مرکز_ځای__موقعیت_مرکز":"دهمزنگ","Polling_Center_Location":"Dehmazang","Verification_Note":"Building","PS_Male":3,"PS_Female":2,"Map_Accuracy":"تعمیر"},"geometry":{"x":7698605.6301807947,"y":4097557.6713781506}},{"attributes":{"OBJECTID":109,"ولایت":"کابل","Province":"KABUL","PC_Code":"0101093","ولسوالي":"کابل - ناحیه 05","District":"KABUL-D05","د_مرکز_نوم__نام_مرکز":" مسجد وردکيها","Polling_Center_Name":"Mohammad Qayam Khan Primary School","د_مرکز_ځای__موقعیت_مرکز":"سراي هراتي ها","Polling_Center_Location":"Sarai Heratiha","Verification_Note":"Building","PS_Male":2,"PS_Female":1,"Map_Accuracy":"تعمیر"},"geometry":{"x":7693021.7265239432,"y":4098100.8399605006}},{"attributes":{"OBJECTID":110,"ولایت":"کابل","Province":"KABUL","PC_Code":"0101430","ولسوالي":"کابل - ناحیه 08","District":"KABUL-D08","د_مرکز_نوم__نام_مرکز":"مسجد نعمان بن ثابت","Polling_Center_Name":"Noman Ibne Sabit Mosque","د_مرکز_ځای__موقعیت_مرکز":"ناحیه هشتم ","Polling_Center_Location":"Nahia 9","Verification_Note":"Building","PS_Male":4,"PS_Female":5,"Map_Accuracy":"تعمیر"},"geometry":{"x":7702483.6160745919,"y":4094969.3746221587}},{"attributes":{"OBJECTID":111,"ولایت":"کابل","Province":"KABUL","PC_Code":"0101491","ولسوالي":"کابل - ناحیه 08","District":"KABUL-D08","د_مرکز_نوم__نام_مرکز":" مسجد ابوبکر صدیق","Polling_Center_Name":"Abu Baker Sediq Mosque","د_مرکز_ځای__موقعیت_مرکز":"قریه جدید آباد","Polling_Center_Location":"Jadid Abad Village","Verification_Note":"Building","PS_Male":2,"PS_Female":1,"Map_Accuracy":"تعمیر"},"geometry":{"x":7704978.5552564375,"y":4096251.6037126631}},{"attributes":{"OBJECTID":112,"ولایت":"کابل","Province":"KABUL","PC_Code":"0108337","ولسوالي":"میر بچه کوت","District":"MIR BACHA KOT","د_مرکز_نوم__نام_مرکز":" مکتب مير حميدالله","Polling_Center_Name":"Mir Hameedullah School","د_مرکز_ځای__موقعیت_مرکز":"قریه گذر","Polling_Center_Location":"Guzar Village","Verification_Note":"Building","PS_Male":2,"PS_Female":2,"Map_Accuracy":"تعمیر"},"geometry":{"x":7692993.0472835265,"y":4124843.0165375248}},{"attributes":{"OBJECTID":113,"ولایت":"کابل","Province":"KABUL","PC_Code":"0108338","ولسوالي":"میر بچه کوت","District":"MIR BACHA KOT","د_مرکز_نوم__نام_مرکز":" مکتب پل صوفيان","Polling_Center_Name":"Pul-e-Sofian School","د_مرکز_ځای__موقعیت_مرکز":" صوفيان","Polling_Center_Location":"Sofian","Verification_Note":"Building","PS_Male":2,"PS_Female":1,"Map_Accuracy":"تعمیر"},"geometry":{"x":7691464.2362699807,"y":4122914.6599211022}},{"attributes":{"OBJECTID":114,"ولایت":"ننگرهار","Province":"NANGARHAR","PC_Code":"0602050","ولسوالي":"بهسود","District":"BEHSUD","د_مرکز_نوم__نام_مرکز":"شهید آغا جومات","Polling_Center_Name":"Shahid Agha Mosque","د_مرکز_ځای__موقعیت_مرکز":"جمالي","Polling_Center_Location":"Jamaly","Verification_Note":"Building","PS_Male":4,"PS_Female":0,"Map_Accuracy":"تعمیر"},"geometry":{"x":7848674.4416361563,"y":4090032.261080116}},{"attributes":{"OBJECTID":115,"ولایت":"ننگرهار","Province":"NANGARHAR","PC_Code":"0602051","ولسوالي":"بهسود","District":"BEHSUD","د_مرکز_نوم__نام_مرکز":"قلعه ملخ مکتب","Polling_Center_Name":"Malakh Village School","د_مرکز_ځای__موقعیت_مرکز":"جمالي","Polling_Center_Location":"Jamaly","Verification_Note":"Building","PS_Male":0,"PS_Female":3,"Map_Accuracy":"تعمیر"},"geometry":{"x":7849044.2861727811,"y":4092162.0336686373}},{"attributes":{"OBJECTID":116,"ولایت":"ننگرهار","Province":"NANGARHAR","PC_Code":"0616426","ولسوالي":"شینوار","District":"SHINWAR","د_مرکز_نوم__نام_مرکز":"هسپتال جومات","Polling_Center_Name":"Hospital Mosque","د_مرکز_ځای__موقعیت_مرکز":"٢٦ وياله","Polling_Center_Location":"26 Viyala","Verification_Note":"Village","PS_Male":0,"PS_Female":3,"Map_Accuracy":"قریه"},"geometry":{"x":7883144.4162067771,"y":4058353.2668948546}},{"attributes":{"OBJECTID":117,"ولایت":"ننگرهار","Province":"NANGARHAR","PC_Code":"0616428","ولسوالي":"شینوار","District":"SHINWAR","د_مرکز_نوم__نام_مرکز":"ډاګه مکتب","Polling_Center_Name":"Daaga School","د_مرکز_ځای__موقعیت_مرکز":"غني خيل","Polling_Center_Location":"Ghani Khel","Verification_Note":"Building","PS_Male":3,"PS_Female":2,"Map_Accuracy":"تعمیر"},"geometry":{"x":7882674.1452368088,"y":4054647.5113048628}},{"attributes":{"OBJECTID":118,"ولایت":"ننگرهار","Province":"NANGARHAR","PC_Code":"0617472","ولسوالي":"مهمند دره","District":"MUHMAND DARA","د_مرکز_نوم__نام_مرکز":"ګردي غوث لیسه, ګردي غوث","Polling_Center_Name":"Gardee Ghows High  School","د_مرکز_ځای__موقعیت_مرکز":"ګردي غوث","Polling_Center_Location":"Garde Ghows ","Verification_Note":"Building","PS_Male":2,"PS_Female":2,"Map_Accuracy":"تعمیر"},"geometry":{"x":7900211.53425657,"y":4060405.7526725382}},{"attributes":{"OBJECTID":119,"ولایت":"ننگرهار","Province":"NANGARHAR","PC_Code":"0617474","ولسوالي":"مهمند دره","District":"MUHMAND DARA","د_مرکز_نوم__نام_مرکز":"ايمل خان ليسه","Polling_Center_Name":"Aimal Khan High School","د_مرکز_ځای__موقعیت_مرکز":"پاس باسوول","Polling_Center_Location":"Paas Basool","Verification_Note":"Building","PS_Male":2,"PS_Female":4,"Map_Accuracy":"تعمیر"},"geometry":{"x":7890546.9619694427,"y":4061591.1739079878}},{"attributes":{"OBJECTID":120,"ولایت":"پکتيکا","Province":"PAKTIKA","PC_Code":"1201009","ولسوالي":"شرن","District":"SHARAN","د_مرکز_نوم__نام_مرکز":"الجهاد لومړنی ښوونځی ","Polling_Center_Name":"Aljahad Primary School","د_مرکز_ځای__موقعیت_مرکز":"عمبرخیل","Polling_Center_Location":"Omer Khel","Verification_Note":"Building","PS_Male":3,"PS_Female":0,"Map_Accuracy":"تعمیر"},"geometry":{"x":7660731.3564135954,"y":3921023.7453652844}},{"attributes":{"OBJECTID":121,"ولایت":"پکتيکا","Province":"PAKTIKA","PC_Code":"1201010","ولسوالي":"شرن","District":"SHARAN","د_مرکز_نوم__نام_مرکز":"لومړنی ښوونځی","Polling_Center_Name":"Primary School","د_مرکز_ځای__موقعیت_مرکز":"سره قلعه","Polling_Center_Location":"Sra Qala","Verification_Note":"Village","PS_Male":0,"PS_Female":2,"Map_Accuracy":"قریه"},"geometry":{"x":7661301.6584100723,"y":3920531.7901665866}},{"attributes":{"OBJECTID":122,"ولایت":"پکتيکا","Province":"PAKTIKA","PC_Code":"1207096","ولسوالي":"زرغون شهر ","District":"ZARGHUN SHAHR","د_مرکز_نوم__نام_مرکز":"ابراهیم میلمستون","Polling_Center_Name":"Ibrahim Guest House","د_مرکز_ځای__موقعیت_مرکز":"محمد حسن","Polling_Center_Location":"Mohammad Hassan","Verification_Note":"Village","PS_Male":0,"PS_Female":2,"Map_Accuracy":"قریه"},"geometry":{"x":7622011.4163047187,"y":3870417.7977915034}},{"attributes":{"OBJECTID":123,"ولایت":"پکتيکا","Province":"PAKTIKA","PC_Code":"1207098","ولسوالي":"زرغون شهر ","District":"ZARGHUN SHAHR","د_مرکز_نوم__نام_مرکز":"محمد دوست جومات","Polling_Center_Name":"Mohammad Dost Mosque","د_مرکز_ځای__موقعیت_مرکز":"محمد دوست کلی","Polling_Center_Location":"Mohammad Dost Village","Verification_Note":"Building","PS_Male":2,"PS_Female":2,"Map_Accuracy":"تعمیر"},"geometry":{"x":7624117.6968427971,"y":3872838.9779968038}},{"attributes":{"OBJECTID":124,"ولایت":"پکتيکا","Province":"PAKTIKA","PC_Code":"1212189","ولسوالي":"زیړوک","District":"ZIRUK","د_مرکز_نوم__نام_مرکز":"خیمه جامع جومات","Polling_Center_Name":"Khaima Mosque","د_مرکز_ځای__موقعیت_مرکز":"ولسوالی بازار","Polling_Center_Location":"District Bazaar","Verification_Note":"Building","PS_Male":3,"PS_Female":0,"Map_Accuracy":"تعمیر"},"geometry":{"x":7715706.6416759454,"y":3916339.6766395271}},{"attributes":{"OBJECTID":125,"ولایت":"پکتيا","Province":"PAKTYA","PC_Code":"1301006","ولسوالي":"گردیز","District":"GARDEZ","د_مرکز_نوم__نام_مرکز":"ابراهیم خیل مکتب","Polling_Center_Name":"Ibrahim Khel School","د_مرکز_ځای__موقعیت_مرکز":"ابراهیم خیل","Polling_Center_Location":"Ibrahim Khel","Verification_Note":"Building","PS_Male":4,"PS_Female":3,"Map_Accuracy":"تعمیر"},"geometry":{"x":7699923.6674233228,"y":3969565.5459942818}},{"attributes":{"OBJECTID":126,"ولایت":"پکتيا","Province":"PAKTYA","PC_Code":"1301007","ولسوالي":"گردیز","District":"GARDEZ","د_مرکز_نوم__نام_مرکز":"مکتب ذکور رباط","Polling_Center_Name":"Robaat Boys School","د_مرکز_ځای__موقعیت_مرکز":"رباط کلی ","Polling_Center_Location":"Robaat Village","Verification_Note":"Building","PS_Male":2,"PS_Female":0,"Map_Accuracy":"تعمیر"},"geometry":{"x":7699337.2686284743,"y":3980033.363945663}},{"attributes":{"OBJECTID":127,"ولایت":"پکتيا","Province":"PAKTYA","PC_Code":"1306031","ولسوالي":"سید کرم","District":"SAYYID KARAM","د_مرکز_نوم__نام_مرکز":"مسجد کاریز","Polling_Center_Name":"Karez Mosque","د_مرکز_ځای__موقعیت_مرکز":"کاریز","Polling_Center_Location":"Karez","Verification_Note":"Building","PS_Male":2,"PS_Female":0,"Map_Accuracy":"تعمیر"},"geometry":{"x":7731366.2538952678,"y":3995840.2449132577}},{"attributes":{"OBJECTID":128,"ولایت":"پکتيا","Province":"PAKTYA","PC_Code":"1306032","ولسوالي":"سید کرم","District":"SAYYID KARAM","د_مرکز_نوم__نام_مرکز":"د کاریز مکتب","Polling_Center_Name":"Karez School","د_مرکز_ځای__موقعیت_مرکز":"  کاریز","Polling_Center_Location":"Karez","Verification_Note":"Building","PS_Male":0,"PS_Female":2,"Map_Accuracy":"تعمیر"},"geometry":{"x":7731150.2172726765,"y":3995741.6532580033}},{"attributes":{"OBJECTID":129,"ولایت":"پکتيا","Province":"PAKTYA","PC_Code":"1310157","ولسوالي":"څمکنی","District":"SAMKANI","د_مرکز_نوم__نام_مرکز":"د ولسوالی مرکزی شفاخانه ","Polling_Center_Name":"District Central Hospital ","د_مرکز_ځای__موقعیت_مرکز":"چمکنی- شهرنو","Polling_Center_Location":"Chamkani, Shahr-e-Naw","Verification_Note":"Building","PS_Male":0,"PS_Female":4,"Map_Accuracy":"تعمیر"},"geometry":{"x":7771737.306955494,"y":4002543.8532902971}},{"attributes":{"OBJECTID":130,"ولایت":"پکتيا","Province":"PAKTYA","PC_Code":"1310159","ولسوالي":"څمکنی","District":"SAMKANI","د_مرکز_نوم__نام_مرکز":"د بګیاړ مسجد","Polling_Center_Name":"Sultan House","د_مرکز_ځای__موقعیت_مرکز":"ټنی، بګیاړ","Polling_Center_Location":"Tanni, Bagyaar","Verification_Note":"Building","PS_Male":0,"PS_Female":4,"Map_Accuracy":"تعمیر"},"geometry":{"x":7763646.3659145385,"y":4001561.993330285}},{"attributes":{"OBJECTID":131,"ولایت":"پکتيا","Province":"PAKTYA","PC_Code":"1310160","ولسوالي":"څمکنی","District":"SAMKANI","د_مرکز_نوم__نام_مرکز":"د عید گل مسجد","Polling_Center_Name":"Eid Gul Mosque","د_مرکز_ځای__موقعیت_مرکز":"منګیاړ کلی","Polling_Center_Location":"Mangyaar Village","Verification_Note":"Village","PS_Male":4,"PS_Female":0,"Map_Accuracy":"قریه"},"geometry":{"x":7765906.3586318977,"y":3990268.8058860749}},{"attributes":{"OBJECTID":132,"ولایت":"خوست","Province":"KHOST","PC_Code":"1401047","ولسوالي":"خوست","District":"KHOST","د_مرکز_نوم__نام_مرکز":"رسول کور ","Polling_Center_Name":"Rasool House","د_مرکز_ځای__موقعیت_مرکز":" بانګي باغ","Polling_Center_Location":"Bangi Bagh","Verification_Note":"Building","PS_Male":2,"PS_Female":1,"Map_Accuracy":"تعمیر"},"geometry":{"x":7787568.8487887532,"y":3937041.8866339549}},{"attributes":{"OBJECTID":133,"ولایت":"خوست","Province":"KHOST","PC_Code":"1401161","ولسوالي":"خوست","District":"KHOST","د_مرکز_نوم__نام_مرکز":"ډيري مدرسه","Polling_Center_Name":"Dere Madrassa","د_مرکز_ځای__موقعیت_مرکز":"ډيري ","Polling_Center_Location":"Deri","Verification_Note":"Building","PS_Male":2,"PS_Female":1,"Map_Accuracy":"تعمیر"},"geometry":{"x":7794778.9443025477,"y":3941883.8207624927}},{"attributes":{"OBJECTID":134,"ولایت":"خوست","Province":"KHOST","PC_Code":"1402085","ولسوالي":"مندوزی","District":"MANDUZAY","د_مرکز_نوم__نام_مرکز":"د تورې وړى ليسه ديګان","Polling_Center_Name":"Tora Wari High School Degan","د_مرکز_ځای__موقعیت_مرکز":" توړه وړۍ","Polling_Center_Location":"Tora Worrai","Verification_Note":"Building","PS_Male":1,"PS_Female":1,"Map_Accuracy":"تعمیر"},"geometry":{"x":7777672.4035682864,"y":3935126.8054203391}},{"attributes":{"OBJECTID":135,"ولایت":"خوست","Province":"KHOST","PC_Code":"1402086","ولسوالي":"مندوزی","District":"MANDUZAY","د_مرکز_نوم__نام_مرکز":"سيدا جان جومات","Polling_Center_Name":"Sayda Jan Mosque","د_مرکز_ځای__موقعیت_مرکز":" د دیگانو کلی سيدا جان جومات","Polling_Center_Location":"Deganano Village","Verification_Note":"Building","PS_Male":1,"PS_Female":1,"Map_Accuracy":"تعمیر"},"geometry":{"x":7776971.16313396,"y":3938265.1657674983}},{"attributes":{"OBJECTID":136,"ولایت":"تخار","Province":"TAKHAR","PC_Code":"1801017","ولسوالي":"تالقان","District":"TALUQAN","د_مرکز_نوم__نام_مرکز":"مکتب ابتدای بولک اورته بز","Polling_Center_Name":"Bolak Orta Baz Primary School","د_مرکز_ځای__موقعیت_مرکز":"بولک اورته بز","Polling_Center_Location":"Bolak Orta Baz","Verification_Note":"Building","PS_Male":2,"PS_Female":1,"Map_Accuracy":"تعمیر"},"geometry":{"x":7742965.95300338,"y":4403710.6197108477}},{"attributes":{"OBJECTID":137,"ولایت":"تخار","Province":"TAKHAR","PC_Code":"1806083","ولسوالي":"نمک آب","District":"NAMAK AB","د_مرکز_نوم__نام_مرکز":"مرکز ولسوالی","Polling_Center_Name":"District Office","د_مرکز_ځای__موقعیت_مرکز":"بیخ کوتل","Polling_Center_Location":"Bekh Kotal","Verification_Note":"Building","PS_Male":3,"PS_Female":2,"Map_Accuracy":"تعمیر"},"geometry":{"x":7752410.6281079687,"y":4382720.9427919388}},{"attributes":{"OBJECTID":138,"ولایت":"بلخ","Province":"BALKH","PC_Code":"2106159","ولسوالي":"بلخ","District":"BALKH","د_مرکز_نوم__نام_مرکز":"مکتب ایلقیچی","Polling_Center_Name":"Elqechee School","د_مرکز_ځای__موقعیت_مرکز":"قریه ایلقیچی","Polling_Center_Location":"Elqechee Village","Verification_Note":"Building","PS_Male":2,"PS_Female":1,"Map_Accuracy":"تعمیر"},"geometry":{"x":7433556.7868525088,"y":4424102.5225254223}},{"attributes":{"OBJECTID":139,"ولایت":"هرات","Province":"HERAT","PC_Code":"3202038","ولسوالي":"انجیل","District":"ENJIL","د_مرکز_نوم__نام_مرکز":"مسجد جامع ابوالولید","Polling_Center_Name":"Abul Waleed Mosque","د_مرکز_ځای__موقعیت_مرکز":"ابوالولید","Polling_Center_Location":"Abul Waleed","Verification_Note":"Building","PS_Male":2,"PS_Female":2,"Map_Accuracy":"تعمیر"},"geometry":{"x":6918279.4458311014,"y":4077253.8553335145}},{"attributes":{"OBJECTID":140,"ولایت":"هرات","Province":"HERAT","PC_Code":"3202039","ولسوالي":"انجیل","District":"ENJIL","د_مرکز_نوم__نام_مرکز":"ليسه گاوبتان","Polling_Center_Name":"Gow Butan High School ","د_مرکز_ځای__موقعیت_مرکز":"گاوبتان","Polling_Center_Location":"Gow Butan ","Verification_Note":"Building","PS_Male":2,"PS_Female":1,"Map_Accuracy":"تعمیر"},"geometry":{"x":6916887.8826214969,"y":4075109.8770325854}},{"attributes":{"OBJECTID":141,"ولایت":"هرات","Province":"HERAT","PC_Code":"3204158","ولسوالي":"کرخ ","District":"KARRUKH","د_مرکز_نوم__نام_مرکز":"مکتب اسلام آباد ","Polling_Center_Name":"Islam Abad School ","د_مرکز_ځای__موقعیت_مرکز":"قریه اسلام آباد ","Polling_Center_Location":"Islam Abad Village ","Verification_Note":"Building","PS_Male":1,"PS_Female":1,"Map_Accuracy":"تعمیر"},"geometry":{"x":6951328.3129992671,"y":4079510.266397655}},{"attributes":{"OBJECTID":142,"ولایت":"هرات","Province":"HERAT","PC_Code":"3204159","ولسوالي":"کرخ ","District":"KARRUKH","د_مرکز_نوم__نام_مرکز":"مکتب متوسطه پهلوان پیری ","Polling_Center_Name":"Pahlawan Peri Scondary School ","د_مرکز_ځای__موقعیت_مرکز":"قریه پهلوان پیری ","Polling_Center_Location":"Pahlawan Peri Village","Verification_Note":"Building","PS_Male":1,"PS_Female":1,"Map_Accuracy":"تعمیر"},"geometry":{"x":6945867.204202909,"y":4076989.0484078377}},{"attributes":{"OBJECTID":143,"ولایت":"هرات","Province":"HERAT","PC_Code":"3204163","ولسوالي":"کرخ ","District":"KARRUKH","د_مرکز_نوم__نام_مرکز":"مکتب کورپه ","Polling_Center_Name":"Korpa School","د_مرکز_ځای__موقعیت_مرکز":"قریه کور په ","Polling_Center_Location":"Korpa Village ","Verification_Note":"Building","PS_Male":1,"PS_Female":2,"Map_Accuracy":"تعمیر"},"geometry":{"x":6937116.4335782044,"y":4102447.1326546147}},{"attributes":{"OBJECTID":144,"ولایت":"هرات","Province":"HERAT","PC_Code":"3204164","ولسوالي":"کرخ ","District":"KARRUKH","د_مرکز_نوم__نام_مرکز":"موقعیت کوچی ها","Polling_Center_Name":"Kochis Location ","د_مرکز_ځای__موقعیت_مرکز":"مجید چوبی","Polling_Center_Location":"Mjid Chobi ","Verification_Note":"Village","PS_Male":2,"PS_Female":1,"Map_Accuracy":"قریه"},"geometry":{"x":7023303.7570810951,"y":4106062.1382744312}},{"attributes":{"OBJECTID":145,"ولایت":"هرات","Province":"HERAT","PC_Code":"3214336","ولسوالي":"شیندند","District":"SHINDAND","د_مرکز_نوم__نام_مرکز":"کلینیک چهار قلعه دوم","Polling_Center_Name":"Chahar Qala-e-Dowom Clinic ","د_مرکز_ځای__موقعیت_مرکز":"چهار قلعه دوم ","Polling_Center_Location":"Chahar Qala-e-Duowm ","Verification_Note":"Building","PS_Male":1,"PS_Female":1,"Map_Accuracy":"تعمیر"},"geometry":{"x":6923307.9743219912,"y":3922679.14113307}},{"attributes":{"OBJECTID":146,"ولایت":" فراه","Province":"FARAH","PC_Code":"3301247","ولسوالي":" فراه","District":"FARAH","د_مرکز_نوم__نام_مرکز":"مسجد سنگ زور","Polling_Center_Name":"Sang zor Mosque","د_مرکز_ځای__موقعیت_مرکز":"سنگ زور","Polling_Center_Location":"Sang zor","Verification_Note":"Building","PS_Male":2,"PS_Female":1,"Map_Accuracy":"تعمیر"},"geometry":{"x":6911435.7665475756,"y":3809935.0174502879}},{"attributes":{"OBJECTID":147,"ولایت":" فراه","Province":"FARAH","PC_Code":"3304248","ولسوالي":"قلعه کاه","District":"QALA-E-KAH","د_مرکز_نوم__نام_مرکز":" مکتب انجیران","Polling_Center_Name":"Angiran School","د_مرکز_ځای__موقعیت_مرکز":"انجیران","Polling_Center_Location":"Anjeeran","Verification_Note":"Building","PS_Male":2,"PS_Female":1,"Map_Accuracy":"تعمیر"},"geometry":{"x":6833985.6319122836,"y":3821062.9199359417}},{"attributes":{"OBJECTID":148,"ولایت":"باميان","Province":"BAMYAN","PC_Code":"1001168","ولسوالي":"بامیان","District":"BAMYAN","د_مرکز_نوم__نام_مرکز":"لیسه کارته صلح","Polling_Center_Name":"Karte solh High school","د_مرکز_ځای__موقعیت_مرکز":"ملاغلام","Polling_Center_Location":"Mulah ghulam","Verification_Note":"Building","PS_Male":2,"PS_Female":1,"Map_Accuracy":"تعمیر"},"geometry":{"x":7545450.1013456658,"y":4141310.9577352405}},{"attributes":{"OBJECTID":149,"ولایت":"باميان","Province":"BAMYAN","PC_Code":"1001169","ولسوالي":"بامیان","District":"BAMYAN","د_مرکز_نوم__نام_مرکز":"مسجد","Polling_Center_Name":"Mosque","د_مرکز_ځای__موقعیت_مرکز":"دهن جوپلال","Polling_Center_Location":"Dahan jaopalan","Verification_Note":"Building","PS_Male":2,"PS_Female":1,"Map_Accuracy":"تعمیر"},"geometry":{"x":7515761.9650404565,"y":4147395.9665369764}},{"attributes":{"OBJECTID":150,"ولایت":"دایکندی","Province":"DAYKUNDI","PC_Code":"2407191","ولسوالي":"میرامور","District":"MIRAMOR","د_مرکز_نوم__نام_مرکز":"مسجد","Polling_Center_Name":"Mosque","د_مرکز_ځای__موقعیت_مرکز":"شازان ","Polling_Center_Location":"Shazan","Verification_Note":"Building","PS_Male":2,"PS_Female":1,"Map_Accuracy":"تعمیر"},"geometry":{"x":7471894.5324178115,"y":4016417.9700386748}},{"attributes":{"OBJECTID":151,"ولایت":"دایکندی","Province":"DAYKUNDI","PC_Code":"2407192","ولسوالي":"میرامور","District":"MIRAMOR","د_مرکز_نوم__نام_مرکز":"مسجد","Polling_Center_Name":"Mosque","د_مرکز_ځای__موقعیت_مرکز":"غجورک","Polling_Center_Location":"Ghajorak","Verification_Note":"Building","PS_Male":2,"PS_Female":1,"Map_Accuracy":"تعمیر"},"geometry":{"x":7485787.9444755092,"y":4006301.5796537995}},{"attributes":{"OBJECTID":152,"ولایت":"دایکندی","Province":"DAYKUNDI","PC_Code":"2402172","ولسوالي":"شهرستان","District":"SHAHRISTAN","د_مرکز_نوم__نام_مرکز":"مسجد","Polling_Center_Name":"Mosque","د_مرکز_ځای__موقعیت_مرکز":"راخان ","Polling_Center_Location":"Rakhan","Verification_Note":"Building","PS_Male":2,"PS_Female":1,"Map_Accuracy":"تعمیر"},"geometry":{"x":7421305.6125771143,"y":3967185.2623396367}},{"attributes":{"OBJECTID":153,"ولایت":"بغلان","Province":"BAGHLAN","PC_Code":"0902260","ولسوالي":"دهنۀ غوری","District":"DAHANA-E-GHURI","د_مرکز_نوم__نام_مرکز":"مسجد نوآمد","Polling_Center_Name":"Nawamad Mosque","د_مرکز_ځای__موقعیت_مرکز":"نوامد قره خوال شلکتو","Polling_Center_Location":"Naw amad qara khwal shakar to","Verification_Note":"Building","PS_Male":2,"PS_Female":1,"Map_Accuracy":"تعمیر"},"geometry":{"x":7625198.4614887536,"y":4266537.0145692974}},{"attributes":{"OBJECTID":154,"ولایت":"بغلان","Province":"BAGHLAN","PC_Code":"0903261","ولسوالي":"دوشی","District":"Doshi","د_مرکز_نوم__نام_مرکز":"مدرسه ابوحنیفه","Polling_Center_Name":"Abo hanifa Madrasa","د_مرکز_ځای__موقعیت_مرکز":"خواجه زید سفلی","Polling_Center_Location":"Khwaja zaid sufla","Verification_Note":"Building","PS_Male":2,"PS_Female":1,"Map_Accuracy":"تعمیر"},"geometry":{"x":7650989.0127679817,"y":4245488.164065972}},{"attributes":{"OBJECTID":155,"ولایت":"کابل","Province":"KABUL","PC_Code":"0104539","ولسوالي":"بگرامی","District":"Bagrami","د_مرکز_نوم__نام_مرکز":"مسجد جامع قلعه حسن خان","Polling_Center_Name":"Qala hasan khan Mosque","د_مرکز_ځای__موقعیت_مرکز":"قلعه حسن خان سفلی","Polling_Center_Location":"Qalai hasan khan sufla","Verification_Note":"Building","PS_Male":2,"PS_Female":1,"Map_Accuracy":"تعمیر"},"geometry":{"x":7708697.1606938094,"y":4091561.0547233075}},{"attributes":{"OBJECTID":156,"ولایت":"کابل","Province":"KABUL","PC_Code":"0104540","ولسوالي":"بگرامی","District":"Bagrami","د_مرکز_نوم__نام_مرکز":"مسجد مهترلام بابا","Polling_Center_Name":"Mehtarlam baba Mosque","د_مرکز_ځای__موقعیت_مرکز":"حصه دوم سید جمال الدین قریه حسین خیل","Polling_Center_Location":"Hasan khil village_Said jamaludin second part","Verification_Note":"Building","PS_Male":2,"PS_Female":1,"Map_Accuracy":"تعمیر"},"geometry":{"x":7715809.7713917978,"y":4095090.2581081688}},{"attributes":{"OBJECTID":157,"ولایت":"لغمان","Province":"LAGHMAN","PC_Code":"0704131","ولسوالي":"علینگار","District":"ALINGAR","د_مرکز_نوم__نام_مرکز":" مکتب","Polling_Center_Name":"School","د_مرکز_ځای__موقعیت_مرکز":"لوکاړ","Polling_Center_Location":"Lokar","Verification_Note":"Building","PS_Male":2,"PS_Female":1,"Map_Accuracy":"تعمیر"},"geometry":{"x":7834338.8908249289,"y":4151231.302136682}},{"attributes":{"OBJECTID":158,"ولایت":"لغمان","Province":"LAGHMAN","PC_Code":"0704132","ولسوالي":"علینگار","District":"ALINGAR","د_مرکز_نوم__نام_مرکز":"مسجد","Polling_Center_Name":"Mosque","د_مرکز_ځای__موقعیت_مرکز":"چينچار پول","Polling_Center_Location":"Chinchar pol","Verification_Note":"Building","PS_Male":2,"PS_Female":1,"Map_Accuracy":"تعمیر"},"geometry":{"x":7825464.771636568,"y":4131131.6060324386}},{"attributes":{"OBJECTID":159,"ولایت":"بغلان","Province":"BAGHLAN","PC_Code":"0905275","ولسوالي":"بغلان جدید","District":"BAGLAN-E-JADEED","د_مرکز_نوم__نام_مرکز":"مسجد ملاخال محمد","Polling_Center_Name":"Mulah khal muhammad Mosque","د_مرکز_ځای__موقعیت_مرکز":"لارخوابی","Polling_Center_Location":"Larkhwabi","Verification_Note":"Building","PS_Male":2,"PS_Female":1,"Map_Accuracy":"تعمیر"},"geometry":{"x":7651615.5199753642,"y":4340730.9569783807}},{"attributes":{"OBJECTID":160,"ولایت":"خوست","Province":"KHOST","PC_Code":"1402177","ولسوالي":"مندوزائی","District":"MANDUZAY","د_مرکز_نوم__نام_مرکز":"جامع جومات","Polling_Center_Name":"Mosque","د_مرکز_ځای__موقعیت_مرکز":"د ديګانو کلى","Polling_Center_Location":"Dikano village","Verification_Note":"Building","PS_Male":2,"PS_Female":1,"Map_Accuracy":"تعمیر"},"geometry":{"x":7777267.758109808,"y":3937339.0200611651}},{"attributes":{"OBJECTID":161,"ولایت":"بدخشان","Province":"BADAKHSHAN","PC_Code":"1712305","ولسوالي":"شهدا","District":"SHUHADA","د_مرکز_نوم__نام_مرکز":"مکتب وکیل عبدالجبار ","Polling_Center_Name":"Wakil abdul jabar School","د_مرکز_ځای__موقعیت_مرکز":"درگاب","Polling_Center_Location":"Dargab","Verification_Note":"Building","PS_Male":2,"PS_Female":1,"Map_Accuracy":"تعمیر"},"geometry":{"x":7923192.288413763,"y":4447185.02915483}},{"attributes":{"OBJECTID":162,"ولایت":"سرپل","Province":"SAR-E-PUL","PC_Code":"2204141","ولسوالي":"سوزمه قلعه","District":"SOZMA QALA","د_مرکز_نوم__نام_مرکز":"مسجد","Polling_Center_Name":"Mosque","د_مرکز_ځای__موقعیت_مرکز":"سفر قشلاق","Polling_Center_Location":"Safar qeshlaq","Verification_Note":"Building","PS_Male":2,"PS_Female":1,"Map_Accuracy":"تعمیر"},"geometry":{"x":7373376.91108318,"y":4306548.870855324}},{"attributes":{"OBJECTID":163,"ولایت":"زابل","Province":"ZABUL","PC_Code":"2602052","ولسوالي":"ترنک و جلدک","District":"TARANK WA JALDAK","د_مرکز_نوم__نام_مرکز":"دحاجی عبدالعزیز پمپ","Polling_Center_Name":"Haji abdul aziz pump station","د_مرکز_ځای__موقعیت_مرکز":"درو","Polling_Center_Location":"Daro","Verification_Note":"Village","PS_Male":2,"PS_Female":1,"Map_Accuracy":"قریه"},"geometry":{"x":7388738.5786891468,"y":3741307.1629152521}},{"attributes":{"OBJECTID":164,"ولایت":"فارياب","Province":"FARYAB","PC_Code":"2908212","ولسوالي":"گرزیوان","District":"GURZIWAN","د_مرکز_نوم__نام_مرکز":"مکتب ابتدائیه نسوان قلعه تردی","Polling_Center_Name":"Qala tardi female Primary school","د_مرکز_ځای__موقعیت_مرکز":"قلعه توردی","Polling_Center_Location":"Qala tori","Verification_Note":"Building","PS_Male":2,"PS_Female":1,"Map_Accuracy":"تعمیر"},"geometry":{"x":7264810.5357536227,"y":4262639.2718063667}},{"attributes":{"OBJECTID":165,"ولایت":"کابل","Province":"KABUL","PC_Code":"0101520","ولسوالي":"ناحیه_8","District":"Nahia_08","د_مرکز_نوم__نام_مرکز":"مسجد حضور حضرت نبی","Polling_Center_Name":"Hzor hazrat nabi Mosque","د_مرکز_ځای__موقعیت_مرکز":"عقب فابریکه کوکاکولا","Polling_Center_Location":"Behaind of Cokakola Industary","Verification_Note":"Building","PS_Male":2,"PS_Female":1,"Map_Accuracy":"تعمیر"},"geometry":{"x":7708020.6447636671,"y":4097368.2444911897}},{"attributes":{"OBJECTID":166,"ولایت":"کابل","Province":"KABUL","PC_Code":"0101528","ولسوالي":"ناحیه_15","District":"Nahia_15","د_مرکز_نوم__نام_مرکز":"مسجد محمد حنیفه غازی","Polling_Center_Name":"Muhammad hanifa ghazi Mosque","د_مرکز_ځای__موقعیت_مرکز":"ناحیه 15","Polling_Center_Location":"District-15","Verification_Note":"Building","PS_Male":2,"PS_Female":1,"Map_Accuracy":"تعمیر"},"geometry":{"x":7699888.5964403823,"y":4106562.1833006889}},{"attributes":{"OBJECTID":167,"ولایت":"پروان","Province":"PARWAN","PC_Code":"0305154","ولسوالي":"جبل السراج","District":"JABULUSSARAJ","د_مرکز_نوم__نام_مرکز":"متوسطه عبدالهادی شهید","Polling_Center_Name":"Abdul hadi shaheed Secondary school","د_مرکز_ځای__موقعیت_مرکز":"عزت الله خیل / گلبهار","Polling_Center_Location":"Ezatullah khil_ Gul bahar","Verification_Note":"Building","PS_Male":2,"PS_Female":1,"Map_Accuracy":"تعمیر"},"geometry":{"x":7712820.5846914649,"y":4183319.0193514824}},{"attributes":{"OBJECTID":168,"ولایت":"ننگرهار","Province":"NANGARHAR","PC_Code":"0605512","ولسوالي":"کامه","District":"KAMA","د_مرکز_نوم__نام_مرکز":"کلینیک","Polling_Center_Name":"Clinic","د_مرکز_ځای__موقعیت_مرکز":"کوز ده غازی ","Polling_Center_Location":"Koza deh ghazi","Verification_Note":"Building","PS_Male":2,"PS_Female":1,"Map_Accuracy":"تعمیر"},"geometry":{"x":7855244.5644029975,"y":4084580.2003354654}},{"attributes":{"OBJECTID":169,"ولایت":"ننگرهار","Province":"NANGARHAR","PC_Code":"0605513","ولسوالي":"کامه","District":"KAMA","د_مرکز_نوم__نام_مرکز":"مولوی ابراهیم کاموی ښوونځی","Polling_Center_Name":"Molawi ebarahim kamawi School","د_مرکز_ځای__موقعیت_مرکز":"درگل سفلی","Polling_Center_Location":"Dar gul sufla","Verification_Note":"Building","PS_Male":2,"PS_Female":1,"Map_Accuracy":"تعمیر"},"geometry":{"x":7862361.2368152514,"y":4088206.7635405287}},{"attributes":{"OBJECTID":170,"ولایت":"پنجشیر","Province":"PANJSHIR","PC_Code":"0807108","ولسوالي":"پریان","District":"PARYAN","د_مرکز_نوم__نام_مرکز":"مکتب چونی","Polling_Center_Name":"Chawni School","د_مرکز_ځای__موقعیت_مرکز":"چونی","Polling_Center_Location":"Chaoni","Verification_Note":"Village","PS_Male":2,"PS_Female":1,"Map_Accuracy":"قریه"},"geometry":{"x":7779039.66094631,"y":4251215.3367730454}},{"attributes":{"OBJECTID":171,"ولایت":"پنجشیر","Province":"PANJSHIR","PC_Code":"0802099","ولسوالي":"رُخه","District":"RUKHA","د_مرکز_نوم__نام_مرکز":"مسجد چمال ورده","Polling_Center_Name":"Chamal warda Mosque","د_مرکز_ځای__موقعیت_مرکز":"چمال ورده","Polling_Center_Location":"Chamal warda","Verification_Note":"Village","PS_Male":2,"PS_Female":1,"Map_Accuracy":"قریه"},"geometry":{"x":7728296.5184151456,"y":4205157.4899992347}},{"attributes":{"OBJECTID":172,"ولایت":"بغلان","Province":"BAGHLAN","PC_Code":"0904265","ولسوالي":"نهرین","District":"NAHREEN","د_مرکز_نوم__نام_مرکز":"مکتب خواجه گلخار","Polling_Center_Name":"Khwaja gul khar School","د_مرکز_ځای__موقعیت_مرکز":"خواجه گلخوار","Polling_Center_Location":"Khwaja gul khor","Verification_Note":"District","PS_Male":2,"PS_Female":1,"Map_Accuracy":"ولسوالی"},"geometry":{"x":7681426.0811150931,"y":4313002.0717135221}},{"attributes":{"OBJECTID":173,"ولایت":"باميان","Province":"BAMYAN","PC_Code":"1005178","ولسوالي":"یکاولنگ","District":"Yakawlang","د_مرکز_نوم__نام_مرکز":"لیسه نسوان کلیگان","Polling_Center_Name":"Kaligan Femal high school","د_مرکز_ځای__موقعیت_مرکز":"کلیگان","Polling_Center_Location":"Kaligan","Verification_Note":"Building","PS_Male":2,"PS_Female":1,"Map_Accuracy":"تعمیر"},"geometry":{"x":7398458.8896471784,"y":4154689.2660705969}},{"attributes":{"OBJECTID":174,"ولایت":"هرات","Province":"HERAT","PC_Code":"3202062","ولسوالي":"انجیل","District":"ENJIL","د_مرکز_نوم__نام_مرکز":"مکتب متوسطه سر آسیاب","Polling_Center_Name":"Sar Asiab Scondary School ","د_مرکز_ځای__موقعیت_مرکز":" قریه سر اسیاب ","Polling_Center_Location":"Sar Asiab Village ","Verification_Note":"Building","PS_Male":0,"PS_Female":2,"Map_Accuracy":"تعمیر"},"geometry":{"x":6942310.3561157361,"y":4065283.0121327713}},{"attributes":{"OBJECTID":175,"ولایت":"تخار","Province":"TAKHAR","PC_Code":"1804059","ولسوالي":"بنگی","District":"BANGI","د_مرکز_نوم__نام_مرکز":"مکتب دهانه بنگی","Polling_Center_Name":"Dahana Bangi School","د_مرکز_ځای__موقعیت_مرکز":"سقابه","Polling_Center_Location":"Saqaba","Verification_Note":"Building","PS_Male":4,"PS_Female":2,"Map_Accuracy":"تعمیر"},"geometry":{"x":7709433.4455057122,"y":4399742.0867718756}},{"attributes":{"OBJECTID":176,"ولایت":"تخار","Province":"TAKHAR","PC_Code":"1804060","ولسوالي":"بنگی","District":"BANGI","د_مرکز_نوم__نام_مرکز":"لیسه مولوی عزت الله شهید","Polling_Center_Name":"Mawlawi Ezzatullah Shaheed High School","د_مرکز_ځای__موقعیت_مرکز":"میرزابچه","Polling_Center_Location":"Mirza Bacha","Verification_Note":"Building","PS_Male":3,"PS_Female":2,"Map_Accuracy":"تعمیر"},"geometry":{"x":7721761.14291415,"y":4373620.477619186}},{"attributes":{"OBJECTID":177,"ولایت":"تخار","Province":"TAKHAR","PC_Code":"1810119","ولسوالي":"رستاق","District":"RUSTAQ","د_مرکز_نوم__نام_مرکز":"لیسه کوکتابه","Polling_Center_Name":"Koktaba High School","د_مرکز_ځای__موقعیت_مرکز":"دشت مرزایی","Polling_Center_Location":"Dasht Mirzayee","Verification_Note":"Building","PS_Male":2,"PS_Female":1,"Map_Accuracy":"تعمیر"},"geometry":{"x":7761293.9791330174,"y":4427477.9801360816}},{"attributes":{"OBJECTID":178,"ولایت":"تخار","Province":"TAKHAR","PC_Code":"1810120","ولسوالي":"رستاق","District":"RUSTAQ","د_مرکز_نوم__نام_مرکز":"مکتب متوسطه گنده","Polling_Center_Name":"Ganda Secondary School","د_مرکز_ځای__موقعیت_مرکز":"گنده","Polling_Center_Location":"Ganda","Verification_Note":"Building","PS_Male":2,"PS_Female":2,"Map_Accuracy":"تعمیر"},"geometry":{"x":7770669.25098788,"y":4462685.7931220308}},{"attributes":{"OBJECTID":179,"ولایت":"سمنگان","Province":"SAMANGAN","PC_Code":"2002022","ولسوالي":"حضرت سلطان","District":"HAZRAT-E-SULTAN","د_مرکز_نوم__نام_مرکز":"مکتب متوسطه دولت آباد","Polling_Center_Name":"Dawlat Abad Secondary School","د_مرکز_ځای__موقعیت_مرکز":"قریه دولت آباد","Polling_Center_Location":"Dawlat Abad Village","Verification_Note":"Building","PS_Male":1,"PS_Female":1,"Map_Accuracy":"تعمیر"},"geometry":{"x":7550717.4773812927,"y":4372670.1725833341}},{"attributes":{"OBJECTID":180,"ولایت":"سمنگان","Province":"SAMANGAN","PC_Code":"2002023","ولسوالي":"حضرت سلطان","District":"HAZRAT-E-SULTAN","د_مرکز_نوم__نام_مرکز":"تعمیر ولسوالی ","Polling_Center_Name":"District Office","د_مرکز_ځای__موقعیت_مرکز":"مرکز ولسوالی","Polling_Center_Location":"District Compound","Verification_Note":"Building","PS_Male":2,"PS_Female":1,"Map_Accuracy":"تعمیر"},"geometry":{"x":7558172.7952617668,"y":4363421.6367647424}},{"attributes":{"OBJECTID":181,"ولایت":"وردک","Province":"WARDAK","PC_Code":"0404083","ولسوالي":"چک وردک","District":"CHAKI WARDAK","د_مرکز_نوم__نام_مرکز":"منزل صالح محمد","Polling_Center_Name":"Saleh Mohammad House","د_مرکز_ځای__موقعیت_مرکز":"قریه نورخیل","Polling_Center_Location":"Noor Khel","Verification_Note":"Village","PS_Male":1,"PS_Female":1,"Map_Accuracy":"قریه"},"geometry":{"x":7643392.5731652789,"y":4046629.2560942248}},{"attributes":{"OBJECTID":182,"ولایت":"هرات","Province":"HERAT","PC_Code":"3211456","ولسوالي":"غوریان ","District":"GHORYAN","د_مرکز_نوم__نام_مرکز":"مسجد سرآسیاب","Polling_Center_Name":"Sar Asia Mosque ","د_مرکز_ځای__موقعیت_مرکز":"مرکز سر آسیاب","Polling_Center_Location":"Markaz-e-Sar Asia ","Verification_Note":"Building","PS_Male":1,"PS_Female":2,"Map_Accuracy":"تعمیر"},"geometry":{"x":6843778.706298884,"y":4075181.2873350456}},{"attributes":{"OBJECTID":183,"ولایت":"هرات","Province":"HERAT","PC_Code":"3212365","ولسوالي":"اوبه ","District":"OBE","د_مرکز_نوم__نام_مرکز":" لیسه مرکز اوبه ","Polling_Center_Name":"Markaz-e-Oba High School ","د_مرکز_ځای__موقعیت_مرکز":"مرکز اویه  چهار محل","Polling_Center_Location":"Markaz-e-Oba Char Mahal","Verification_Note":"Village","PS_Male":3,"PS_Female":2,"Map_Accuracy":"قریه"},"geometry":{"x":7032704.536684081,"y":4078572.6059599668}},{"attributes":{"OBJECTID":184,"ولایت":"باميان","Province":"BAMYAN","PC_Code":"1007186","ولسوالي":"ورس","District":"WARAS","د_مرکز_نوم__نام_مرکز":"مسجد دره غول سیاه","Polling_Center_Name":"Dara ghol sia Mosque","د_مرکز_ځای__موقعیت_مرکز":"دره غول سیا ","Polling_Center_Location":"Dara ghol sia","Verification_Note":"Building","PS_Male":2,"PS_Female":1,"Map_Accuracy":"تعمیر"},"geometry":{"x":7465883.8375143111,"y":4046318.9554904923}},{"attributes":{"OBJECTID":185,"ولایت":"بدخشان","Province":"BADAKHSHAN","PC_Code":"1702287","ولسوالي":"ارگو","District":"ARGO","د_مرکز_نوم__نام_مرکز":"مسجد قلعه ظفر","Polling_Center_Name":"Qala zafar Mosque","د_مرکز_ځای__موقعیت_مرکز":"نوآباد قلعه ظفر","Polling_Center_Location":"Now abad qala zafar","Verification_Note":"Building","PS_Male":2,"PS_Female":1,"Map_Accuracy":"تعمیر"},"geometry":{"x":7804301.6914395839,"y":4440265.2457709983}},{"attributes":{"OBJECTID":186,"ولایت":"خوست","Province":"KHOST","PC_Code":"1413185","ولسوالي":"جاجی میدان","District":"JAJI MAIDAN","د_مرکز_نوم__نام_مرکز":"ساړې پيلې ښونځې","Polling_Center_Name":"Sari pili School","د_مرکز_ځای__موقعیت_مرکز":"ساړه پيله","Polling_Center_Location":"Sara pila","Verification_Note":"Building","PS_Male":2,"PS_Female":1,"Map_Accuracy":"تعمیر"},"geometry":{"x":7802001.4508263655,"y":3973157.9222717658}},{"attributes":{"OBJECTID":187,"ولایت":"بدخشان","Province":"BADAKHSHAN","PC_Code":"1707295","ولسوالي":"درایم","District":"DARAYIM","د_مرکز_نوم__نام_مرکز":" مسجد جامع قریه چپه","Polling_Center_Name":"Chapa village Mosque","د_مرکز_ځای__موقعیت_مرکز":"چپه","Polling_Center_Location":"Chapa","Verification_Note":"Building","PS_Male":2,"PS_Female":1,"Map_Accuracy":"تعمیر"},"geometry":{"x":7830205.1005336456,"y":4434823.1372156739}},{"attributes":{"OBJECTID":188,"ولایت":"تخار","Province":"TAKHAR","PC_Code":"1810209","ولسوالي":"رستاق","District":"RUSTAQ","د_مرکز_نوم__نام_مرکز":"مسجد جامع","Polling_Center_Name":"Mosque","د_مرکز_ځای__موقعیت_مرکز":"دشت امانی","Polling_Center_Location":"Dasht amani","Verification_Note":"Building","PS_Male":2,"PS_Female":1,"Map_Accuracy":"تعمیر"},"geometry":{"x":7806203.2673452757,"y":4445551.1454647481}},{"attributes":{"OBJECTID":189,"ولایت":"بدخشان","Province":"BADAKHSHAN","PC_Code":"1718313","ولسوالي":"یمگان","District":"YAMGAN","د_مرکز_نوم__نام_مرکز":"متوسطه نسوان آوغ","Polling_Center_Name":"Ogh Female Secondary school","د_مرکز_ځای__موقعیت_مرکز":"آورغ","Polling_Center_Location":"Awrugh","Verification_Note":"Building","PS_Male":2,"PS_Female":1,"Map_Accuracy":"تعمیر"},"geometry":{"x":7897926.2073381729,"y":4378799.7001246512}},{"attributes":{"OBJECTID":190,"ولایت":"کندز","Province":"KUNDUZ","PC_Code":"1907219","ولسوالي":"قلعه ذال","District":"QALA-E-ZAL","د_مرکز_نوم__نام_مرکز":"مکتب متوسطه","Polling_Center_Name":"Secondary School","د_مرکز_ځای__موقعیت_مرکز":"شور آرق","Polling_Center_Location":"Shor aruq","Verification_Note":"Building","PS_Male":2,"PS_Female":1,"Map_Accuracy":"تعمیر"},"geometry":{"x":7634244.6641345918,"y":4434002.5077841878}},{"attributes":{"OBJECTID":191,"ولایت":"دایکندی","Province":"DAYKUNDI","PC_Code":"2405182","ولسوالي":"خدیر","District":"KHEDIR","د_مرکز_نوم__نام_مرکز":"مسجد","Polling_Center_Name":"Mosque","د_مرکز_ځای__موقعیت_مرکز":"دهن آبدره ","Polling_Center_Location":"Dahan abdara","Verification_Note":"Village","PS_Male":2,"PS_Female":1,"Map_Accuracy":"قریه"},"geometry":{"x":7315494.1930450872,"y":4020740.8483799025}},{"attributes":{"OBJECTID":192,"ولایت":"زابل","Province":"ZABUL","PC_Code":"2606071","ولسوالي":"شاه جوی","District":"SHAH JOI","د_مرکز_نوم__نام_مرکز":"مسجد باغ نسوه","Polling_Center_Name":"Bagh naso Mosque","د_مرکز_ځای__موقعیت_مرکز":"زرگران","Polling_Center_Location":"Zargan","Verification_Note":"Village","PS_Male":2,"PS_Female":1,"Map_Accuracy":"قریه"},"geometry":{"x":7492247.1285755374,"y":3855409.3212538511}},{"attributes":{"OBJECTID":193,"ولایت":"زابل","Province":"ZABUL","PC_Code":"2605061","ولسوالي":"ارغنداب","District":"ARGHANDAB","د_مرکز_نوم__نام_مرکز":"مسجد","Polling_Center_Name":"Moque","د_مرکز_ځای__موقعیت_مرکز":"خوازنگی","Polling_Center_Location":"Khwazangi","Verification_Note":"Village","PS_Male":2,"PS_Female":1,"Map_Accuracy":"قریه"},"geometry":{"x":7454321.74213019,"y":3831414.9566516429}},{"attributes":{"OBJECTID":194,"ولایت":"زابل","Province":"ZABUL","PC_Code":"2610080","ولسوالي":"شملزائی","District":"SHEMEL ZAYI","د_مرکز_نوم__نام_مرکز":"شخصی کور","Polling_Center_Name":"House","د_مرکز_ځای__موقعیت_مرکز":"عمران کلی","Polling_Center_Location":"Omran villge","Verification_Note":"Building","PS_Male":2,"PS_Female":1,"Map_Accuracy":"تعمیر"},"geometry":{"x":7526284.7282251753,"y":3728875.083536692}},{"attributes":{"OBJECTID":195,"ولایت":"زابل","Province":"ZABUL","PC_Code":"2610081","ولسوالي":"شملزائی","District":"SHEMEL ZAYI","د_مرکز_نوم__نام_مرکز":"شخصی کور","Polling_Center_Name":"House","د_مرکز_ځای__موقعیت_مرکز":"سین زائی","Polling_Center_Location":"Seen zai","Verification_Note":"Building","PS_Male":2,"PS_Female":1,"Map_Accuracy":"تعمیر"},"geometry":{"x":7541120.3301965371,"y":3765464.4587947205}},{"attributes":{"OBJECTID":196,"ولایت":"بادغيس","Province":"BADGHIS","PC_Code":"3106198","ولسوالي":"جوند","District":"JAWAND","د_مرکز_نوم__نام_مرکز":"مسجد کفتر خان","Polling_Center_Name":"Kaftar khan Mosque","د_مرکز_ځای__موقعیت_مرکز":"کفتر خان","Polling_Center_Location":"Kaftar khan","Verification_Note":"Building","PS_Male":2,"PS_Female":1,"Map_Accuracy":"تعمیر"},"geometry":{"x":7110436.2897048965,"y":4141654.3667135388}},{"attributes":{"OBJECTID":197,"ولایت":"هلمند","Province":"HELMAND","PC_Code":"3008226","ولسوالي":"سنگین قلعه","District":"SANGIN QALA","د_مرکز_نوم__نام_مرکز":"نوی مکتب","Polling_Center_Name":"New School","د_مرکز_ځای__موقعیت_مرکز":"نوی مکتب","Polling_Center_Location":"Nawi maktab","Verification_Note":"Building","PS_Male":3,"PS_Female":1,"Map_Accuracy":"تعمیر"},"geometry":{"x":7217666.5021958351,"y":3772748.3842053562}},{"attributes":{"OBJECTID":198,"ولایت":"هرات","Province":"HERAT","PC_Code":"3201474","ولسوالي":"ناحیه_12","District":"DISTRICT_12","د_مرکز_نوم__نام_مرکز":"مكتب متوسطه سيد قناد","Polling_Center_Name":"Sayed qanad Secondary School","د_مرکز_ځای__موقعیت_مرکز":"مكتب متوسطه سيد قناد","Polling_Center_Location":"Said qunad Secondary school","Verification_Note":"Building","PS_Male":2,"PS_Female":1,"Map_Accuracy":"تعمیر"},"geometry":{"x":6919741.9224506356,"y":4077881.6525901482}},{"attributes":{"OBJECTID":199,"ولایت":"هرات","Province":"HERAT","PC_Code":"3201475","ولسوالي":"هرات","District":"HERAT","د_مرکز_نوم__نام_مرکز":"مولانا جامی","Polling_Center_Name":"Mawlana jame","د_مرکز_ځای__موقعیت_مرکز":"ناحیه 09","Polling_Center_Location":"9th District","Verification_Note":"Building","PS_Male":2,"PS_Female":1,"Map_Accuracy":"تعمیر"},"geometry":{"x":6921871.3974065,"y":4079049.9851764143}}]}