{"objectIdFieldName":"OBJECTID","globalIdFieldName":"","geometryType":"esriGeometryPoint","spatialReference":{"wkid":102100,"latestWkid":3857},"fields":[{"name":"OBJECTID","type":"esriFieldTypeOID","alias":"OBJECTID","sqlType":"sqlTypeOther","domain":null,"defaultValue":null},{"name":"ولایت","type":"esriFieldTypeString","alias":"ولایت","sqlType":"sqlTypeOther","length":255,"domain":null,"defaultValue":null},{"name":"Province","type":"esriFieldTypeString","alias":"Province","sqlType":"sqlTypeOther","length":255,"domain":null,"defaultValue":null},{"name":"PC_Code","type":"esriFieldTypeString","alias":"PC_Code","sqlType":"sqlTypeOther","length":255,"domain":null,"defaultValue":null},{"name":"ولسوالي","type":"esriFieldTypeString","alias":"ولسوالي","sqlType":"sqlTypeOther","length":255,"domain":null,"defaultValue":null},{"name":"District","type":"esriFieldTypeString","alias":"District","sqlType":"sqlTypeOther","length":255,"domain":null,"defaultValue":null},{"name":"د_مرکز_نوم__نام_مرکز","type":"esriFieldTypeString","alias":"د_مرکز_نوم__نام_مرکز","sqlType":"sqlTypeOther","length":255,"domain":null,"defaultValue":null},{"name":"Polling_Center_Name","type":"esriFieldTypeString","alias":"Polling_Center_Name","sqlType":"sqlTypeOther","length":255,"domain":null,"defaultValue":null},{"name":"د_مرکز_ځای__موقعیت_مرکز","type":"esriFieldTypeString","alias":"د_مرکز_ځای__موقعیت_مرکز","sqlType":"sqlTypeOther","length":255,"domain":null,"defaultValue":null},{"name":"Polling_Center_Location","type":"esriFieldTypeString","alias":"Polling_Center_Location","sqlType":"sqlTypeOther","length":255,"domain":null,"defaultValue":null},{"name":"Verification_Note","type":"esriFieldTypeString","alias":"Verification_Note","sqlType":"sqlTypeOther","length":250,"domain":null,"defaultValue":null},{"name":"PS_Male","type":"esriFieldTypeSmallInteger","alias":"PS_Male","sqlType":"sqlTypeOther","domain":null,"defaultValue":null},{"name":"PS_Female","type":"esriFieldTypeSmallInteger","alias":"PS_Female","sqlType":"sqlTypeOther","domain":null,"defaultValue":null},{"name":"Map_Accuracy","type":"esriFieldTypeString","alias":"Map_Accuracy","sqlType":"sqlTypeOther","length":10,"domain":null,"defaultValue":null}],"features":[{"attributes":{"OBJECTID":2400,"ولایت":"غور","Province":"GHOR","PC_Code":"2310205","ولسوالي":"ساغر ","District":"SAGHAR","د_مرکز_نوم__نام_مرکز":"مسجد زیرتنگی","Polling_Center_Name":"Zer Tangi Mosque","د_مرکز_ځای__موقعیت_مرکز":" زیرتنگی","Polling_Center_Location":"Zer Tangi","Verification_Note":"Village","PS_Male":1,"PS_Female":1,"Map_Accuracy":"قریه"},"geometry":{"x":7122984.2663443536,"y":4000611.9985292479}},{"attributes":{"OBJECTID":2401,"ولایت":"دایکندی","Province":"DAYKUNDI","PC_Code":"2402015","ولسوالي":"شهرستان","District":"SHAHRISTAN","د_مرکز_نوم__نام_مرکز":"مسجد شینیه","Polling_Center_Name":"Shiniya Mosque","د_مرکز_ځای__موقعیت_مرکز":"شینیه حیدر بیگ","Polling_Center_Location":"Shiniya Haidar Beg","Verification_Note":"Building","PS_Male":1,"PS_Female":1,"Map_Accuracy":"تعمیر"},"geometry":{"x":7383645.7525056526,"y":3994463.0214797184}},{"attributes":{"OBJECTID":2402,"ولایت":"دایکندی","Province":"DAYKUNDI","PC_Code":"2402016","ولسوالي":"شهرستان","District":"SHAHRISTAN","د_مرکز_نوم__نام_مرکز":"مسجد پالیچ","Polling_Center_Name":"Palich Mosque","د_مرکز_ځای__موقعیت_مرکز":"پالیچ","Polling_Center_Location":"Palich","Verification_Note":"Building","PS_Male":1,"PS_Female":1,"Map_Accuracy":"تعمیر"},"geometry":{"x":7414493.3752611242,"y":3984666.0209598243}},{"attributes":{"OBJECTID":2403,"ولایت":"دایکندی","Province":"DAYKUNDI","PC_Code":"2402024","ولسوالي":"شهرستان","District":"SHAHRISTAN","د_مرکز_نوم__نام_مرکز":"مسجد شالج","Polling_Center_Name":"Shalij Mosque","د_مرکز_ځای__موقعیت_مرکز":"شالج","Polling_Center_Location":"Shalij","Verification_Note":"Building","PS_Male":2,"PS_Female":1,"Map_Accuracy":"تعمیر"},"geometry":{"x":7376056.4137506224,"y":3981891.3953497633}},{"attributes":{"OBJECTID":2404,"ولایت":"دایکندی","Province":"DAYKUNDI","PC_Code":"2402025","ولسوالي":"شهرستان","District":"SHAHRISTAN","د_مرکز_نوم__نام_مرکز":"مسجد اشکرآباد","Polling_Center_Name":"Ashkar Abad Mosque","د_مرکز_ځای__موقعیت_مرکز":"اشکرآباد","Polling_Center_Location":"Ashkar Abad","Verification_Note":"Building","PS_Male":1,"PS_Female":1,"Map_Accuracy":"تعمیر"},"geometry":{"x":7412303.8756113127,"y":3976477.6109436974}},{"attributes":{"OBJECTID":2405,"ولایت":"دایکندی","Province":"DAYKUNDI","PC_Code":"2402035","ولسوالي":"شهرستان","District":"SHAHRISTAN","د_مرکز_نوم__نام_مرکز":"مسجد آشو غولکه","Polling_Center_Name":"Asho Gholaka Mosque","د_مرکز_ځای__موقعیت_مرکز":"آشو غولکه","Polling_Center_Location":"Asho Ghokala","Verification_Note":"Building","PS_Male":2,"PS_Female":1,"Map_Accuracy":"تعمیر"},"geometry":{"x":7415750.1867837124,"y":3967635.0300447717}},{"attributes":{"OBJECTID":2406,"ولایت":"دایکندی","Province":"DAYKUNDI","PC_Code":"2403104","ولسوالي":"گیزاب","District":"GIZAB","د_مرکز_نوم__نام_مرکز":"مسجد دهن جنگل قخور","Polling_Center_Name":"Dahn Jangal Qakhor Mosque","د_مرکز_ځای__موقعیت_مرکز":"دهن جنگل قخور","Polling_Center_Location":"Dahn Jangal Qakhor","Verification_Note":"Building","PS_Male":1,"PS_Female":1,"Map_Accuracy":"تعمیر"},"geometry":{"x":7346386.464378532,"y":3973136.0706308857}},{"attributes":{"OBJECTID":2407,"ولایت":"دایکندی","Province":"DAYKUNDI","PC_Code":"2403109","ولسوالي":"گیزاب","District":"GIZAB","د_مرکز_نوم__نام_مرکز":"مسجد صاحب زمان وگیر","Polling_Center_Name":"Sahib Zaman Wageer Mosque","د_مرکز_ځای__موقعیت_مرکز":"وگیر","Polling_Center_Location":"Wageer","Verification_Note":"Building","PS_Male":1,"PS_Female":1,"Map_Accuracy":"تعمیر"},"geometry":{"x":7356176.1642260812,"y":3984773.0649265051}},{"attributes":{"OBJECTID":2408,"ولایت":"دایکندی","Province":"DAYKUNDI","PC_Code":"2403110","ولسوالي":"گیزاب","District":"GIZAB","د_مرکز_نوم__نام_مرکز":"مکتب بازار چلزی","Polling_Center_Name":"Chalzai Bazar School","د_مرکز_ځای__موقعیت_مرکز":"چلزی","Polling_Center_Location":"Chalzai","Verification_Note":"District","PS_Male":1,"PS_Female":1,"Map_Accuracy":"ولسوالی"},"geometry":{"x":7361370.5698902123,"y":3957960.0348712429}},{"attributes":{"OBJECTID":2409,"ولایت":"دایکندی","Province":"DAYKUNDI","PC_Code":"2403114","ولسوالي":"گیزاب","District":"GIZAB","د_مرکز_نوم__نام_مرکز":"مسجد سهور تگاب دار","Polling_Center_Name":"Sohoor Tagabdar Mosque","د_مرکز_ځای__موقعیت_مرکز":"سهور تگاب دار","Polling_Center_Location":"Sohoor Tagabdar","Verification_Note":"Building","PS_Male":3,"PS_Female":2,"Map_Accuracy":"تعمیر"},"geometry":{"x":7348957.2800384983,"y":3943972.1863738596}},{"attributes":{"OBJECTID":2410,"ولایت":"دایکندی","Province":"DAYKUNDI","PC_Code":"2403115","ولسوالي":"گیزاب","District":"GIZAB","د_مرکز_نوم__نام_مرکز":"مسجد حاجی باز محمد","Polling_Center_Name":"Haji Baz Mohammad Mosque","د_مرکز_ځای__موقعیت_مرکز":"پتو","Polling_Center_Location":"Pato","Verification_Note":"Village","PS_Male":1,"PS_Female":1,"Map_Accuracy":"قریه"},"geometry":{"x":7353905.4080271646,"y":3975579.0730534047}},{"attributes":{"OBJECTID":2411,"ولایت":"دایکندی","Province":"DAYKUNDI","PC_Code":"2404036","ولسوالي":"اشترلی","District":"ISHTERLAI","د_مرکز_نوم__نام_مرکز":"مسجد سیاه ناورعبدی","Polling_Center_Name":"Siyah Nawar Abdi Mosque","د_مرکز_ځای__موقعیت_مرکز":"سیاه ناورعبدی","Polling_Center_Location":"Siyah Nawar Abdi","Verification_Note":"Building","PS_Male":2,"PS_Female":1,"Map_Accuracy":"تعمیر"},"geometry":{"x":7388946.0230055116,"y":4026562.59259934}},{"attributes":{"OBJECTID":2412,"ولایت":"دایکندی","Province":"DAYKUNDI","PC_Code":"2404037","ولسوالي":"اشترلی","District":"ISHTERLAI","د_مرکز_نوم__نام_مرکز":"مسجد سفید سنگ","Polling_Center_Name":"Safid Sang Mosque","د_مرکز_ځای__موقعیت_مرکز":"پیرستان","Polling_Center_Location":"Pirestan","Verification_Note":"Building","PS_Male":2,"PS_Female":1,"Map_Accuracy":"تعمیر"},"geometry":{"x":7403259.7892603166,"y":4032783.5983289778}},{"attributes":{"OBJECTID":2413,"ولایت":"دایکندی","Province":"DAYKUNDI","PC_Code":"2404042","ولسوالي":"اشترلی","District":"ISHTERLAI","د_مرکز_نوم__نام_مرکز":"مسجد گم آب","Polling_Center_Name":"Gum Aab Mosque","د_مرکز_ځای__موقعیت_مرکز":"گم آب","Polling_Center_Location":"Gum Aab","Verification_Note":"Building","PS_Male":1,"PS_Female":1,"Map_Accuracy":"تعمیر"},"geometry":{"x":7405336.5472015217,"y":4067734.3012795672}},{"attributes":{"OBJECTID":2414,"ولایت":"دایکندی","Province":"DAYKUNDI","PC_Code":"2404043","ولسوالي":"اشترلی","District":"ISHTERLAI","د_مرکز_نوم__نام_مرکز":"مسجد لوران خوشک","Polling_Center_Name":"Loran Khushk Mosque","د_مرکز_ځای__موقعیت_مرکز":"لوران خوشک","Polling_Center_Location":"Loran Khushk","Verification_Note":"Building","PS_Male":2,"PS_Female":1,"Map_Accuracy":"تعمیر"},"geometry":{"x":7379517.0049873032,"y":4023431.6404130608}},{"attributes":{"OBJECTID":2415,"ولایت":"دایکندی","Province":"DAYKUNDI","PC_Code":"2405088","ولسوالي":"خدیر","District":"KHEDIR","د_مرکز_نوم__نام_مرکز":"مسجد خدیر سفلی","Polling_Center_Name":"Khadeer Sufla Mosque","د_مرکز_ځای__موقعیت_مرکز":"خدیر سفلی","Polling_Center_Location":"Khadeer Sufla","Verification_Note":"Building","PS_Male":1,"PS_Female":1,"Map_Accuracy":"تعمیر"},"geometry":{"x":7338157.2656432055,"y":4019031.0492466018}},{"attributes":{"OBJECTID":2416,"ولایت":"دایکندی","Province":"DAYKUNDI","PC_Code":"2405089","ولسوالي":"خدیر","District":"KHEDIR","د_مرکز_نوم__نام_مرکز":"مسجد شکردره","Polling_Center_Name":"Shakar Dara Mosque","د_مرکز_ځای__موقعیت_مرکز":"شکردره","Polling_Center_Location":"Shakar Dara","Verification_Note":"Building","PS_Male":1,"PS_Female":1,"Map_Accuracy":"تعمیر"},"geometry":{"x":7314356.0108076558,"y":4005145.5538434014}},{"attributes":{"OBJECTID":2417,"ولایت":"دایکندی","Province":"DAYKUNDI","PC_Code":"2405091","ولسوالي":"خدیر","District":"KHEDIR","د_مرکز_نوم__نام_مرکز":"مکتب دستنی","Polling_Center_Name":"Dastani School","د_مرکز_ځای__موقعیت_مرکز":"دستنی","Polling_Center_Location":"Dastani","Verification_Note":"Building","PS_Male":1,"PS_Female":1,"Map_Accuracy":"تعمیر"},"geometry":{"x":7309505.4042588957,"y":4002277.3452968821}},{"attributes":{"OBJECTID":2418,"ولایت":"دایکندی","Province":"DAYKUNDI","PC_Code":"2405092","ولسوالي":"خدیر","District":"KHEDIR","د_مرکز_نوم__نام_مرکز":"مسجد قریه بزی","Polling_Center_Name":"Bazi Village Mosque","د_مرکز_ځای__موقعیت_مرکز":"قریه بزی","Polling_Center_Location":"Bazi Village","Verification_Note":"Building","PS_Male":1,"PS_Female":1,"Map_Accuracy":"تعمیر"},"geometry":{"x":7311838.3657892719,"y":3995477.3088373542}},{"attributes":{"OBJECTID":2419,"ولایت":"دایکندی","Province":"DAYKUNDI","PC_Code":"2407146","ولسوالي":"میرامور","District":"MIRAMOR","د_مرکز_نوم__نام_مرکز":"مکتب اسکان","Polling_Center_Name":"Askan Mosque","د_مرکز_ځای__موقعیت_مرکز":"اسکان","Polling_Center_Location":"Askan","Verification_Note":"Building","PS_Male":2,"PS_Female":1,"Map_Accuracy":"تعمیر"},"geometry":{"x":7435304.2846717648,"y":3992563.9333102256}},{"attributes":{"OBJECTID":2420,"ولایت":"دایکندی","Province":"DAYKUNDI","PC_Code":"2407147","ولسوالي":"میرامور","District":"MIRAMOR","د_مرکز_نوم__نام_مرکز":"مسجد سرخ جوی","Polling_Center_Name":"Surkh Joy Mosque","د_مرکز_ځای__موقعیت_مرکز":"سرخ جوی","Polling_Center_Location":"Surkh Joy ","Verification_Note":"Building","PS_Male":2,"PS_Female":1,"Map_Accuracy":"تعمیر"},"geometry":{"x":7444064.3371156119,"y":4013738.7830471322}},{"attributes":{"OBJECTID":2421,"ولایت":"دایکندی","Province":"DAYKUNDI","PC_Code":"2407154","ولسوالي":"میرامور","District":"MIRAMOR","د_مرکز_نوم__نام_مرکز":"لیسه زکور وطنه","Polling_Center_Name":"Watana Boys High School","د_مرکز_ځای__موقعیت_مرکز":"پتاپ جوی","Polling_Center_Location":"Pitap Joy","Verification_Note":"Building","PS_Male":1,"PS_Female":1,"Map_Accuracy":"تعمیر"},"geometry":{"x":7474658.563314192,"y":4008901.1658041477}},{"attributes":{"OBJECTID":2422,"ولایت":"دایکندی","Province":"DAYKUNDI","PC_Code":"2407155","ولسوالي":"میرامور","District":"MIRAMOR","د_مرکز_نوم__نام_مرکز":"مسجد شینیه نیک","Polling_Center_Name":"Shinya Nek Mosque","د_مرکز_ځای__موقعیت_مرکز":"شینیه نیک","Polling_Center_Location":"Shinya Nek","Verification_Note":"Building","PS_Male":1,"PS_Female":1,"Map_Accuracy":"تعمیر"},"geometry":{"x":7491736.2010558732,"y":4012221.2548454627}},{"attributes":{"OBJECTID":2423,"ولایت":"دایکندی","Province":"DAYKUNDI","PC_Code":"2407157","ولسوالي":"میرامور","District":"MIRAMOR","د_مرکز_نوم__نام_مرکز":"مکتب شینیه برکر","Polling_Center_Name":"Shinya Barkar School","د_مرکز_ځای__موقعیت_مرکز":"شینیه برکر","Polling_Center_Location":"Shinya Barkar","Verification_Note":"Building","PS_Male":2,"PS_Female":1,"Map_Accuracy":"تعمیر"},"geometry":{"x":7464432.8751149774,"y":3998744.9918180481}},{"attributes":{"OBJECTID":2424,"ولایت":"دایکندی","Province":"DAYKUNDI","PC_Code":"2407158","ولسوالي":"میرامور","District":"MIRAMOR","د_مرکز_نوم__نام_مرکز":"مسجد شینه اشتو","Polling_Center_Name":"Shina Ashto Mosque","د_مرکز_ځای__موقعیت_مرکز":"اشتو","Polling_Center_Location":"Ashto","Verification_Note":"Building","PS_Male":1,"PS_Female":1,"Map_Accuracy":"تعمیر"},"geometry":{"x":7453640.2679186016,"y":3988958.2848553583}},{"attributes":{"OBJECTID":2425,"ولایت":"دایکندی","Province":"DAYKUNDI","PC_Code":"2407166","ولسوالي":"میرامور","District":"MIRAMOR","د_مرکز_نوم__نام_مرکز":"مسجد قریه گرگی","Polling_Center_Name":"Gargai Village Mosque","د_مرکز_ځای__موقعیت_مرکز":"گرگی","Polling_Center_Location":"Gargai","Verification_Note":"Building","PS_Male":1,"PS_Female":1,"Map_Accuracy":"تعمیر"},"geometry":{"x":7414287.4230712093,"y":4025008.6496544257}},{"attributes":{"OBJECTID":2426,"ولایت":"دایکندی","Province":"DAYKUNDI","PC_Code":"2407167","ولسوالي":"میرامور","District":"MIRAMOR","د_مرکز_نوم__نام_مرکز":"مسجد دو جهان تیکان برکر","Polling_Center_Name":"Do Jahan Tikan Barkar Mosque","د_مرکز_ځای__موقعیت_مرکز":"دو جهان","Polling_Center_Location":"Do Jahan","Verification_Note":"Building","PS_Male":1,"PS_Female":1,"Map_Accuracy":"تعمیر"},"geometry":{"x":7464022.4267940819,"y":4009692.7992961034}},{"attributes":{"OBJECTID":2427,"ولایت":"دایکندی","Province":"DAYKUNDI","PC_Code":"2408074","ولسوالي":"سنگ تخت","District":"SANG-E-TAKHT","د_مرکز_نوم__نام_مرکز":"مکتب شینیه قرامت","Polling_Center_Name":"Shinya Qaramat School","د_مرکز_ځای__موقعیت_مرکز":"شینیه قرامت","Polling_Center_Location":"Shinya Qaramat","Verification_Note":"Building","PS_Male":2,"PS_Female":1,"Map_Accuracy":"تعمیر"},"geometry":{"x":7367174.4063518271,"y":4056753.7060532495}},{"attributes":{"OBJECTID":2428,"ولایت":"دایکندی","Province":"DAYKUNDI","PC_Code":"2408075","ولسوالي":"سنگ تخت","District":"SANG-E-TAKHT","د_مرکز_نوم__نام_مرکز":"مسجد قلعه سنگی","Polling_Center_Name":"Qala-e-Sangi Mosque","د_مرکز_ځای__موقعیت_مرکز":"شیخ علی","Polling_Center_Location":"Shekh Ali ","Verification_Note":"Building","PS_Male":2,"PS_Female":1,"Map_Accuracy":"تعمیر"},"geometry":{"x":7355929.4301407114,"y":4044781.0837239698}},{"attributes":{"OBJECTID":2429,"ولایت":"دایکندی","Province":"DAYKUNDI","PC_Code":"2408079","ولسوالي":"سنگ تخت","District":"SANG-E-TAKHT","د_مرکز_نوم__نام_مرکز":"مکتب بازار سیاه چوب","Polling_Center_Name":"Siyah Chob Bazar Mosque","د_مرکز_ځای__موقعیت_مرکز":"سیاه چوب","Polling_Center_Location":"Siyah Chob","Verification_Note":"Building","PS_Male":2,"PS_Female":1,"Map_Accuracy":"تعمیر"},"geometry":{"x":7305792.881429825,"y":4033954.4883165359}},{"attributes":{"OBJECTID":2430,"ولایت":"دایکندی","Province":"DAYKUNDI","PC_Code":"2408080","ولسوالي":"سنگ تخت","District":"SANG-E-TAKHT","د_مرکز_نوم__نام_مرکز":"مسجد شینیه لیس","Polling_Center_Name":"Shinya Les Mosque","د_مرکز_ځای__موقعیت_مرکز":"شینیه لیس","Polling_Center_Location":"Shinya Les","Verification_Note":"Building","PS_Male":1,"PS_Female":1,"Map_Accuracy":"تعمیر"},"geometry":{"x":7315549.1731849946,"y":4043415.3318405077}},{"attributes":{"OBJECTID":2431,"ولایت":"دایکندی","Province":"DAYKUNDI","PC_Code":"2409059","ولسوالي":"کجران","District":"KEJRAN","د_مرکز_نوم__نام_مرکز":"مکتب لاغر جوی","Polling_Center_Name":"Laghar Joy School","د_مرکز_ځای__موقعیت_مرکز":"لاغر جوی","Polling_Center_Location":"Laghar Joy","Verification_Note":"Building","PS_Male":1,"PS_Female":1,"Map_Accuracy":"تعمیر"},"geometry":{"x":7287536.1732451543,"y":3926241.64199052}},{"attributes":{"OBJECTID":2432,"ولایت":"دایکندی","Province":"DAYKUNDI","PC_Code":"2409060","ولسوالي":"کجران","District":"KEJRAN","د_مرکز_نوم__نام_مرکز":"مسجد باغبان","Polling_Center_Name":"Baghban Mosque","د_مرکز_ځای__موقعیت_مرکز":"باغبان","Polling_Center_Location":"Baghban","Verification_Note":"Building","PS_Male":1,"PS_Female":1,"Map_Accuracy":"تعمیر"},"geometry":{"x":7312774.1163156815,"y":3925772.1764073968}},{"attributes":{"OBJECTID":2433,"ولایت":"دایکندی","Province":"DAYKUNDI","PC_Code":"2409066","ولسوالي":"کجران","District":"KEJRAN","د_مرکز_نوم__نام_مرکز":"مسجد جامع سید آباد","Polling_Center_Name":"Sayed Abad Mosque","د_مرکز_ځای__موقعیت_مرکز":"سید آباد","Polling_Center_Location":"Sayed Abad","Verification_Note":"District","PS_Male":1,"PS_Female":1,"Map_Accuracy":"ولسوالی"},"geometry":{"x":7285308.8589209132,"y":3911534.9679604545}},{"attributes":{"OBJECTID":2434,"ولایت":"دایکندی","Province":"DAYKUNDI","PC_Code":"2409070","ولسوالي":"کجران","District":"KEJRAN","د_مرکز_نوم__نام_مرکز":"مسجد سليمان آباد","Polling_Center_Name":"Sulaiman Abad Mosque","د_مرکز_ځای__موقعیت_مرکز":"سليمان آباد","Polling_Center_Location":"Sulaiman Abad","Verification_Note":"Building","PS_Male":1,"PS_Female":1,"Map_Accuracy":"تعمیر"},"geometry":{"x":7302038.928825859,"y":3926801.982675679}},{"attributes":{"OBJECTID":2435,"ولایت":"دایکندی","Province":"DAYKUNDI","PC_Code":"2409168","ولسوالي":"کجران","District":"KEJRAN","د_مرکز_نوم__نام_مرکز":"مسجد هفتاد نفر","Polling_Center_Name":"Haftad Nafar Mosque","د_مرکز_ځای__موقعیت_مرکز":"هفتاد نفر","Polling_Center_Location":"Haftad Nafar","Verification_Note":"Building","PS_Male":1,"PS_Female":1,"Map_Accuracy":"تعمیر"},"geometry":{"x":7316103.5164192691,"y":3939004.7873833552}},{"attributes":{"OBJECTID":2436,"ولایت":"دایکندی","Province":"DAYKUNDI","PC_Code":"2401003","ولسوالي":"نیلی","District":"NILI","د_مرکز_نوم__نام_مرکز":"مکتب شیش","Polling_Center_Name":"Shish School","د_مرکز_ځای__موقعیت_مرکز":"شیش","Polling_Center_Location":"Shish","Verification_Note":"Building","PS_Male":2,"PS_Female":1,"Map_Accuracy":"تعمیر"},"geometry":{"x":7349807.0028624237,"y":4007441.5769515559}},{"attributes":{"OBJECTID":2437,"ولایت":"دایکندی","Province":"DAYKUNDI","PC_Code":"2401004","ولسوالي":"نیلی","District":"NILI","د_مرکز_نوم__نام_مرکز":"مسجد بازار پیشوک","Polling_Center_Name":"Bazar Pishok Mosque","د_مرکز_ځای__موقعیت_مرکز":"پیشوک","Polling_Center_Location":"Pishok","Verification_Note":"Building","PS_Male":2,"PS_Female":1,"Map_Accuracy":"تعمیر"},"geometry":{"x":7365022.86442199,"y":4013588.9288301393}},{"attributes":{"OBJECTID":2438,"ولایت":"دایکندی","Province":"DAYKUNDI","PC_Code":"2401012","ولسوالي":"نیلی","District":"NILI","د_مرکز_نوم__نام_مرکز":"مسجد پای نیلی","Polling_Center_Name":"Pai Nili Mosque","د_مرکز_ځای__موقعیت_مرکز":"پای نیلی","Polling_Center_Location":"Pai Nili","Verification_Note":"Building","PS_Male":2,"PS_Female":1,"Map_Accuracy":"تعمیر"},"geometry":{"x":7366961.6202583723,"y":3988182.7894341424}},{"attributes":{"OBJECTID":2439,"ولایت":"دایکندی","Province":"DAYKUNDI","PC_Code":"2402013","ولسوالي":"شهرستان","District":"SHAHRISTAN","د_مرکز_نوم__نام_مرکز":"مکتب ورس","Polling_Center_Name":"Waras School","د_مرکز_ځای__موقعیت_مرکز":"ورس، سرخ کیجی","Polling_Center_Location":"Waras, Surkh Keji","Verification_Note":"Building","PS_Male":2,"PS_Female":1,"Map_Accuracy":"تعمیر"},"geometry":{"x":7395869.4797360674,"y":3984392.7113739625}},{"attributes":{"OBJECTID":2440,"ولایت":"دایکندی","Province":"DAYKUNDI","PC_Code":"2402019","ولسوالي":"شهرستان","District":"SHAHRISTAN","د_مرکز_نوم__نام_مرکز":"مسجد اولقان","Polling_Center_Name":"Olqan Mosque","د_مرکز_ځای__موقعیت_مرکز":"اولقان","Polling_Center_Location":"Olqan","Verification_Note":"Building","PS_Male":2,"PS_Female":1,"Map_Accuracy":"تعمیر"},"geometry":{"x":7408231.9989944212,"y":3988015.7184749097}},{"attributes":{"OBJECTID":2441,"ولایت":"دایکندی","Province":"DAYKUNDI","PC_Code":"2402020","ولسوالي":"شهرستان","District":"SHAHRISTAN","د_مرکز_نوم__نام_مرکز":"مسجد تگاب لرگر","Polling_Center_Name":"Tagab Largar Mosque","د_مرکز_ځای__موقعیت_مرکز":"تگاب لرگر","Polling_Center_Location":"Tagab Largar","Verification_Note":"Building","PS_Male":1,"PS_Female":1,"Map_Accuracy":"تعمیر"},"geometry":{"x":7391191.6543953642,"y":4013855.7578641847}},{"attributes":{"OBJECTID":2442,"ولایت":"دایکندی","Province":"DAYKUNDI","PC_Code":"2402030","ولسوالي":"شهرستان","District":"SHAHRISTAN","د_مرکز_نوم__نام_مرکز":"لیسه تگگ","Polling_Center_Name":"Tagag High School","د_مرکز_ځای__موقعیت_مرکز":"تگگ","Polling_Center_Location":"Tagag","Verification_Note":"Building","PS_Male":1,"PS_Female":1,"Map_Accuracy":"تعمیر"},"geometry":{"x":7417261.0984023809,"y":3993669.6061788052}},{"attributes":{"OBJECTID":2443,"ولایت":"دایکندی","Province":"DAYKUNDI","PC_Code":"2402031","ولسوالي":"شهرستان","District":"SHAHRISTAN","د_مرکز_نوم__نام_مرکز":"مسجد فیض آباد","Polling_Center_Name":"Faiz Abad Mosque","د_مرکز_ځای__موقعیت_مرکز":"فیض آباد","Polling_Center_Location":"Faiz Abad","Verification_Note":"Building","PS_Male":1,"PS_Female":1,"Map_Accuracy":"تعمیر"},"geometry":{"x":7415626.1089660823,"y":4003114.089773491}},{"attributes":{"OBJECTID":2444,"ولایت":"دایکندی","Province":"DAYKUNDI","PC_Code":"2404046","ولسوالي":"اشترلی","District":"ISHTERLAI","د_مرکز_نوم__نام_مرکز":"مسجد قلندران","Polling_Center_Name":"Qalandaran Mosque","د_مرکز_ځای__موقعیت_مرکز":"جنگان کلان","Polling_Center_Location":"Jangan Kalan","Verification_Note":"Building","PS_Male":1,"PS_Female":1,"Map_Accuracy":"تعمیر"},"geometry":{"x":7381384.545292642,"y":4062632.7363988906}},{"attributes":{"OBJECTID":2445,"ولایت":"دایکندی","Province":"DAYKUNDI","PC_Code":"2404047","ولسوالي":"اشترلی","District":"ISHTERLAI","د_مرکز_نوم__نام_مرکز":"مسجد ایل صافی","Polling_Center_Name":"Elsafi Mosque","د_مرکز_ځای__موقعیت_مرکز":"جنگان خورد","Polling_Center_Location":"Jangan Khord","Verification_Note":"Building","PS_Male":1,"PS_Female":1,"Map_Accuracy":"تعمیر"},"geometry":{"x":7386012.4382757582,"y":4058143.8840294778}},{"attributes":{"OBJECTID":2446,"ولایت":"دایکندی","Province":"DAYKUNDI","PC_Code":"2404052","ولسوالي":"اشترلی","District":"ISHTERLAI","د_مرکز_نوم__نام_مرکز":"مسجد چکه جنکان","Polling_Center_Name":"Chaka Jankan Mosque","د_مرکز_ځای__موقعیت_مرکز":"چکه جنکان","Polling_Center_Location":"Chaka Jankan","Verification_Note":"Building","PS_Male":1,"PS_Female":1,"Map_Accuracy":"تعمیر"},"geometry":{"x":7378890.2094624415,"y":4053619.393311657}},{"attributes":{"OBJECTID":2447,"ولایت":"دایکندی","Province":"DAYKUNDI","PC_Code":"2404053","ولسوالي":"اشترلی","District":"ISHTERLAI","د_مرکز_نوم__نام_مرکز":"مسجد سرخ جوی","Polling_Center_Name":"Surkh Joy Mosque","د_مرکز_ځای__موقعیت_مرکز":"سرخ جوی","Polling_Center_Location":"Surkh Joy ","Verification_Note":"Building","PS_Male":1,"PS_Female":1,"Map_Accuracy":"تعمیر"},"geometry":{"x":7377739.88839113,"y":4033180.7672321573}},{"attributes":{"OBJECTID":2448,"ولایت":"دایکندی","Province":"DAYKUNDI","PC_Code":"2405095","ولسوالي":"خدیر","District":"KHEDIR","د_مرکز_نوم__نام_مرکز":"مکتب دهن غم قل","Polling_Center_Name":"Dahan Gham Qol School","د_مرکز_ځای__موقعیت_مرکز":"غم قل","Polling_Center_Location":"Gham Qol","Verification_Note":"Building","PS_Male":1,"PS_Female":1,"Map_Accuracy":"تعمیر"},"geometry":{"x":7321348.6381302029,"y":4015952.2706667557}},{"attributes":{"OBJECTID":2449,"ولایت":"دایکندی","Province":"DAYKUNDI","PC_Code":"2405096","ولسوالي":"خدیر","District":"KHEDIR","د_مرکز_نوم__نام_مرکز":"مکتب پیتابک کورگه","Polling_Center_Name":"Pitabak Korga School","د_مرکز_ځای__موقعیت_مرکز":"پیتابک","Polling_Center_Location":"Pitabak","Verification_Note":"Building","PS_Male":1,"PS_Female":1,"Map_Accuracy":"تعمیر"},"geometry":{"x":7352807.0063663572,"y":4013412.5874610543}},{"attributes":{"OBJECTID":2450,"ولایت":"دایکندی","Province":"DAYKUNDI","PC_Code":"2405100","ولسوالي":"خدیر","District":"KHEDIR","د_مرکز_نوم__نام_مرکز":"مسجد تخت کیان","Polling_Center_Name":"Takht Kiyan Mosque","د_مرکز_ځای__موقعیت_مرکز":"تخت کیان","Polling_Center_Location":"Takht Kiyan","Verification_Note":"Building","PS_Male":2,"PS_Female":1,"Map_Accuracy":"تعمیر"},"geometry":{"x":7333592.9483344816,"y":3999579.4066429585}},{"attributes":{"OBJECTID":2451,"ولایت":"دایکندی","Province":"DAYKUNDI","PC_Code":"2405101","ولسوالي":"خدیر","District":"KHEDIR","د_مرکز_نوم__نام_مرکز":"مکتب قرب علی","Polling_Center_Name":"Qorb Ali School","د_مرکز_ځای__موقعیت_مرکز":"شلغم","Polling_Center_Location":"Shalgham","Verification_Note":"Building","PS_Male":2,"PS_Female":1,"Map_Accuracy":"تعمیر"},"geometry":{"x":7323305.3097254373,"y":4028660.9570952356}},{"attributes":{"OBJECTID":2452,"ولایت":"دایکندی","Province":"DAYKUNDI","PC_Code":"2406126","ولسوالي":"کیتی","District":"KITI","د_مرکز_نوم__نام_مرکز":"مدرسه کهنه ده","Polling_Center_Name":"Kuhna Deh Madrassa","د_مرکز_ځای__موقعیت_مرکز":"کهنه ده ","Polling_Center_Location":"Kuhna Deh","Verification_Note":"Building","PS_Male":2,"PS_Female":1,"Map_Accuracy":"تعمیر"},"geometry":{"x":7322724.6839593835,"y":3981291.134819299}},{"attributes":{"OBJECTID":2453,"ولایت":"دایکندی","Province":"DAYKUNDI","PC_Code":"2406127","ولسوالي":"کیتی","District":"KITI","د_مرکز_نوم__نام_مرکز":"مسجد کاروان سرای","Polling_Center_Name":"Karwan Sarai Mosque","د_مرکز_ځای__موقعیت_مرکز":"کاروان سرای","Polling_Center_Location":"Karwan Sarai","Verification_Note":"Building","PS_Male":2,"PS_Female":1,"Map_Accuracy":"تعمیر"},"geometry":{"x":7314270.7089082561,"y":3980087.2593667805}},{"attributes":{"OBJECTID":2454,"ولایت":"دایکندی","Province":"DAYKUNDI","PC_Code":"2406139","ولسوالي":"کیتی","District":"KITI","د_مرکز_نوم__نام_مرکز":"مسجد شروع کیسو","Polling_Center_Name":"Shoro Kiso Mosque","د_مرکز_ځای__موقعیت_مرکز":"شروع کیسو","Polling_Center_Location":"Shoro Kiso","Verification_Note":"Building","PS_Male":2,"PS_Female":1,"Map_Accuracy":"تعمیر"},"geometry":{"x":7321509.57049166,"y":3950020.8941332325}},{"attributes":{"OBJECTID":2455,"ولایت":"دایکندی","Province":"DAYKUNDI","PC_Code":"2406140","ولسوالي":"کیتی","District":"KITI","د_مرکز_نوم__نام_مرکز":"مسجد مونمی","Polling_Center_Name":"Monami Mosque","د_مرکز_ځای__موقعیت_مرکز":"مونمی","Polling_Center_Location":"Monami","Verification_Note":"Building","PS_Male":2,"PS_Female":1,"Map_Accuracy":"تعمیر"},"geometry":{"x":7317333.971939221,"y":3966464.8582454175}},{"attributes":{"OBJECTID":2456,"ولایت":"دایکندی","Province":"DAYKUNDI","PC_Code":"2407161","ولسوالي":"میرامور","District":"MIRAMOR","د_مرکز_نوم__نام_مرکز":"مسجد تی جنک","Polling_Center_Name":"Tai Jang Mosque","د_مرکز_ځای__موقعیت_مرکز":"ندک","Polling_Center_Location":"Nadak","Verification_Note":"Building","PS_Male":1,"PS_Female":1,"Map_Accuracy":"تعمیر"},"geometry":{"x":7448477.5827433877,"y":3985107.3023357019}},{"attributes":{"OBJECTID":2457,"ولایت":"دایکندی","Province":"DAYKUNDI","PC_Code":"2407162","ولسوالي":"میرامور","District":"MIRAMOR","د_مرکز_نوم__نام_مرکز":"مسجد سیاه بومک رباط","Polling_Center_Name":"Siyah Bomak Rabat Mosque","د_مرکز_ځای__موقعیت_مرکز":"سیاه بومک","Polling_Center_Location":"Siyah Bomak","Verification_Note":"Building","PS_Male":1,"PS_Female":1,"Map_Accuracy":"تعمیر"},"geometry":{"x":7431891.6687960252,"y":4021911.5621069074}},{"attributes":{"OBJECTID":2458,"ولایت":"دایکندی","Province":"DAYKUNDI","PC_Code":"2402173","ولسوالي":"شهرستان","District":"SHAHRISTAN","د_مرکز_نوم__نام_مرکز":"مسجد","Polling_Center_Name":"Mosque","د_مرکز_ځای__موقعیت_مرکز":"سفید پشته لرگر","Polling_Center_Location":"Safid pushta largar","Verification_Note":"Building","PS_Male":2,"PS_Female":1,"Map_Accuracy":"تعمیر"},"geometry":{"x":7402771.8827226534,"y":4013220.8013391271}},{"attributes":{"OBJECTID":2459,"ولایت":"دایکندی","Province":"DAYKUNDI","PC_Code":"2402174","ولسوالي":"شهرستان","District":"SHAHRISTAN","د_مرکز_نوم__نام_مرکز":"مسجد","Polling_Center_Name":"Mosque","د_مرکز_ځای__موقعیت_مرکز":"غاف","Polling_Center_Location":"Ghaf","Verification_Note":"Building","PS_Male":2,"PS_Female":1,"Map_Accuracy":"تعمیر"},"geometry":{"x":7426057.882827282,"y":4002871.3050170988}},{"attributes":{"OBJECTID":2460,"ولایت":"دایکندی","Province":"DAYKUNDI","PC_Code":"2402175","ولسوالي":"شهرستان","District":"SHAHRISTAN","د_مرکز_نوم__نام_مرکز":"مسجد تگاب غیبی","Polling_Center_Name":"School","د_مرکز_ځای__موقعیت_مرکز":"غیبی ","Polling_Center_Location":"Ghaibi","Verification_Note":"Building","PS_Male":2,"PS_Female":1,"Map_Accuracy":"تعمیر"},"geometry":{"x":7376614.9393694885,"y":4008054.4959912}},{"attributes":{"OBJECTID":2461,"ولایت":"دایکندی","Province":"DAYKUNDI","PC_Code":"2405183","ولسوالي":"خدیر","District":"KHEDIR","د_مرکز_نوم__نام_مرکز":"مدرسه","Polling_Center_Name":"School","د_مرکز_ځای__موقعیت_مرکز":"رنگ درخت ","Polling_Center_Location":"Rang darakht","Verification_Note":"Building","PS_Male":2,"PS_Female":1,"Map_Accuracy":"تعمیر"},"geometry":{"x":7329369.40024722,"y":4010807.3397511393}},{"attributes":{"OBJECTID":2462,"ولایت":"دایکندی","Province":"DAYKUNDI","PC_Code":"2406184","ولسوالي":"کیتی","District":"KITI","د_مرکز_نوم__نام_مرکز":"مسجد","Polling_Center_Name":"Mosque","د_مرکز_ځای__موقعیت_مرکز":"سر باغ کیسو","Polling_Center_Location":"Sar bagh kisaw","Verification_Note":"Building","PS_Male":2,"PS_Female":1,"Map_Accuracy":"تعمیر"},"geometry":{"x":7329055.081315998,"y":3952373.3848793134}},{"attributes":{"OBJECTID":2463,"ولایت":"دایکندی","Province":"DAYKUNDI","PC_Code":"2406185","ولسوالي":"کیتی","District":"KITI","د_مرکز_نوم__نام_مرکز":"مسجد","Polling_Center_Name":"Mosque","د_مرکز_ځای__موقعیت_مرکز":"تجریب","Polling_Center_Location":"Tajreeb","Verification_Note":"Building","PS_Male":2,"PS_Female":1,"Map_Accuracy":"تعمیر"},"geometry":{"x":7312725.30160578,"y":3959480.5559708253}},{"attributes":{"OBJECTID":2464,"ولایت":"دایکندی","Province":"DAYKUNDI","PC_Code":"2406143","ولسوالي":"کیتی","District":"KITI","د_مرکز_نوم__نام_مرکز":"مسجد هوشی","Polling_Center_Name":"Hoshi Mosque","د_مرکز_ځای__موقعیت_مرکز":"هوشی","Polling_Center_Location":"Hoshi","Verification_Note":"Building","PS_Male":2,"PS_Female":1,"Map_Accuracy":"تعمیر"},"geometry":{"x":7320403.7560659647,"y":3960513.8170880079}},{"attributes":{"OBJECTID":2465,"ولایت":"دایکندی","Province":"DAYKUNDI","PC_Code":"2407144","ولسوالي":"میرامور","District":"MIRAMOR","د_مرکز_نوم__نام_مرکز":"مسجد اورلک","Polling_Center_Name":"Orlak Mosque","د_مرکز_ځای__موقعیت_مرکز":"تیورسل","Polling_Center_Location":"Teyorsal","Verification_Note":"Building","PS_Male":1,"PS_Female":2,"Map_Accuracy":"تعمیر"},"geometry":{"x":7449805.4483837523,"y":4006819.3084043041}},{"attributes":{"OBJECTID":2466,"ولایت":"دایکندی","Province":"DAYKUNDI","PC_Code":"2406129","ولسوالي":"کیتی","District":"KITI","د_مرکز_نوم__نام_مرکز":"مسجد شینه کیتی","Polling_Center_Name":"Shina Kiti Mosque","د_مرکز_ځای__موقعیت_مرکز":"شینه کیتی","Polling_Center_Location":"Shina Kiti","Verification_Note":"Building","PS_Male":2,"PS_Female":1,"Map_Accuracy":"تعمیر"},"geometry":{"x":7317241.9040411636,"y":3972488.05933322}},{"attributes":{"OBJECTID":2467,"ولایت":"دایکندی","Province":"DAYKUNDI","PC_Code":"2405180","ولسوالي":"خدیر","District":"KHEDIR","د_مرکز_نوم__نام_مرکز":"مکتب","Polling_Center_Name":"School","د_مرکز_ځای__موقعیت_مرکز":"چاغان","Polling_Center_Location":"Chaghan","Verification_Note":"Building","PS_Male":2,"PS_Female":1,"Map_Accuracy":"تعمیر"},"geometry":{"x":7304653.4968305677,"y":3987107.6782807186}},{"attributes":{"OBJECTID":2468,"ولایت":"دایکندی","Province":"DAYKUNDI","PC_Code":"2405181","ولسوالي":"خدیر","District":"KHEDIR","د_مرکز_نوم__نام_مرکز":"مسجد","Polling_Center_Name":"Mosque","د_مرکز_ځای__موقعیت_مرکز":"خربید سرقول","Polling_Center_Location":"Kharbid sar qul","Verification_Note":"Building","PS_Male":2,"PS_Female":1,"Map_Accuracy":"تعمیر"},"geometry":{"x":7336853.0784377642,"y":4014254.7993046492}},{"attributes":{"OBJECTID":2469,"ولایت":"دایکندی","Province":"DAYKUNDI","PC_Code":"2401007","ولسوالي":"نیلی","District":"NILI","د_مرکز_نوم__نام_مرکز":"مسجد سنگ موم","Polling_Center_Name":"Sang Moom Mosque","د_مرکز_ځای__موقعیت_مرکز":"سنگ موم","Polling_Center_Location":"Sang Moom","Verification_Note":"Building","PS_Male":1,"PS_Female":2,"Map_Accuracy":"تعمیر"},"geometry":{"x":7363044.2116801031,"y":3988111.5611705557}},{"attributes":{"OBJECTID":2470,"ولایت":"دایکندی","Province":"DAYKUNDI","PC_Code":"2401008","ولسوالي":"نیلی","District":"NILI","د_مرکز_نوم__نام_مرکز":"مسجد جامع دشت","Polling_Center_Name":"Dasht Mosque","د_مرکز_ځای__موقعیت_مرکز":"دشت","Polling_Center_Location":"Dasht","Verification_Note":"Building","PS_Male":2,"PS_Female":1,"Map_Accuracy":"تعمیر"},"geometry":{"x":7364033.8987261876,"y":3996483.7202935815}},{"attributes":{"OBJECTID":2471,"ولایت":"دایکندی","Province":"DAYKUNDI","PC_Code":"2403117","ولسوالي":"گیزاب","District":"GIZAB","د_مرکز_نوم__نام_مرکز":"مسجد بازار چونی","Polling_Center_Name":"Chonai Bazar Mosque","د_مرکز_ځای__موقعیت_مرکز":"قریه چونی","Polling_Center_Location":"Chonai Village","Verification_Note":"Village","PS_Male":1,"PS_Female":1,"Map_Accuracy":"قریه"},"geometry":{"x":7376383.3913777284,"y":3945903.5801189169}},{"attributes":{"OBJECTID":2472,"ولایت":"دایکندی","Province":"DAYKUNDI","PC_Code":"2405085","ولسوالي":"خدیر","District":"KHEDIR","د_مرکز_نوم__نام_مرکز":"مسجد شینیه خدیرعلیا ","Polling_Center_Name":"Shiniya Khadeer Ulya Mosque","د_مرکز_ځای__موقعیت_مرکز":"خدیرعلیا","Polling_Center_Location":"Khadeer Ulya","Verification_Note":"Building","PS_Male":1,"PS_Female":1,"Map_Accuracy":"تعمیر"},"geometry":{"x":7340955.8009063154,"y":4017343.0258311331}},{"attributes":{"OBJECTID":2473,"ولایت":"دایکندی","Province":"DAYKUNDI","PC_Code":"2405086","ولسوالي":"خدیر","District":"KHEDIR","د_مرکز_نوم__نام_مرکز":"مکتب دهن سای پسی بند","Polling_Center_Name":"Dahn Say Pasi Band School","د_مرکز_ځای__موقعیت_مرکز":"دهن سای پسی بند","Polling_Center_Location":"Dahn Say Pasi Band","Verification_Note":"Building","PS_Male":1,"PS_Female":1,"Map_Accuracy":"تعمیر"},"geometry":{"x":7338102.650074631,"y":4033596.3131532595}},{"attributes":{"OBJECTID":2474,"ولایت":"دایکندی","Province":"DAYKUNDI","PC_Code":"2407163","ولسوالي":"میرامور","District":"MIRAMOR","د_مرکز_نوم__نام_مرکز":"مسجد زسپه تقمان دره","Polling_Center_Name":"Zaspa Tuqman Dara Mosque","د_مرکز_ځای__موقعیت_مرکز":"تقمان دره، میرغلام","Polling_Center_Location":"Toqman Dara, Mir Ghulam","Verification_Note":"Building","PS_Male":1,"PS_Female":1,"Map_Accuracy":"تعمیر"},"geometry":{"x":7442485.71764306,"y":3982942.792570278}},{"attributes":{"OBJECTID":2475,"ولایت":"دایکندی","Province":"DAYKUNDI","PC_Code":"2407164","ولسوالي":"میرامور","District":"MIRAMOR","د_مرکز_نوم__نام_مرکز":"مسجد تی برکر","Polling_Center_Name":"Tai Barkar Mosque","د_مرکز_ځای__موقعیت_مرکز":"دهن شهرک، تی برکر","Polling_Center_Location":"Dahan Shahrak, Tai Barkar","Verification_Note":"Building","PS_Male":1,"PS_Female":1,"Map_Accuracy":"تعمیر"},"geometry":{"x":7460012.56626552,"y":4000791.3161398768}},{"attributes":{"OBJECTID":2476,"ولایت":"دایکندی","Province":"DAYKUNDI","PC_Code":"2408071","ولسوالي":"سنگ تخت","District":"SANG-E-TAKHT","د_مرکز_نوم__نام_مرکز":"مسجد جعفریه بازارسنگ تخت","Polling_Center_Name":"Jafaria Bazar Sang Takht Mosque","د_مرکز_ځای__موقعیت_مرکز":"دهن قرغان پائین","Polling_Center_Location":"Dahan Qarghan Payeen","Verification_Note":"Building","PS_Male":3,"PS_Female":1,"Map_Accuracy":"تعمیر"},"geometry":{"x":7362143.5011897981,"y":4064289.9319636971}},{"attributes":{"OBJECTID":2477,"ولایت":"دایکندی","Province":"DAYKUNDI","PC_Code":"2408072","ولسوالي":"سنگ تخت","District":"SANG-E-TAKHT","د_مرکز_نوم__نام_مرکز":"مسجد شینیه چکه","Polling_Center_Name":"Shinya Chaka Mosque","د_مرکز_ځای__موقعیت_مرکز":"شینیه چکه","Polling_Center_Location":"Shinya Chaka","Verification_Note":"Building","PS_Male":3,"PS_Female":1,"Map_Accuracy":"تعمیر"},"geometry":{"x":7355035.379895553,"y":4066766.0001422912}},{"attributes":{"OBJECTID":2478,"ولایت":"دایکندی","Province":"DAYKUNDI","PC_Code":"2408076","ولسوالي":"سنگ تخت","District":"SANG-E-TAKHT","د_مرکز_نوم__نام_مرکز":"مکتب بازار سیاه خرک","Polling_Center_Name":"Bazar Siyah Kharak School","د_مرکز_ځای__موقعیت_مرکز":"سیاه خرک","Polling_Center_Location":"Siyah Kharak","Verification_Note":"Building","PS_Male":2,"PS_Female":1,"Map_Accuracy":"تعمیر"},"geometry":{"x":7333431.7042784542,"y":4065485.7658482864}},{"attributes":{"OBJECTID":2479,"ولایت":"دایکندی","Province":"DAYKUNDI","PC_Code":"2408077","ولسوالي":"سنگ تخت","District":"SANG-E-TAKHT","د_مرکز_نوم__نام_مرکز":"مکتب بازار سلبیتو","Polling_Center_Name":"Bazar Salbito School","د_مرکز_ځای__موقعیت_مرکز":"سلبیتو","Polling_Center_Location":"Salbito","Verification_Note":"Building","PS_Male":2,"PS_Female":2,"Map_Accuracy":"تعمیر"},"geometry":{"x":7326691.4916748963,"y":4054155.8494864255}},{"attributes":{"OBJECTID":2480,"ولایت":"دایکندی","Province":"DAYKUNDI","PC_Code":"2409054","ولسوالي":"کجران","District":"KEJRAN","د_مرکز_نوم__نام_مرکز":"مسجد جامع بلاغ","Polling_Center_Name":"Balaagh Mosque","د_مرکز_ځای__موقعیت_مرکز":"بلاغ","Polling_Center_Location":"Balaagh","Verification_Note":"Building","PS_Male":2,"PS_Female":1,"Map_Accuracy":"تعمیر"},"geometry":{"x":7287981.3599263392,"y":3922719.4777183086}},{"attributes":{"OBJECTID":2481,"ولایت":"دایکندی","Province":"DAYKUNDI","PC_Code":"2409055","ولسوالي":"کجران","District":"KEJRAN","د_مرکز_نوم__نام_مرکز":"مسجد جامع بوکه صوف","Polling_Center_Name":"Boka Sof Mosque","د_مرکز_ځای__موقعیت_مرکز":"صوف","Polling_Center_Location":"Sof","Verification_Note":"Building","PS_Male":1,"PS_Female":1,"Map_Accuracy":"تعمیر"},"geometry":{"x":7294205.4118809775,"y":3923101.8666519672}},{"attributes":{"OBJECTID":2482,"ولایت":"دایکندی","Province":"DAYKUNDI","PC_Code":"2406134","ولسوالي":"کیتی","District":"KITI","د_مرکز_نوم__نام_مرکز":"مسجد شالیزار","Polling_Center_Name":"Shalizar Mosque","د_مرکز_ځای__موقعیت_مرکز":"شالیزار","Polling_Center_Location":"Shalizar","Verification_Note":"Building","PS_Male":2,"PS_Female":1,"Map_Accuracy":"تعمیر"},"geometry":{"x":7320104.9801186509,"y":3980462.3615849465}},{"attributes":{"OBJECTID":2483,"ولایت":"دایکندی","Province":"DAYKUNDI","PC_Code":"2406135","ولسوالي":"کیتی","District":"KITI","د_مرکز_نوم__نام_مرکز":"مسجد دشت کیسو","Polling_Center_Name":"Dasht Kiso Mosque","د_مرکز_ځای__موقعیت_مرکز":"دشت کیسو","Polling_Center_Location":"Dasht Kiso","Verification_Note":"Building","PS_Male":2,"PS_Female":1,"Map_Accuracy":"تعمیر"},"geometry":{"x":7325318.5572254807,"y":3952634.8859834149}},{"attributes":{"OBJECTID":2484,"ولایت":"دایکندی","Province":"DAYKUNDI","PC_Code":"2406137","ولسوالي":"کیتی","District":"KITI","د_مرکز_نوم__نام_مرکز":"مسجد غوتله","Polling_Center_Name":"Ghotla Mosque","د_مرکز_ځای__موقعیت_مرکز":"غوتله","Polling_Center_Location":"Ghotla","Verification_Note":"Building","PS_Male":2,"PS_Female":1,"Map_Accuracy":"تعمیر"},"geometry":{"x":7330072.6720396131,"y":3951361.6018310711}},{"attributes":{"OBJECTID":2485,"ولایت":"ارزگان","Province":"UROZGAN","PC_Code":"2501050","ولسوالي":"ترینکوټ","District":"TIRINKOT","د_مرکز_نوم__نام_مرکز":"مکتب سجاول","Polling_Center_Name":"Sajawal School","د_مرکز_ځای__موقعیت_مرکز":"سجاول","Polling_Center_Location":"Sajawal","Verification_Note":"Building","PS_Male":2,"PS_Female":2,"Map_Accuracy":"تعمیر"},"geometry":{"x":7337790.7215068452,"y":3865687.1079457104}},{"attributes":{"OBJECTID":2486,"ولایت":"ارزگان","Province":"UROZGAN","PC_Code":"2502040","ولسوالي":"دهراود","District":"DEHRAOUD","د_مرکز_نوم__نام_مرکز":"د نجونو لیسه","Polling_Center_Name":"Girls High School","د_مرکز_ځای__موقعیت_مرکز":"بازار دهرواد","Polling_Center_Location":"Dehrawood Bazar","Verification_Note":"Building","PS_Male":0,"PS_Female":5,"Map_Accuracy":"تعمیر"},"geometry":{"x":7286521.277900368,"y":3845646.4445469677}},{"attributes":{"OBJECTID":2487,"ولایت":"ارزگان","Province":"UROZGAN","PC_Code":"2502042","ولسوالي":"دهراود","District":"DEHRAOUD","د_مرکز_نوم__نام_مرکز":"مكتب چتو","Polling_Center_Name":"Chatoo School","د_مرکز_ځای__موقعیت_مرکز":"چتو","Polling_Center_Location":"Chatoo","Verification_Note":"Building","PS_Male":4,"PS_Female":1,"Map_Accuracy":"تعمیر"},"geometry":{"x":7288630.2790867984,"y":3859607.8149936125}},{"attributes":{"OBJECTID":2488,"ولایت":"ارزگان","Province":"UROZGAN","PC_Code":"2503017","ولسوالي":"چوره","District":"CHORA","د_مرکز_نوم__نام_مرکز":"مكتب زنانه دینار خیل","Polling_Center_Name":"Dinarkhel Girls School","د_مرکز_ځای__موقعیت_مرکز":"کلینیک زنانه مرکز ولسوالی","Polling_Center_Location":"District Womens Clinic","Verification_Note":"Building","PS_Male":1,"PS_Female":3,"Map_Accuracy":"تعمیر"},"geometry":{"x":7351841.6081199646,"y":3876915.832794629}},{"attributes":{"OBJECTID":2489,"ولایت":"ارزگان","Province":"UROZGAN","PC_Code":"2503018","ولسوالي":"چوره","District":"CHORA","د_مرکز_نوم__نام_مرکز":"مکتب قلعه راغ","Polling_Center_Name":"Qala-e-Ragh School","د_مرکز_ځای__موقعیت_مرکز":"قلعچه بازار ","Polling_Center_Location":"Qalacha Bazar","Verification_Note":"Building","PS_Male":3,"PS_Female":1,"Map_Accuracy":"تعمیر"},"geometry":{"x":7352712.4714057483,"y":3875004.9502323419}},{"attributes":{"OBJECTID":2490,"ولایت":"ارزگان","Province":"UROZGAN","PC_Code":"2503020","ولسوالي":"چوره","District":"CHORA","د_مرکز_نوم__نام_مرکز":"د اويانو مكتب","Polling_Center_Name":"Awiyan School","د_مرکز_ځای__موقعیت_مرکز":"قلعه راغ ","Polling_Center_Location":"Qala-e-Ragh","Verification_Note":"Building","PS_Male":1,"PS_Female":0,"Map_Accuracy":"تعمیر"},"geometry":{"x":7348620.3742712811,"y":3884732.1528939456}},{"attributes":{"OBJECTID":2491,"ولایت":"ارزگان","Province":"UROZGAN","PC_Code":"2506046","ولسوالي":"چنارتو","District":"CHENARTO","د_مرکز_نوم__نام_مرکز":"کلینیک زنانه","Polling_Center_Name":"Womens Clinic","د_مرکز_ځای__موقعیت_مرکز":"چنارتو ","Polling_Center_Location":"Chinarto","Verification_Note":"Building","PS_Male":0,"PS_Female":5,"Map_Accuracy":"تعمیر"},"geometry":{"x":7378452.9030880071,"y":3860690.2892592028}},{"attributes":{"OBJECTID":2492,"ولایت":"ارزگان","Province":"UROZGAN","PC_Code":"2501006","ولسوالي":"ترینکوټ","District":"TIRINKOT","د_مرکز_نوم__نام_مرکز":"مکتب متوسطه تالانی","Polling_Center_Name":"Talani Secondary School","د_مرکز_ځای__موقعیت_مرکز":"قریه تالانی","Polling_Center_Location":"Talani Village","Verification_Note":"Building","PS_Male":3,"PS_Female":2,"Map_Accuracy":"تعمیر"},"geometry":{"x":7327294.140889,"y":3844721.1934311017}},{"attributes":{"OBJECTID":2493,"ولایت":"ارزگان","Province":"UROZGAN","PC_Code":"2501007","ولسوالي":"ترینکوټ","District":"TIRINKOT","د_مرکز_نوم__نام_مرکز":"مکتب گرم اب","Polling_Center_Name":"Garm Aab School","د_مرکز_ځای__موقعیت_مرکز":"گرم اب","Polling_Center_Location":"Garm Aab","Verification_Note":"Building","PS_Male":2,"PS_Female":2,"Map_Accuracy":"تعمیر"},"geometry":{"x":7342299.6542519517,"y":3840652.9241400361}},{"attributes":{"OBJECTID":2494,"ولایت":"ارزگان","Province":"UROZGAN","PC_Code":"2501011","ولسوالي":"ترینکوټ","District":"TIRINKOT","د_مرکز_نوم__نام_مرکز":"مسجد مدرسه پیروشه","Polling_Center_Name":"Pirosha Madrassa Mosque","د_مرکز_ځای__موقعیت_مرکز":"پیروشه","Polling_Center_Location":"Pirosha","Verification_Note":"Building","PS_Male":3,"PS_Female":2,"Map_Accuracy":"تعمیر"},"geometry":{"x":7334063.0472045206,"y":3853714.2677802593}},{"attributes":{"OBJECTID":2495,"ولایت":"ارزگان","Province":"UROZGAN","PC_Code":"2501012","ولسوالي":"ترینکوټ","District":"TIRINKOT","د_مرکز_نوم__نام_مرکز":"لیسه شاه حسین","Polling_Center_Name":"Shah Hussain High School","د_مرکز_ځای__موقعیت_مرکز":"قریه سرخ مرغاب","Polling_Center_Location":"Surkh Marghab Village","Verification_Note":"Building","PS_Male":2,"PS_Female":2,"Map_Accuracy":"تعمیر"},"geometry":{"x":7336770.4151442535,"y":3860047.7621038556}},{"attributes":{"OBJECTID":2496,"ولایت":"ارزگان","Province":"UROZGAN","PC_Code":"2504030","ولسوالي":"شهید حساس","District":"SHAHID-E-HASSAS","د_مرکز_نوم__نام_مرکز":"لیسه مرکزی بازار چهارچینو","Polling_Center_Name":"Chahar Chino Bazar High School","د_مرکز_ځای__موقعیت_مرکز":"بازار چهارچینو","Polling_Center_Location":"Chahar Chino Bazar","Verification_Note":"Building","PS_Male":4,"PS_Female":0,"Map_Accuracy":"تعمیر"},"geometry":{"x":7298554.3226354271,"y":3887335.3768558726}},{"attributes":{"OBJECTID":2497,"ولایت":"ارزگان","Province":"UROZGAN","PC_Code":"2504031","ولسوالي":"شهید حساس","District":"SHAHID-E-HASSAS","د_مرکز_نوم__نام_مرکز":"کلینیک زنانه بازار چهارچینو","Polling_Center_Name":"Chahar Chino Bazar Women's Clinic","د_مرکز_ځای__موقعیت_مرکز":"بازار چهارچینو","Polling_Center_Location":"Chahar Chino Bazar","Verification_Note":"Building","PS_Male":0,"PS_Female":4,"Map_Accuracy":"تعمیر"},"geometry":{"x":7298526.4304238185,"y":3887746.2538885921}},{"attributes":{"OBJECTID":2498,"ولایت":"زابل","Province":"ZABUL","PC_Code":"2601002","ولسوالي":"قلات","District":"QALAT","د_مرکز_نوم__نام_مرکز":"شیخ متی لیسه ","Polling_Center_Name":"Shekh Mati High School","د_مرکز_ځای__موقعیت_مرکز":"هواشناسی","Polling_Center_Location":"Hawashnasi","Verification_Note":"Building","PS_Male":5,"PS_Female":2,"Map_Accuracy":"تعمیر"},"geometry":{"x":7448819.412616957,"y":3776904.0601111427}},{"attributes":{"OBJECTID":2499,"ولایت":"زابل","Province":"ZABUL","PC_Code":"2601003","ولسوالي":"قلات","District":"QALAT","د_مرکز_نوم__نام_مرکز":"کنډک مکتب","Polling_Center_Name":"Kandak School","د_مرکز_ځای__موقعیت_مرکز":"نوی رساله","Polling_Center_Location":"Nawai Resala","Verification_Note":"Building","PS_Male":3,"PS_Female":2,"Map_Accuracy":"تعمیر"},"geometry":{"x":7449066.1567210779,"y":3777363.4544453472}},{"attributes":{"OBJECTID":2500,"ولایت":"زابل","Province":"ZABUL","PC_Code":"2601008","ولسوالي":"قلات","District":"QALAT","د_مرکز_نوم__نام_مرکز":"سپينه غبرګه مدرسه","Polling_Center_Name":"Spina Ghbarga Madrassa","د_مرکز_ځای__موقعیت_مرکز":"سپينه غبرګه","Polling_Center_Location":"Spina Ghbarga","Verification_Note":"Building","PS_Male":5,"PS_Female":2,"Map_Accuracy":"تعمیر"},"geometry":{"x":7460411.9549949989,"y":3788618.2692231759}},{"attributes":{"OBJECTID":2501,"ولایت":"زابل","Province":"ZABUL","PC_Code":"2601009","ولسوالي":"قلات","District":"QALAT","د_مرکز_نوم__نام_مرکز":"د حاجی الله داد مسجد ","Polling_Center_Name":"Haji Allah Dad Mosque","د_مرکز_ځای__موقعیت_مرکز":"خرواريان کلي","Polling_Center_Location":"Kharwaryan Village","Verification_Note":"Building","PS_Male":3,"PS_Female":2,"Map_Accuracy":"تعمیر"},"geometry":{"x":7444719.5469404906,"y":3774131.8399921358}},{"attributes":{"OBJECTID":2502,"ولایت":"زابل","Province":"ZABUL","PC_Code":"2602029","ولسوالي":"ترنک و جلدک","District":"TARANK WA JALDAK","د_مرکز_نوم__نام_مرکز":"مكتب غيشي رباط","Polling_Center_Name":"Ghaishi Rabat School","د_مرکز_ځای__موقعیت_مرکز":"فولادګۍ","Polling_Center_Location":"Foladgai","Verification_Note":"Building","PS_Male":3,"PS_Female":0,"Map_Accuracy":"تعمیر"},"geometry":{"x":7405282.2963155992,"y":3749303.0894726589}},{"attributes":{"OBJECTID":2503,"ولایت":"زابل","Province":"ZABUL","PC_Code":"2602030","ولسوالي":"ترنک و جلدک","District":"TARANK WA JALDAK","د_مرکز_نوم__نام_مرکز":"د حاجی ښادی خان کور","Polling_Center_Name":"Haji Khadi Khan Private House","د_مرکز_ځای__موقعیت_مرکز":"خیشکی کلی","Polling_Center_Location":"Kheshaki Village","Verification_Note":"Building","PS_Male":2,"PS_Female":0,"Map_Accuracy":"تعمیر"},"geometry":{"x":7428289.8487477638,"y":3770916.5389282331}},{"attributes":{"OBJECTID":2504,"ولایت":"زابل","Province":"ZABUL","PC_Code":"2603032","ولسوالي":"شینکې","District":"SHINKAI","د_مرکز_نوم__نام_مرکز":"د سپيدار كلي مسجد","Polling_Center_Name":"Spedar Village Mosque","د_مرکز_ځای__موقعیت_مرکز":"سپيدار كلي","Polling_Center_Location":"Spedar Village","Verification_Note":"Building","PS_Male":2,"PS_Female":0,"Map_Accuracy":"تعمیر"},"geometry":{"x":7483593.7023927495,"y":3752177.6889744252}},{"attributes":{"OBJECTID":2505,"ولایت":"زابل","Province":"ZABUL","PC_Code":"2603033","ولسوالي":"شینکې","District":"SHINKAI","د_مرکز_نوم__نام_مرکز":"د سیوری( شینکې) ولسوالي دفتر","Polling_Center_Name":"Syori (Shenkai) District Office","د_مرکز_ځای__موقعیت_مرکز":"سيوري","Polling_Center_Location":"Syori","Verification_Note":"Building","PS_Male":2,"PS_Female":2,"Map_Accuracy":"تعمیر"},"geometry":{"x":7462626.5505108088,"y":3759496.5865168497}},{"attributes":{"OBJECTID":2506,"ولایت":"زابل","Province":"ZABUL","PC_Code":"2605019","ولسوالي":"ارغنداب","District":"ARGHANDAB","د_مرکز_نوم__نام_مرکز":"د سردری مکتب","Polling_Center_Name":"Sardara School","د_مرکز_ځای__موقعیت_مرکز":"لاندی سردره","Polling_Center_Location":"Landi Sardara","Verification_Note":"Building","PS_Male":1,"PS_Female":1,"Map_Accuracy":"تعمیر"},"geometry":{"x":7463993.8644391373,"y":3845468.0791033059}},{"attributes":{"OBJECTID":2507,"ولایت":"زابل","Province":"ZABUL","PC_Code":"2606010","ولسوالي":"شاه جوی","District":"SHAH JOI","د_مرکز_نوم__نام_مرکز":"بابا هوتك ليسه ","Polling_Center_Name":"Baba Hotak High School","د_مرکز_ځای__موقعیت_مرکز":"شاه جوی","Polling_Center_Location":"Shah Joy","Verification_Note":"Building","PS_Male":6,"PS_Female":1,"Map_Accuracy":"تعمیر"},"geometry":{"x":7504483.1488173343,"y":3831739.3717908263}},{"attributes":{"OBJECTID":2508,"ولایت":"زابل","Province":"ZABUL","PC_Code":"2606014","ولسوالي":"شاه جوی","District":"SHAH JOI","د_مرکز_نوم__نام_مرکز":"کرباغی مکتب","Polling_Center_Name":"Karbaghi School","د_مرکز_ځای__موقعیت_مرکز":"کرباغی","Polling_Center_Location":"Karbaghi","Verification_Note":"Building","PS_Male":4,"PS_Female":1,"Map_Accuracy":"تعمیر"},"geometry":{"x":7500307.7751302682,"y":3826156.6448055208}},{"attributes":{"OBJECTID":2509,"ولایت":"زابل","Province":"ZABUL","PC_Code":"2606015","ولسوالي":"شاه جوی","District":"SHAH JOI","د_مرکز_نوم__نام_مرکز":"مسجد شیرزی حاجی عبدالله خان ","Polling_Center_Name":"Sherzai Haji Abdullah Khan Mosque","د_مرکز_ځای__موقعیت_مرکز":"جعفر مسجد","Polling_Center_Location":"Jafar Mosque","Verification_Note":"Building","PS_Male":3,"PS_Female":1,"Map_Accuracy":"تعمیر"},"geometry":{"x":7518178.58762094,"y":3831074.0496640578}},{"attributes":{"OBJECTID":2510,"ولایت":"زابل","Province":"ZABUL","PC_Code":"2601005","ولسوالي":"قلات","District":"QALAT","د_مرکز_نوم__نام_مرکز":"ليسه سينك","Polling_Center_Name":"Sinak High School","د_مرکز_ځای__موقعیت_مرکز":"سينك","Polling_Center_Location":"Sinak","Verification_Note":"Building","PS_Male":3,"PS_Female":2,"Map_Accuracy":"تعمیر"},"geometry":{"x":7448977.6710842364,"y":3778371.3197658285}},{"attributes":{"OBJECTID":2511,"ولایت":"زابل","Province":"ZABUL","PC_Code":"2601006","ولسوالي":"قلات","District":"QALAT","د_مرکز_نوم__نام_مرکز":"چوڼي مكتب","Polling_Center_Name":"Chonai School","د_مرکز_ځای__موقعیت_مرکز":"نوي كلي","Polling_Center_Location":"Nawai Village","Verification_Note":"Building","PS_Male":4,"PS_Female":2,"Map_Accuracy":"تعمیر"},"geometry":{"x":7446573.4183255658,"y":3776542.7438291684}},{"attributes":{"OBJECTID":2512,"ولایت":"زابل","Province":"ZABUL","PC_Code":"2609042","ولسوالي":"نوبهار","District":"NAW BAHAR","د_مرکز_نوم__نام_مرکز":"عمومی مکتب","Polling_Center_Name":"Omomi School","د_مرکز_ځای__موقعیت_مرکز":"لوړګی","Polling_Center_Location":"Lorgai","Verification_Note":"Building","PS_Male":1,"PS_Female":1,"Map_Accuracy":"تعمیر"},"geometry":{"x":7512173.24173028,"y":3764014.2638204992}},{"attributes":{"OBJECTID":2513,"ولایت":"زابل","Province":"ZABUL","PC_Code":"2609043","ولسوالي":"نوبهار","District":"NAW BAHAR","د_مرکز_نوم__نام_مرکز":"كلينیك ولسوالي","Polling_Center_Name":"District Clinic","د_مرکز_ځای__موقعیت_مرکز":"مرکز ولسوالی ","Polling_Center_Location":"District Compound","Verification_Note":"Building","PS_Male":1,"PS_Female":1,"Map_Accuracy":"تعمیر"},"geometry":{"x":7529512.1006758623,"y":3790131.52415175}},{"attributes":{"OBJECTID":2514,"ولایت":"زابل","Province":"ZABUL","PC_Code":"2610038","ولسوالي":"شملزایي","District":"SHEMEL ZAYI","د_مرکز_نوم__نام_مرکز":"د جنګی برج مسجد","Polling_Center_Name":"Jangi Borj Mosque","د_مرکز_ځای__موقعیت_مرکز":"ډګر جنګی","Polling_Center_Location":"Dagar Jangai","Verification_Note":"Building","PS_Male":1,"PS_Female":1,"Map_Accuracy":"تعمیر"},"geometry":{"x":7526991.0581866167,"y":3706054.2614330873}},{"attributes":{"OBJECTID":2515,"ولایت":"زابل","Province":"ZABUL","PC_Code":"2610039","ولسوالي":"شملزایي","District":"SHEMEL ZAYI","د_مرکز_نوم__نام_مرکز":"سین زايی مکتب","Polling_Center_Name":"Seenzai School","د_مرکز_ځای__موقعیت_مرکز":"سين زائي","Polling_Center_Location":"Seenzai","Verification_Note":"Building","PS_Male":2,"PS_Female":1,"Map_Accuracy":"تعمیر"},"geometry":{"x":7541235.2631180063,"y":3765513.461871013}},{"attributes":{"OBJECTID":2516,"ولایت":"زابل","Province":"ZABUL","PC_Code":"2601050","ولسوالي":"قلات","District":"QALAT","د_مرکز_نوم__نام_مرکز":"مکتب نسوان رساله","Polling_Center_Name":"Resala Female School","د_مرکز_ځای__موقعیت_مرکز":"رساله","Polling_Center_Location":"Rsala","Verification_Note":"Building","PS_Male":2,"PS_Female":1,"Map_Accuracy":"تعمیر"},"geometry":{"x":7448883.98014801,"y":3777786.8381986693}},{"attributes":{"OBJECTID":2517,"ولایت":"زابل","Province":"ZABUL","PC_Code":"2602051","ولسوالي":"ترنک و جلدک","District":"TARANK WA JALDAK","د_مرکز_نوم__نام_مرکز":"مسجد محمد جان کلی","Polling_Center_Name":"Muhammad jan village Mosque","د_مرکز_ځای__موقعیت_مرکز":"محمد زی کلی","Polling_Center_Location":"Muhammad zai village","Verification_Note":"Village","PS_Male":2,"PS_Female":1,"Map_Accuracy":"قریه"},"geometry":{"x":7410913.9314323887,"y":3751097.7329873592}},{"attributes":{"OBJECTID":2518,"ولایت":"زابل","Province":"ZABUL","PC_Code":"2603053","ولسوالي":"شنیکی","District":"SHINKAI","د_مرکز_نوم__نام_مرکز":"مدرسه زیارت","Polling_Center_Name":"Ziarat Madrasa","د_مرکز_ځای__موقعیت_مرکز":"بدین","Polling_Center_Location":"Badin","Verification_Note":"Village","PS_Male":2,"PS_Female":1,"Map_Accuracy":"قریه"},"geometry":{"x":7470859.8178622052,"y":3766839.9148110524}},{"attributes":{"OBJECTID":2519,"ولایت":"زابل","Province":"ZABUL","PC_Code":"2603054","ولسوالي":"شنیکی","District":"SHINKAI","د_مرکز_نوم__نام_مرکز":"مسجد بولان","Polling_Center_Name":"Bolan Mosque","د_مرکز_ځای__موقعیت_مرکز":"بولان","Polling_Center_Location":"Bolan","Verification_Note":"Village","PS_Male":2,"PS_Female":1,"Map_Accuracy":"قریه"},"geometry":{"x":7451462.8307375014,"y":3750320.481810376}},{"attributes":{"OBJECTID":2520,"ولایت":"زابل","Province":"ZABUL","PC_Code":"2603055","ولسوالي":"شنیکی","District":"SHINKAI","د_مرکز_نوم__نام_مرکز":"مسجد روغانی","Polling_Center_Name":"Roghani Mosque","د_مرکز_ځای__موقعیت_مرکز":"روغانی","Polling_Center_Location":"Roghani","Verification_Note":"Village","PS_Male":2,"PS_Female":1,"Map_Accuracy":"قریه"},"geometry":{"x":7503746.6546134688,"y":3781883.5347168371}},{"attributes":{"OBJECTID":2521,"ولایت":"زابل","Province":"ZABUL","PC_Code":"2605062","ولسوالي":"ارغنداب","District":"ARGHANDAB","د_مرکز_نوم__نام_مرکز":"مسجد","Polling_Center_Name":"Moque","د_مرکز_ځای__موقعیت_مرکز":"کرتاش علیا","Polling_Center_Location":"Kartash hulia","Verification_Note":"Building","PS_Male":2,"PS_Female":1,"Map_Accuracy":"تعمیر"},"geometry":{"x":7488995.0123624019,"y":3845554.4005947486}},{"attributes":{"OBJECTID":2522,"ولایت":"زابل","Province":"ZABUL","PC_Code":"2605063","ولسوالي":"ارغنداب","District":"ARGHANDAB","د_مرکز_نوم__نام_مرکز":"کلنیک","Polling_Center_Name":"Clinic","د_مرکز_ځای__موقعیت_مرکز":"نیک نام","Polling_Center_Location":"Nik nam","Verification_Note":"Building","PS_Male":2,"PS_Female":1,"Map_Accuracy":"تعمیر"},"geometry":{"x":7471785.1475484557,"y":3846714.5475116298}},{"attributes":{"OBJECTID":2523,"ولایت":"زابل","Province":"ZABUL","PC_Code":"2605064","ولسوالي":"ارغنداب","District":"ARGHANDAB","د_مرکز_نوم__نام_مرکز":"مسجد","Polling_Center_Name":"Moque","د_مرکز_ځای__موقعیت_مرکز":"تکتو","Polling_Center_Location":"Takto","Verification_Note":"Building","PS_Male":2,"PS_Female":1,"Map_Accuracy":"تعمیر"},"geometry":{"x":7446199.7538606115,"y":3815872.7520206422}},{"attributes":{"OBJECTID":2524,"ولایت":"زابل","Province":"ZABUL","PC_Code":"2608072","ولسوالي":"اتغر","District":"ATGHAR","د_مرکز_نوم__نام_مرکز":"دکلی مرکز","Polling_Center_Name":"Village Center","د_مرکز_ځای__موقعیت_مرکز":"ختنیزی","Polling_Center_Location":"Khatnizai","Verification_Note":"Village","PS_Male":2,"PS_Female":1,"Map_Accuracy":"قریه"},"geometry":{"x":7483719.3203155436,"y":3724354.904913418}},{"attributes":{"OBJECTID":2525,"ولایت":"زابل","Province":"ZABUL","PC_Code":"2608073","ولسوالي":"اتغر","District":"ATGHAR","د_مرکز_نوم__نام_مرکز":"مدرسه","Polling_Center_Name":"Madrasa","د_مرکز_ځای__موقعیت_مرکز":"توراغه کلی","Polling_Center_Location":"Toragha village","Verification_Note":"Building","PS_Male":2,"PS_Female":1,"Map_Accuracy":"تعمیر"},"geometry":{"x":7502398.871133212,"y":3735038.8833701909}},{"attributes":{"OBJECTID":2526,"ولایت":"زابل","Province":"ZABUL","PC_Code":"2608074","ولسوالي":"اتغر","District":"ATGHAR","د_مرکز_نوم__نام_مرکز":"دکلی مرکز","Polling_Center_Name":"Village Center","د_مرکز_ځای__موقعیت_مرکز":"شماوون","Polling_Center_Location":"Shamaron","Verification_Note":"Village","PS_Male":2,"PS_Female":1,"Map_Accuracy":"قریه"},"geometry":{"x":7515971.8750835434,"y":3727986.8040859178}},{"attributes":{"OBJECTID":2527,"ولایت":"زابل","Province":"ZABUL","PC_Code":"2606069","ولسوالي":"شاه جوی","District":"SHAH JOI","د_مرکز_نوم__نام_مرکز":"مکتب مقام","Polling_Center_Name":"Muqam School","د_مرکز_ځای__موقعیت_مرکز":"مقام","Polling_Center_Location":"Muqam","Verification_Note":"Village","PS_Male":2,"PS_Female":1,"Map_Accuracy":"قریه"},"geometry":{"x":7513407.8483540453,"y":3853583.3796199635}},{"attributes":{"OBJECTID":2528,"ولایت":"زابل","Province":"ZABUL","PC_Code":"2606070","ولسوالي":"شاه جوی","District":"SHAH JOI","د_مرکز_نوم__نام_مرکز":"مکتب قیوم کلاه","Polling_Center_Name":"Qaiom village School","د_مرکز_ځای__موقعیت_مرکز":"شوبار،قیوم کلی","Polling_Center_Location":"Shor bar, Qaiom village","Verification_Note":"Building","PS_Male":2,"PS_Female":1,"Map_Accuracy":"تعمیر"},"geometry":{"x":7511976.694701504,"y":3839112.0891316235}},{"attributes":{"OBJECTID":2529,"ولایت":"زابل","Province":"ZABUL","PC_Code":"2602026","ولسوالي":"ترنک و جلدک","District":"TARANK WA JALDAK","د_مرکز_نوم__نام_مرکز":"د هلكانو مكتب","Polling_Center_Name":"Boys School","د_مرکز_ځای__موقعیت_مرکز":"دولسوالی مرکز","Polling_Center_Location":"District Compound","Verification_Note":"Building","PS_Male":2,"PS_Female":0,"Map_Accuracy":"تعمیر"},"geometry":{"x":7383229.8740199879,"y":3737016.5279826}},{"attributes":{"OBJECTID":2530,"ولایت":"زابل","Province":"ZABUL","PC_Code":"2602027","ولسوالي":"ترنک و جلدک","District":"TARANK WA JALDAK","د_مرکز_نوم__نام_مرکز":"د نجونومكتب","Polling_Center_Name":"Girls School","د_مرکز_ځای__موقعیت_مرکز":"دولسوالی مرکز","Polling_Center_Location":"District Compound","Verification_Note":"Building","PS_Male":0,"PS_Female":2,"Map_Accuracy":"تعمیر"},"geometry":{"x":7383256.4938498251,"y":3737311.0739036724}},{"attributes":{"OBJECTID":2531,"ولایت":"زابل","Province":"ZABUL","PC_Code":"2605016","ولسوالي":"ارغنداب","District":"ARGHANDAB","د_مرکز_نوم__نام_مرکز":"اختر دکلی مكتب","Polling_Center_Name":"Akhtar Village School","د_مرکز_ځای__موقعیت_مرکز":"اختر کلي","Polling_Center_Location":"Akhtar Village","Verification_Note":"Building","PS_Male":2,"PS_Female":1,"Map_Accuracy":"تعمیر"},"geometry":{"x":7476400.5385735072,"y":3851157.7367956191}},{"attributes":{"OBJECTID":2532,"ولایت":"زابل","Province":"ZABUL","PC_Code":"2605017","ولسوالي":"ارغنداب","District":"ARGHANDAB","د_مرکز_نوم__نام_مرکز":"سايګز مسجد","Polling_Center_Name":"Saigaz Mosque","د_مرکز_ځای__موقعیت_مرکز":"سایګز","Polling_Center_Location":"Saigaz","Verification_Note":"Building","PS_Male":2,"PS_Female":1,"Map_Accuracy":"تعمیر"},"geometry":{"x":7462544.34329325,"y":3836475.0910398364}},{"attributes":{"OBJECTID":2533,"ولایت":"کندهار","Province":"کندهار","PC_Code":"2701005","ولسوالي":"کندهار","District":"KANDAHAR","د_مرکز_نوم__نام_مرکز":"ميربازار مكتب","Polling_Center_Name":"Mir Bazar School","د_مرکز_ځای__موقعیت_مرکز":"شپږمه ناحيه","Polling_Center_Location":"D06 - Nahia 6","Verification_Note":"Building","PS_Male":5,"PS_Female":0,"Map_Accuracy":"تعمیر"},"geometry":{"x":7313989.0783889107,"y":3713852.3408557475}},{"attributes":{"OBJECTID":2534,"ولایت":"کندهار","Province":"کندهار","PC_Code":"2701006","ولسوالي":"کندهار","District":"KANDAHAR","د_مرکز_نوم__نام_مرکز":"قومي منځني ښونځي","Polling_Center_Name":"Qawmi Secondary School","د_مرکز_ځای__موقعیت_مرکز":"لسمه ناحيه","Polling_Center_Location":"D10 - Nahia 10","Verification_Note":"Building","PS_Male":3,"PS_Female":3,"Map_Accuracy":"تعمیر"},"geometry":{"x":7316250.3980345987,"y":3716068.6216841415}},{"attributes":{"OBJECTID":2535,"ولایت":"کندهار","Province":"کندهار","PC_Code":"2701040","ولسوالي":"کندهار","District":"KANDAHAR","د_مرکز_نوم__نام_مرکز":"ميرويس نيكه لیسه","Polling_Center_Name":"Mirwais Neeka High School","د_مرکز_ځای__موقعیت_مرکز":"څلورمه ناحيه","Polling_Center_Location":"D04 - Nahia 4","Verification_Note":"Building","PS_Male":11,"PS_Female":0,"Map_Accuracy":"تعمیر"},"geometry":{"x":7317081.5293903649,"y":3713700.1576059982}},{"attributes":{"OBJECTID":2536,"ولایت":"کندهار","Province":"کندهار","PC_Code":"2701042","ولسوالي":"کندهار","District":"KANDAHAR","د_مرکز_نوم__نام_مرکز":"شهيد عظيم الله ښوونځي","Polling_Center_Name":"Shaheed Azeemullah School","د_مرکز_ځای__موقعیت_مرکز":"نهمه ناحيه","Polling_Center_Location":"D09 - Nahia 9","Verification_Note":"Building","PS_Male":0,"PS_Female":9,"Map_Accuracy":"تعمیر"},"geometry":{"x":7313860.9741452858,"y":3716225.1743518338}},{"attributes":{"OBJECTID":2537,"ولایت":"کندهار","Province":"کندهار","PC_Code":"2702102","ولسوالي":"ارغنداب","District":"ARGHANDAB","د_مرکز_نوم__نام_مرکز":"مكتب شين اوليا","Polling_Center_Name":"Sheen Awliya School","د_مرکز_ځای__موقعیت_مرکز":"شين اوليا","Polling_Center_Location":"Sheen Awliya","Verification_Note":"Building","PS_Male":3,"PS_Female":0,"Map_Accuracy":"تعمیر"},"geometry":{"x":7313738.9479458742,"y":3729213.5616143495}},{"attributes":{"OBJECTID":2538,"ولایت":"کندهار","Province":"کندهار","PC_Code":"2702103","ولسوالي":"ارغنداب","District":"ARGHANDAB","د_مرکز_نوم__نام_مرکز":"د جلا اور مكتب","Polling_Center_Name":"Jala Oar School","د_مرکز_ځای__موقعیت_مرکز":"دوراهي","Polling_Center_Location":"Doraahi","Verification_Note":"Building","PS_Male":3,"PS_Female":0,"Map_Accuracy":"تعمیر"},"geometry":{"x":7308634.9737832919,"y":3725550.7449780181}},{"attributes":{"OBJECTID":2539,"ولایت":"کندهار","Province":"کندهار","PC_Code":"2702107","ولسوالي":"ارغنداب","District":"ARGHANDAB","د_مرکز_نوم__نام_مرکز":"مكتب مناره","Polling_Center_Name":"Manara School","د_مرکز_ځای__موقعیت_مرکز":"مناره","Polling_Center_Location":"Manara","Verification_Note":"Building","PS_Male":2,"PS_Female":1,"Map_Accuracy":"تعمیر"},"geometry":{"x":7303619.7646694705,"y":3722339.1216400787}},{"attributes":{"OBJECTID":2540,"ولایت":"کندهار","Province":"کندهار","PC_Code":"2702108","ولسوالي":"ارغنداب","District":"ARGHANDAB","د_مرکز_نوم__نام_مرکز":"خوشحال خان مكتب","Polling_Center_Name":"Khushal Khan School","د_مرکز_ځای__موقعیت_مرکز":"ناګهان","Polling_Center_Location":"Nagahan","Verification_Note":"Building","PS_Male":1,"PS_Female":2,"Map_Accuracy":"تعمیر"},"geometry":{"x":7300933.65763928,"y":3717333.5943054855}},{"attributes":{"OBJECTID":2541,"ولایت":"کندهار","Province":"کندهار","PC_Code":"2703074","ولسوالي":"دامان","District":"DAMAN","د_مرکز_نوم__نام_مرکز":"د سيد محمد كور","Polling_Center_Name":"Sayed Mohammad Kor ","د_مرکز_ځای__موقعیت_مرکز":"نوي ده","Polling_Center_Location":"Nawe Ada","Verification_Note":"Village","PS_Male":2,"PS_Female":0,"Map_Accuracy":"قریه"},"geometry":{"x":7343857.3701505214,"y":3694477.0787118077}},{"attributes":{"OBJECTID":2542,"ولایت":"کندهار","Province":"کندهار","PC_Code":"2703075","ولسوالي":"دامان","District":"DAMAN","د_مرکز_نوم__نام_مرکز":"پخواني مكتب د حاجی سلطان محمد اکا کور","Polling_Center_Name":"Haji Sultan Mohammad Aka Private House","د_مرکز_ځای__موقعیت_مرکز":"مدزي","Polling_Center_Location":"Madzi","Verification_Note":"Building","PS_Male":2,"PS_Female":0,"Map_Accuracy":"تعمیر"},"geometry":{"x":7351577.8911330849,"y":3707381.4697001725}},{"attributes":{"OBJECTID":2543,"ولایت":"کندهار","Province":"کندهار","PC_Code":"2704185","ولسوالي":"پنجوایې","District":"PANJWAYEE","د_مرکز_نوم__نام_مرکز":"د نجوني مكتب","Polling_Center_Name":"Girls School","د_مرکز_ځای__موقعیت_مرکز":"ټي بي سي","Polling_Center_Location":"TBC","Verification_Note":"Building","PS_Male":0,"PS_Female":2,"Map_Accuracy":"تعمیر"},"geometry":{"x":7286475.0881040543,"y":3703478.6546940207}},{"attributes":{"OBJECTID":2544,"ولایت":"کندهار","Province":"کندهار","PC_Code":"2704186","ولسوالي":"پنجوایې","District":"PANJWAYEE","د_مرکز_نوم__نام_مرکز":"مكتب چهل غور","Polling_Center_Name":"Chehl Ghor School","د_مرکز_ځای__موقعیت_مرکز":"چهل غور","Polling_Center_Location":"Chehl Ghor","Verification_Note":"Building","PS_Male":2,"PS_Female":0,"Map_Accuracy":"تعمیر"},"geometry":{"x":7287418.0866425112,"y":3704423.3119150028}},{"attributes":{"OBJECTID":2545,"ولایت":"کندهار","Province":"کندهار","PC_Code":"2704189","ولسوالي":"پنجوایې","District":"PANJWAYEE","د_مرکز_نوم__نام_مرکز":"د ټالکان کلی مكتب","Polling_Center_Name":"Talgaan Village School","د_مرکز_ځای__موقعیت_مرکز":"ټالكان کلی","Polling_Center_Location":"Talgan Village","Verification_Note":"Village","PS_Male":1,"PS_Female":1,"Map_Accuracy":"قریه"},"geometry":{"x":7270889.7092871666,"y":3689922.6333508566}},{"attributes":{"OBJECTID":2546,"ولایت":"کندهار","Province":"کندهار","PC_Code":"2704190","ولسوالي":"پنجوایې","District":"PANJWAYEE","د_مرکز_نوم__نام_مرکز":"د بازار مدرسه","Polling_Center_Name":"Bazar Madrassa","د_مرکز_ځای__موقعیت_مرکز":"موشان","Polling_Center_Location":"Moshan","Verification_Note":"Village","PS_Male":2,"PS_Female":0,"Map_Accuracy":"قریه"},"geometry":{"x":7265890.5335196145,"y":3692156.7400854975}},{"attributes":{"OBJECTID":2547,"ولایت":"کندهار","Province":"کندهار","PC_Code":"2705149","ولسوالي":"ژیړی","District":"ZHIRE","د_مرکز_نوم__نام_مرکز":"اول كمپ خیمه ","Polling_Center_Name":"Awal Camp Tent","د_مرکز_ځای__موقعیت_مرکز":"ژړي دښت کلی","Polling_Center_Location":"Zharee Dasht Village","Verification_Note":"Building","PS_Male":1,"PS_Female":1,"Map_Accuracy":"تعمیر"},"geometry":{"x":7276323.6845142357,"y":3720145.7390584871}},{"attributes":{"OBJECTID":2548,"ولایت":"کندهار","Province":"کندهار","PC_Code":"2705150","ولسوالي":"ژیړی","District":"ZHIRE","د_مرکز_نوم__نام_مرکز":"مكتب عاشقه","Polling_Center_Name":"Aashoqa School","د_مرکز_ځای__موقعیت_مرکز":"عاشقه","Polling_Center_Location":"Aashoqa","Verification_Note":"Village","PS_Male":1,"PS_Female":1,"Map_Accuracy":"قریه"},"geometry":{"x":7292498.7182210721,"y":3710623.0120418444}},{"attributes":{"OBJECTID":2549,"ولایت":"کندهار","Province":"کندهار","PC_Code":"2705160","ولسوالي":"ژیړی","District":"ZHIRE","د_مرکز_نوم__نام_مرکز":"د امان الله مكتب","Polling_Center_Name":"Amanullah School","د_مرکز_ځای__موقعیت_مرکز":"سبلاغي","Polling_Center_Location":"Sablaghi","Verification_Note":"Village","PS_Male":2,"PS_Female":0,"Map_Accuracy":"قریه"},"geometry":{"x":7279535.9653815553,"y":3701901.3390644342}},{"attributes":{"OBJECTID":2550,"ولایت":"کندهار","Province":"کندهار","PC_Code":"2705161","ولسوالي":"ژیړی","District":"ZHIRE","د_مرکز_نوم__نام_مرکز":"د جاجي لالا د تیلو پمپ","Polling_Center_Name":"Haji Lala Oil Station","د_مرکز_ځای__موقعیت_مرکز":"سنځري","Polling_Center_Location":"Senzari","Verification_Note":"Building","PS_Male":2,"PS_Female":1,"Map_Accuracy":"تعمیر"},"geometry":{"x":7294447.3191532195,"y":3713811.4197927043}},{"attributes":{"OBJECTID":2551,"ولایت":"کندهار","Province":"کندهار","PC_Code":"2707120","ولسوالي":"خاک ریز","District":"KHAKREZ","د_مرکز_نوم__نام_مرکز":"د منان خان كور","Polling_Center_Name":"Manan Khan Private House","د_مرکز_ځای__موقعیت_مرکز":"چنار","Polling_Center_Location":"Chinar","Verification_Note":"Village","PS_Male":1,"PS_Female":1,"Map_Accuracy":"قریه"},"geometry":{"x":7289309.62297729,"y":3759983.7942161113}},{"attributes":{"OBJECTID":2552,"ولایت":"کندهار","Province":"کندهار","PC_Code":"2707121","ولسوالي":"خاک ریز","District":"KHAKREZ","د_مرکز_نوم__نام_مرکز":"د حاجي قيوم ميلمستون","Polling_Center_Name":"Haji Qayoom Guest House ","د_مرکز_ځای__موقعیت_مرکز":"اروق شاه خان","Polling_Center_Location":"Aroq Shah Khan","Verification_Note":"Building","PS_Male":1,"PS_Female":1,"Map_Accuracy":"تعمیر"},"geometry":{"x":7290704.6098178253,"y":3750697.22596626}},{"attributes":{"OBJECTID":2553,"ولایت":"کندهار","Province":"کندهار","PC_Code":"2709130","ولسوالي":"غورك","District":"GHORAK","د_مرکز_نوم__نام_مرکز":"مسجد پيرخادم","Polling_Center_Name":"Pir Khadim Mosque","د_مرکز_ځای__موقعیت_مرکز":"پيرخادم","Polling_Center_Location":"Pir Khadim","Verification_Note":"Building","PS_Male":2,"PS_Female":0,"Map_Accuracy":"تعمیر"},"geometry":{"x":7255319.47437381,"y":3773607.6578811258}},{"attributes":{"OBJECTID":2554,"ولایت":"کندهار","Province":"کندهار","PC_Code":"2710133","ولسوالي":"میوند","District":"MAIWAND","د_مرکز_نوم__نام_مرکز":"د ملا ابراهيم مكتب","Polling_Center_Name":"Mullah Ibrahim School","د_مرکز_ځای__موقعیت_مرکز":"عظيم خان كاريز","Polling_Center_Location":"Azeem Khan Karez","Verification_Note":"Village","PS_Male":2,"PS_Female":0,"Map_Accuracy":"قریه"},"geometry":{"x":7262184.6264078692,"y":3700600.1971021295}},{"attributes":{"OBJECTID":2555,"ولایت":"کندهار","Province":"کندهار","PC_Code":"2710134","ولسوالي":"میوند","District":"MAIWAND","د_مرکز_نوم__نام_مرکز":"د بلاغ مسجد","Polling_Center_Name":"Blagh Mosque","د_مرکز_ځای__موقعیت_مرکز":"ګرمابك","Polling_Center_Location":"Garmabak","Verification_Note":"Village","PS_Male":1,"PS_Female":1,"Map_Accuracy":"قریه"},"geometry":{"x":7242260.918867331,"y":3736558.3794767484}},{"attributes":{"OBJECTID":2556,"ولایت":"کندهار","Province":"کندهار","PC_Code":"2712263","ولسوالي":"نيش","District":"NISH","د_مرکز_نوم__نام_مرکز":"د ولسوالي مركز","Polling_Center_Name":"District Building Office","د_مرکز_ځای__موقعیت_مرکز":"نيازو خيل","Polling_Center_Location":"Niazo Khel","Verification_Note":"Village","PS_Male":2,"PS_Female":2,"Map_Accuracy":"قریه"},"geometry":{"x":7308969.9764324911,"y":3818749.17012015}},{"attributes":{"OBJECTID":2557,"ولایت":"کندهار","Province":"کندهار","PC_Code":"2712264","ولسوالي":"نيش","District":"NISH","د_مرکز_نوم__نام_مرکز":"د حاجي اغالالا كور","Polling_Center_Name":"Haji Agha Lala Private House","د_مرکز_ځای__موقعیت_مرکز":"چوپاني","Polling_Center_Location":"Chopani ","Verification_Note":"Village","PS_Male":2,"PS_Female":0,"Map_Accuracy":"قریه"},"geometry":{"x":7310528.08528886,"y":3818519.2005962953}},{"attributes":{"OBJECTID":2558,"ولایت":"کندهار","Province":"کندهار","PC_Code":"2715254","ولسوالي":"معروف","District":"MARUF","د_مرکز_نوم__نام_مرکز":"د ولسوالي مركز","Polling_Center_Name":"District Building Office","د_مرکز_ځای__موقعیت_مرکز":"د ولسوالي مركز","Polling_Center_Location":"District Compound","Verification_Note":"Village","PS_Male":3,"PS_Female":2,"Map_Accuracy":"قریه"},"geometry":{"x":7478217.775827352,"y":3717377.5205020979}},{"attributes":{"OBJECTID":2559,"ولایت":"کندهار","Province":"کندهار","PC_Code":"2715255","ولسوالي":"معروف","District":"MARUF","د_مرکز_نوم__نام_مرکز":"د حاجي منان كور","Polling_Center_Name":"Haji Manan Private House","د_مرکز_ځای__موقعیت_مرکز":"ساليسون","Polling_Center_Location":"Salisoon","Verification_Note":"Village","PS_Male":3,"PS_Female":2,"Map_Accuracy":"قریه"},"geometry":{"x":7494474.1295354106,"y":3677190.9086516276}},{"attributes":{"OBJECTID":2560,"ولایت":"کندهار","Province":"کندهار","PC_Code":"2715257","ولسوالي":"معروف","District":"MARUF","د_مرکز_نوم__نام_مرکز":"د اوبتو مكتب","Polling_Center_Name":"Obto School","د_مرکز_ځای__موقعیت_مرکز":"اوبتو كلي","Polling_Center_Location":"Obto Village","Verification_Note":"Village","PS_Male":2,"PS_Female":2,"Map_Accuracy":"قریه"},"geometry":{"x":7462326.7771408632,"y":3696070.3268165365}},{"attributes":{"OBJECTID":2561,"ولایت":"کندهار","Province":"کندهار","PC_Code":"2715258","ولسوالي":"معروف","District":"MARUF","د_مرکز_نوم__نام_مرکز":"مسجد اعلي جرګه ","Polling_Center_Name":"Aala Jirga Mosque","د_مرکز_ځای__موقعیت_مرکز":"اعلي جرګه کلی","Polling_Center_Location":"Aala Jirga Village","Verification_Note":"Village","PS_Male":5,"PS_Female":2,"Map_Accuracy":"قریه"},"geometry":{"x":7543653.2337775305,"y":3680697.9680347368}},{"attributes":{"OBJECTID":2562,"ولایت":"کندهار","Province":"کندهار","PC_Code":"2701010","ولسوالي":"کندهار","District":"KANDAHAR","د_مرکز_نوم__نام_مرکز":"د عينو منځني ښوونځي","Polling_Center_Name":"Aino Secondary School","د_مرکز_ځای__موقعیت_مرکز":"شپږمه ناحيه","Polling_Center_Location":"D06 - Nahia 6","Verification_Note":"Building","PS_Male":1,"PS_Female":5,"Map_Accuracy":"تعمیر"},"geometry":{"x":7313302.1469619311,"y":3714002.554575175}},{"attributes":{"OBJECTID":2563,"ولایت":"کندهار","Province":"کندهار","PC_Code":"2701012","ولسوالي":"کندهار","District":"KANDAHAR","د_مرکز_نوم__نام_مرکز":"پخواني ولايت","Polling_Center_Name":"Pakhwanai Walayat","د_مرکز_ځای__موقعیت_مرکز":"څلورمه ناحيه","Polling_Center_Location":"D04 - Nahia 4","Verification_Note":"Building","PS_Male":6,"PS_Female":0,"Map_Accuracy":"تعمیر"},"geometry":{"x":7315093.8274870664,"y":3713286.3045132682}},{"attributes":{"OBJECTID":2564,"ولایت":"کندهار","Province":"کندهار","PC_Code":"2701022","ولسوالي":"کندهار","District":"KANDAHAR","د_مرکز_نوم__نام_مرکز":"د ميرويس ميني اناث مكتب","Polling_Center_Name":"Mirwais Mena Girls School","د_مرکز_ځای__موقعیت_مرکز":"شپږمه ناحيه","Polling_Center_Location":"D06 - Nahia 6","Verification_Note":"Building","PS_Male":5,"PS_Female":0,"Map_Accuracy":"تعمیر"},"geometry":{"x":7307813.392526634,"y":3712967.0532308221}},{"attributes":{"OBJECTID":2565,"ولایت":"کندهار","Province":"کندهار","PC_Code":"2701023","ولسوالي":"کندهار","District":"KANDAHAR","د_مرکز_نوم__نام_مرکز":"د سيد جمال الدين لیسه","Polling_Center_Name":"Sayed Jamaluddin High School","د_مرکز_ځای__موقعیت_مرکز":"عینو مینه","Polling_Center_Location":"Aino Mena","Verification_Note":"Building","PS_Male":6,"PS_Female":0,"Map_Accuracy":"تعمیر"},"geometry":{"x":7320930.8816847354,"y":3713681.5510396957}},{"attributes":{"OBJECTID":2566,"ولایت":"کندهار","Province":"کندهار","PC_Code":"2701061","ولسوالي":"کندهار","District":"KANDAHAR","د_مرکز_نوم__نام_مرکز":"د يتیمانو مكتب","Polling_Center_Name":"Yateemano School","د_مرکز_ځای__موقعیت_مرکز":"كوكران","Polling_Center_Location":"Kokaran","Verification_Note":"Building","PS_Male":3,"PS_Female":1,"Map_Accuracy":"تعمیر"},"geometry":{"x":7303754.078314282,"y":3713234.0594697967}},{"attributes":{"OBJECTID":2567,"ولایت":"کندهار","Province":"کندهار","PC_Code":"2701062","ولسوالي":"کندهار","District":"KANDAHAR","د_مرکز_نوم__نام_مرکز":"اميرلالي هوټل","Polling_Center_Name":"Ameer Lalee Hotel","د_مرکز_ځای__موقعیت_مرکز":"لسمه ناحيه","Polling_Center_Location":"D10 - Nahia 10","Verification_Note":"Building","PS_Male":4,"PS_Female":3,"Map_Accuracy":"تعمیر"},"geometry":{"x":7328862.43547878,"y":3713316.5148682296}},{"attributes":{"OBJECTID":2568,"ولایت":"کندهار","Province":"کندهار","PC_Code":"2702109","ولسوالي":"ارغنداب","District":"ARGHANDAB","د_مرکز_نوم__نام_مرکز":"مكتب محمد یعقوب قلعچه","Polling_Center_Name":"Mohammad Yaqoob Qalacha School","د_مرکز_ځای__موقعیت_مرکز":"محمد یعقوب قلعچه","Polling_Center_Location":"Mohammad Yaqoob Qalacha","Verification_Note":"Building","PS_Male":1,"PS_Female":2,"Map_Accuracy":"تعمیر"},"geometry":{"x":7316544.79355995,"y":3728454.4906669557}},{"attributes":{"OBJECTID":2569,"ولایت":"کندهار","Province":"کندهار","PC_Code":"2702110","ولسوالي":"ارغنداب","District":"ARGHANDAB","د_مرکز_نوم__نام_مرکز":"پخواني ولسوالي بابا ولی صاحب","Polling_Center_Name":"Baba Wali Sahib Old District Office","د_مرکز_ځای__موقعیت_مرکز":"بابا ولی صاحب","Polling_Center_Location":"Baba Wali Sahib","Verification_Note":"Building","PS_Male":3,"PS_Female":0,"Map_Accuracy":"تعمیر"},"geometry":{"x":7308992.6477599889,"y":3718528.1698301956}},{"attributes":{"OBJECTID":2570,"ولایت":"کندهار","Province":"کندهار","PC_Code":"2702113","ولسوالي":"ارغنداب","District":"ARGHANDAB","د_مرکز_نوم__نام_مرکز":"باغ پل هوټل پارک","Polling_Center_Name":"Bagh Pul Hotel Park","د_مرکز_ځای__موقعیت_مرکز":"باغ پل","Polling_Center_Location":"Bagh Pul","Verification_Note":"Building","PS_Male":3,"PS_Female":2,"Map_Accuracy":"تعمیر"},"geometry":{"x":7300077.03634651,"y":3712673.4465984777}},{"attributes":{"OBJECTID":2571,"ولایت":"کندهار","Province":"کندهار","PC_Code":"2702114","ولسوالي":"ارغنداب","District":"ARGHANDAB","د_مرکز_نوم__نام_مرکز":"مدرسه خانه ګرداب","Polling_Center_Name":"Khana Gardab Madrassa","د_مرکز_ځای__موقعیت_مرکز":"خانه ګرداب","Polling_Center_Location":"Khana Gardab","Verification_Note":"Building","PS_Male":2,"PS_Female":1,"Map_Accuracy":"تعمیر"},"geometry":{"x":7318887.7293166965,"y":3734485.1858304814}},{"attributes":{"OBJECTID":2572,"ولایت":"کندهار","Province":"کندهار","PC_Code":"2703083","ولسوالي":"دامان","District":"DAMAN","د_مرکز_نوم__نام_مرکز":"مكتب اعظم قلعه","Polling_Center_Name":"Azam Qala School","د_مرکز_ځای__موقعیت_مرکز":"اعظم قلعه","Polling_Center_Location":"Azam Qala","Verification_Note":"Building","PS_Male":2,"PS_Female":2,"Map_Accuracy":"تعمیر"},"geometry":{"x":7341223.8738248721,"y":3716891.99649287}},{"attributes":{"OBJECTID":2573,"ولایت":"کندهار","Province":"کندهار","PC_Code":"2703084","ولسوالي":"دامان","District":"DAMAN","د_مرکز_نوم__نام_مرکز":"فارم ترنك مكتب ","Polling_Center_Name":"Faram Tarank School","د_مرکز_ځای__موقعیت_مرکز":"حکیم جان کلاچه","Polling_Center_Location":"Hakeem Jana Kalacha","Verification_Note":"Building","PS_Male":2,"PS_Female":2,"Map_Accuracy":"تعمیر"},"geometry":{"x":7333201.9961752482,"y":3696573.8417391032}},{"attributes":{"OBJECTID":2574,"ولایت":"کندهار","Province":"کندهار","PC_Code":"2704193","ولسوالي":"پنجوایې","District":"PANJWAYEE","د_مرکز_نوم__نام_مرکز":"د تربيوي مركز منطقه","Polling_Center_Name":"Tranining Center Place","د_مرکز_ځای__موقعیت_مرکز":"مارغر","Polling_Center_Location":"Marghar","Verification_Note":"Village","PS_Male":4,"PS_Female":4,"Map_Accuracy":"قریه"},"geometry":{"x":7285651.8548661545,"y":3679734.4810611606}},{"attributes":{"OBJECTID":2575,"ولایت":"کندهار","Province":"کندهار","PC_Code":"2704194","ولسوالي":"پنجوایې","District":"PANJWAYEE","د_مرکز_نوم__نام_مرکز":"مسجد صالحان","Polling_Center_Name":"Salihan Mosque","د_مرکز_ځای__موقعیت_مرکز":"كاريز كلي","Polling_Center_Location":"Karez Village","Verification_Note":"Building","PS_Male":1,"PS_Female":1,"Map_Accuracy":"تعمیر"},"geometry":{"x":7295736.0181439482,"y":3705784.7879621536}},{"attributes":{"OBJECTID":2576,"ولایت":"کندهار","Province":"کندهار","PC_Code":"2705163","ولسوالي":"ژیړی","District":"ZHIRE","د_مرکز_نوم__نام_مرکز":"زوړ كلينيك","Polling_Center_Name":"Old Clinic","د_مرکز_ځای__موقعیت_مرکز":"حوض مدد","Polling_Center_Location":"Hawz Madad","Verification_Note":"Village","PS_Male":2,"PS_Female":1,"Map_Accuracy":"قریه"},"geometry":{"x":7271206.7015559562,"y":3704257.1021442041}},{"attributes":{"OBJECTID":2577,"ولایت":"کندهار","Province":"کندهار","PC_Code":"2705164","ولسوالي":"ژیړی","District":"ZHIRE","د_مرکز_نوم__نام_مرکز":"اسد سور مكتب","Polling_Center_Name":"Asad Soor School","د_مرکز_ځای__موقعیت_مرکز":"پاشمول","Polling_Center_Location":"Pashmol","Verification_Note":"Village","PS_Male":1,"PS_Female":1,"Map_Accuracy":"قریه"},"geometry":{"x":7281316.7043139488,"y":3705328.6429905593}},{"attributes":{"OBJECTID":2578,"ولایت":"کندهار","Province":"کندهار","PC_Code":"2706089","ولسوالي":"شاه ولي كوټ","District":"SHAH WALI KOT","د_مرکز_نوم__نام_مرکز":"كلينيك ويان","Polling_Center_Name":"Wiyan Clinic","د_مرکز_ځای__موقعیت_مرکز":"ويان","Polling_Center_Location":"Wiyan","Verification_Note":"Village","PS_Male":2,"PS_Female":3,"Map_Accuracy":"قریه"},"geometry":{"x":7343525.3653352074,"y":3759215.155074954}},{"attributes":{"OBJECTID":2579,"ولایت":"کندهار","Province":"کندهار","PC_Code":"2706090","ولسوالي":"شاه ولي كوټ","District":"SHAH WALI KOT","د_مرکز_نوم__نام_مرکز":"د حاجي فاياب كور","Polling_Center_Name":"Haji Fayab Private House","د_مرکز_ځای__موقعیت_مرکز":"باغتو","Polling_Center_Location":"Baghto","Verification_Note":"Village","PS_Male":2,"PS_Female":0,"Map_Accuracy":"قریه"},"geometry":{"x":7350078.4799310081,"y":3773257.6141567528}},{"attributes":{"OBJECTID":2580,"ولایت":"کندهار","Province":"کندهار","PC_Code":"2706091","ولسوالي":"شاه ولي كوټ","District":"SHAH WALI KOT","د_مرکز_نوم__نام_مرکز":"د سفع الله كور","Polling_Center_Name":"Safullah Private House","د_مرکز_ځای__موقعیت_مرکز":"داڅكزو سوزني","Polling_Center_Location":"Asakzo Sozni","Verification_Note":"District","PS_Male":2,"PS_Female":0,"Map_Accuracy":"ولسوالی"},"geometry":{"x":7354482.6563598625,"y":3766130.2288237065}},{"attributes":{"OBJECTID":2581,"ولایت":"کندهار","Province":"کندهار","PC_Code":"2706092","ولسوالي":"شاه ولي كوټ","District":"SHAH WALI KOT","د_مرکز_نوم__نام_مرکز":"د ملك سلام كور","Polling_Center_Name":"Malak Salam Private House","د_مرکز_ځای__موقعیت_مرکز":"بورګي","Polling_Center_Location":"Borgi","Verification_Note":"Village","PS_Male":2,"PS_Female":2,"Map_Accuracy":"قریه"},"geometry":{"x":7350202.8950467035,"y":3756521.9056623504}},{"attributes":{"OBJECTID":2582,"ولایت":"کندهار","Province":"کندهار","PC_Code":"2706095","ولسوالي":"شاه ولي كوټ","District":"SHAH WALI KOT","د_مرکز_نوم__نام_مرکز":"د فضل كرم مسجد","Polling_Center_Name":"Fazal karam Mosque","د_مرکز_ځای__موقعیت_مرکز":" شاه توت","Polling_Center_Location":"Shah Toot","Verification_Note":"Village","PS_Male":2,"PS_Female":0,"Map_Accuracy":"قریه"},"geometry":{"x":7352235.693588905,"y":3785557.59882351}},{"attributes":{"OBJECTID":2583,"ولایت":"کندهار","Province":"کندهار","PC_Code":"2706096","ولسوالي":"شاه ولي كوټ","District":"SHAH WALI KOT","د_مرکز_نوم__نام_مرکز":"كلينيك خيرتوت","Polling_Center_Name":"Khair Toot Clinic","د_مرکز_ځای__موقعیت_مرکز":"خيرتوت","Polling_Center_Location":"Khair Toot","Verification_Note":"Village","PS_Male":2,"PS_Female":0,"Map_Accuracy":"قریه"},"geometry":{"x":7338998.2565662749,"y":3767084.936572969}},{"attributes":{"OBJECTID":2584,"ولایت":"کندهار","Province":"کندهار","PC_Code":"2707117","ولسوالي":"خاک ریز","District":"KHAKREZ","د_مرکز_نوم__نام_مرکز":"مكتب تمبيل","Polling_Center_Name":"Tambeel School","د_مرکز_ځای__موقعیت_مرکز":"تمبيل","Polling_Center_Location":"Tambeel","Verification_Note":"Village","PS_Male":1,"PS_Female":1,"Map_Accuracy":"قریه"},"geometry":{"x":7303511.6723307148,"y":3785922.7995243222}},{"attributes":{"OBJECTID":2585,"ولایت":"کندهار","Province":"کندهار","PC_Code":"2707118","ولسوالي":"خاک ریز","District":"KHAKREZ","د_مرکز_نوم__نام_مرکز":"مكتب ناصر","Polling_Center_Name":"Naasir School","د_مرکز_ځای__موقعیت_مرکز":"ناصر","Polling_Center_Location":"Naasir","Verification_Note":"Village","PS_Male":2,"PS_Female":0,"Map_Accuracy":"قریه"},"geometry":{"x":7302780.8531944826,"y":3761566.605951868}},{"attributes":{"OBJECTID":2586,"ولایت":"کندهار","Province":"کندهار","PC_Code":"2707124","ولسوالي":"خاک ریز","District":"KHAKREZ","د_مرکز_نوم__نام_مرکز":"د خاکریز کلی كلينيك ","Polling_Center_Name":"Khakrez Village Clinic","د_مرکز_ځای__موقعیت_مرکز":"خاک ریز کلی","Polling_Center_Location":"Khak Rez Village","Verification_Note":"Building","PS_Male":1,"PS_Female":2,"Map_Accuracy":"تعمیر"},"geometry":{"x":7288273.69492792,"y":3761473.9856361449}},{"attributes":{"OBJECTID":2587,"ولایت":"کندهار","Province":"کندهار","PC_Code":"2707125","ولسوالي":"خاک ریز","District":"KHAKREZ","د_مرکز_نوم__نام_مرکز":"د ملك عبدالخالق كور","Polling_Center_Name":"Malak Abdul Khaliq Private House","د_مرکز_ځای__موقعیت_مرکز":"باغكه","Polling_Center_Location":"Baghaka","Verification_Note":"Building","PS_Male":1,"PS_Female":1,"Map_Accuracy":"تعمیر"},"geometry":{"x":7305774.4914499372,"y":3763784.6507812813}},{"attributes":{"OBJECTID":2588,"ولایت":"کندهار","Province":"کندهار","PC_Code":"2708246","ولسوالي":"ارغستان","District":"ARGHISTAN","د_مرکز_نوم__نام_مرکز":"محمد نيكه مكتب","Polling_Center_Name":"Mohamamd Neeka School","د_مرکز_ځای__موقعیت_مرکز":"خوګياڼي","Polling_Center_Location":"Khogyani","Verification_Note":"Village","PS_Male":3,"PS_Female":2,"Map_Accuracy":"قریه"},"geometry":{"x":7412218.1184151918,"y":3706076.7247924879}},{"attributes":{"OBJECTID":2589,"ولایت":"کندهار","Province":"کندهار","PC_Code":"2708247","ولسوالي":"ارغستان","District":"ARGHISTAN","د_مرکز_نوم__نام_مرکز":"مسجد سپين اګره","Polling_Center_Name":"Speen Agra Mosque","د_مرکز_ځای__موقعیت_مرکز":"سپين اګره","Polling_Center_Location":"Speen Agra","Verification_Note":"Village","PS_Male":2,"PS_Female":1,"Map_Accuracy":"قریه"},"geometry":{"x":7428673.9499715827,"y":3723214.6624003351}},{"attributes":{"OBJECTID":2590,"ولایت":"کندهار","Province":"کندهار","PC_Code":"2708252","ولسوالي":"ارغستان","District":"ARGHISTAN","د_مرکز_نوم__نام_مرکز":"مكتب تيسان كلي","Polling_Center_Name":"Taisan Village School","د_مرکز_ځای__موقعیت_مرکز":"تيسان كلي","Polling_Center_Location":"Taisan Village","Verification_Note":"Village","PS_Male":2,"PS_Female":2,"Map_Accuracy":"قریه"},"geometry":{"x":7407957.6966371574,"y":3682819.3671001717}},{"attributes":{"OBJECTID":2591,"ولایت":"کندهار","Province":"کندهار","PC_Code":"2708253","ولسوالي":"ارغستان","District":"ARGHISTAN","د_مرکز_نوم__نام_مرکز":"دټيسن كلي مكتب","Polling_Center_Name":"Tesan Village School","د_مرکز_ځای__موقعیت_مرکز":"بالا ژړه","Polling_Center_Location":"Bala Zhara","Verification_Note":"Village","PS_Male":2,"PS_Female":1,"Map_Accuracy":"قریه"},"geometry":{"x":7411797.999770131,"y":3676061.4702188894}},{"attributes":{"OBJECTID":2592,"ولایت":"کندهار","Province":"کندهار","PC_Code":"2710137","ولسوالي":"میوند","District":"MAIWAND","د_مرکز_نوم__نام_مرکز":"د شهيدانو مكتب","Polling_Center_Name":"Shahidano School","د_مرکز_ځای__موقعیت_مرکز":"ميوند چنه","Polling_Center_Location":"Maiwand Chana","Verification_Note":"Village","PS_Male":2,"PS_Female":0,"Map_Accuracy":"قریه"},"geometry":{"x":7250232.0367215872,"y":3730250.6809440255}},{"attributes":{"OBJECTID":2593,"ولایت":"کندهار","Province":"کندهار","PC_Code":"2710138","ولسوالي":"میوند","District":"MAIWAND","د_مرکز_نوم__نام_مرکز":"د محمد يوسف كور","Polling_Center_Name":"Mohammad Yousuf Private House","د_مرکز_ځای__موقعیت_مرکز":"سفوزي انجران","Polling_Center_Location":"Safozi Enjaran","Verification_Note":"Building","PS_Male":2,"PS_Female":0,"Map_Accuracy":"تعمیر"},"geometry":{"x":7239197.5511960313,"y":3715814.0556335}},{"attributes":{"OBJECTID":2594,"ولایت":"کندهار","Province":"کندهار","PC_Code":"2710144","ولسوالي":"میوند","District":"MAIWAND","د_مرکز_نوم__نام_مرکز":"د سردار اسد كور","Polling_Center_Name":"Sardar Asad Private House","د_مرکز_ځای__موقعیت_مرکز":"ميراب خور","Polling_Center_Location":"Mirab Khor","Verification_Note":"Village","PS_Male":1,"PS_Female":1,"Map_Accuracy":"قریه"},"geometry":{"x":7261664.2957308106,"y":3698874.3147116303}},{"attributes":{"OBJECTID":2595,"ولایت":"کندهار","Province":"کندهار","PC_Code":"2710145","ولسوالي":"میوند","District":"MAIWAND","د_مرکز_نوم__نام_مرکز":"د ولسوالي مركز","Polling_Center_Name":"District Building Office","د_مرکز_ځای__موقعیت_مرکز":"د ولسوالي مركز","Polling_Center_Location":"District Compound","Verification_Note":"Building","PS_Male":0,"PS_Female":2,"Map_Accuracy":"تعمیر"},"geometry":{"x":7242012.855627235,"y":3713876.5638576895}},{"attributes":{"OBJECTID":2596,"ولایت":"کندهار","Province":"کندهار","PC_Code":"2710148","ولسوالي":"میوند","District":"MAIWAND","د_مرکز_نوم__نام_مرکز":"د بلوڅ حاجي امان الله كلي د باوړي سره","Polling_Center_Name":"Balos Haji Amanullah Village ","د_مرکز_ځای__موقعیت_مرکز":"د بلوڅ حاجي امان الله كلي ","Polling_Center_Location":"Balos Haji Amanullah Village","Verification_Note":"Village","PS_Male":2,"PS_Female":0,"Map_Accuracy":"قریه"},"geometry":{"x":7242666.1863791123,"y":3737272.743076615}},{"attributes":{"OBJECTID":2597,"ولایت":"کندهار","Province":"کندهار","PC_Code":"2711203","ولسوالي":"سپین بولدک","District":"SPIN BOLDAK","د_مرکز_نوم__نام_مرکز":"د حاجي رازق ميلمستون","Polling_Center_Name":"Haji Raziq Guest House","د_مرکز_ځای__موقعیت_مرکز":"د حاجي رازق كلي","Polling_Center_Location":"Haji Raziq Village","Verification_Note":"Building","PS_Male":5,"PS_Female":1,"Map_Accuracy":"تعمیر"},"geometry":{"x":7393182.4431881346,"y":3631583.8690624163}},{"attributes":{"OBJECTID":2598,"ولایت":"کندهار","Province":"کندهار","PC_Code":"2711208","ولسوالي":"سپین بولدک","District":"SPIN BOLDAK","د_مرکز_نوم__نام_مرکز":"د حاجي احمد شاه ماركيټ مکتب","Polling_Center_Name":"Haji Ahmad Shah Market School","د_مرکز_ځای__موقعیت_مرکز":"بولدک ويش","Polling_Center_Location":"Boldak Wesh","Verification_Note":"Building","PS_Male":3,"PS_Female":3,"Map_Accuracy":"تعمیر"},"geometry":{"x":7393497.22019906,"y":3629030.5290365443}},{"attributes":{"OBJECTID":2599,"ولایت":"کندهار","Province":"کندهار","PC_Code":"2711209","ولسوالي":"سپین بولدک","District":"SPIN BOLDAK","د_مرکز_نوم__نام_مرکز":"مدرسه بامبول","Polling_Center_Name":"Bambol Madrassa","د_مرکز_ځای__موقعیت_مرکز":"بامبول","Polling_Center_Location":"Bambol","Verification_Note":"Village","PS_Male":4,"PS_Female":1,"Map_Accuracy":"قریه"},"geometry":{"x":7396304.4172317423,"y":3644806.7918727249}}]}