{"objectIdFieldName":"OBJECTID","globalIdFieldName":"","geometryType":"esriGeometryPoint","spatialReference":{"wkid":102100,"latestWkid":3857},"fields":[{"name":"OBJECTID","type":"esriFieldTypeOID","alias":"OBJECTID","sqlType":"sqlTypeOther","domain":null,"defaultValue":null},{"name":"ولایت","type":"esriFieldTypeString","alias":"ولایت","sqlType":"sqlTypeOther","length":255,"domain":null,"defaultValue":null},{"name":"Province","type":"esriFieldTypeString","alias":"Province","sqlType":"sqlTypeOther","length":255,"domain":null,"defaultValue":null},{"name":"PC_Code","type":"esriFieldTypeString","alias":"PC_Code","sqlType":"sqlTypeOther","length":255,"domain":null,"defaultValue":null},{"name":"ولسوالي","type":"esriFieldTypeString","alias":"ولسوالي","sqlType":"sqlTypeOther","length":255,"domain":null,"defaultValue":null},{"name":"District","type":"esriFieldTypeString","alias":"District","sqlType":"sqlTypeOther","length":255,"domain":null,"defaultValue":null},{"name":"د_مرکز_نوم__نام_مرکز","type":"esriFieldTypeString","alias":"د_مرکز_نوم__نام_مرکز","sqlType":"sqlTypeOther","length":255,"domain":null,"defaultValue":null},{"name":"Polling_Center_Name","type":"esriFieldTypeString","alias":"Polling_Center_Name","sqlType":"sqlTypeOther","length":255,"domain":null,"defaultValue":null},{"name":"د_مرکز_ځای__موقعیت_مرکز","type":"esriFieldTypeString","alias":"د_مرکز_ځای__موقعیت_مرکز","sqlType":"sqlTypeOther","length":255,"domain":null,"defaultValue":null},{"name":"Polling_Center_Location","type":"esriFieldTypeString","alias":"Polling_Center_Location","sqlType":"sqlTypeOther","length":255,"domain":null,"defaultValue":null},{"name":"Verification_Note","type":"esriFieldTypeString","alias":"Verification_Note","sqlType":"sqlTypeOther","length":250,"domain":null,"defaultValue":null},{"name":"PS_Male","type":"esriFieldTypeSmallInteger","alias":"PS_Male","sqlType":"sqlTypeOther","domain":null,"defaultValue":null},{"name":"PS_Female","type":"esriFieldTypeSmallInteger","alias":"PS_Female","sqlType":"sqlTypeOther","domain":null,"defaultValue":null},{"name":"Map_Accuracy","type":"esriFieldTypeString","alias":"Map_Accuracy","sqlType":"sqlTypeOther","length":10,"domain":null,"defaultValue":null}],"features":[{"attributes":{"OBJECTID":2600,"ولایت":"کندهار","Province":"کندهار","PC_Code":"2711212","ولسوالي":"سپین بولدک","District":"SPIN BOLDAK","د_مرکز_نوم__نام_مرکز":"قاضي مدرسه","Polling_Center_Name":"Qazi Madrassa","د_مرکز_ځای__موقعیت_مرکز":"سپين بولدك","Polling_Center_Location":"Speen Boldak","Verification_Note":"Village","PS_Male":4,"PS_Female":2,"Map_Accuracy":"قریه"},"geometry":{"x":7391599.4210297279,"y":3633923.5372312889}},{"attributes":{"OBJECTID":2601,"ولایت":"کندهار","Province":"کندهار","PC_Code":"2711213","ولسوالي":"سپین بولدک","District":"SPIN BOLDAK","د_مرکز_نوم__نام_مرکز":"ملياد عليزي","Polling_Center_Name":"Malyad Alizai","د_مرکز_ځای__موقعیت_مرکز":"حاجي افضل كلي","Polling_Center_Location":"Haji Afzal Village","Verification_Note":"Building","PS_Male":2,"PS_Female":2,"Map_Accuracy":"تعمیر"},"geometry":{"x":7390695.6637249589,"y":3633133.3019506931}},{"attributes":{"OBJECTID":2602,"ولایت":"کندهار","Province":"کندهار","PC_Code":"2712267","ولسوالي":"نيش","District":"NISH","د_مرکز_نوم__نام_مرکز":"د حاجي ميرزا جمال كور","Polling_Center_Name":"Haji Mirza Jamal Private House","د_مرکز_ځای__موقعیت_مرکز":"ګوردنګ","Polling_Center_Location":"Gordang","Verification_Note":"Village","PS_Male":0,"PS_Female":2,"Map_Accuracy":"قریه"},"geometry":{"x":7308361.9393550269,"y":3817753.7154991776}},{"attributes":{"OBJECTID":2603,"ولایت":"کندهار","Province":"کندهار","PC_Code":"2712268","ولسوالي":"نيش","District":"NISH","د_مرکز_نوم__نام_مرکز":"وهاب خيل مكتب","Polling_Center_Name":"Wahab Khel School","د_مرکز_ځای__موقعیت_مرکز":"قريه كنده","Polling_Center_Location":"Kanda Village","Verification_Note":"Village","PS_Male":2,"PS_Female":0,"Map_Accuracy":"قریه"},"geometry":{"x":7319866.1797733866,"y":3817776.226038672}},{"attributes":{"OBJECTID":2604,"ولایت":"کندهار","Province":"کندهار","PC_Code":"2714199","ولسوالي":"شورابك","District":"SHORABAK","د_مرکز_نوم__نام_مرکز":"د ولي محمد خان كور","Polling_Center_Name":"Wali Mohammad Khan Private House","د_مرکز_ځای__موقعیت_مرکز":"تورزي","Polling_Center_Location":"Torzi","Verification_Note":"Village","PS_Male":3,"PS_Female":2,"Map_Accuracy":"قریه"},"geometry":{"x":7346458.4368821084,"y":3526649.2138832584}},{"attributes":{"OBJECTID":2605,"ولایت":"کندهار","Province":"کندهار","PC_Code":"2714200","ولسوالي":"شورابك","District":"SHORABAK","د_مرکز_نوم__نام_مرکز":"د فيض محمد كور","Polling_Center_Name":"Faiz Mohammad Private House","د_مرکز_ځای__موقعیت_مرکز":"ابوزي","Polling_Center_Location":"Abozi","Verification_Note":"Village","PS_Male":3,"PS_Female":2,"Map_Accuracy":"قریه"},"geometry":{"x":7347440.9415946566,"y":3521239.9396016151}},{"attributes":{"OBJECTID":2606,"ولایت":"کندهار","Province":"کندهار","PC_Code":"2717004","ولسوالي":"ډند","District":"DAND","د_مرکز_نوم__نام_مرکز":"د حاجي بابا ميلمستون","Polling_Center_Name":"Haji Baba Guest House","د_مرکز_ځای__موقعیت_مرکز":"ډنډ ولسوالي","Polling_Center_Location":"Dand District ","Verification_Note":"Village","PS_Male":2,"PS_Female":2,"Map_Accuracy":"قریه"},"geometry":{"x":7314753.6451419592,"y":3707462.9055062979}},{"attributes":{"OBJECTID":2607,"ولایت":"کندهار","Province":"کندهار","PC_Code":"2717011","ولسوالي":"ډند","District":"DAND","د_مرکز_نوم__نام_مرکز":"د رواڼي منځني ښوونځي","Polling_Center_Name":"Rwani Secondary School","د_مرکز_ځای__موقعیت_مرکز":"ډنډ ولسوالي","Polling_Center_Location":"Dand District ","Verification_Note":"Village","PS_Male":3,"PS_Female":3,"Map_Accuracy":"قریه"},"geometry":{"x":7307676.1300285086,"y":3708554.6206991747}},{"attributes":{"OBJECTID":2608,"ولایت":"کندهار","Province":"کندهار","PC_Code":"2717021","ولسوالي":"ډند","District":"DAND","د_مرکز_نوم__نام_مرکز":"بلدي منځني ښوونځي","Polling_Center_Name":"Baldi Secondary School","د_مرکز_ځای__موقعیت_مرکز":"ډنډ ولسوالي","Polling_Center_Location":"Dand District ","Verification_Note":"Village","PS_Male":3,"PS_Female":3,"Map_Accuracy":"قریه"},"geometry":{"x":7311668.5824151076,"y":3708676.5250297412}},{"attributes":{"OBJECTID":2609,"ولایت":"کندهار","Province":"کندهار","PC_Code":"2717051","ولسوالي":"ډند","District":"DAND","د_مرکز_نوم__نام_مرکز":"مکتب چپلاني","Polling_Center_Name":"Chaplani School","د_مرکز_ځای__موقعیت_مرکز":"چپلاني","Polling_Center_Location":"Chaplani","Verification_Note":"District","PS_Male":3,"PS_Female":1,"Map_Accuracy":"ولسوالی"},"geometry":{"x":7316115.92520291,"y":3704251.0580289885}},{"attributes":{"OBJECTID":2610,"ولایت":"کندهار","Province":"کندهار","PC_Code":"2718231","ولسوالي":"تخته پل","District":"TAKHTA PUL","د_مرکز_نوم__نام_مرکز":"د ولسوالي مرکز","Polling_Center_Name":"District Building Office","د_مرکز_ځای__موقعیت_مرکز":"شګه","Polling_Center_Location":"Shaga","Verification_Note":"Village","PS_Male":2,"PS_Female":3,"Map_Accuracy":"قریه"},"geometry":{"x":7342959.99935627,"y":3674397.789914906}},{"attributes":{"OBJECTID":2611,"ولایت":"کندهار","Province":"کندهار","PC_Code":"2718232","ولسوالي":"تخته پل","District":"TAKHTA PUL","د_مرکز_نوم__نام_مرکز":"مدد خان مكتب","Polling_Center_Name":"Madad Khan School","د_مرکز_ځای__موقعیت_مرکز":"مددخان كلي","Polling_Center_Location":"Madad Khan Village","Verification_Note":"Village","PS_Male":0,"PS_Female":2,"Map_Accuracy":"قریه"},"geometry":{"x":7369509.3404635787,"y":3674811.7446355596}},{"attributes":{"OBJECTID":2612,"ولایت":"کندهار","Province":"کندهار","PC_Code":"2718233","ولسوالي":"تخته پل","District":"TAKHTA PUL","د_مرکز_نوم__نام_مرکز":"كلينيك مددخان كلي","Polling_Center_Name":"Madad Khan Village Clinic","د_مرکز_ځای__موقعیت_مرکز":"مددخان كلي","Polling_Center_Location":"Madad Khan Village","Verification_Note":"Village","PS_Male":2,"PS_Female":0,"Map_Accuracy":"قریه"},"geometry":{"x":7365716.7703490257,"y":3675493.0015935078}},{"attributes":{"OBJECTID":2613,"ولایت":"کندهار","Province":"کندهار","PC_Code":"2718234","ولسوالي":"تخته پل","District":"TAKHTA PUL","د_مرکز_نوم__نام_مرکز":"مكتب د سړك پرهغه غاړه","Polling_Center_Name":"Road Side School","د_مرکز_ځای__موقعیت_مرکز":"حسن زي","Polling_Center_Location":"Hassanzai","Verification_Note":"Building","PS_Male":2,"PS_Female":2,"Map_Accuracy":"تعمیر"},"geometry":{"x":7344816.8434170187,"y":3656366.6901919395}},{"attributes":{"OBJECTID":2614,"ولایت":"کندهار","Province":"کندهار","PC_Code":"2718235","ولسوالي":"تخته پل","District":"TAKHTA PUL","د_مرکز_نوم__نام_مرکز":"د حاجي محمد خان کلي مكتب","Polling_Center_Name":"Haji Mohammad Khan Village School","د_مرکز_ځای__موقعیت_مرکز":"حاجي محمد خان كلي","Polling_Center_Location":"Haji Mohammad Khan Village","Verification_Note":"Village","PS_Male":3,"PS_Female":2,"Map_Accuracy":"قریه"},"geometry":{"x":7352256.8455166779,"y":3647557.0757490024}},{"attributes":{"OBJECTID":2615,"ولایت":"کندهار","Province":"کندهار","PC_Code":"2718236","ولسوالي":"تخته پل","District":"TAKHTA PUL","د_مرکز_نوم__نام_مرکز":"د حاجي مهمند د كلي مكتب","Polling_Center_Name":"Haji Mohmand Village School","د_مرکز_ځای__موقعیت_مرکز":"حاجي مهمند كلي","Polling_Center_Location":"Haji Mohmand Village","Verification_Note":"Village","PS_Male":4,"PS_Female":2,"Map_Accuracy":"قریه"},"geometry":{"x":7344748.8322175257,"y":3671019.6557930931}},{"attributes":{"OBJECTID":2616,"ولایت":"کندهار","Province":"کندهار","PC_Code":"2718239","ولسوالي":"تخته پل","District":"TAKHTA PUL","د_مرکز_نوم__نام_مرکز":"د معلم سعدالله د مکتب په خيمه كي","Polling_Center_Name":"Maalem Sadullah School Tent","د_مرکز_ځای__موقعیت_مرکز":"امير خان كلي","Polling_Center_Location":"Ameer Khan Village","Verification_Note":"Village","PS_Male":4,"PS_Female":4,"Map_Accuracy":"قریه"},"geometry":{"x":7349251.4440193065,"y":3640136.6451660395}},{"attributes":{"OBJECTID":2617,"ولایت":"کندهار","Province":"کندهار","PC_Code":"2718240","ولسوالي":"تخته پل","District":"TAKHTA PUL","د_مرکز_نوم__نام_مرکز":"د تنګی کلی روزد ته نژدي خیمه ","Polling_Center_Name":"Tangai Village Tent","د_مرکز_ځای__موقعیت_مرکز":"تنګي کلی","Polling_Center_Location":"Tangai Village","Verification_Note":"Village","PS_Male":3,"PS_Female":5,"Map_Accuracy":"قریه"},"geometry":{"x":7297095.1253767684,"y":3692430.6691502482}},{"attributes":{"OBJECTID":2618,"ولایت":"کندهار","Province":"کندهار","PC_Code":"2701058","ولسوالي":"کندهار","District":"KANDAHAR","د_مرکز_نوم__نام_مرکز":"شهيد عبدالاحد خان كرزي لیسه","Polling_Center_Name":"Shaheed Abdul Ahad Khan Karzai High School","د_مرکز_ځای__موقعیت_مرکز":"كارته معلمين","Polling_Center_Location":"Karta-e-Malemeen","Verification_Note":"Building","PS_Male":3,"PS_Female":2,"Map_Accuracy":"تعمیر"},"geometry":{"x":7318872.1969081461,"y":3713699.2385850176}},{"attributes":{"OBJECTID":2619,"ولایت":"کندهار","Province":"کندهار","PC_Code":"2701063","ولسوالي":"کندهار","District":"KANDAHAR","د_مرکز_نوم__نام_مرکز":"د عبدالهادي داوي منځني ښوونځي","Polling_Center_Name":"Abdul Hadi Dawi Secondary School","د_مرکز_ځای__موقعیت_مرکز":"اوومه ناحيه","Polling_Center_Location":"D07 - Nahia 7","Verification_Note":"Building","PS_Male":2,"PS_Female":5,"Map_Accuracy":"تعمیر"},"geometry":{"x":7311130.0855103508,"y":3711045.5628285259}},{"attributes":{"OBJECTID":2620,"ولایت":"کندهار","Province":"کندهار","PC_Code":"2702099","ولسوالي":"ارغنداب","District":"ARGHANDAB","د_مرکز_نوم__نام_مرکز":"د غازي محمد اكبر خان مكتب","Polling_Center_Name":"Ghazi Mohammad Akbar Khan School","د_مرکز_ځای__موقعیت_مرکز":"بابر","Polling_Center_Location":"Babar","Verification_Note":"Building","PS_Male":1,"PS_Female":2,"Map_Accuracy":"تعمیر"},"geometry":{"x":7310691.4176985323,"y":3726929.4923192486}},{"attributes":{"OBJECTID":2621,"ولایت":"کندهار","Province":"کندهار","PC_Code":"2703070","ولسوالي":"دامان","District":"DAMAN","د_مرکز_نوم__نام_مرکز":"د حاجي سيف الله تیلو پمپ ډالی مکتب","Polling_Center_Name":"Haji Saifullah Oil Station School","د_مرکز_ځای__موقعیت_مرکز":"ډالی کلی","Polling_Center_Location":"Dalai Village","Verification_Note":"Building","PS_Male":3,"PS_Female":1,"Map_Accuracy":"تعمیر"},"geometry":{"x":7337296.2082687244,"y":3691031.7987115979}},{"attributes":{"OBJECTID":2622,"ولایت":"کندهار","Province":"کندهار","PC_Code":"2703072","ولسوالي":"دامان","District":"DAMAN","د_مرکز_نوم__نام_مرکز":"د لطیف آغا مکتب","Polling_Center_Name":"Latif Agha School","د_مرکز_ځای__موقعیت_مرکز":"نجوي کلی","Polling_Center_Location":"Najwi Village","Verification_Note":"Building","PS_Male":1,"PS_Female":1,"Map_Accuracy":"تعمیر"},"geometry":{"x":7344708.32305482,"y":3713068.986947313}},{"attributes":{"OBJECTID":2623,"ولایت":"کندهار","Province":"کندهار","PC_Code":"2703085","ولسوالي":"دامان","District":"DAMAN","د_مرکز_نوم__نام_مرکز":"د حاجی انفیا کلاچه/ښوراندام مرکز","Polling_Center_Name":"Haji Anfiya Kalacha/Shorandam Markaz","د_مرکز_ځای__موقعیت_مرکز":"پنځمه ناحيه","Polling_Center_Location":"D05 - Nahia 5","Verification_Note":"Building","PS_Male":2,"PS_Female":1,"Map_Accuracy":"تعمیر"},"geometry":{"x":7325675.7881506011,"y":3708725.5424426496}},{"attributes":{"OBJECTID":2624,"ولایت":"کندهار","Province":"کندهار","PC_Code":"2703086","ولسوالي":"دامان","District":"DAMAN","د_مرکز_نوم__نام_مرکز":"ټي بي سي کلینیک ","Polling_Center_Name":"TBC Clinic","د_مرکز_ځای__موقعیت_مرکز":"حاجي عزيز کلی","Polling_Center_Location":"Haji Aziz Village","Verification_Note":"Village","PS_Male":2,"PS_Female":1,"Map_Accuracy":"قریه"},"geometry":{"x":7338951.871738214,"y":3688206.8858523816}},{"attributes":{"OBJECTID":2625,"ولایت":"کندهار","Province":"کندهار","PC_Code":"2704175","ولسوالي":"پنجوایې","District":"PANJWAYEE","د_مرکز_نوم__نام_مرکز":"كمپ ټالكان","Polling_Center_Name":"Talgaan Camp","د_مرکز_ځای__موقعیت_مرکز":"ټالكان","Polling_Center_Location":"Talgan","Verification_Note":"Village","PS_Male":1,"PS_Female":1,"Map_Accuracy":"قریه"},"geometry":{"x":7271476.2294202633,"y":3691299.808789745}},{"attributes":{"OBJECTID":2626,"ولایت":"کندهار","Province":"کندهار","PC_Code":"2704176","ولسوالي":"پنجوایې","District":"PANJWAYEE","د_مرکز_نوم__نام_مرکز":"شرعلي كمپ","Polling_Center_Name":"Shar Ali Camp","د_مرکز_ځای__موقعیت_مرکز":"موشان","Polling_Center_Location":"Moshan","Verification_Note":"Village","PS_Male":1,"PS_Female":1,"Map_Accuracy":"قریه"},"geometry":{"x":7264469.052640263,"y":3693501.4948438257}},{"attributes":{"OBJECTID":2627,"ولایت":"کندهار","Province":"کندهار","PC_Code":"2704180","ولسوالي":"پنجوایې","District":"PANJWAYEE","د_مرکز_نوم__نام_مرکز":"د شمس الدين كاكر مكتب","Polling_Center_Name":"Shamsuddin Kakar School","د_مرکز_ځای__موقعیت_مرکز":"پنجوايي مرکز","Polling_Center_Location":"Panjwayee Markaz","Verification_Note":"Building","PS_Male":2,"PS_Female":0,"Map_Accuracy":"تعمیر"},"geometry":{"x":7286404.0139487684,"y":3703455.0270864442}},{"attributes":{"OBJECTID":2628,"ولایت":"کندهار","Province":"کندهار","PC_Code":"2705155","ولسوالي":"ژیړی","District":"ZHIRE","د_مرکز_نوم__نام_مرکز":"شپږم كمپ ښوونځي","Polling_Center_Name":"6th Camp School","د_مرکز_ځای__موقعیت_مرکز":"د ژړي دښت","Polling_Center_Location":"Zharee Dasht","Verification_Note":"Building","PS_Male":1,"PS_Female":1,"Map_Accuracy":"تعمیر"},"geometry":{"x":7280093.7127658613,"y":3720299.9689370394}},{"attributes":{"OBJECTID":2629,"ولایت":"کندهار","Province":"کندهار","PC_Code":"2705156","ولسوالي":"ژیړی","District":"ZHIRE","د_مرکز_نوم__نام_مرکز":"پنځم كمپ","Polling_Center_Name":"5th Camp School","د_مرکز_ځای__موقعیت_مرکز":"د ژړي دښت","Polling_Center_Location":"Zharee Dasht","Verification_Note":"Village","PS_Male":1,"PS_Female":1,"Map_Accuracy":"قریه"},"geometry":{"x":7291351.0231765509,"y":3714496.6402363256}},{"attributes":{"OBJECTID":2630,"ولایت":"کندهار","Province":"کندهار","PC_Code":"2711205","ولسوالي":"سپین بولدک","District":"SPIN BOLDAK","د_مرکز_نوم__نام_مرکز":"د ډاكتر محمد داود كور","Polling_Center_Name":"Doctar Mohammad Dawood Private House","د_مرکز_ځای__موقعیت_مرکز":"نوي كلي","Polling_Center_Location":"Nawee Village","Verification_Note":"Building","PS_Male":5,"PS_Female":1,"Map_Accuracy":"تعمیر"},"geometry":{"x":7395389.9576711431,"y":3628345.4594065174}},{"attributes":{"OBJECTID":2631,"ولایت":"کندهار","Province":"کندهار","PC_Code":"2711227","ولسوالي":"سپین بولدک","District":"SPIN BOLDAK","د_مرکز_نوم__نام_مرکز":"د حاجي كمال الدين كور","Polling_Center_Name":"Haji Kamaluddin Private House","د_مرکز_ځای__موقعیت_مرکز":"بلال آباد","Polling_Center_Location":"Bilal Abad","Verification_Note":"Building","PS_Male":4,"PS_Female":2,"Map_Accuracy":"تعمیر"},"geometry":{"x":7393232.0159837753,"y":3630805.5512270853}},{"attributes":{"OBJECTID":2632,"ولایت":"کندهار","Province":"کندهار","PC_Code":"2716196","ولسوالي":"ریګ","District":"REG","د_مرکز_نوم__نام_مرکز":"مكتب شيرشاه","Polling_Center_Name":"Sher Shah School","د_مرکز_ځای__موقعیت_مرکز":"شيرشاه","Polling_Center_Location":"Sher Shah ","Verification_Note":"Village","PS_Male":3,"PS_Female":3,"Map_Accuracy":"قریه"},"geometry":{"x":7307661.5961557925,"y":3476296.7458090857}},{"attributes":{"OBJECTID":2633,"ولایت":"کندهار","Province":"کندهار","PC_Code":"2716197","ولسوالي":"ریګ","District":"REG","د_مرکز_نوم__نام_مرکز":"مكتب كامي","Polling_Center_Name":"Kaami School","د_مرکز_ځای__موقعیت_مرکز":"كامي","Polling_Center_Location":"Kaami","Verification_Note":"Village","PS_Male":4,"PS_Female":2,"Map_Accuracy":"قریه"},"geometry":{"x":7243599.22070995,"y":3449907.9420894086}},{"attributes":{"OBJECTID":2634,"ولایت":"کندهار","Province":"کندهار","PC_Code":"2717064","ولسوالي":"ډند","District":"DAND","د_مرکز_نوم__نام_مرکز":"د ذاكر شریف مكتب","Polling_Center_Name":"Zakir Sharif School","د_مرکز_ځای__موقعیت_مرکز":"شپږمه ناحيه","Polling_Center_Location":"D06 - Nahia 6","Verification_Note":"District","PS_Male":4,"PS_Female":2,"Map_Accuracy":"ولسوالی"},"geometry":{"x":7308169.5135964379,"y":3708478.9702991396}},{"attributes":{"OBJECTID":2635,"ولایت":"کندهار","Province":"کندهار","PC_Code":"2718237","ولسوالي":"تخته پل","District":"TAKHTA PUL","د_مرکز_نوم__نام_مرکز":"د پيرمحمد كور","Polling_Center_Name":"Peer Mohammad Private House","د_مرکز_ځای__موقعیت_مرکز":"ميراڼو كلي","Polling_Center_Location":"Mirano Village","Verification_Note":"Village","PS_Male":4,"PS_Female":4,"Map_Accuracy":"قریه"},"geometry":{"x":7328906.6128413416,"y":3683961.6049648225}},{"attributes":{"OBJECTID":2636,"ولایت":"کندهار","Province":"کندهار","PC_Code":"2718238","ولسوالي":"تخته پل","District":"TAKHTA PUL","د_مرکز_نوم__نام_مرکز":"د كمپ مكتب","Polling_Center_Name":"Camp School","د_مرکز_ځای__موقعیت_مرکز":"تاجو خان كلي","Polling_Center_Location":"Tajo Khan Village","Verification_Note":"Village","PS_Male":4,"PS_Female":4,"Map_Accuracy":"قریه"},"geometry":{"x":7315073.8174746446,"y":3694876.0351136327}},{"attributes":{"OBJECTID":2637,"ولایت":"جوزجان","Province":"JAWZJAN","PC_Code":"2801025","ولسوالي":"شبرغان","District":"SHEBERGHAN","د_مرکز_نوم__نام_مرکز":"لیسه افغان تپه","Polling_Center_Name":"Afghan Tapa High School","د_مرکز_ځای__موقعیت_مرکز":"ناحیه اول","Polling_Center_Location":"D01 - Nahia 1","Verification_Note":"Building","PS_Male":4,"PS_Female":2,"Map_Accuracy":"تعمیر"},"geometry":{"x":7324417.1031209826,"y":4373999.6911477149}},{"attributes":{"OBJECTID":2638,"ولایت":"جوزجان","Province":"JAWZJAN","PC_Code":"2801026","ولسوالي":"شبرغان","District":"SHEBERGHAN","د_مرکز_نوم__نام_مرکز":"مکتب متوسطه چهار شنبه","Polling_Center_Name":"Chaharshanba Secondary School","د_مرکز_ځای__موقعیت_مرکز":"ناحیه چهارم","Polling_Center_Location":"D04 - Nahia 4","Verification_Note":"Building","PS_Male":3,"PS_Female":2,"Map_Accuracy":"تعمیر"},"geometry":{"x":7328862.96758594,"y":4401970.260128893}},{"attributes":{"OBJECTID":2639,"ولایت":"جوزجان","Province":"JAWZJAN","PC_Code":"2801027","ولسوالي":"شبرغان","District":"SHEBERGHAN","د_مرکز_نوم__نام_مرکز":"مکتب متوسطه لب جرخراسان","Polling_Center_Name":"Lab Jar Khurasan Secondary School","د_مرکز_ځای__موقعیت_مرکز":"ناحیه دوم","Polling_Center_Location":"D02 - Nahia 2","Verification_Note":"Building","PS_Male":2,"PS_Female":1,"Map_Accuracy":"تعمیر"},"geometry":{"x":7314550.1998669766,"y":4392113.7760324776}},{"attributes":{"OBJECTID":2640,"ولایت":"جوزجان","Province":"JAWZJAN","PC_Code":"2801028","ولسوالي":"شبرغان","District":"SHEBERGHAN","د_مرکز_نوم__نام_مرکز":"مکتب متوسطه چوباش کلان","Polling_Center_Name":"Chobash Kalan Secondary School","د_مرکز_ځای__موقعیت_مرکز":"ناحیه چهارم","Polling_Center_Location":"D04 - Nahia 4","Verification_Note":"Building","PS_Male":2,"PS_Female":1,"Map_Accuracy":"تعمیر"},"geometry":{"x":7319476.3760973364,"y":4394829.342782408}},{"attributes":{"OBJECTID":2641,"ولایت":"جوزجان","Province":"JAWZJAN","PC_Code":"2801031","ولسوالي":"شبرغان","District":"SHEBERGHAN","د_مرکز_نوم__نام_مرکز":"مکتب متوسطه شکرک","Polling_Center_Name":"Shakarak Secondary School","د_مرکز_ځای__موقعیت_مرکز":"ناحیه سوم","Polling_Center_Location":"D03 - Nahia 3","Verification_Note":"Building","PS_Male":2,"PS_Female":1,"Map_Accuracy":"تعمیر"},"geometry":{"x":7319405.922659535,"y":4383743.7282625213}},{"attributes":{"OBJECTID":2642,"ولایت":"جوزجان","Province":"JAWZJAN","PC_Code":"2801032","ولسوالي":"شبرغان","District":"SHEBERGHAN","د_مرکز_نوم__نام_مرکز":"لیسه حسن تابین","Polling_Center_Name":"Hassan Tabeen High School","د_مرکز_ځای__موقعیت_مرکز":"ناحیه سوم","Polling_Center_Location":"D03 - Nahia 3","Verification_Note":"Building","PS_Male":2,"PS_Female":1,"Map_Accuracy":"تعمیر"},"geometry":{"x":7321421.3141729645,"y":4385632.3504013643}},{"attributes":{"OBJECTID":2643,"ولایت":"جوزجان","Province":"JAWZJAN","PC_Code":"2803118","ولسوالي":"خانقاه","District":"KHANAQA","د_مرکز_نوم__نام_مرکز":"مسجد بکاول ترکمنیه","Polling_Center_Name":"Bakawal Turkmania Mosque","د_مرکز_ځای__موقعیت_مرکز":"بکاول ترکمنیه","Polling_Center_Location":"Bakawal Turkmania","Verification_Note":"Building","PS_Male":1,"PS_Female":1,"Map_Accuracy":"تعمیر"},"geometry":{"x":7358330.58710435,"y":4422784.1534288824}},{"attributes":{"OBJECTID":2644,"ولایت":"جوزجان","Province":"JAWZJAN","PC_Code":"2803119","ولسوالي":"خانقاه","District":"KHANAQA","د_مرکز_نوم__نام_مرکز":"مکتب متوسطه الیک رباط","Polling_Center_Name":"Aleek Rabat Secondary School","د_مرکز_ځای__موقعیت_مرکز":"الیک رباط","Polling_Center_Location":"Aleek Rabat","Verification_Note":"Building","PS_Male":2,"PS_Female":1,"Map_Accuracy":"تعمیر"},"geometry":{"x":7359149.8284253106,"y":4417164.6340770349}},{"attributes":{"OBJECTID":2645,"ولایت":"جوزجان","Province":"JAWZJAN","PC_Code":"2805090","ولسوالي":"قوش تیپه","District":"QUSH TEPA","د_مرکز_نوم__نام_مرکز":"مکتب چقمه چقور","Polling_Center_Name":"Choqma Chaqoor School","د_مرکز_ځای__موقعیت_مرکز":"قوش تبه ","Polling_Center_Location":"Qosh Taba","Verification_Note":"Building","PS_Male":2,"PS_Female":2,"Map_Accuracy":"تعمیر"},"geometry":{"x":7287198.3942878433,"y":4323902.853103444}},{"attributes":{"OBJECTID":2646,"ولایت":"جوزجان","Province":"JAWZJAN","PC_Code":"2805091","ولسوالي":"قوش تیپه","District":"QUSH TEPA","د_مرکز_نوم__نام_مرکز":"مکتب جرقدوق","Polling_Center_Name":"Jarqadoq School","د_مرکز_ځای__موقعیت_مرکز":"قوش تبه ","Polling_Center_Location":"Qosh Taba","Verification_Note":"Building","PS_Male":3,"PS_Female":1,"Map_Accuracy":"تعمیر"},"geometry":{"x":7289670.2469204925,"y":4342611.9628944919}},{"attributes":{"OBJECTID":2647,"ولایت":"جوزجان","Province":"JAWZJAN","PC_Code":"2805093","ولسوالي":"قوش تیپه","District":"QUSH TEPA","د_مرکز_نوم__نام_مرکز":"ختای سای شور قدوق","Polling_Center_Name":"Khatai Say Shor Qadoq ","د_مرکز_ځای__موقعیت_مرکز":"قوش تبه ","Polling_Center_Location":"Qosh Taba","Verification_Note":"Village","PS_Male":1,"PS_Female":1,"Map_Accuracy":"قریه"},"geometry":{"x":7269804.3475915231,"y":4344399.2849106118}},{"attributes":{"OBJECTID":2648,"ولایت":"جوزجان","Province":"JAWZJAN","PC_Code":"2805094","ولسوالي":"قوش تیپه","District":"QUSH TEPA","د_مرکز_نوم__نام_مرکز":"مکتب تراغلی","Polling_Center_Name":"Taraghali School","د_مرکز_ځای__موقعیت_مرکز":"قوش تبه ","Polling_Center_Location":"Qosh Taba","Verification_Note":"Building","PS_Male":1,"PS_Female":1,"Map_Accuracy":"تعمیر"},"geometry":{"x":7286521.8378374055,"y":4327167.5319963992}},{"attributes":{"OBJECTID":2649,"ولایت":"جوزجان","Province":"JAWZJAN","PC_Code":"2807038","ولسوالي":"آقچه","District":"AQCHAH","د_مرکز_نوم__نام_مرکز":"لیسه نسوان آقچه","Polling_Center_Name":"Aaqcha Girls High School","د_مرکز_ځای__موقعیت_مرکز":"ناحیه اول ","Polling_Center_Location":"D01 - Nahia 1","Verification_Note":"Building","PS_Male":2,"PS_Female":2,"Map_Accuracy":"تعمیر"},"geometry":{"x":7367471.7073158845,"y":4426928.7759196237}},{"attributes":{"OBJECTID":2650,"ولایت":"جوزجان","Province":"JAWZJAN","PC_Code":"2807039","ولسوالي":"آقچه","District":"AQCHAH","د_مرکز_نوم__نام_مرکز":"مسجد ابوبکر صدیق ","Polling_Center_Name":"Abu Bakr Sediq Mosque","د_مرکز_ځای__موقعیت_مرکز":"ناحیه اول ","Polling_Center_Location":"D01 - Nahia 1","Verification_Note":"Building","PS_Male":2,"PS_Female":2,"Map_Accuracy":"تعمیر"},"geometry":{"x":7368132.6033403687,"y":4426088.4839503318}},{"attributes":{"OBJECTID":2651,"ولایت":"جوزجان","Province":"JAWZJAN","PC_Code":"2808052","ولسوالي":"فیض آباد","District":"FAIZABAD","د_مرکز_نوم__نام_مرکز":"لیسه ذکور بالا مردیان","Polling_Center_Name":"Bala Mardiyan Boys High School","د_مرکز_ځای__موقعیت_مرکز":"قریه بالا مردیان","Polling_Center_Location":"Bala Mardiyan Village","Verification_Note":"Building","PS_Male":2,"PS_Female":1,"Map_Accuracy":"تعمیر"},"geometry":{"x":7401908.0044009611,"y":4428476.1998150051}},{"attributes":{"OBJECTID":2652,"ولایت":"جوزجان","Province":"JAWZJAN","PC_Code":"2808053","ولسوالي":"فیض آباد","District":"FAIZABAD","د_مرکز_نوم__نام_مرکز":"مکتب متوسطه نور آباد","Polling_Center_Name":"Noor Abad Secondary School","د_مرکز_ځای__موقعیت_مرکز":"قریه نور آباد","Polling_Center_Location":"Noor Abad Village","Verification_Note":"Building","PS_Male":1,"PS_Female":1,"Map_Accuracy":"تعمیر"},"geometry":{"x":7390033.2916040458,"y":4414438.0604706109}},{"attributes":{"OBJECTID":2653,"ولایت":"جوزجان","Province":"JAWZJAN","PC_Code":"2809063","ولسوالي":"مردیان","District":"MARDYAN","د_مرکز_نوم__نام_مرکز":"مکتب ابتدائیه هندوکش","Polling_Center_Name":"Hindukush Primary School","د_مرکز_ځای__موقعیت_مرکز":"هندوکش","Polling_Center_Location":"Hindukush","Verification_Note":"Building","PS_Male":2,"PS_Female":1,"Map_Accuracy":"تعمیر"},"geometry":{"x":7376859.7875913642,"y":4424963.0030604154}},{"attributes":{"OBJECTID":2654,"ولایت":"جوزجان","Province":"JAWZJAN","PC_Code":"2809064","ولسوالي":"مردیان","District":"MARDYAN","د_مرکز_نوم__نام_مرکز":"مکتب متوسطه فروک قلعه","Polling_Center_Name":"Farok Qala Secondary School","د_مرکز_ځای__موقعیت_مرکز":"فروک قلعه","Polling_Center_Location":"Farok Qala","Verification_Note":"Building","PS_Male":1,"PS_Female":1,"Map_Accuracy":"تعمیر"},"geometry":{"x":7386713.7544073388,"y":4442574.3285987526}},{"attributes":{"OBJECTID":2655,"ولایت":"جوزجان","Province":"JAWZJAN","PC_Code":"2809068","ولسوالي":"مردیان","District":"MARDYAN","د_مرکز_نوم__نام_مرکز":"مکتب سالتق","Polling_Center_Name":"Saltaq School","د_مرکز_ځای__موقعیت_مرکز":"قریه سالتق","Polling_Center_Location":"Saltaq Village","Verification_Note":"Building","PS_Male":1,"PS_Female":1,"Map_Accuracy":"تعمیر"},"geometry":{"x":7381778.9569276981,"y":4419745.3999836743}},{"attributes":{"OBJECTID":2656,"ولایت":"جوزجان","Province":"JAWZJAN","PC_Code":"2810080","ولسوالي":"قرقین","District":"QARQIN","د_مرکز_نوم__نام_مرکز":"لیسه مخدوم قلی فراغی","Polling_Center_Name":"Makhdoom Qali Faraghi High School","د_مرکز_ځای__موقعیت_مرکز":"مخدوم قلی فراغی","Polling_Center_Location":"Makhdoom Qali Faraghi","Verification_Note":"Building","PS_Male":5,"PS_Female":3,"Map_Accuracy":"تعمیر"},"geometry":{"x":7350858.29188833,"y":4496858.1625309363}},{"attributes":{"OBJECTID":2657,"ولایت":"جوزجان","Province":"JAWZJAN","PC_Code":"2810081","ولسوالي":"قرقین","District":"QARQIN","د_مرکز_نوم__نام_مرکز":"مکتب متوسطه جوی سرای","Polling_Center_Name":"Joy Sarai Secondary School","د_مرکز_ځای__موقعیت_مرکز":"جوی سرای","Polling_Center_Location":"Joy Sarai","Verification_Note":"Building","PS_Male":3,"PS_Female":1,"Map_Accuracy":"تعمیر"},"geometry":{"x":7354759.77510025,"y":4495632.9883296415}},{"attributes":{"OBJECTID":2658,"ولایت":"جوزجان","Province":"JAWZJAN","PC_Code":"2810082","ولسوالي":"قرقین","District":"QARQIN","د_مرکز_نوم__نام_مرکز":"مکتب متوسطه کوک","Polling_Center_Name":"Kok Secondary School","د_مرکز_ځای__موقعیت_مرکز":"قریه شهاب ","Polling_Center_Location":"Shahab Village","Verification_Note":"Building","PS_Male":1,"PS_Female":1,"Map_Accuracy":"تعمیر"},"geometry":{"x":7368551.143920321,"y":4487379.3140722141}},{"attributes":{"OBJECTID":2659,"ولایت":"جوزجان","Province":"JAWZJAN","PC_Code":"2811096","ولسوالي":"درز آب","District":"DARZAB","د_مرکز_نوم__نام_مرکز":"لیسه ذکور درزاب","Polling_Center_Name":"Darzaab Boys High School","د_مرکز_ځای__موقعیت_مرکز":"مرکز ولسوالی ","Polling_Center_Location":"District Compound","Verification_Note":"Building","PS_Male":2,"PS_Female":1,"Map_Accuracy":"تعمیر"},"geometry":{"x":7278708.92501707,"y":4297604.3329355121}},{"attributes":{"OBJECTID":2660,"ولایت":"جوزجان","Province":"JAWZJAN","PC_Code":"2811097","ولسوالي":"درز آب","District":"DARZAB","د_مرکز_نوم__نام_مرکز":"مکتب ابوذر غفاری","Polling_Center_Name":"Abu Zar Ghaffari School","د_مرکز_ځای__موقعیت_مرکز":"مفل ","Polling_Center_Location":"Mafal","Verification_Note":"Building","PS_Male":2,"PS_Female":1,"Map_Accuracy":"تعمیر"},"geometry":{"x":7279858.2553449124,"y":4297689.8572095409}},{"attributes":{"OBJECTID":2661,"ولایت":"جوزجان","Province":"JAWZJAN","PC_Code":"2811102","ولسوالي":"درز آب","District":"DARZAB","د_مرکز_نوم__نام_مرکز":"مکتب تاش جواز","Polling_Center_Name":"Tash Jawaz School","د_مرکز_ځای__موقعیت_مرکز":"قریه تاش جواز","Polling_Center_Location":"Tash Jawaz Village","Verification_Note":"Building","PS_Male":2,"PS_Female":1,"Map_Accuracy":"تعمیر"},"geometry":{"x":7289211.26218842,"y":4304416.2526216805}},{"attributes":{"OBJECTID":2662,"ولایت":"جوزجان","Province":"JAWZJAN","PC_Code":"2811103","ولسوالي":"درز آب","District":"DARZAB","د_مرکز_نوم__نام_مرکز":"بادام لیک","Polling_Center_Name":"Badam Lek ","د_مرکز_ځای__موقعیت_مرکز":"باداملیک درزاب","Polling_Center_Location":"Badamlek Darzab","Verification_Note":"Building","PS_Male":1,"PS_Female":1,"Map_Accuracy":"تعمیر"},"geometry":{"x":7269480.2965538166,"y":4298978.57493484}},{"attributes":{"OBJECTID":2663,"ولایت":"جوزجان","Province":"JAWZJAN","PC_Code":"2801011","ولسوالي":"شبرغان","District":"SHEBERGHAN","د_مرکز_نوم__نام_مرکز":"لیسه نسوان کوک گنبد","Polling_Center_Name":"Kok Gunbad Girls High School","د_مرکز_ځای__موقعیت_مرکز":"ناحیه سوم","Polling_Center_Location":"D03 - Nahia 3","Verification_Note":"Building","PS_Male":3,"PS_Female":2,"Map_Accuracy":"تعمیر"},"geometry":{"x":7321069.7416175529,"y":4389516.8776857033}},{"attributes":{"OBJECTID":2664,"ولایت":"جوزجان","Province":"JAWZJAN","PC_Code":"2801012","ولسوالي":"شبرغان","District":"SHEBERGHAN","د_مرکز_نوم__نام_مرکز":"لیسه عرب خانه","Polling_Center_Name":"Arab Khana High School","د_مرکز_ځای__موقعیت_مرکز":"ناحیه اول ","Polling_Center_Location":"D01 - Nahia 1","Verification_Note":"Building","PS_Male":4,"PS_Female":2,"Map_Accuracy":"تعمیر"},"geometry":{"x":7322289.332355205,"y":4391273.0095246062}},{"attributes":{"OBJECTID":2665,"ولایت":"جوزجان","Province":"JAWZJAN","PC_Code":"2801020","ولسوالي":"شبرغان","District":"SHEBERGHAN","د_مرکز_نوم__نام_مرکز":"لیسه آلتی خواجه","Polling_Center_Name":"Aalti Khwaja High School","د_مرکز_ځای__موقعیت_مرکز":"ناحیه اول","Polling_Center_Location":"D01 - Nahia 1","Verification_Note":"Building","PS_Male":4,"PS_Female":2,"Map_Accuracy":"تعمیر"},"geometry":{"x":7324678.3265512772,"y":4390504.3669726476}},{"attributes":{"OBJECTID":2666,"ولایت":"جوزجان","Province":"JAWZJAN","PC_Code":"2801021","ولسوالي":"شبرغان","District":"SHEBERGHAN","د_مرکز_نوم__نام_مرکز":"لیسه ذکور قره کینت","Polling_Center_Name":"Qara Kent Boys High School","د_مرکز_ځای__موقعیت_مرکز":"ناحیه اول","Polling_Center_Location":"D01 - Nahia 1","Verification_Note":"Building","PS_Male":3,"PS_Female":2,"Map_Accuracy":"تعمیر"},"geometry":{"x":7326199.4339221045,"y":4377919.7415303513}},{"attributes":{"OBJECTID":2667,"ولایت":"جوزجان","Province":"JAWZJAN","PC_Code":"2802112","ولسوالي":"خواجه دوکوه","District":"KHWAJA DUKOH","د_مرکز_نوم__نام_مرکز":"لیسه چوب باش","Polling_Center_Name":"Chob Bash High School","د_مرکز_ځای__موقعیت_مرکز":"چوب باش","Polling_Center_Location":"Chob Bash","Verification_Note":"Building","PS_Male":2,"PS_Female":1,"Map_Accuracy":"تعمیر"},"geometry":{"x":7306163.3682799116,"y":4405516.7518635392}},{"attributes":{"OBJECTID":2668,"ولایت":"جوزجان","Province":"JAWZJAN","PC_Code":"2803120","ولسوالي":"خانقاه","District":"KHANAQA","د_مرکز_نوم__نام_مرکز":"لیسه نسوان خانقاه ازبکیه","Polling_Center_Name":"Khanqah Uzbekya Girls High School","د_مرکز_ځای__موقعیت_مرکز":"خانقاه ازبکیه ","Polling_Center_Location":"Khanqah Uzbekya","Verification_Note":"Building","PS_Male":2,"PS_Female":1,"Map_Accuracy":"تعمیر"},"geometry":{"x":7366010.4653408229,"y":4420929.8443041593}},{"attributes":{"OBJECTID":2669,"ولایت":"جوزجان","Province":"JAWZJAN","PC_Code":"2803121","ولسوالي":"خانقاه","District":"KHANAQA","د_مرکز_نوم__نام_مرکز":"مسجد سیاه کمر","Polling_Center_Name":"Siyah Kamar Mosque","د_مرکز_ځای__موقعیت_مرکز":"قریه سیاه کمر","Polling_Center_Location":"Siyah kamar Village","Verification_Note":"Village","PS_Male":1,"PS_Female":1,"Map_Accuracy":"قریه"},"geometry":{"x":7372177.7866565548,"y":4381465.957659781}},{"attributes":{"OBJECTID":2670,"ولایت":"جوزجان","Province":"JAWZJAN","PC_Code":"2804072","ولسوالي":"منگجیک","District":"MINGAJIK","د_مرکز_نوم__نام_مرکز":"مکتب سفرولی اول ","Polling_Center_Name":"Safar Wali Awal School","د_مرکز_ځای__موقعیت_مرکز":"سفرولی اول","Polling_Center_Location":"Safar Wali Awal","Verification_Note":"Building","PS_Male":2,"PS_Female":1,"Map_Accuracy":"تعمیر"},"geometry":{"x":7353767.2727842294,"y":4447823.8036345914}},{"attributes":{"OBJECTID":2671,"ولایت":"جوزجان","Province":"JAWZJAN","PC_Code":"2804075","ولسوالي":"منگجیک","District":"MINGAJIK","د_مرکز_نوم__نام_مرکز":"مکتب قوینلی مهاجر","Polling_Center_Name":"Qowenli Muhajir School","د_مرکز_ځای__موقعیت_مرکز":"قوینلی مهاجر","Polling_Center_Location":"Qowenli Muhajir","Verification_Note":"Building","PS_Male":1,"PS_Female":1,"Map_Accuracy":"تعمیر"},"geometry":{"x":7343538.7481643856,"y":4444316.5332540274}},{"attributes":{"OBJECTID":2672,"ولایت":"جوزجان","Province":"JAWZJAN","PC_Code":"2804076","ولسوالي":"منگجیک","District":"MINGAJIK","د_مرکز_نوم__نام_مرکز":"مکتب سلطان اریغ","Polling_Center_Name":"Sultan Areegh School","د_مرکز_ځای__موقعیت_مرکز":"سلطان اریغ","Polling_Center_Location":"Sultan Areegh","Verification_Note":"Building","PS_Male":2,"PS_Female":1,"Map_Accuracy":"تعمیر"},"geometry":{"x":7352705.5865178853,"y":4427789.4826747179}},{"attributes":{"OBJECTID":2673,"ولایت":"جوزجان","Province":"JAWZJAN","PC_Code":"2804079","ولسوالي":"منگجیک","District":"MINGAJIK","د_مرکز_نوم__نام_مرکز":"مسجد قره آدیک","Polling_Center_Name":"Qara-e-Adeek Mosque","د_مرکز_ځای__موقعیت_مرکز":"مسجد قره آدیک","Polling_Center_Location":"Masjid Qara-e-Adeek","Verification_Note":"Building","PS_Male":1,"PS_Female":1,"Map_Accuracy":"تعمیر"},"geometry":{"x":7341053.34349693,"y":4449290.6922409087}},{"attributes":{"OBJECTID":2674,"ولایت":"جوزجان","Province":"JAWZJAN","PC_Code":"2805088","ولسوالي":"قوش تیپه","District":"QUSH TEPA","د_مرکز_نوم__نام_مرکز":"مکتب شیر بیک","Polling_Center_Name":"Sher Bek School","د_مرکز_ځای__موقعیت_مرکز":"قوش تبه ","Polling_Center_Location":"Qosh Taba","Verification_Note":"Building","PS_Male":3,"PS_Female":2,"Map_Accuracy":"تعمیر"},"geometry":{"x":7277227.6811558977,"y":4309241.5190528557}},{"attributes":{"OBJECTID":2675,"ولایت":"جوزجان","Province":"JAWZJAN","PC_Code":"2807042","ولسوالي":"آقچه","District":"AQCHAH","د_مرکز_نوم__نام_مرکز":"مسجد لغمانی ","Polling_Center_Name":"Laghmani Mosque","د_مرکز_ځای__موقعیت_مرکز":"قریه لغمانی ","Polling_Center_Location":"Laghmani Village","Verification_Note":"Building","PS_Male":2,"PS_Female":1,"Map_Accuracy":"تعمیر"},"geometry":{"x":7371706.8428715877,"y":4423275.9642075673}},{"attributes":{"OBJECTID":2676,"ولایت":"جوزجان","Province":"JAWZJAN","PC_Code":"2807043","ولسوالي":"آقچه","District":"AQCHAH","د_مرکز_نوم__نام_مرکز":"مسجد ینداغ اریغ","Polling_Center_Name":"Yandagh Areegh Mosque","د_مرکز_ځای__موقعیت_مرکز":"ینداغ اریغ","Polling_Center_Location":"Yandagh Areegh","Verification_Note":"Building","PS_Male":1,"PS_Female":1,"Map_Accuracy":"تعمیر"},"geometry":{"x":7374413.7098736092,"y":4417770.6515466347}},{"attributes":{"OBJECTID":2677,"ولایت":"جوزجان","Province":"JAWZJAN","PC_Code":"2801004","ولسوالي":"شبرغان","District":"SHEBERGHAN","د_مرکز_نوم__نام_مرکز":"لیسه جنرال عبدالرشید دوستم","Polling_Center_Name":"General Abdul Rashid Dostam High School","د_مرکز_ځای__موقعیت_مرکز":"ناحیه اول","Polling_Center_Location":"D01 - Nahia 1","Verification_Note":"Building","PS_Male":4,"PS_Female":2,"Map_Accuracy":"تعمیر"},"geometry":{"x":7322010.6863114089,"y":4391724.009121567}},{"attributes":{"OBJECTID":2678,"ولایت":"جوزجان","Province":"JAWZJAN","PC_Code":"2801005","ولسوالي":"شبرغان","District":"SHEBERGHAN","د_مرکز_نوم__نام_مرکز":"لیسه ذکور یکه باغ","Polling_Center_Name":"Zokoor Yaka Bagh Boys High School","د_مرکز_ځای__موقعیت_مرکز":"ناحیه چهارم","Polling_Center_Location":"D04 - Nahia 4","Verification_Note":"Building","PS_Male":3,"PS_Female":2,"Map_Accuracy":"تعمیر"},"geometry":{"x":7320086.1058989838,"y":4395013.9099016711}},{"attributes":{"OBJECTID":2679,"ولایت":"جوزجان","Province":"JAWZJAN","PC_Code":"2807044","ولسوالي":"آقچه","District":"AQCHAH","د_مرکز_نوم__نام_مرکز":"لیسه ذکور ینگی اریغ ترکمنیه","Polling_Center_Name":"Yangee Areegh Turkmania Boys High School","د_مرکز_ځای__موقعیت_مرکز":"ینگی اریغ","Polling_Center_Location":"Yangee Areegh","Verification_Note":"Building","PS_Male":3,"PS_Female":2,"Map_Accuracy":"تعمیر"},"geometry":{"x":7364713.9138732143,"y":4427656.52746921}},{"attributes":{"OBJECTID":2680,"ولایت":"جوزجان","Province":"JAWZJAN","PC_Code":"2807045","ولسوالي":"آقچه","District":"AQCHAH","د_مرکز_نوم__نام_مرکز":"مکتب بیش کپه سرخ ","Polling_Center_Name":"Besh Kapa Surkh School","د_مرکز_ځای__موقعیت_مرکز":"بیش کپه سرخ","Polling_Center_Location":"Besh Kapa Surkh","Verification_Note":"Building","PS_Male":3,"PS_Female":1,"Map_Accuracy":"تعمیر"},"geometry":{"x":7364327.6096366718,"y":4423565.1591218859}},{"attributes":{"OBJECTID":2681,"ولایت":"جوزجان","Province":"JAWZJAN","PC_Code":"2808049","ولسوالي":"فیض آباد","District":"FAIZABAD","د_مرکز_نوم__نام_مرکز":"لیسه نسوان شهید لطیفه حبیبی","Polling_Center_Name":"Shaheed Latifa Habibi Girls High School","د_مرکز_ځای__موقعیت_مرکز":"قریه سانسیز","Polling_Center_Location":"Sanseez Village","Verification_Note":"Building","PS_Male":1,"PS_Female":1,"Map_Accuracy":"تعمیر"},"geometry":{"x":7397883.2404189669,"y":4414589.83150591}},{"attributes":{"OBJECTID":2682,"ولایت":"جوزجان","Province":"JAWZJAN","PC_Code":"2808054","ولسوالي":"فیض آباد","District":"FAIZABAD","د_مرکز_نوم__نام_مرکز":"لیسه ذکور شیشه خانه","Polling_Center_Name":"Shisha Khana Boys High School","د_مرکز_ځای__موقعیت_مرکز":"قریه شیشه خانه عربیه ","Polling_Center_Location":"Shisha Khana Arabia Village","Verification_Note":"Building","PS_Male":1,"PS_Female":1,"Map_Accuracy":"تعمیر"},"geometry":{"x":7398361.7272126265,"y":4409567.6106563658}},{"attributes":{"OBJECTID":2683,"ولایت":"جوزجان","Province":"JAWZJAN","PC_Code":"2808055","ولسوالي":"فیض آباد","District":"FAIZABAD","د_مرکز_نوم__نام_مرکز":"مکتب متوسطه مملیک","Polling_Center_Name":"Memleek Secondary School","د_مرکز_ځای__موقعیت_مرکز":"قریه میملیک","Polling_Center_Location":"Memleek Village","Verification_Note":"Building","PS_Male":1,"PS_Female":1,"Map_Accuracy":"تعمیر"},"geometry":{"x":7406005.5268021375,"y":4417956.5616919026}},{"attributes":{"OBJECTID":2684,"ولایت":"جوزجان","Province":"JAWZJAN","PC_Code":"2808056","ولسوالي":"فیض آباد","District":"FAIZABAD","د_مرکز_نوم__نام_مرکز":"لیسه نسوان کوشگک","Polling_Center_Name":"Koshgak Girls High School","د_مرکز_ځای__موقعیت_مرکز":"قریه کوشگک","Polling_Center_Location":"Koshgak Village","Verification_Note":"Building","PS_Male":1,"PS_Female":1,"Map_Accuracy":"تعمیر"},"geometry":{"x":7409960.2307494022,"y":4411594.2386530191}},{"attributes":{"OBJECTID":2685,"ولایت":"جوزجان","Province":"JAWZJAN","PC_Code":"2808057","ولسوالي":"فیض آباد","District":"FAIZABAD","د_مرکز_نوم__نام_مرکز":"مکتب متوسطه ذکور گرجک","Polling_Center_Name":"Garjak Boys Secondary School","د_مرکز_ځای__موقعیت_مرکز":"قریه گرجک","Polling_Center_Location":"Garjak Village","Verification_Note":"Building","PS_Male":2,"PS_Female":1,"Map_Accuracy":"تعمیر"},"geometry":{"x":7402858.6906634532,"y":4407566.4099128619}},{"attributes":{"OBJECTID":2686,"ولایت":"جوزجان","Province":"JAWZJAN","PC_Code":"2808059","ولسوالي":"فیض آباد","District":"FAIZABAD","د_مرکز_نوم__نام_مرکز":"مکتب متوسطه نصرت آباد","Polling_Center_Name":"Nasrat Abad Secondary School","د_مرکز_ځای__موقعیت_مرکز":"قریه نصرت آباد","Polling_Center_Location":"Nasrat Abad Village","Verification_Note":"Building","PS_Male":1,"PS_Female":1,"Map_Accuracy":"تعمیر"},"geometry":{"x":7393061.3075446449,"y":4419806.3209794462}},{"attributes":{"OBJECTID":2687,"ولایت":"جوزجان","Province":"JAWZJAN","PC_Code":"2809061","ولسوالي":"مردیان","District":"MARDYAN","د_مرکز_نوم__نام_مرکز":"مکتب متوسطه جنگل اریغ","Polling_Center_Name":"Jangal Areegh Secondary School","د_مرکز_ځای__موقعیت_مرکز":"قریه جنگل اریغ","Polling_Center_Location":"Jangal Areegh Village","Verification_Note":"Building","PS_Male":3,"PS_Female":2,"Map_Accuracy":"تعمیر"},"geometry":{"x":7376033.6333300248,"y":4431712.8214391693}},{"attributes":{"OBJECTID":2688,"ولایت":"جوزجان","Province":"JAWZJAN","PC_Code":"2809066","ولسوالي":"مردیان","District":"MARDYAN","د_مرکز_نوم__نام_مرکز":"مکتب متوسطه چلیک گنج","Polling_Center_Name":"Cheleek Ganj Secondary School","د_مرکز_ځای__موقعیت_مرکز":"قریه  چلیک گنج","Polling_Center_Location":"Cheleek Ganj Village","Verification_Note":"Building","PS_Male":1,"PS_Female":1,"Map_Accuracy":"تعمیر"},"geometry":{"x":7373290.9459422491,"y":4440629.7565454468}},{"attributes":{"OBJECTID":2689,"ولایت":"جوزجان","Province":"JAWZJAN","PC_Code":"2811106","ولسوالي":"درز آب","District":"DARZAB","د_مرکز_نوم__نام_مرکز":"مکتب آقسای","Polling_Center_Name":"Aqsaay School","د_مرکز_ځای__موقعیت_مرکز":"آقسای","Polling_Center_Location":"Aqsaay","Verification_Note":"Village","PS_Male":1,"PS_Female":1,"Map_Accuracy":"قریه"},"geometry":{"x":7293813.8043838963,"y":4313086.8543490395}},{"attributes":{"OBJECTID":2690,"ولایت":"جوزجان","Province":"JAWZJAN","PC_Code":"2811107","ولسوالي":"درز آب","District":"DARZAB","د_مرکز_نوم__نام_مرکز":"مکتب ترکمن قدوق","Polling_Center_Name":"Turkman Qadoq School","د_مرکز_ځای__موقعیت_مرکز":"درزاب ","Polling_Center_Location":"Darzaab","Verification_Note":"Building","PS_Male":1,"PS_Female":1,"Map_Accuracy":"تعمیر"},"geometry":{"x":7277598.8197816089,"y":4297785.8294750676}},{"attributes":{"OBJECTID":2691,"ولایت":"جوزجان","Province":"JAWZJAN","PC_Code":"2808126","ولسوالي":"فیض آباد","District":"FAIZABAD","د_مرکز_نوم__نام_مرکز":" لیسه چارباغ","Polling_Center_Name":"Char bagh High school","د_مرکز_ځای__موقعیت_مرکز":"چهار باغ","Polling_Center_Location":"Chahar bagh","Verification_Note":"Building","PS_Male":2,"PS_Female":1,"Map_Accuracy":"تعمیر"},"geometry":{"x":7398286.2672920488,"y":4419015.6908111125}},{"attributes":{"OBJECTID":2692,"ولایت":"جوزجان","Province":"JAWZJAN","PC_Code":"2811127","ولسوالي":"درز آب","District":"DARZAB","د_مرکز_نوم__نام_مرکز":"مکتب متوسطه ","Polling_Center_Name":"Secondary school","د_مرکز_ځای__موقعیت_مرکز":"پیر غریب","Polling_Center_Location":"Peer ghaib","Verification_Note":"Building","PS_Male":2,"PS_Female":1,"Map_Accuracy":"تعمیر"},"geometry":{"x":7257731.5456569195,"y":4299468.2967238054}},{"attributes":{"OBJECTID":2693,"ولایت":"فارياب","Province":"FARYAB","PC_Code":"2901008","ولسوالي":"میمنه ","District":"MAIMANA","د_مرکز_نوم__نام_مرکز":"مکتب سربلاق","Polling_Center_Name":"Sar balaq School","د_مرکز_ځای__موقعیت_مرکز":"ناحیه نهم","Polling_Center_Location":"D09 - Nahia 9","Verification_Note":"Building","PS_Male":2,"PS_Female":1,"Map_Accuracy":"تعمیر"},"geometry":{"x":7206801.1058561057,"y":4293546.938097693}},{"attributes":{"OBJECTID":2694,"ولایت":"فارياب","Province":"FARYAB","PC_Code":"2901009","ولسوالي":"میمنه ","District":"MAIMANA","د_مرکز_نوم__نام_مرکز":"مدرسه عالی ابو مسلم خراسانی","Polling_Center_Name":"Abu Muslim Khurasani Madrassa","د_مرکز_ځای__موقعیت_مرکز":"ناحیه سوم","Polling_Center_Location":"D03 - Nahia 3","Verification_Note":"Building","PS_Male":4,"PS_Female":0,"Map_Accuracy":"تعمیر"},"geometry":{"x":7211185.2002488226,"y":4288963.3520471081}},{"attributes":{"OBJECTID":2695,"ولایت":"فارياب","Province":"FARYAB","PC_Code":"2901014","ولسوالي":"میمنه ","District":"MAIMANA","د_مرکز_نوم__نام_مرکز":"لیسه مسلکی زراعت میمنه","Polling_Center_Name":"Maimana Agriculture Vocational High School","د_مرکز_ځای__موقعیت_مرکز":"ناحیه سوم","Polling_Center_Location":"D03 - Nahia 3","Verification_Note":"Building","PS_Male":4,"PS_Female":0,"Map_Accuracy":"تعمیر"},"geometry":{"x":7210234.0609160028,"y":4290347.1798829287}},{"attributes":{"OBJECTID":2696,"ولایت":"فارياب","Province":"FARYAB","PC_Code":"2901015","ولسوالي":"میمنه ","District":"MAIMANA","د_مرکز_نوم__نام_مرکز":"لیسه نسوان ده سیدان","Polling_Center_Name":"Deh Sayedan Girls High School","د_مرکز_ځای__موقعیت_مرکز":"ناحیه ششم","Polling_Center_Location":"D06 - Nahia 6","Verification_Note":"Building","PS_Male":2,"PS_Female":1,"Map_Accuracy":"تعمیر"},"geometry":{"x":7213894.6075616293,"y":4287882.624164097}},{"attributes":{"OBJECTID":2697,"ولایت":"فارياب","Province":"FARYAB","PC_Code":"2902018","ولسوالي":"پشتون کوت","District":"PASHTUN KOT","د_مرکز_نوم__نام_مرکز":"مکتب ذکورخواجه ناموسی","Polling_Center_Name":"Khwaja Namosi Boys School","د_مرکز_ځای__موقعیت_مرکز":"خواجه ناموسی","Polling_Center_Location":"Khwaja Namosi","Verification_Note":"Village","PS_Male":2,"PS_Female":0,"Map_Accuracy":"قریه"},"geometry":{"x":7198471.6850700229,"y":4305471.567529507}},{"attributes":{"OBJECTID":2698,"ولایت":"فارياب","Province":"FARYAB","PC_Code":"2902019","ولسوالي":"پشتون کوت","District":"PASHTUN KOT","د_مرکز_نوم__نام_مرکز":"مینگ درخت، خواجه ناموسی","Polling_Center_Name":"Meng Darakht, Khwaja Namosi","د_مرکز_ځای__موقعیت_مرکز":"مینگ درخت، خواجه ناموسی","Polling_Center_Location":"Khwaja Namosi","Verification_Note":"Village","PS_Male":1,"PS_Female":1,"Map_Accuracy":"قریه"},"geometry":{"x":7189280.75940511,"y":4311323.6972097233}},{"attributes":{"OBJECTID":2699,"ولایت":"فارياب","Province":"FARYAB","PC_Code":"2902023","ولسوالي":"پشتون کوت","District":"PASHTUN KOT","د_مرکز_نوم__نام_مرکز":"مکتب اناث خواجه ناموسی","Polling_Center_Name":"Khwaja Namosi Girls School","د_مرکز_ځای__موقعیت_مرکز":"خواجه ناموسی","Polling_Center_Location":"Khwaja Namosi","Verification_Note":"Village","PS_Male":0,"PS_Female":3,"Map_Accuracy":"قریه"},"geometry":{"x":7197286.0913048573,"y":4306806.4437509477}},{"attributes":{"OBJECTID":2700,"ولایت":"فارياب","Province":"FARYAB","PC_Code":"2902024","ولسوالي":"پشتون کوت","District":"PASHTUN KOT","د_مرکز_نوم__نام_مرکز":"مسجد تیلان","Polling_Center_Name":"Telaan Mosque","د_مرکز_ځای__موقعیت_مرکز":"تیلان","Polling_Center_Location":"Telaan","Verification_Note":"Village","PS_Male":1,"PS_Female":1,"Map_Accuracy":"قریه"},"geometry":{"x":7214165.63378628,"y":4236903.6524021029}},{"attributes":{"OBJECTID":2701,"ولایت":"فارياب","Province":"FARYAB","PC_Code":"2902028","ولسوالي":"پشتون کوت","District":"PASHTUN KOT","د_مرکز_نوم__نام_مرکز":"مدرسه میر قاسم","Polling_Center_Name":"Mir Qasim Madrassa","د_مرکز_ځای__موقعیت_مرکز":"میرقاسم گلیم بافت","Polling_Center_Location":"Mir Qasim Gleem Baft","Verification_Note":"Village","PS_Male":1,"PS_Female":1,"Map_Accuracy":"قریه"},"geometry":{"x":7233369.2945777178,"y":4251284.3378707841}},{"attributes":{"OBJECTID":2702,"ولایت":"فارياب","Province":"FARYAB","PC_Code":"2902029","ولسوالي":"پشتون کوت","District":"PASHTUN KOT","د_مرکز_نوم__نام_مرکز":"مسجد چهک گلیم بافت","Polling_Center_Name":"Chehak Gleem Baft Mosque","د_مرکز_ځای__موقعیت_مرکز":"چهک گلیم بافت","Polling_Center_Location":"Chehak Gleem Baft","Verification_Note":"Village","PS_Male":2,"PS_Female":1,"Map_Accuracy":"قریه"},"geometry":{"x":7228298.1329482421,"y":4254432.3153623119}},{"attributes":{"OBJECTID":2703,"ولایت":"فارياب","Province":"FARYAB","PC_Code":"2902048","ولسوالي":"پشتون کوت","District":"PASHTUN KOT","د_مرکز_نوم__نام_مرکز":" مسجد حلوا خور بالا","Polling_Center_Name":"Halwa Khor Bala Mosque","د_مرکز_ځای__موقعیت_مرکز":"حلوا خور بالا","Polling_Center_Location":"Halwa Khor Bala","Verification_Note":"Village","PS_Male":1,"PS_Female":1,"Map_Accuracy":"قریه"},"geometry":{"x":7197128.0922119953,"y":4250013.9421876967}},{"attributes":{"OBJECTID":2704,"ولایت":"فارياب","Province":"FARYAB","PC_Code":"2902049","ولسوالي":"پشتون کوت","District":"PASHTUN KOT","د_مرکز_نوم__نام_مرکز":"مکتب متوسطه ذکور عرب آقسای","Polling_Center_Name":"Arab Aqsai Boys Secondary School","د_مرکز_ځای__موقعیت_مرکز":"عرب آقسای","Polling_Center_Location":"Arab Aqsai","Verification_Note":"Village","PS_Male":1,"PS_Female":1,"Map_Accuracy":"قریه"},"geometry":{"x":7196275.2424235716,"y":4288363.784570694}},{"attributes":{"OBJECTID":2705,"ولایت":"فارياب","Province":"FARYAB","PC_Code":"2902051","ولسوالي":"پشتون کوت","District":"PASHTUN KOT","د_مرکز_نوم__نام_مرکز":"مکتب متوسطه جمشیدی","Polling_Center_Name":"Jamshidi Secondary School","د_مرکز_ځای__موقعیت_مرکز":"جمشیدی","Polling_Center_Location":"Jamshidi","Verification_Note":"Village","PS_Male":2,"PS_Female":1,"Map_Accuracy":"قریه"},"geometry":{"x":7216228.0533317849,"y":4285254.1378966048}},{"attributes":{"OBJECTID":2706,"ولایت":"فارياب","Province":"FARYAB","PC_Code":"2902052","ولسوالي":"پشتون کوت","District":"PASHTUN KOT","د_مرکز_نوم__نام_مرکز":"مکتب دهندره","Polling_Center_Name":"Dahendara School","د_مرکز_ځای__موقعیت_مرکز":"دهندره","Polling_Center_Location":"Dahendra","Verification_Note":"Village","PS_Male":2,"PS_Female":1,"Map_Accuracy":"قریه"},"geometry":{"x":7220988.1671532877,"y":4277735.8724296987}},{"attributes":{"OBJECTID":2707,"ولایت":"فارياب","Province":"FARYAB","PC_Code":"2902201","ولسوالي":"پشتون کوت","District":"PASHTUN KOT","د_مرکز_نوم__نام_مرکز":"مسجد جرقعله خواجه موسی","Polling_Center_Name":"Jar Qala Khwaja Musa Mosque","د_مرکز_ځای__موقعیت_مرکز":"خواجه موسی","Polling_Center_Location":"Khwaja Musa","Verification_Note":"Village","PS_Male":1,"PS_Female":1,"Map_Accuracy":"قریه"},"geometry":{"x":7200821.4903525449,"y":4302084.4367487133}},{"attributes":{"OBJECTID":2708,"ولایت":"فارياب","Province":"FARYAB","PC_Code":"2902202","ولسوالي":"پشتون کوت","District":"PASHTUN KOT","د_مرکز_نوم__نام_مرکز":"مسجد عرب کاوان باشی","Polling_Center_Name":"Arab Kawan Bashi Mosque","د_مرکز_ځای__موقعیت_مرکز":"عرب کاوان باشی","Polling_Center_Location":"Arab Kawan Bashi","Verification_Note":"Village","PS_Male":1,"PS_Female":1,"Map_Accuracy":"قریه"},"geometry":{"x":7197891.6993910372,"y":4278734.1364048123}},{"attributes":{"OBJECTID":2709,"ولایت":"فارياب","Province":"FARYAB","PC_Code":"2904065","ولسوالي":"المار","District":"ALMAR","د_مرکز_نوم__نام_مرکز":"مسجد جامع چغاتک ","Polling_Center_Name":"Chaghatak Mosque","د_مرکز_ځای__موقعیت_مرکز":"چغاتک ","Polling_Center_Location":"Chaghatak","Verification_Note":"Building","PS_Male":2,"PS_Female":2,"Map_Accuracy":"تعمیر"},"geometry":{"x":7189382.084632013,"y":4284446.8438207954}},{"attributes":{"OBJECTID":2710,"ولایت":"فارياب","Province":"FARYAB","PC_Code":"2904066","ولسوالي":"المار","District":"ALMAR","د_مرکز_نوم__نام_مرکز":"مسجد جامع ایتی اوروق ","Polling_Center_Name":"Aiti Oroq Mosque","د_مرکز_ځای__موقعیت_مرکز":"ایتی اوروق ","Polling_Center_Location":"Aiti Oroq","Verification_Note":"Building","PS_Male":1,"PS_Female":1,"Map_Accuracy":"تعمیر"},"geometry":{"x":7184120.8772546612,"y":4271316.0319398269}},{"attributes":{"OBJECTID":2711,"ولایت":"فارياب","Province":"FARYAB","PC_Code":"2904068","ولسوالي":"المار","District":"ALMAR","د_مرکز_نوم__نام_مرکز":"مسجد جامع بادغسی ","Polling_Center_Name":"Badghisi Mosque","د_مرکز_ځای__موقعیت_مرکز":"بادغسی","Polling_Center_Location":"Badghisi","Verification_Note":"Building","PS_Male":1,"PS_Female":1,"Map_Accuracy":"تعمیر"},"geometry":{"x":7179415.3712093756,"y":4288839.1123014092}},{"attributes":{"OBJECTID":2712,"ولایت":"فارياب","Province":"FARYAB","PC_Code":"2904069","ولسوالي":"المار","District":"ALMAR","د_مرکز_نوم__نام_مرکز":"خواجه گوهر","Polling_Center_Name":"Khwaja Gawhar","د_مرکز_ځای__موقعیت_مرکز":"قریه خواجه گوهر","Polling_Center_Location":"Khwaja Gawhar Village","Verification_Note":"Village","PS_Male":2,"PS_Female":2,"Map_Accuracy":"قریه"},"geometry":{"x":7155756.2980802469,"y":4289639.1653095782}},{"attributes":{"OBJECTID":2713,"ولایت":"فارياب","Province":"FARYAB","PC_Code":"2905143","ولسوالي":"بل چراغ","District":"BIL CHIRAGH","د_مرکز_نوم__نام_مرکز":"مسجد قورغ خواجه عرب","Polling_Center_Name":"Qorgh Khwaja Arab Mosque","د_مرکز_ځای__موقعیت_مرکز":"قریه خواجه عرب","Polling_Center_Location":"Khwaja Arab Village","Verification_Note":"Village","PS_Male":2,"PS_Female":2,"Map_Accuracy":"قریه"},"geometry":{"x":7294425.9703012705,"y":4295182.261235401}},{"attributes":{"OBJECTID":2714,"ولایت":"فارياب","Province":"FARYAB","PC_Code":"2905207","ولسوالي":"بل چراغ","District":"BIL CHIRAGH","د_مرکز_نوم__نام_مرکز":"مسجد قیرمه","Polling_Center_Name":"Qerma Mosque","د_مرکز_ځای__موقعیت_مرکز":"قیرمه","Polling_Center_Location":"Qerma","Verification_Note":"Village","PS_Male":1,"PS_Female":1,"Map_Accuracy":"قریه"},"geometry":{"x":7257042.6132620871,"y":4292804.7265118957}},{"attributes":{"OBJECTID":2715,"ولایت":"فارياب","Province":"FARYAB","PC_Code":"2906145","ولسوالي":"شیرین تگاب","District":"SHIRIN TAGAB","د_مرکز_نوم__نام_مرکز":"مکتب ذکور گل قدوق","Polling_Center_Name":"Gul Qadoq Boys School","د_مرکز_ځای__موقعیت_مرکز":"گل قدوق","Polling_Center_Location":"Gul Qadoq","Verification_Note":"Building","PS_Male":2,"PS_Female":1,"Map_Accuracy":"تعمیر"},"geometry":{"x":7244843.8683517911,"y":4319334.6175634861}},{"attributes":{"OBJECTID":2716,"ولایت":"فارياب","Province":"FARYAB","PC_Code":"2906146","ولسوالي":"شیرین تگاب","District":"SHIRIN TAGAB","د_مرکز_نوم__نام_مرکز":"مسجد جامع تپه قلعه","Polling_Center_Name":"Tapa Qala Mosque","د_مرکز_ځای__موقعیت_مرکز":"تپه قلعه","Polling_Center_Location":"Tapa Qala","Verification_Note":"Building","PS_Male":2,"PS_Female":1,"Map_Accuracy":"تعمیر"},"geometry":{"x":7219687.7707104683,"y":4336054.4446545318}},{"attributes":{"OBJECTID":2717,"ولایت":"فارياب","Province":"FARYAB","PC_Code":"2907087","ولسوالي":"قیصار ","District":"QAISAR","د_مرکز_نوم__نام_مرکز":"مسجد جامع خواجه کنتی ","Polling_Center_Name":"Khwaja Kanti Mosque","د_مرکز_ځای__موقعیت_مرکز":"خواجه کنتی ","Polling_Center_Location":"Khwaja Kanti","Verification_Note":"Building","PS_Male":2,"PS_Female":1,"Map_Accuracy":"تعمیر"},"geometry":{"x":7127008.1408836208,"y":4245799.852060698}},{"attributes":{"OBJECTID":2718,"ولایت":"فارياب","Province":"FARYAB","PC_Code":"2907088","ولسوالي":"قیصار ","District":"QAISAR","د_مرکز_نوم__نام_مرکز":"مکتب وایمس","Polling_Center_Name":"Waimas School","د_مرکز_ځای__موقعیت_مرکز":"قریه وایمس","Polling_Center_Location":"Waymas Village","Verification_Note":"Building","PS_Male":1,"PS_Female":1,"Map_Accuracy":"تعمیر"},"geometry":{"x":7127842.45709002,"y":4257537.4001271278}},{"attributes":{"OBJECTID":2719,"ولایت":"فارياب","Province":"FARYAB","PC_Code":"2907098","ولسوالي":"قیصار ","District":"QAISAR","د_مرکز_نوم__نام_مرکز":"مسجد اصحاب کهف ","Polling_Center_Name":"As-haab Kahf Mosque","د_مرکز_ځای__موقعیت_مرکز":"قریه اصحاب کهف","Polling_Center_Location":"As-haab Kahf Village","Verification_Note":"Building","PS_Male":1,"PS_Female":1,"Map_Accuracy":"تعمیر"},"geometry":{"x":7117629.4103321731,"y":4263010.3026699722}},{"attributes":{"OBJECTID":2720,"ولایت":"فارياب","Province":"FARYAB","PC_Code":"2907099","ولسوالي":"قیصار ","District":"QAISAR","د_مرکز_نوم__نام_مرکز":"مسجد سر تخت","Polling_Center_Name":"Sar Takht Mosque","د_مرکز_ځای__موقعیت_مرکز":"سر تخت","Polling_Center_Location":"Sar Takht","Verification_Note":"Building","PS_Male":1,"PS_Female":1,"Map_Accuracy":"تعمیر"},"geometry":{"x":7105788.1779853031,"y":4265918.6356742233}},{"attributes":{"OBJECTID":2721,"ولایت":"فارياب","Province":"FARYAB","PC_Code":"2907106","ولسوالي":"قیصار ","District":"QAISAR","د_مرکز_نوم__نام_مرکز":"مکتب چکنه  یوزبیگی  ","Polling_Center_Name":"Chakna Yozbegi School","د_مرکز_ځای__موقعیت_مرکز":"یوزبیگی  ","Polling_Center_Location":"Yuzbegi","Verification_Note":"Building","PS_Male":2,"PS_Female":1,"Map_Accuracy":"تعمیر"},"geometry":{"x":7158456.5794211924,"y":4245306.1442397907}},{"attributes":{"OBJECTID":2722,"ولایت":"فارياب","Province":"FARYAB","PC_Code":"2907107","ولسوالي":"قیصار ","District":"QAISAR","د_مرکز_نوم__نام_مرکز":"مسجد غوره","Polling_Center_Name":"Ghora Mosque","د_مرکز_ځای__موقعیت_مرکز":"غوره","Polling_Center_Location":"Ghora","Verification_Note":"Building","PS_Male":2,"PS_Female":1,"Map_Accuracy":"تعمیر"},"geometry":{"x":7142406.49405041,"y":4244361.9006587267}},{"attributes":{"OBJECTID":2723,"ولایت":"فارياب","Province":"FARYAB","PC_Code":"2907109","ولسوالي":"قیصار ","District":"QAISAR","د_مرکز_نوم__نام_مرکز":"مسجد صیاد نقی","Polling_Center_Name":"Sayad Naqi Mosque","د_مرکز_ځای__موقعیت_مرکز":"صیاد نقی ","Polling_Center_Location":"Sayad Naqi","Verification_Note":"Building","PS_Male":2,"PS_Female":1,"Map_Accuracy":"تعمیر"},"geometry":{"x":7184189.2886477262,"y":4255599.7008417845}},{"attributes":{"OBJECTID":2724,"ولایت":"فارياب","Province":"FARYAB","PC_Code":"2908135","ولسوالي":"گرزیوان","District":"GURZIWAN","د_مرکز_نوم__نام_مرکز":"مکتب متوسطه مرغابی","Polling_Center_Name":"Mullah ghulam sakhi dahandara House","د_مرکز_ځای__موقعیت_مرکز":"قریه دهندره","Polling_Center_Location":"Dahendra Village","Verification_Note":"Building","PS_Male":1,"PS_Female":2,"Map_Accuracy":"تعمیر"},"geometry":{"x":7244565.3269483075,"y":4244846.0009788275}},{"attributes":{"OBJECTID":2725,"ولایت":"فارياب","Province":"FARYAB","PC_Code":"2909164","ولسوالي":"دولت آباد","District":"DAWLAT ABAD","د_مرکز_نوم__نام_مرکز":"مکتب متوسطه چارشنغو","Polling_Center_Name":"Char Shangho Secondary School","د_مرکز_ځای__موقعیت_مرکز":"چارشنغو","Polling_Center_Location":"Char Shangho","Verification_Note":"Building","PS_Male":3,"PS_Female":1,"Map_Accuracy":"تعمیر"},"geometry":{"x":7224289.62829107,"y":4364745.3583398759}},{"attributes":{"OBJECTID":2726,"ولایت":"فارياب","Province":"FARYAB","PC_Code":"2909165","ولسوالي":"دولت آباد","District":"DAWLAT ABAD","د_مرکز_نوم__نام_مرکز":"مکتب ابتدای خیر آباد","Polling_Center_Name":"Khair Abad Primar School","د_مرکز_ځای__موقعیت_مرکز":"خیر آباد","Polling_Center_Location":"Khair Abad","Verification_Note":"Building","PS_Male":3,"PS_Female":1,"Map_Accuracy":"تعمیر"},"geometry":{"x":7228579.3660570048,"y":4354661.4058719948}},{"attributes":{"OBJECTID":2727,"ولایت":"فارياب","Province":"FARYAB","PC_Code":"2909168","ولسوالي":"دولت آباد","District":"DAWLAT ABAD","د_مرکز_نوم__نام_مرکز":"مسجد جامع جوق ها","Polling_Center_Name":"Joq Ha Mosque","د_مرکز_ځای__موقعیت_مرکز":"جوق ها","Polling_Center_Location":"Joq Ha","Verification_Note":"Building","PS_Male":2,"PS_Female":1,"Map_Accuracy":"تعمیر"},"geometry":{"x":7225076.0982671343,"y":4346806.7406341434}},{"attributes":{"OBJECTID":2728,"ولایت":"فارياب","Province":"FARYAB","PC_Code":"2909169","ولسوالي":"دولت آباد","District":"DAWLAT ABAD","د_مرکز_نوم__نام_مرکز":"ششپر","Polling_Center_Name":"Shashpar ","د_مرکز_ځای__موقعیت_مرکز":"قریه ششپر","Polling_Center_Location":"Shashpar Village","Verification_Note":"Village","PS_Male":2,"PS_Female":2,"Map_Accuracy":"قریه"},"geometry":{"x":7219722.5101839527,"y":4370091.3709508851}},{"attributes":{"OBJECTID":2729,"ولایت":"فارياب","Province":"FARYAB","PC_Code":"2910121","ولسوالي":"کوهستان","District":"KOHISTAN","د_مرکز_نوم__نام_مرکز":"مکتب قدوغک","Polling_Center_Name":"Qadoghak School","د_مرکز_ځای__موقعیت_مرکز":"قدوغک","Polling_Center_Location":"Qadoghak","Verification_Note":"Building","PS_Male":2,"PS_Female":1,"Map_Accuracy":"تعمیر"},"geometry":{"x":7206813.5235453025,"y":4210311.1231177375}},{"attributes":{"OBJECTID":2730,"ولایت":"فارياب","Province":"FARYAB","PC_Code":"2910122","ولسوالي":"کوهستان","District":"KOHISTAN","د_مرکز_نوم__نام_مرکز":"مسجد تخته بند لفرا","Polling_Center_Name":"Takhta Band Lafra Mosque","د_مرکز_ځای__موقعیت_مرکز":"تخته بند لفرا","Polling_Center_Location":"Takhta Band Lafra","Verification_Note":"Building","PS_Male":2,"PS_Female":1,"Map_Accuracy":"تعمیر"},"geometry":{"x":7190531.3503945507,"y":4195158.3741167784}},{"attributes":{"OBJECTID":2731,"ولایت":"فارياب","Province":"FARYAB","PC_Code":"2913185","ولسوالي":"اندخوی","District":"ANDKHOY","د_مرکز_نوم__نام_مرکز":"لیسه قاضی بابه مراد","Polling_Center_Name":"Qazi Baba Murad High School","د_مرکز_ځای__موقعیت_مرکز":"کلال خانه","Polling_Center_Location":"Kulal Khana","Verification_Note":"Building","PS_Male":3,"PS_Female":2,"Map_Accuracy":"تعمیر"},"geometry":{"x":7248654.8655156158,"y":4432985.0328384936}},{"attributes":{"OBJECTID":2732,"ولایت":"فارياب","Province":"FARYAB","PC_Code":"2913186","ولسوالي":"اندخوی","District":"ANDKHOY","د_مرکز_نوم__نام_مرکز":"لیسه دولت گیلدی","Polling_Center_Name":"Dawlat Geldi High School","د_مرکز_ځای__موقعیت_مرکز":"شهر نو","Polling_Center_Location":"Shahr-e-Naw","Verification_Note":"Building","PS_Male":3,"PS_Female":2,"Map_Accuracy":"تعمیر"},"geometry":{"x":7251418.5254954509,"y":4432307.9377330169}},{"attributes":{"OBJECTID":2733,"ولایت":"فارياب","Province":"FARYAB","PC_Code":"2914176","ولسوالي":"خان چار باغ","District":"KHANI CHARBAGH","د_مرکز_نوم__نام_مرکز":"لیسه رحمن قل شهید ","Polling_Center_Name":"Rahman Qol Shaheed High School","د_مرکز_ځای__موقعیت_مرکز":"عرب شاه توره خان ","Polling_Center_Location":"Arab Shah Tora Khan","Verification_Note":"Building","PS_Male":3,"PS_Female":1,"Map_Accuracy":"تعمیر"},"geometry":{"x":7255554.28836811,"y":4436909.7152732685}},{"attributes":{"OBJECTID":2734,"ولایت":"فارياب","Province":"FARYAB","PC_Code":"2914177","ولسوالي":"خان چار باغ","District":"KHANI CHARBAGH","د_مرکز_نوم__نام_مرکز":"لیسه چکمن","Polling_Center_Name":"Chakman High School","د_مرکز_ځای__موقعیت_مرکز":"چکمن","Polling_Center_Location":"Chakman","Verification_Note":"Building","PS_Male":3,"PS_Female":1,"Map_Accuracy":"تعمیر"},"geometry":{"x":7259499.7939858437,"y":4432047.5000778511}},{"attributes":{"OBJECTID":2735,"ولایت":"فارياب","Province":"FARYAB","PC_Code":"2914180","ولسوالي":"خان چار باغ","District":"KHANI CHARBAGH","د_مرکز_نوم__نام_مرکز":"لیسه نسوان عرب شاه پایین ","Polling_Center_Name":"Arab Shah Payeen Girls High School","د_مرکز_ځای__موقعیت_مرکز":"عرب شاه پایین ","Polling_Center_Location":"Arab Shah Payeen","Verification_Note":"Building","PS_Male":1,"PS_Female":1,"Map_Accuracy":"تعمیر"},"geometry":{"x":7253767.6328047737,"y":4437780.7371182814}},{"attributes":{"OBJECTID":2736,"ولایت":"هلمند","Province":"HELMAND","PC_Code":"3001001","ولسوالي":"لشکرگاه","District":"LASHKARGAH","د_مرکز_نوم__نام_مرکز":"حاجی طاوس مسجد","Polling_Center_Name":"Haji Tawos Mosque","د_مرکز_ځای__موقعیت_مرکز":"سرکار","Polling_Center_Location":"Sarkaar ","Verification_Note":"Village","PS_Male":2,"PS_Female":2,"Map_Accuracy":"قریه"},"geometry":{"x":7176744.24332986,"y":3712498.0878287926}},{"attributes":{"OBJECTID":2737,"ولایت":"فارياب","Province":"FARYAB","PC_Code":"2901003","ولسوالي":"میمنه ","District":"MAIMANA","د_مرکز_نوم__نام_مرکز":"مکتب لیسه صیاد رجب ","Polling_Center_Name":"Sayad Rajab High School","د_مرکز_ځای__موقعیت_مرکز":"ناحیه هفتم","Polling_Center_Location":"D07 - Nahia 7","Verification_Note":"Building","PS_Male":2,"PS_Female":2,"Map_Accuracy":"تعمیر"},"geometry":{"x":7209354.7092964016,"y":4287246.6397579536}},{"attributes":{"OBJECTID":2738,"ولایت":"فارياب","Province":"FARYAB","PC_Code":"2901004","ولسوالي":"میمنه ","District":"MAIMANA","د_مرکز_نوم__نام_مرکز":"لیسه نسوان افغانکوت","Polling_Center_Name":"Afghan Kot Girls High School","د_مرکز_ځای__موقعیت_مرکز":"ناحیه دوم","Polling_Center_Location":"D02 - Nahia 2","Verification_Note":"Building","PS_Male":0,"PS_Female":4,"Map_Accuracy":"تعمیر"},"geometry":{"x":7212403.0566288009,"y":4289068.4199901372}},{"attributes":{"OBJECTID":2739,"ولایت":"فارياب","Province":"FARYAB","PC_Code":"2902020","ولسوالي":"پشتون کوت","District":"PASHTUN KOT","د_مرکز_نوم__نام_مرکز":"مسجد و مکتب قصبه قلعه","Polling_Center_Name":"Qasaba Qala School and Mosque","د_مرکز_ځای__موقعیت_مرکز":"مسجد و مکتب قصبه قلعه، خواجه ناموسی","Polling_Center_Location":"Khwaja Namosi","Verification_Note":"Village","PS_Male":1,"PS_Female":1,"Map_Accuracy":"قریه"},"geometry":{"x":7186418.03175763,"y":4305388.5148159042}},{"attributes":{"OBJECTID":2740,"ولایت":"فارياب","Province":"FARYAB","PC_Code":"2902021","ولسوالي":"پشتون کوت","District":"PASHTUN KOT","د_مرکز_نوم__نام_مرکز":"مکتب ذکورگدای قلعه","Polling_Center_Name":"Gadai Qala Boys School","د_مرکز_ځای__موقعیت_مرکز":"گدای قلعه","Polling_Center_Location":"Gadai Qala","Verification_Note":"Village","PS_Male":1,"PS_Female":1,"Map_Accuracy":"قریه"},"geometry":{"x":7201533.5699656978,"y":4303747.499325797}},{"attributes":{"OBJECTID":2741,"ولایت":"فارياب","Province":"FARYAB","PC_Code":"2902035","ولسوالي":"پشتون کوت","District":"PASHTUN KOT","د_مرکز_نوم__نام_مرکز":"مسجد عمومی زرشوی","Polling_Center_Name":"Omomi Zarshoy Mosque","د_مرکز_ځای__موقعیت_مرکز":"زرشوی","Polling_Center_Location":"Zar Shoy","Verification_Note":"Village","PS_Male":1,"PS_Female":1,"Map_Accuracy":"قریه"},"geometry":{"x":7246812.460038092,"y":4287750.22209689}},{"attributes":{"OBJECTID":2742,"ولایت":"فارياب","Province":"FARYAB","PC_Code":"2902038","ولسوالي":"پشتون کوت","District":"PASHTUN KOT","د_مرکز_نوم__نام_مرکز":"مسجد تیرک لیک","Polling_Center_Name":"Tirak Lek Mosque","د_مرکز_ځای__موقعیت_مرکز":"تیرک لیک","Polling_Center_Location":"Tirak Lek ","Verification_Note":"Village","PS_Male":1,"PS_Female":1,"Map_Accuracy":"قریه"},"geometry":{"x":7251194.35698406,"y":4294467.8270391971}},{"attributes":{"OBJECTID":2743,"ولایت":"فارياب","Province":"FARYAB","PC_Code":"2902039","ولسوالي":"پشتون کوت","District":"PASHTUN KOT","د_مرکز_نوم__نام_مرکز":"مسجد برهان بای","Polling_Center_Name":"Burhan Bay Mosque","د_مرکز_ځای__موقعیت_مرکز":"قریه چکاب","Polling_Center_Location":"Chekab Village","Verification_Note":"Village","PS_Male":1,"PS_Female":1,"Map_Accuracy":"قریه"},"geometry":{"x":7214457.3420591205,"y":4265394.8736568391}},{"attributes":{"OBJECTID":2744,"ولایت":"فارياب","Province":"FARYAB","PC_Code":"2902044","ولسوالي":"پشتون کوت","District":"PASHTUN KOT","د_مرکز_نوم__نام_مرکز":"مسجد تکلی هزار سم","Polling_Center_Name":"Taklai Hazar Sam Mosque","د_مرکز_ځای__موقعیت_مرکز":"تکلی هزار سم","Polling_Center_Location":"Taklai Hazar Sam","Verification_Note":"Village","PS_Male":1,"PS_Female":1,"Map_Accuracy":"قریه"},"geometry":{"x":7202353.56046683,"y":4268960.0325396359}},{"attributes":{"OBJECTID":2745,"ولایت":"فارياب","Province":"FARYAB","PC_Code":"2902045","ولسوالي":"پشتون کوت","District":"PASHTUN KOT","د_مرکز_نوم__نام_مرکز":"مسجد جامع موقانی","Polling_Center_Name":"Moqani Mosque","د_مرکز_ځای__موقعیت_مرکز":"موقانی","Polling_Center_Location":"Moqani","Verification_Note":"Village","PS_Male":1,"PS_Female":1,"Map_Accuracy":"قریه"},"geometry":{"x":7199842.4621476978,"y":4275870.7354367}},{"attributes":{"OBJECTID":2746,"ولایت":"فارياب","Province":"FARYAB","PC_Code":"2903057","ولسوالي":"خواجه سبز پوش ولی","District":"KHWAJA SABZ POSH-E-WALI","د_مرکز_نوم__نام_مرکز":"تعمیر شورای همبستگی بولک بچه ","Polling_Center_Name":"Bolak Bacha Solidarity Council Building","د_مرکز_ځای__موقعیت_مرکز":"بولک بچه ","Polling_Center_Location":"Bolak Bacha","Verification_Note":"Building","PS_Male":2,"PS_Female":1,"Map_Accuracy":"تعمیر"},"geometry":{"x":7233155.845020093,"y":4305873.4031420052}},{"attributes":{"OBJECTID":2747,"ولایت":"فارياب","Province":"FARYAB","PC_Code":"2903058","ولسوالي":"خواجه سبز پوش ولی","District":"KHWAJA SABZ POSH-E-WALI","د_مرکز_نوم__نام_مرکز":"تعمیر لیسه ذکور ده نو ","Polling_Center_Name":"Deh Naw Boys High School","د_مرکز_ځای__موقعیت_مرکز":"ده نو ","Polling_Center_Location":"Deh Naw","Verification_Note":"Building","PS_Male":2,"PS_Female":2,"Map_Accuracy":"تعمیر"},"geometry":{"x":7218065.0431160815,"y":4310609.7939489484}},{"attributes":{"OBJECTID":2748,"ولایت":"فارياب","Province":"FARYAB","PC_Code":"2903061","ولسوالي":"خواجه سبز پوش ولی","District":"KHWAJA SABZ POSH-E-WALI","د_مرکز_نوم__نام_مرکز":"تعمیر شورای همبستگی سملیک پوگانی","Polling_Center_Name":"Samleek Pogani Solidarity Council Building","د_مرکز_ځای__موقعیت_مرکز":"سملیک پوگانی","Polling_Center_Location":"Samleek Pogani","Verification_Note":"Building","PS_Male":1,"PS_Female":1,"Map_Accuracy":"تعمیر"},"geometry":{"x":7221822.5880000144,"y":4304731.2999911755}},{"attributes":{"OBJECTID":2749,"ولایت":"فارياب","Province":"FARYAB","PC_Code":"2903062","ولسوالي":"خواجه سبز پوش ولی","District":"KHWAJA SABZ POSH-E-WALI","د_مرکز_نوم__نام_مرکز":"لیسه نسوان بادغیسی ","Polling_Center_Name":"Badghisi Girls High School","د_مرکز_ځای__موقعیت_مرکز":"بادغیسی ","Polling_Center_Location":"Badghisi","Verification_Note":"Building","PS_Male":1,"PS_Female":2,"Map_Accuracy":"تعمیر"},"geometry":{"x":7218929.8619761541,"y":4306564.8288988173}},{"attributes":{"OBJECTID":2750,"ولایت":"فارياب","Province":"FARYAB","PC_Code":"2904063","ولسوالي":"المار","District":"ALMAR","د_مرکز_نوم__نام_مرکز":"لیسه ذکور المار ","Polling_Center_Name":"Almaar Boys High School","د_مرکز_ځای__موقعیت_مرکز":"بازار المار","Polling_Center_Location":"Bazar Almaar","Verification_Note":"Building","PS_Male":2,"PS_Female":2,"Map_Accuracy":"تعمیر"},"geometry":{"x":7183857.5632443391,"y":4279639.0541277826}},{"attributes":{"OBJECTID":2751,"ولایت":"فارياب","Province":"FARYAB","PC_Code":"2904072","ولسوالي":"المار","District":"ALMAR","د_مرکز_نوم__نام_مرکز":"مکتب ابتدائیه میر شادی ","Polling_Center_Name":"Mir Shadi Primary School","د_مرکز_ځای__موقعیت_مرکز":"میر شادی ","Polling_Center_Location":"Mir Shadi ","Verification_Note":"Building","PS_Male":2,"PS_Female":1,"Map_Accuracy":"تعمیر"},"geometry":{"x":7165914.251708895,"y":4279515.8093236238}},{"attributes":{"OBJECTID":2752,"ولایت":"فارياب","Province":"FARYAB","PC_Code":"2904073","ولسوالي":"المار","District":"ALMAR","د_مرکز_نوم__نام_مرکز":"مکتب متوسطه قرایی ","Polling_Center_Name":"Qarayee Secondary School","د_مرکز_ځای__موقعیت_مرکز":"قرایی","Polling_Center_Location":"Qarayee","Verification_Note":"Building","PS_Male":2,"PS_Female":1,"Map_Accuracy":"تعمیر"},"geometry":{"x":7187800.12223516,"y":4240777.4887214154}},{"attributes":{"OBJECTID":2753,"ولایت":"فارياب","Province":"FARYAB","PC_Code":"2904076","ولسوالي":"المار","District":"ALMAR","د_مرکز_نوم__نام_مرکز":"مکتب ابتدای خوش بایی","Polling_Center_Name":"Khosh Bayee Primary School","د_مرکز_ځای__موقعیت_مرکز":"خوش بایی","Polling_Center_Location":"Khosh Bayee","Verification_Note":"Building","PS_Male":2,"PS_Female":1,"Map_Accuracy":"تعمیر"},"geometry":{"x":7191094.8919583559,"y":4242427.7962744236}},{"attributes":{"OBJECTID":2754,"ولایت":"فارياب","Province":"FARYAB","PC_Code":"2904077","ولسوالي":"المار","District":"ALMAR","د_مرکز_نوم__نام_مرکز":"مکتب ابتدای آق مسجد","Polling_Center_Name":"Aaq Masjid Primary School","د_مرکز_ځای__موقعیت_مرکز":"آق مسجد,","Polling_Center_Location":"Aaq Masjid","Verification_Note":"Building","PS_Male":1,"PS_Female":1,"Map_Accuracy":"تعمیر"},"geometry":{"x":7185652.0857560821,"y":4244461.8653291911}},{"attributes":{"OBJECTID":2755,"ولایت":"فارياب","Province":"FARYAB","PC_Code":"2905138","ولسوالي":"بل چراغ","District":"BIL CHIRAGH","د_مرکز_نوم__نام_مرکز":"مدرسه مرکز بلچراغ","Polling_Center_Name":"Balcheragh Madrassa","د_مرکز_ځای__موقعیت_مرکز":"بلچراغ","Polling_Center_Location":"Balcheragh","Verification_Note":"Village","PS_Male":2,"PS_Female":2,"Map_Accuracy":"قریه"},"geometry":{"x":7261561.417597007,"y":4279065.8365892693}},{"attributes":{"OBJECTID":2756,"ولایت":"فارياب","Province":"FARYAB","PC_Code":"2905139","ولسوالي":"بل چراغ","District":"BIL CHIRAGH","د_مرکز_نوم__نام_مرکز":"مکتب ذکور تاش قلعه","Polling_Center_Name":"Tash Qala Boys School","د_مرکز_ځای__موقعیت_مرکز":"تاش قلعه","Polling_Center_Location":"Tash Qala","Verification_Note":"Village","PS_Male":2,"PS_Female":2,"Map_Accuracy":"قریه"},"geometry":{"x":7293194.0754203126,"y":4286434.4843510911}},{"attributes":{"OBJECTID":2757,"ولایت":"فارياب","Province":"FARYAB","PC_Code":"2906149","ولسوالي":"شیرین تگاب","District":"SHIRIN TAGAB","د_مرکز_نوم__نام_مرکز":"مکتب ذکور اسلام قلعه","Polling_Center_Name":"Islam Qala Boys School","د_مرکز_ځای__موقعیت_مرکز":"اسلام قلعه","Polling_Center_Location":"Islam Qala","Verification_Note":"Building","PS_Male":3,"PS_Female":2,"Map_Accuracy":"تعمیر"},"geometry":{"x":7220626.3320540264,"y":4331782.0543498471}},{"attributes":{"OBJECTID":2758,"ولایت":"فارياب","Province":"FARYAB","PC_Code":"2906150","ولسوالي":"شیرین تگاب","District":"SHIRIN TAGAB","د_مرکز_نوم__نام_مرکز":"مکتب مهد","Polling_Center_Name":"Mahd School","د_مرکز_ځای__موقعیت_مرکز":"قریه مهد","Polling_Center_Location":"Mahd Village","Verification_Note":"Building","PS_Male":3,"PS_Female":2,"Map_Accuracy":"تعمیر"},"geometry":{"x":7230271.0627551116,"y":4322024.9180389792}},{"attributes":{"OBJECTID":2759,"ولایت":"فارياب","Province":"FARYAB","PC_Code":"2906208","ولسوالي":"شیرین تگاب","District":"SHIRIN TAGAB","د_مرکز_نوم__نام_مرکز":"مسجد جامع کلته شور","Polling_Center_Name":"Kalta Shor Mosque","د_مرکز_ځای__موقعیت_مرکز":"کلته شور","Polling_Center_Location":"Kalta Shor ","Verification_Note":"Village","PS_Male":2,"PS_Female":1,"Map_Accuracy":"قریه"},"geometry":{"x":7237480.5816339329,"y":4315738.990502581}},{"attributes":{"OBJECTID":2760,"ولایت":"فارياب","Province":"FARYAB","PC_Code":"2907080","ولسوالي":"قیصار ","District":"QAISAR","د_مرکز_نوم__نام_مرکز":"مسجد خواجه اسپلان","Polling_Center_Name":"Khwaja Aspalan Mosque","د_مرکز_ځای__موقعیت_مرکز":"قریه چهلگزی","Polling_Center_Location":"Chehlgazai Village","Verification_Note":"Village","PS_Male":2,"PS_Female":3,"Map_Accuracy":"قریه"},"geometry":{"x":7126533.1517483518,"y":4266040.1618740484}},{"attributes":{"OBJECTID":2761,"ولایت":"فارياب","Province":"FARYAB","PC_Code":"2907095","ولسوالي":"قیصار ","District":"QAISAR","د_مرکز_نوم__نام_مرکز":"مسجد کاریز","Polling_Center_Name":"Karez Mosque","د_مرکز_ځای__موقعیت_مرکز":"چهلگزی","Polling_Center_Location":"Chehl Gazai","Verification_Note":"Building","PS_Male":1,"PS_Female":1,"Map_Accuracy":"تعمیر"},"geometry":{"x":7114467.2844614238,"y":4267984.7253070772}},{"attributes":{"OBJECTID":2762,"ولایت":"فارياب","Province":"FARYAB","PC_Code":"2907096","ولسوالي":"قیصار ","District":"QAISAR","د_مرکز_نوم__نام_مرکز":"مسجد چهار شنبه ازبکیه ","Polling_Center_Name":"Chaharshanba Uzbekya Mosque","د_مرکز_ځای__موقعیت_مرکز":"قریه چهار شنبه ازبکیه ","Polling_Center_Location":"Chaharshanba Uzbekya Village","Verification_Note":"Building","PS_Male":1,"PS_Female":1,"Map_Accuracy":"تعمیر"},"geometry":{"x":7122866.7541502826,"y":4266407.054360427}},{"attributes":{"OBJECTID":2763,"ولایت":"فارياب","Province":"FARYAB","PC_Code":"2907204","ولسوالي":"قیصار","District":"QAISAR","د_مرکز_نوم__نام_مرکز":"مسجد جامع خطائی","Polling_Center_Name":"Khatayee Mosque","د_مرکز_ځای__موقعیت_مرکز":"قریه خطائی","Polling_Center_Location":"Khatayee Village","Verification_Note":"Building","PS_Male":1,"PS_Female":1,"Map_Accuracy":"تعمیر"},"geometry":{"x":7131104.8384073749,"y":4256474.9774069935}},{"attributes":{"OBJECTID":2764,"ولایت":"فارياب","Province":"FARYAB","PC_Code":"2908123","ولسوالي":"گرزیوان","District":"GURZIWAN","د_مرکز_نوم__نام_مرکز":"مسجد جامع غولبیان","Polling_Center_Name":"Gholbayan Mosque","د_مرکز_ځای__موقعیت_مرکز":"غولبیان","Polling_Center_Location":"Gholbiyan ","Verification_Note":"Building","PS_Male":1,"PS_Female":2,"Map_Accuracy":"تعمیر"},"geometry":{"x":7275372.4594654106,"y":4264269.4840888232}},{"attributes":{"OBJECTID":2765,"ولایت":"فارياب","Province":"FARYAB","PC_Code":"2908126","ولسوالي":"گرزیوان","District":"GURZIWAN","د_مرکز_نوم__نام_مرکز":"مسجد جامع تخاره","Polling_Center_Name":"Takhara Mosque","د_مرکز_ځای__موقعیت_مرکز":"قریه تخاره","Polling_Center_Location":"Takhara Village","Verification_Note":"Building","PS_Male":2,"PS_Female":2,"Map_Accuracy":"تعمیر"},"geometry":{"x":7272807.097347293,"y":4260104.0598574951}},{"attributes":{"OBJECTID":2766,"ولایت":"فارياب","Province":"FARYAB","PC_Code":"2908127","ولسوالي":"گرزیوان","District":"GURZIWAN","د_مرکز_نوم__نام_مرکز":"مدرسه دره زنگ","Polling_Center_Name":"Dara-e-Zang Madrassa","د_مرکز_ځای__موقعیت_مرکز":"دره زنگ","Polling_Center_Location":"Dara-e-Zang","Verification_Note":"Building","PS_Male":3,"PS_Female":2,"Map_Accuracy":"تعمیر"},"geometry":{"x":7267032.4065547585,"y":4250758.548050344}},{"attributes":{"OBJECTID":2767,"ولایت":"فارياب","Province":"FARYAB","PC_Code":"2910116","ولسوالي":"کوهستان","District":"KOHISTAN","د_مرکز_نوم__نام_مرکز":"مسجد دشت صحرای ملغی","Polling_Center_Name":"Dasht Sahrayee Malghi Mosque","د_مرکز_ځای__موقعیت_مرکز":"دشت صحرای ملغی","Polling_Center_Location":"Dasht Sahray Malghi","Verification_Note":"Village","PS_Male":1,"PS_Female":1,"Map_Accuracy":"قریه"},"geometry":{"x":7173000.8093045875,"y":4208888.6129668877}},{"attributes":{"OBJECTID":2768,"ولایت":"فارياب","Province":"FARYAB","PC_Code":"2910117","ولسوالي":"کوهستان","District":"KOHISTAN","د_مرکز_نوم__نام_مرکز":"مسجد بام سرخ","Polling_Center_Name":"Baam Surkh Mosque","د_مرکز_ځای__موقعیت_مرکز":"بام سرخ","Polling_Center_Location":"Baam Surkh","Verification_Note":"Building","PS_Male":1,"PS_Female":1,"Map_Accuracy":"تعمیر"},"geometry":{"x":7264829.8947696686,"y":4217582.4620141387}},{"attributes":{"OBJECTID":2769,"ولایت":"فارياب","Province":"FARYAB","PC_Code":"2912192","ولسوالي":"قرغان","District":"QURGHAN","د_مرکز_نوم__نام_مرکز":"مسجد خلیفه عبدالله","Polling_Center_Name":"Khalifa Abdullah Mosque","د_مرکز_ځای__موقعیت_مرکز":"باغ بوستان پایان","Polling_Center_Location":"Bagh Bostan Payan","Verification_Note":"Building","PS_Male":1,"PS_Female":1,"Map_Accuracy":"تعمیر"},"geometry":{"x":7243814.1196473427,"y":4433295.0963702425}},{"attributes":{"OBJECTID":2770,"ولایت":"فارياب","Province":"FARYAB","PC_Code":"2912193","ولسوالي":"قرغان","District":"QURGHAN","د_مرکز_نوم__نام_مرکز":"مکتب ابتدایی کهنه قرغان","Polling_Center_Name":"Kuhna Qarghan Primary School","د_مرکز_ځای__موقعیت_مرکز":"قرغان","Polling_Center_Location":"Qarghan","Verification_Note":"Building","PS_Male":2,"PS_Female":1,"Map_Accuracy":"تعمیر"},"geometry":{"x":7243513.2464408241,"y":4427561.7048915923}},{"attributes":{"OBJECTID":2771,"ولایت":"فارياب","Province":"FARYAB","PC_Code":"2903210","ولسوالي":"خواجه سبزپوش","District":"KHWAJA SABZ POSH-E-WALI","د_مرکز_نوم__نام_مرکز":"مسجد جامع ینگی قلعه","Polling_Center_Name":"Yangi qala Mosque","د_مرکز_ځای__موقعیت_مرکز":"ینگی قلعه","Polling_Center_Location":"Yangi qala","Verification_Note":"Building","PS_Male":2,"PS_Female":1,"Map_Accuracy":"تعمیر"},"geometry":{"x":7220573.5922188647,"y":4312902.5954651684}},{"attributes":{"OBJECTID":2772,"ولایت":"فارياب","Province":"FARYAB","PC_Code":"2903211","ولسوالي":"خواجه سبزپوش","District":"KHWAJA SABZ POSH-E-WALI","د_مرکز_نوم__نام_مرکز":"مکتب ذکور قزل قشلاق","Polling_Center_Name":"Qezl qshlaq male School","د_مرکز_ځای__موقعیت_مرکز":"قزل قشلاق","Polling_Center_Location":"Qezel qeshlaq","Verification_Note":"Building","PS_Male":2,"PS_Female":1,"Map_Accuracy":"تعمیر"},"geometry":{"x":7221444.7097583748,"y":4303685.75036332}},{"attributes":{"OBJECTID":2773,"ولایت":"فارياب","Province":"FARYAB","PC_Code":"2908213","ولسوالي":"گرزیوان","District":"GURZIWAN","د_مرکز_نوم__نام_مرکز":"مکتب نسوان پخلسوز","Polling_Center_Name":"Pakhal soz female School","د_مرکز_ځای__موقعیت_مرکز":"پخلسوز","Polling_Center_Location":"Pakhlsoz","Verification_Note":"Building","PS_Male":2,"PS_Female":1,"Map_Accuracy":"تعمیر"},"geometry":{"x":7266575.2148457244,"y":4256447.670736514}},{"attributes":{"OBJECTID":2774,"ولایت":"فارياب","Province":"FARYAB","PC_Code":"2910214","ولسوالي":"کوهستان","District":"KOHISTAN","د_مرکز_نوم__نام_مرکز":"مسجد","Polling_Center_Name":"Mosque","د_مرکز_ځای__موقعیت_مرکز":"پشت دروازه","Polling_Center_Location":"Pusht darwaza","Verification_Note":"Building","PS_Male":2,"PS_Female":1,"Map_Accuracy":"تعمیر"},"geometry":{"x":7275450.0625088327,"y":4216512.0208680555}},{"attributes":{"OBJECTID":2775,"ولایت":"فارياب","Province":"FARYAB","PC_Code":"2901010","ولسوالي":"میمنه ","District":"MAIMANA","د_مرکز_نوم__نام_مرکز":"مکتب متوسطه جرنیل غوث الدین","Polling_Center_Name":"Jarnail Ghawsuddin Secondary School","د_مرکز_ځای__موقعیت_مرکز":"ناحیه سوم","Polling_Center_Location":"D03 - Nahia 3","Verification_Note":"Building","PS_Male":4,"PS_Female":0,"Map_Accuracy":"تعمیر"},"geometry":{"x":7210897.6308346428,"y":4289846.879445821}},{"attributes":{"OBJECTID":2776,"ولایت":"فارياب","Province":"FARYAB","PC_Code":"2901011","ولسوالي":"میمنه ","District":"MAIMANA","د_مرکز_نوم__نام_مرکز":"مکتب نسوان پشه خانی","Polling_Center_Name":"Pasha Khani Girls School","د_مرکز_ځای__موقعیت_مرکز":"ناحیه سوم","Polling_Center_Location":"D03 - Nahia 3","Verification_Note":"Building","PS_Male":0,"PS_Female":4,"Map_Accuracy":"تعمیر"},"geometry":{"x":7211087.519622039,"y":4288170.5616538525}},{"attributes":{"OBJECTID":2777,"ولایت":"فارياب","Province":"FARYAB","PC_Code":"2901199","ولسوالي":"میمنه","District":"MAIMANA","د_مرکز_نوم__نام_مرکز":"مدیریت وتر نری","Polling_Center_Name":"Veterinary Mudiriyat","د_مرکز_ځای__موقعیت_مرکز":"ناحیه جهارم","Polling_Center_Location":"D04 - Nahia 4","Verification_Note":"Building","PS_Male":2,"PS_Female":2,"Map_Accuracy":"تعمیر"},"geometry":{"x":7211767.4212231785,"y":4290570.8775633052}},{"attributes":{"OBJECTID":2778,"ولایت":"فارياب","Province":"FARYAB","PC_Code":"2903056","ولسوالي":"خواجه سبز پوش ولی","District":"KHWAJA SABZ POSH-E-WALI","د_مرکز_نوم__نام_مرکز":"مکتب نسوان شباختو ","Polling_Center_Name":"Shabakhto Girls School","د_مرکز_ځای__موقعیت_مرکز":"شباختو","Polling_Center_Location":"Shabakhto","Verification_Note":"Building","PS_Male":2,"PS_Female":1,"Map_Accuracy":"تعمیر"},"geometry":{"x":7223946.2711140849,"y":4296744.3584097028}},{"attributes":{"OBJECTID":2779,"ولایت":"فارياب","Province":"FARYAB","PC_Code":"2906154","ولسوالي":"شیرین تگاب","District":"SHIRIN TAGAB","د_مرکز_نوم__نام_مرکز":"مکتب متوسطه ذکور شاه یوسف","Polling_Center_Name":"Shah Yousuf Boys Secondary School","د_مرکز_ځای__موقعیت_مرکز":"شاه یوسف","Polling_Center_Location":"Shah Yousuf","Verification_Note":"Village","PS_Male":1,"PS_Female":1,"Map_Accuracy":"قریه"},"geometry":{"x":7230459.5055023134,"y":4343652.6684433892}},{"attributes":{"OBJECTID":2780,"ولایت":"فارياب","Province":"FARYAB","PC_Code":"2906155","ولسوالي":"شیرین تگاب","District":"SHIRIN TAGAB","د_مرکز_نوم__نام_مرکز":"لیسه شمس الدین شهید","Polling_Center_Name":"Shamsuddin Shaheed High School","د_مرکز_ځای__موقعیت_مرکز":"فیض آباد","Polling_Center_Location":"Faiz Abad","Verification_Note":"Village","PS_Male":2,"PS_Female":2,"Map_Accuracy":"قریه"},"geometry":{"x":7221554.2724049576,"y":4340941.5105928108}},{"attributes":{"OBJECTID":2781,"ولایت":"فارياب","Province":"FARYAB","PC_Code":"2907091","ولسوالي":"قیصار ","District":"QAISAR","د_مرکز_نوم__نام_مرکز":"مسجد جامع جیگدلیک","Polling_Center_Name":"Jegdalek Mosque","د_مرکز_ځای__موقعیت_مرکز":"قریه جیگد لیک","Polling_Center_Location":"Jegdalek Village","Verification_Note":"Building","PS_Male":2,"PS_Female":1,"Map_Accuracy":"تعمیر"},"geometry":{"x":7155830.7140466422,"y":4271010.194141306}},{"attributes":{"OBJECTID":2782,"ولایت":"فارياب","Province":"FARYAB","PC_Code":"2907092","ولسوالي":"قیصار ","District":"QAISAR","د_مرکز_نوم__نام_مرکز":"مسجد جامع ثور","Polling_Center_Name":"Sawr Mosque","د_مرکز_ځای__موقعیت_مرکز":"ثور","Polling_Center_Location":"Sawr","Verification_Note":"Building","PS_Male":1,"PS_Female":1,"Map_Accuracy":"تعمیر"},"geometry":{"x":7161925.7745413184,"y":4263420.7592920959}},{"attributes":{"OBJECTID":2783,"ولایت":"فارياب","Province":"FARYAB","PC_Code":"2908132","ولسوالي":"گرزیوان","District":"GURZIWAN","د_مرکز_نوم__نام_مرکز":"لیسه جر قلعه","Polling_Center_Name":"Jar Qala High School","د_مرکز_ځای__موقعیت_مرکز":"جر قلعه","Polling_Center_Location":"Jar Qala","Verification_Note":"Building","PS_Male":2,"PS_Female":2,"Map_Accuracy":"تعمیر"},"geometry":{"x":7254098.96636356,"y":4258548.0032651052}},{"attributes":{"OBJECTID":2784,"ولایت":"فارياب","Province":"FARYAB","PC_Code":"2908133","ولسوالي":"گرزیوان","District":"GURZIWAN","د_مرکز_نوم__نام_مرکز":"مدرسه تگاب شان","Polling_Center_Name":"Tagab Shan Madrassa","د_مرکز_ځای__موقعیت_مرکز":"تگاب شان","Polling_Center_Location":"Tagab Shan","Verification_Note":"Building","PS_Male":2,"PS_Female":2,"Map_Accuracy":"تعمیر"},"geometry":{"x":7251279.5753938444,"y":4255633.8517562225}},{"attributes":{"OBJECTID":2785,"ولایت":"فارياب","Province":"FARYAB","PC_Code":"2910205","ولسوالي":"کوهستان","District":"KOHISTAN","د_مرکز_نوم__نام_مرکز":"مسجد علیان بندر","Polling_Center_Name":"Ulyand Bandar Mosque","د_مرکز_ځای__موقعیت_مرکز":"قریه علیان بندر","Polling_Center_Location":"Ulyan Bandar Village","Verification_Note":"Building","PS_Male":1,"PS_Female":1,"Map_Accuracy":"تعمیر"},"geometry":{"x":7206331.3465105183,"y":4212253.1817603037}},{"attributes":{"OBJECTID":2786,"ولایت":"فارياب","Province":"FARYAB","PC_Code":"2911170","ولسوالي":"قرم قل","District":"QARAM QUL","د_مرکز_نوم__نام_مرکز":"لیسه ذکور قرمقول","Polling_Center_Name":"Qaramqol Boys High School","د_مرکز_ځای__موقعیت_مرکز":"قریه آلتی بولک وسطی","Polling_Center_Location":"Aalti Bolak Wasati Village","Verification_Note":"Building","PS_Male":2,"PS_Female":1,"Map_Accuracy":"تعمیر"},"geometry":{"x":7245029.7229208313,"y":4420235.0999623463}},{"attributes":{"OBJECTID":2787,"ولایت":"فارياب","Province":"FARYAB","PC_Code":"2911173","ولسوالي":"قرم قل","District":"QARAM QUL","د_مرکز_نوم__نام_مرکز":"مکتب نسوان یوسف میرزایی","Polling_Center_Name":"Yousuf Mir Zayee Girls School","د_مرکز_ځای__موقعیت_مرکز":"یوسف میر زایی","Polling_Center_Location":"Yousuf Mir Zayee","Verification_Note":"Building","PS_Male":2,"PS_Female":2,"Map_Accuracy":"تعمیر"},"geometry":{"x":7251025.5910700411,"y":4416654.2518769428}},{"attributes":{"OBJECTID":2788,"ولایت":"فارياب","Province":"FARYAB","PC_Code":"2911174","ولسوالي":"قرم قل","District":"QARAM QUL","د_مرکز_نوم__نام_مرکز":"مکتب نسوان آلتی بولک","Polling_Center_Name":"Aalti Bolak Girls School","د_مرکز_ځای__موقعیت_مرکز":"آلتی بولک","Polling_Center_Location":"Aalti Bolak","Verification_Note":"Building","PS_Male":2,"PS_Female":2,"Map_Accuracy":"تعمیر"},"geometry":{"x":7244856.6155466773,"y":4418730.3138271347}},{"attributes":{"OBJECTID":2789,"ولایت":"فارياب","Province":"FARYAB","PC_Code":"2912198","ولسوالي":"قرغان","District":"QURGHAN","د_مرکز_نوم__نام_مرکز":"لیسه باغ بوستان ","Polling_Center_Name":"Bagh Bostan High School","د_مرکز_ځای__موقعیت_مرکز":"قرغان","Polling_Center_Location":"Qarghan","Verification_Note":"Building","PS_Male":2,"PS_Female":2,"Map_Accuracy":"تعمیر"},"geometry":{"x":7246129.3580015935,"y":4427832.1593540013}},{"attributes":{"OBJECTID":2790,"ولایت":"فارياب","Province":"FARYAB","PC_Code":"2913181","ولسوالي":"اندخوی","District":"ANDKHOY","د_مرکز_نوم__نام_مرکز":"لیسه نسوان یولدوز","Polling_Center_Name":"Yoldoz Girls High School","د_مرکز_ځای__موقعیت_مرکز":"شهر نو","Polling_Center_Location":"Shahr-e-Naw","Verification_Note":"Building","PS_Male":3,"PS_Female":3,"Map_Accuracy":"تعمیر"},"geometry":{"x":7249491.0207200013,"y":4431483.5164402351}},{"attributes":{"OBJECTID":2791,"ولایت":"فارياب","Province":"FARYAB","PC_Code":"2913183","ولسوالي":"اندخوی","District":"ANDKHOY","د_مرکز_نوم__نام_مرکز":"لیسه نسوان ینگی تیگرمان","Polling_Center_Name":"Yangee Tigarman Girls High School","د_مرکز_ځای__موقعیت_مرکز":"ینگی تیگرمان","Polling_Center_Location":"Yangee Tigarman","Verification_Note":"Building","PS_Male":3,"PS_Female":3,"Map_Accuracy":"تعمیر"},"geometry":{"x":7248253.841502808,"y":4426004.6496913284}},{"attributes":{"OBJECTID":2792,"ولایت":"هلمند","Province":"HELMAND","PC_Code":"3001003","ولسوالي":"لشکرگاه","District":"LASHKARGAH","د_مرکز_نوم__نام_مرکز":"د نجونو ليسه","Polling_Center_Name":"Girls High School","د_مرکز_ځای__موقعیت_مرکز":"ناحیه 2","Polling_Center_Location":"D02 - Nahia 2","Verification_Note":"Building","PS_Male":0,"PS_Female":5,"Map_Accuracy":"تعمیر"},"geometry":{"x":7165140.9497154057,"y":3709147.6967600286}},{"attributes":{"OBJECTID":2793,"ولایت":"هلمند","Province":"HELMAND","PC_Code":"3001004","ولسوالي":"لشکرگاه","District":"LASHKARGAH","د_مرکز_نوم__نام_مرکز":"متوسطه ذكور","Polling_Center_Name":"Boys Secondary School","د_مرکز_ځای__موقعیت_مرکز":"ناحیه 2","Polling_Center_Location":"D02 - Nahia 2","Verification_Note":"Building","PS_Male":5,"PS_Female":0,"Map_Accuracy":"تعمیر"},"geometry":{"x":7165146.90864775,"y":3709001.5521477908}},{"attributes":{"OBJECTID":2794,"ولایت":"هلمند","Province":"HELMAND","PC_Code":"3001012","ولسوالي":"لشکرگاه","District":"LASHKARGAH","د_مرکز_نوم__نام_مرکز":"نمرات C1 مکتب","Polling_Center_Name":"Numarat C1 School","د_مرکز_ځای__موقعیت_مرکز":"نمرات C1","Polling_Center_Location":"C1 Numarat","Verification_Note":"Building","PS_Male":4,"PS_Female":0,"Map_Accuracy":"تعمیر"},"geometry":{"x":7166201.228903383,"y":3711878.4087004662}},{"attributes":{"OBJECTID":2795,"ولایت":"هلمند","Province":"HELMAND","PC_Code":"3001013","ولسوالي":"لشکرگاه","District":"LASHKARGAH","د_مرکز_نوم__نام_مرکز":"د تور تانک د هلکانو مکتب","Polling_Center_Name":"Tor Tank Boys School","د_مرکز_ځای__موقعیت_مرکز":"تور تانک","Polling_Center_Location":"Tor Tank","Verification_Note":"Building","PS_Male":8,"PS_Female":1,"Map_Accuracy":"تعمیر"},"geometry":{"x":7164669.4192767143,"y":3710649.4896515235}},{"attributes":{"OBJECTID":2796,"ولایت":"هلمند","Province":"HELMAND","PC_Code":"3002062","ولسوالي":"نادعلی","District":"NAD ALI","د_مرکز_نوم__نام_مرکز":"مكتب ابتدائيه دهنه ۳۱غربی","Polling_Center_Name":"Dahna 31 Gharbi Primary School","د_مرکز_ځای__موقعیت_مرکز":"دهنه ۳۱غربی","Polling_Center_Location":"Dahna 31 Gharbi","Verification_Note":"Village","PS_Male":6,"PS_Female":0,"Map_Accuracy":"قریه"},"geometry":{"x":7159867.4159308337,"y":3727477.7412271276}},{"attributes":{"OBJECTID":2797,"ولایت":"هلمند","Province":"HELMAND","PC_Code":"3002065","ولسوالي":"نادعلی","District":"NAD ALI","د_مرکز_نوم__نام_مرکز":"مکتب ناقل آباد","Polling_Center_Name":"Naqil Abad School","د_مرکز_ځای__موقعیت_مرکز":"ناقل آباد","Polling_Center_Location":"Naqil Abad","Verification_Note":"Village","PS_Male":4,"PS_Female":0,"Map_Accuracy":"قریه"},"geometry":{"x":7154621.3992111906,"y":3723395.4065549523}},{"attributes":{"OBJECTID":2798,"ولایت":"هلمند","Province":"HELMAND","PC_Code":"3004038","ولسوالي":"نهرسراج","District":"NAHR-E-SARAJ","د_مرکز_نوم__نام_مرکز":"دگرشک د حاجی فابریکه ","Polling_Center_Name":"Gereshk Haji Fabrika","د_مرکز_ځای__موقعیت_مرکز":"گرشک","Polling_Center_Location":"Gereshk","Verification_Note":"Building","PS_Male":3,"PS_Female":2,"Map_Accuracy":"تعمیر"},"geometry":{"x":7186825.4265848882,"y":3739834.4207703024}},{"attributes":{"OBJECTID":2799,"ولایت":"هلمند","Province":"HELMAND","PC_Code":"3004039","ولسوالي":"نهرسراج","District":"NAHR-E-SARAJ","د_مرکز_نوم__نام_مرکز":"د نجونو لیسه","Polling_Center_Name":"Girls High School","د_مرکز_ځای__موقعیت_مرکز":"گرشک","Polling_Center_Location":"Gereshk","Verification_Note":"Building","PS_Male":0,"PS_Female":4,"Map_Accuracy":"تعمیر"},"geometry":{"x":7187913.623587966,"y":3739706.7976664007}}]}