{"objectIdFieldName":"OBJECTID","globalIdFieldName":"","geometryType":"esriGeometryPoint","spatialReference":{"wkid":102100,"latestWkid":3857},"fields":[{"name":"OBJECTID","type":"esriFieldTypeOID","alias":"OBJECTID","sqlType":"sqlTypeOther","domain":null,"defaultValue":null},{"name":"ولایت","type":"esriFieldTypeString","alias":"ولایت","sqlType":"sqlTypeOther","length":255,"domain":null,"defaultValue":null},{"name":"Province","type":"esriFieldTypeString","alias":"Province","sqlType":"sqlTypeOther","length":255,"domain":null,"defaultValue":null},{"name":"PC_Code","type":"esriFieldTypeString","alias":"PC_Code","sqlType":"sqlTypeOther","length":255,"domain":null,"defaultValue":null},{"name":"ولسوالي","type":"esriFieldTypeString","alias":"ولسوالي","sqlType":"sqlTypeOther","length":255,"domain":null,"defaultValue":null},{"name":"District","type":"esriFieldTypeString","alias":"District","sqlType":"sqlTypeOther","length":255,"domain":null,"defaultValue":null},{"name":"د_مرکز_نوم__نام_مرکز","type":"esriFieldTypeString","alias":"د_مرکز_نوم__نام_مرکز","sqlType":"sqlTypeOther","length":255,"domain":null,"defaultValue":null},{"name":"Polling_Center_Name","type":"esriFieldTypeString","alias":"Polling_Center_Name","sqlType":"sqlTypeOther","length":255,"domain":null,"defaultValue":null},{"name":"د_مرکز_ځای__موقعیت_مرکز","type":"esriFieldTypeString","alias":"د_مرکز_ځای__موقعیت_مرکز","sqlType":"sqlTypeOther","length":255,"domain":null,"defaultValue":null},{"name":"Polling_Center_Location","type":"esriFieldTypeString","alias":"Polling_Center_Location","sqlType":"sqlTypeOther","length":255,"domain":null,"defaultValue":null},{"name":"Verification_Note","type":"esriFieldTypeString","alias":"Verification_Note","sqlType":"sqlTypeOther","length":250,"domain":null,"defaultValue":null},{"name":"PS_Male","type":"esriFieldTypeSmallInteger","alias":"PS_Male","sqlType":"sqlTypeOther","domain":null,"defaultValue":null},{"name":"PS_Female","type":"esriFieldTypeSmallInteger","alias":"PS_Female","sqlType":"sqlTypeOther","domain":null,"defaultValue":null},{"name":"Map_Accuracy","type":"esriFieldTypeString","alias":"Map_Accuracy","sqlType":"sqlTypeOther","length":10,"domain":null,"defaultValue":null}],"features":[{"attributes":{"OBJECTID":3600,"ولایت":"هلمند","Province":"HELMAND","PC_Code":"3004056","ولسوالي":"نهرسراج","District":"NAHR-E-SARAJ","د_مرکز_نوم__نام_مرکز":"خانه نورزي لعل محمد","Polling_Center_Name":"Noorzi Lal Mohammad Private House","د_مرکز_ځای__موقعیت_مرکز":"ډاګیان","Polling_Center_Location":"Dagiyan","Verification_Note":"Village","PS_Male":3,"PS_Female":1,"Map_Accuracy":"قریه"},"geometry":{"x":7192826.2952056229,"y":3738230.0847571492}},{"attributes":{"OBJECTID":3601,"ولایت":"هلمند","Province":"HELMAND","PC_Code":"3004057","ولسوالي":"نهرسراج","District":"NAHR-E-SARAJ","د_مرکز_نوم__نام_مرکز":"مکتب باوزی","Polling_Center_Name":"Bowzai School","د_مرکز_ځای__موقعیت_مرکز":"باوزی","Polling_Center_Location":"Bawzai","Verification_Note":"Village","PS_Male":3,"PS_Female":1,"Map_Accuracy":"قریه"},"geometry":{"x":7187299.0464904234,"y":3735843.0155325085}},{"attributes":{"OBJECTID":3602,"ولایت":"هلمند","Province":"HELMAND","PC_Code":"3007192","ولسوالي":"نوزاد","District":"NAWZAD","د_مرکز_نوم__نام_مرکز":"د حاجی محمد قاسم خان مسجد","Polling_Center_Name":"Haji Mohammad Qasim Khan Mosque","د_مرکز_ځای__موقعیت_مرکز":"دهنه","Polling_Center_Location":"Dahna","Verification_Note":"Building","PS_Male":4,"PS_Female":2,"Map_Accuracy":"تعمیر"},"geometry":{"x":7182676.8419332914,"y":3809555.3865094557}},{"attributes":{"OBJECTID":3603,"ولایت":"هرات","Province":"HERAT","PC_Code":"3206124","ولسوالي":"پشتون زرغون","District":"PASHTUN ZARGHUN","د_مرکز_نوم__نام_مرکز":"مکتب پشکان اول","Polling_Center_Name":"Pushkan Awal School ","د_مرکز_ځای__موقعیت_مرکز":" پشکان اول","Polling_Center_Location":"Pushkan Awal","Verification_Note":"Village","PS_Male":2,"PS_Female":1,"Map_Accuracy":"قریه"},"geometry":{"x":6989044.5080801547,"y":4060682.1681016833}},{"attributes":{"OBJECTID":3604,"ولایت":"هرات","Province":"HERAT","PC_Code":"3207187","ولسوالي":"کشک (رباط سنگی)","District":"KUSHK (RUBAT-E-SANGI)","د_مرکز_نوم__نام_مرکز":"مکتب خواجه نور","Polling_Center_Name":"Khwaja Noor School ","د_مرکز_ځای__موقعیت_مرکز":"قریه خواجه نور ","Polling_Center_Location":"Khwaja Noor Village ","Verification_Note":"Village","PS_Male":2,"PS_Female":2,"Map_Accuracy":"قریه"},"geometry":{"x":6944981.1991286725,"y":4126217.4357738197}},{"attributes":{"OBJECTID":3605,"ولایت":"هرات","Province":"HERAT","PC_Code":"3208203","ولسوالي":"گلران ","District":"GULRAN","د_مرکز_نوم__نام_مرکز":"مسجد کاریز سام","Polling_Center_Name":"Kariz-e- Sam Mosque ","د_مرکز_ځای__موقعیت_مرکز":" کاریز سام","Polling_Center_Location":"Kariz Sam ","Verification_Note":"Village","PS_Male":1,"PS_Female":2,"Map_Accuracy":"قریه"},"geometry":{"x":6828315.1210236736,"y":4198536.4220752344}},{"attributes":{"OBJECTID":3606,"ولایت":"هرات","Province":"HERAT","PC_Code":"3208204","ولسوالي":"گلران ","District":"GULRAN","د_مرکز_نوم__نام_مرکز":"مسجد کلاته","Polling_Center_Name":"Kalatah Mosque ","د_مرکز_ځای__موقعیت_مرکز":"قریه  کلاته","Polling_Center_Location":"Kalata Village ","Verification_Note":"Village","PS_Male":2,"PS_Female":1,"Map_Accuracy":"قریه"},"geometry":{"x":6831700.7185457982,"y":4211078.9365541339}},{"attributes":{"OBJECTID":3607,"ولایت":"هرات","Province":"HERAT","PC_Code":"3208226","ولسوالي":"گلران ","District":"GULRAN","د_مرکز_نوم__نام_مرکز":"مسجد چاهالخی","Polling_Center_Name":"Chahalakhi Mosqu","د_مرکز_ځای__موقعیت_مرکز":" قریه چاهالخی","Polling_Center_Location":"Chahalakhi Village","Verification_Note":"Village","PS_Male":1,"PS_Female":1,"Map_Accuracy":"قریه"},"geometry":{"x":6844624.2646606565,"y":4187128.9746966437}},{"attributes":{"OBJECTID":3608,"ولایت":"هرات","Province":"HERAT","PC_Code":"3209293","ولسوالي":"ادرسکن ","District":"ADRASKAN","د_مرکز_نوم__نام_مرکز":"مسجد تنوره","Polling_Center_Name":"Tanoora Mosque ","د_مرکز_ځای__موقعیت_مرکز":" تنوره","Polling_Center_Location":"Tanoorah ","Verification_Note":"Building","PS_Male":1,"PS_Female":1,"Map_Accuracy":"تعمیر"},"geometry":{"x":6869579.46401694,"y":3986831.5734409392}},{"attributes":{"OBJECTID":3609,"ولایت":"هرات","Province":"HERAT","PC_Code":"3210415","ولسوالي":"کشک کهنه ","District":"KUSHK-E-KUHNA","د_مرکز_نوم__نام_مرکز":"مسجد پایین محمد آباد چشمه خافی زنانه","Polling_Center_Name":"Muhammad Abad Cheshma khafi Mosque(Female)","د_مرکز_ځای__موقعیت_مرکز":"قریه چشمه خافی","Polling_Center_Location":"Chashma-e- Khafi Village","Verification_Note":"Village","PS_Male":0,"PS_Female":2,"Map_Accuracy":"قریه"},"geometry":{"x":6974049.4910319932,"y":4140934.5903661922}},{"attributes":{"OBJECTID":3610,"ولایت":"نيمروز","Province":"NIMROZ","PC_Code":"3404020","ولسوالي":"چهار برجک","District":"CHAR BURJAK","د_مرکز_نوم__نام_مرکز":"شفخانه مرکزولسوالی","Polling_Center_Name":"District Center Hospital ","د_مرکز_ځای__موقعیت_مرکز":"مرکز ولسوالی ","Polling_Center_Location":"Char Burjak District Center  ","Verification_Note":"Building","PS_Male":1,"PS_Female":2,"Map_Accuracy":"تعمیر"},"geometry":{"x":6908240.2211185358,"y":3539413.2116060257}},{"attributes":{"OBJECTID":3611,"ولایت":"هرات","Province":"HERAT","PC_Code":"3213234","ولسوالي":"کهسان ","District":"KOHSAN","د_مرکز_نوم__نام_مرکز":"مکتب ابتدایی کلاته قاضی","Polling_Center_Name":"Kalata Qazi Primary School ","د_مرکز_ځای__موقعیت_مرکز":"کلاته قاضی","Polling_Center_Location":"Kalat-e- Qazi ","Verification_Note":"Building","PS_Male":2,"PS_Female":1,"Map_Accuracy":"تعمیر"},"geometry":{"x":6801113.0234617367,"y":4124895.6509223804}},{"attributes":{"OBJECTID":3612,"ولایت":"هرات","Province":"HERAT","PC_Code":"3214306","ولسوالي":"شیندند","District":"SHINDAND","د_مرکز_نوم__نام_مرکز":"مکتب کهنه سنگ","Polling_Center_Name":"Kuhna Sang School ","د_مرکز_ځای__موقعیت_مرکز":"کهنه سنگ ","Polling_Center_Location":"Kuhna Sang ","Verification_Note":"Building","PS_Male":1,"PS_Female":1,"Map_Accuracy":"تعمیر"},"geometry":{"x":6920185.5126990117,"y":3934944.6906267181}},{"attributes":{"OBJECTID":3613,"ولایت":"هرات","Province":"HERAT","PC_Code":"3214328","ولسوالي":"شیندند","District":"SHINDAND","د_مرکز_نوم__نام_مرکز":"مسجد چنگان","Polling_Center_Name":"Changan Mosque ","د_مرکز_ځای__موقعیت_مرکز":"چنگان","Polling_Center_Location":"Changan ","Verification_Note":"Building","PS_Male":2,"PS_Female":1,"Map_Accuracy":"تعمیر"},"geometry":{"x":6927246.5669993535,"y":3941697.1876198649}},{"attributes":{"OBJECTID":3614,"ولایت":"هرات","Province":"HERAT","PC_Code":"3214329","ولسوالي":"شیندند","District":"SHINDAND","د_مرکز_نوم__نام_مرکز":"مدرسه کودان","Polling_Center_Name":"Kohdan Madrassa ","د_مرکز_ځای__موقعیت_مرکز":"کودان ","Polling_Center_Location":"Kohdan ","Verification_Note":"Village","PS_Male":2,"PS_Female":1,"Map_Accuracy":"قریه"},"geometry":{"x":6932175.7328259721,"y":3938478.2622674257}},{"attributes":{"OBJECTID":3615,"ولایت":"هرات","Province":"HERAT","PC_Code":"3214350","ولسوالي":"شیندند","District":"SHINDAND","د_مرکز_نوم__نام_مرکز":"مسجد واخل  کوه زور","Polling_Center_Name":"Wakhal Koh-e- Zoor Mosque ","د_مرکز_ځای__موقعیت_مرکز":"واخل ","Polling_Center_Location":"Wakhal ","Verification_Note":"Building","PS_Male":1,"PS_Female":1,"Map_Accuracy":"تعمیر"},"geometry":{"x":6975403.0469844453,"y":3951175.4335317686}},{"attributes":{"OBJECTID":3616,"ولایت":"هرات","Province":"HERAT","PC_Code":"3214351","ولسوالي":"شیندند","District":"SHINDAND","د_مرکز_نوم__نام_مرکز":"مسجد دهن اوشه کوه زور","Polling_Center_Name":"Dahan-e-Osha-Koh Zoor Mosque ","د_مرکز_ځای__موقعیت_مرکز":"دهن اوشه ","Polling_Center_Location":"Dahan-e- Oshah ","Verification_Note":"Building","PS_Male":2,"PS_Female":1,"Map_Accuracy":"تعمیر"},"geometry":{"x":7011277.399307847,"y":3963078.0312912613}},{"attributes":{"OBJECTID":3617,"ولایت":"هرات","Province":"HERAT","PC_Code":"3216392","ولسوالي":"چشت شریف","District":"CHISHT-E-SHARIF","د_مرکز_نوم__نام_مرکز":"مسجد سونی","Polling_Center_Name":"Sony Mosque","د_مرکز_ځای__موقعیت_مرکز":"قریه سونی","Polling_Center_Location":"Sony Village ","Verification_Note":"Village","PS_Male":1,"PS_Female":1,"Map_Accuracy":"قریه"},"geometry":{"x":7083185.9286871664,"y":4077754.3211479783}},{"attributes":{"OBJECTID":3618,"ولایت":" فراه","Province":"FARAH","PC_Code":"3301009","ولسوالي":"فراه","District":"FARAH","د_مرکز_نوم__نام_مرکز":"مکتب متوسطه ","Polling_Center_Name":"Secondary School","د_مرکز_ځای__موقعیت_مرکز":"کرجی  ","Polling_Center_Location":"Karji ","Verification_Note":"Building","PS_Male":3,"PS_Female":1,"Map_Accuracy":"تعمیر"},"geometry":{"x":6918900.4071014486,"y":3816159.9968319088}},{"attributes":{"OBJECTID":3619,"ولایت":" فراه","Province":"FARAH","PC_Code":"3301010","ولسوالي":"فراه","District":"FARAH","د_مرکز_نوم__نام_مرکز":"لیسه چهار باغ ","Polling_Center_Name":"Chahar Bagh High School","د_مرکز_ځای__موقعیت_مرکز":"چهار باغ ","Polling_Center_Location":"Chahar Bagh ","Verification_Note":"Building","PS_Male":2,"PS_Female":2,"Map_Accuracy":"تعمیر"},"geometry":{"x":6911857.4021433368,"y":3813042.3846893385}},{"attributes":{"OBJECTID":3620,"ولایت":" فراه","Province":"FARAH","PC_Code":"3301032","ولسوالي":"فراه","District":"FARAH","د_مرکز_نوم__نام_مرکز":" لیسه ذکور","Polling_Center_Name":"Boys High School","د_مرکز_ځای__موقعیت_مرکز":"قله ارباب ","Polling_Center_Location":"Qala-e-Arbab","Verification_Note":"Building","PS_Male":2,"PS_Female":2,"Map_Accuracy":"تعمیر"},"geometry":{"x":6914986.483936429,"y":3810742.4203424454}},{"attributes":{"OBJECTID":3621,"ولایت":" فراه","Province":"FARAH","PC_Code":"3303051","ولسوالي":"خاک سفید ","District":"KHAK-E-SAFED","د_مرکز_نوم__نام_مرکز":" مسجد خشک ابه","Polling_Center_Name":"Khushk Aaba Mosque ","د_مرکز_ځای__موقعیت_مرکز":"خشک ابه","Polling_Center_Location":"Khushk Aaba","Verification_Note":"Village","PS_Male":1,"PS_Female":1,"Map_Accuracy":"قریه"},"geometry":{"x":6919627.984614104,"y":3851273.0392887518}},{"attributes":{"OBJECTID":3622,"ولایت":" فراه","Province":"FARAH","PC_Code":"3303052","ولسوالي":"خاک سفید ","District":"KHAK-E-SAFED","د_مرکز_نوم__نام_مرکز":"لیسه ده نو","Polling_Center_Name":"Deh Naw High School ","د_مرکز_ځای__موقعیت_مرکز":"ده نو","Polling_Center_Location":"Deh Naw ","Verification_Note":"Building","PS_Male":2,"PS_Female":1,"Map_Accuracy":"تعمیر"},"geometry":{"x":6913377.3050372675,"y":3849473.6067970917}},{"attributes":{"OBJECTID":3623,"ولایت":" فراه","Province":"FARAH","PC_Code":"3304079","ولسوالي":"قلعه کاه ","District":"QALA-E-KAH","د_مرکز_نوم__نام_مرکز":"مسجد جامع اور","Polling_Center_Name":"Or Mosque ","د_مرکز_ځای__موقعیت_مرکز":" اور","Polling_Center_Location":"Or","Verification_Note":"Village","PS_Male":1,"PS_Female":1,"Map_Accuracy":"قریه"},"geometry":{"x":6835042.7356004715,"y":3818011.2686272934}},{"attributes":{"OBJECTID":3624,"ولایت":" فراه","Province":"FARAH","PC_Code":"3304080","ولسوالي":"قلعه کاه ","District":"QALA-E-KAH","د_مرکز_نوم__نام_مرکز":"مسجد کشکک","Polling_Center_Name":"Kashkak  Mosque ","د_مرکز_ځای__موقعیت_مرکز":" کشکک","Polling_Center_Location":"Kashkak ","Verification_Note":"Building","PS_Male":1,"PS_Female":1,"Map_Accuracy":"تعمیر"},"geometry":{"x":6848235.6047517657,"y":3802105.9918786362}},{"attributes":{"OBJECTID":3625,"ولایت":" فراه","Province":"FARAH","PC_Code":"3306132","ولسوالي":"بالا بلوک ","District":"BALA BULUK","د_مرکز_نوم__نام_مرکز":" مسجد شیخ لالا","Polling_Center_Name":"Shaikh lala Mosque ","د_مرکز_ځای__موقعیت_مرکز":" شیخ لالا","Polling_Center_Location":"Shaikh lala","Verification_Note":"Village","PS_Male":1,"PS_Female":1,"Map_Accuracy":"قریه"},"geometry":{"x":6956496.3331610821,"y":3844682.5196288079}},{"attributes":{"OBJECTID":3626,"ولایت":" فراه","Province":"FARAH","PC_Code":"3306133","ولسوالي":"بالا بلوک ","District":"BALA BULUK","د_مرکز_نوم__نام_مرکز":" مسجد کال قلعه","Polling_Center_Name":"Kal Qala Mosque ","د_مرکز_ځای__موقعیت_مرکز":" کال قلعه","Polling_Center_Location":"Kal Qala ","Verification_Note":"Building","PS_Male":1,"PS_Female":1,"Map_Accuracy":"تعمیر"},"geometry":{"x":6960783.82561288,"y":3845721.2343789861}},{"attributes":{"OBJECTID":3627,"ولایت":" فراه","Province":"FARAH","PC_Code":"3309105","ولسوالي":"لاش جوین ","District":"LASH-E-JUWAYN","د_مرکز_نوم__نام_مرکز":" مکتب ابتدائیه سمور","Polling_Center_Name":"Samsor Primary School ","د_مرکز_ځای__موقعیت_مرکز":" سمور","Polling_Center_Location":"Samsor ","Verification_Note":"Building","PS_Male":1,"PS_Female":1,"Map_Accuracy":"تعمیر"},"geometry":{"x":6850948.0933880806,"y":3722948.1144926324}},{"attributes":{"OBJECTID":3628,"ولایت":" فراه","Province":"FARAH","PC_Code":"3311209","ولسوالي":"پرچمن","District":"PUR CHAMAN","د_مرکز_نوم__نام_مرکز":" مسجد نر غر","Polling_Center_Name":"Nar Ghar Mosque","د_مرکز_ځای__موقعیت_مرکز":" نرغر","Polling_Center_Location":"Nar Ghar ","Verification_Note":"Building","PS_Male":2,"PS_Female":1,"Map_Accuracy":"تعمیر"},"geometry":{"x":7115966.6733996011,"y":3880248.2948615029}},{"attributes":{"OBJECTID":3629,"ولایت":" فراه","Province":"FARAH","PC_Code":"3311210","ولسوالي":"پرچمن","District":"PUR CHAMAN","د_مرکز_نوم__نام_مرکز":"مسجد تجگو","Polling_Center_Name":"Tajgo Mosque ","د_مرکز_ځای__موقعیت_مرکز":"مسجد تجگو","Polling_Center_Location":"Tajgo Mosque ","Verification_Note":"Building","PS_Male":1,"PS_Female":1,"Map_Accuracy":"تعمیر"},"geometry":{"x":7097410.1339588426,"y":3876131.5417800844}},{"attributes":{"OBJECTID":3630,"ولایت":"نيمروز","Province":"NIMROZ","PC_Code":"3402015","ولسوالي":"کنگ","District":"KANG","د_مرکز_نوم__نام_مرکز":"مکتب حاجی نبی جان","Polling_Center_Name":"Haji Nabi Jan School ","د_مرکز_ځای__موقعیت_مرکز":"حاجی نبی جان","Polling_Center_Location":"Haji Nabi Jan","Verification_Note":"Building","PS_Male":1,"PS_Female":1,"Map_Accuracy":"تعمیر"},"geometry":{"x":6883155.9456994869,"y":3657133.5288479179}},{"attributes":{"OBJECTID":3631,"ولایت":"نيمروز","Province":"NIMROZ","PC_Code":"3402016","ولسوالي":"کنگ","District":"KANG","د_مرکز_نوم__نام_مرکز":"مکتب درویش","Polling_Center_Name":"Darwish School ","د_مرکز_ځای__موقعیت_مرکز":"درویش","Polling_Center_Location":"Darwish","Verification_Note":"Building","PS_Male":2,"PS_Female":2,"Map_Accuracy":"تعمیر"},"geometry":{"x":6880419.5845983773,"y":3652022.9219809696}},{"attributes":{"OBJECTID":3632,"ولایت":"نيمروز","Province":"NIMROZ","PC_Code":"3406047","ولسوالي":"دلارام","District":"DELARAM","د_مرکز_نوم__نام_مرکز":"مکتب ابتدایی اناث","Polling_Center_Name":"Girls Primary School","د_مرکز_ځای__موقعیت_مرکز":"مرکز ولسوالی","Polling_Center_Location":"District Capital","Verification_Note":"Building","PS_Male":1,"PS_Female":1,"Map_Accuracy":"تعمیر"},"geometry":{"x":7059929.55158959,"y":3784732.166531615}},{"attributes":{"OBJECTID":3633,"ولایت":"کابل","Province":"KABUL","PC_Code":"0101010","ولسوالي":"کابل - ناحیه 01","District":"KABUL-D01","د_مرکز_نوم__نام_مرکز":" ليسه عايشه دراني","Polling_Center_Name":"Aiesha Durani High School","د_مرکز_ځای__موقعیت_مرکز":"پل باغ عمومي","Polling_Center_Location":"Pul-e-Bagh Umomi","Verification_Note":"Building","PS_Male":3,"PS_Female":2,"Map_Accuracy":"تعمیر"},"geometry":{"x":7700624.3657317311,"y":4098485.6188643575}},{"attributes":{"OBJECTID":3634,"ولایت":"کابل","Province":"KABUL","PC_Code":"0101015","ولسوالي":"کابل - ناحیه 01","District":"KABUL-D01","د_مرکز_نوم__نام_مرکز":" مسجد باغبان کوچه","Polling_Center_Name":"Baghban Kucha Mosque","د_مرکز_ځای__موقعیت_مرکز":"باغبان کوچه","Polling_Center_Location":"Baghban Kucha","Verification_Note":"Building","PS_Male":2,"PS_Female":1,"Map_Accuracy":"تعمیر"},"geometry":{"x":7700455.361593999,"y":4098070.2467604876}},{"attributes":{"OBJECTID":3635,"ولایت":"کابل","Province":"KABUL","PC_Code":"0101031","ولسوالي":"کابل - ناحیه 02","District":"KABUL-D02","د_مرکز_نوم__نام_مرکز":"ریاست اداره امور","Polling_Center_Name":"Office of Administrative Affairs (OAA)","د_مرکز_ځای__موقعیت_مرکز":"مراد خانی","Polling_Center_Location":"Murad Khani","Verification_Note":"Building","PS_Male":2,"PS_Female":2,"Map_Accuracy":"تعمیر"},"geometry":{"x":7701397.618744649,"y":4099238.2432316393}},{"attributes":{"OBJECTID":3636,"ولایت":"کابل","Province":"KABUL","PC_Code":"0101488","ولسوالي":"کابل - ناحیه 02","District":"KABUL-D02","د_مرکز_نوم__نام_مرکز":" زیارت ابوالفضل","Polling_Center_Name":"Ziarat Abu Alfazal ","د_مرکز_ځای__موقعیت_مرکز":"مراد خانی","Polling_Center_Location":"Murad Khani","Verification_Note":"Building","PS_Male":1,"PS_Female":1,"Map_Accuracy":"تعمیر"},"geometry":{"x":7701429.2813474163,"y":4098657.7925902158}},{"attributes":{"OBJECTID":3637,"ولایت":"کابل","Province":"KABUL","PC_Code":"0101034","ولسوالي":"کابل - ناحیه 03","District":"KABUL-D03","د_مرکز_نوم__نام_مرکز":"مکتب متوسطه سيد جمال الدين","Polling_Center_Name":"Sayed Jamaluddin Secondary School","د_مرکز_ځای__موقعیت_مرکز":"کارته چهار","Polling_Center_Location":"Kart-e-Chahar","Verification_Note":"Building","PS_Male":4,"PS_Female":3,"Map_Accuracy":"تعمیر"},"geometry":{"x":7696607.3462467045,"y":4097234.99468188}},{"attributes":{"OBJECTID":3638,"ولایت":"کابل","Province":"KABUL","PC_Code":"0101035","ولسوالي":"کابل - ناحیه 03","District":"KABUL-D03","د_مرکز_نوم__نام_مرکز":" مکتب متوسطه نمبر١٣ جمال مينه","Polling_Center_Name":"Jamal Menah 13th Number Secondary School","د_مرکز_ځای__موقعیت_مرکز":"جمال مينه","Polling_Center_Location":"Jamal Menah","Verification_Note":"Building","PS_Male":4,"PS_Female":4,"Map_Accuracy":"تعمیر"},"geometry":{"x":7697031.5803733394,"y":4098277.9430555627}},{"attributes":{"OBJECTID":3639,"ولایت":"کابل","Province":"KABUL","PC_Code":"0101049","ولسوالي":"کابل - ناحیه 04","District":"KABUL-D04","د_مرکز_نوم__نام_مرکز":" ليسه نسوان ملالي","Polling_Center_Name":"Malalai Girls High School","د_مرکز_ځای__موقعیت_مرکز":"چهار راهي صدارت","Polling_Center_Location":"Sedarat Square","Verification_Note":"Building","PS_Male":2,"PS_Female":4,"Map_Accuracy":"تعمیر"},"geometry":{"x":7699709.7748141252,"y":4099735.7712812722}},{"attributes":{"OBJECTID":3640,"ولایت":"کابل","Province":"KABUL","PC_Code":"0101053","ولسوالي":"کابل - ناحیه 04","District":"KABUL-D04","د_مرکز_نوم__نام_مرکز":"مکتب متوسطه ناصر خسرو بلخي","Polling_Center_Name":"Naser Khusraw Balkh School","د_مرکز_ځای__موقعیت_مرکز":"چهار راهي تايمني","Polling_Center_Location":"Taimani Square","Verification_Note":"Building","PS_Male":4,"PS_Female":4,"Map_Accuracy":"تعمیر"},"geometry":{"x":7697422.4275582917,"y":4102652.3566999361}},{"attributes":{"OBJECTID":3641,"ولایت":"کابل","Province":"KABUL","PC_Code":"0101054","ولسوالي":"کابل - ناحیه 04","District":"KABUL-D04","د_مرکز_نوم__نام_مرکز":"ليسه رابيا","Polling_Center_Name":"Rabia High School","د_مرکز_ځای__موقعیت_مرکز":"کارته پروان","Polling_Center_Location":"Kart-e-Parwan","Verification_Note":"Building","PS_Male":4,"PS_Female":4,"Map_Accuracy":"تعمیر"},"geometry":{"x":7696859.4904593267,"y":4101896.7699471936}},{"attributes":{"OBJECTID":3642,"ولایت":"کابل","Province":"KABUL","PC_Code":"0101068","ولسوالي":"کابل - ناحیه 04","District":"KABUL-D04","د_مرکز_نوم__نام_مرکز":"مسجد حاجي محمد داد","Polling_Center_Name":"Haji Mohammad Dad Mosque","د_مرکز_ځای__موقعیت_مرکز":"تايمني","Polling_Center_Location":"Taimani","Verification_Note":"Building","PS_Male":2,"PS_Female":2,"Map_Accuracy":"تعمیر"},"geometry":{"x":7697657.63896317,"y":4102915.1234410256}},{"attributes":{"OBJECTID":3643,"ولایت":"کابل","Province":"KABUL","PC_Code":"0101072","ولسوالي":"کابل - ناحیه 05","District":"KABUL-D05","د_مرکز_نوم__نام_مرکز":" مسجد صاحب زمان","Polling_Center_Name":"Sahib-e- Zaman Mosque","د_مرکز_ځای__موقعیت_مرکز":"افشار سیلو","Polling_Center_Location":"Afshar-e-Selo","Verification_Note":"Building","PS_Male":2,"PS_Female":1,"Map_Accuracy":"تعمیر"},"geometry":{"x":7693335.9246735126,"y":4100166.27659519}},{"attributes":{"OBJECTID":3644,"ولایت":"کابل","Province":"KABUL","PC_Code":"0101088","ولسوالي":"کابل - ناحیه 05","District":"KABUL-D05","د_مرکز_نوم__نام_مرکز":"  لیسه محمد اسماعیل حسن زی","Polling_Center_Name":"Mohammad Ismail Hassanzai High School","د_مرکز_ځای__موقعیت_مرکز":"قسمت ب خوشحال مینه","Polling_Center_Location":"Phase B of Khush-hal Mina","Verification_Note":"Building","PS_Male":3,"PS_Female":2,"Map_Accuracy":"تعمیر"},"geometry":{"x":7692200.048419334,"y":4099939.7459931}},{"attributes":{"OBJECTID":3645,"ولایت":"کابل","Province":"KABUL","PC_Code":"0101092","ولسوالي":"کابل - ناحیه 05","District":"KABUL-D05","د_مرکز_نوم__نام_مرکز":" مسجد حضرت يوسف","Polling_Center_Name":"Hazrat Yousuf Mosque","د_مرکز_ځای__موقعیت_مرکز":"رحمت آباد","Polling_Center_Location":"Rahmat Abad","Verification_Note":"Building","PS_Male":2,"PS_Female":1,"Map_Accuracy":"تعمیر"},"geometry":{"x":7690306.6185400113,"y":4100901.8676966503}},{"attributes":{"OBJECTID":3646,"ولایت":"کابل","Province":"KABUL","PC_Code":"0101107","ولسوالي":"کابل - ناحیه 06","District":"KABUL-D06","د_مرکز_نوم__نام_مرکز":" مسجد حضرت رسول","Polling_Center_Name":"Hazrat Rasool Mosque","د_مرکز_ځای__موقعیت_مرکز":"نو آباد قلعه جبار خان","Polling_Center_Location":"Naw Abad Qala-e-Jabar Khan","Verification_Note":"Building","PS_Male":3,"PS_Female":2,"Map_Accuracy":"تعمیر"},"geometry":{"x":7689870.0257235058,"y":4094113.0859279186}},{"attributes":{"OBJECTID":3647,"ولایت":"کابل","Province":"KABUL","PC_Code":"0101111","ولسوالي":"کابل - ناحیه 06","District":"KABUL-D06","د_مرکز_نوم__نام_مرکز":" مسجد جعفريه","Polling_Center_Name":"Jafaria Mosque","د_مرکز_ځای__موقعیت_مرکز":"علاوالدين","Polling_Center_Location":"Allawoudin","Verification_Note":"Building","PS_Male":3,"PS_Female":2,"Map_Accuracy":"تعمیر"},"geometry":{"x":7695392.7092264,"y":4094642.0491103455}},{"attributes":{"OBJECTID":3648,"ولایت":"کابل","Province":"KABUL","PC_Code":"0101128","ولسوالي":"کابل - ناحیه 07","District":"KABUL-D07","د_مرکز_نوم__نام_مرکز":" مکتب متوسطه عطاالله فیضانی","Polling_Center_Name":"Ataullah Faizani Secondary School","د_مرکز_ځای__موقعیت_مرکز":"سه راهي علاوالدين","Polling_Center_Location":"Se Rahi Allawoudin","Verification_Note":"Building","PS_Male":5,"PS_Female":4,"Map_Accuracy":"تعمیر"},"geometry":{"x":7696375.965902105,"y":4093015.3937751353}},{"attributes":{"OBJECTID":3649,"ولایت":"کابل","Province":"KABUL","PC_Code":"0101132","ولسوالي":"کابل - ناحیه 07","District":"KABUL-D07","د_مرکز_نوم__نام_مرکز":" ليسه حبيبيه","Polling_Center_Name":"Habibia High School","د_مرکز_ځای__موقعیت_مرکز":"سرک دارالامان","Polling_Center_Location":"Darul Aman Road","Verification_Note":"Building","PS_Male":4,"PS_Female":3,"Map_Accuracy":"تعمیر"},"geometry":{"x":7697564.1762318946,"y":4096436.0179291219}},{"attributes":{"OBJECTID":3650,"ولایت":"کابل","Province":"KABUL","PC_Code":"0101490","ولسوالي":"کابل - ناحیه 07","District":"KABUL-D07","د_مرکز_نوم__نام_مرکز":" لیسه نسوان سردار کابلی","Polling_Center_Name":"Sardar Kabuli Girls High School","د_مرکز_ځای__موقعیت_مرکز":"سه راهی علاوالدین","Polling_Center_Location":"Se Rahi Allawoudin","Verification_Note":"Building","PS_Male":2,"PS_Female":4,"Map_Accuracy":"تعمیر"},"geometry":{"x":7696340.5103103295,"y":4094057.6759240106}},{"attributes":{"OBJECTID":3651,"ولایت":"کابل","Province":"KABUL","PC_Code":"0101180","ولسوالي":"کابل - ناحیه 09","District":"KABUL-D09","د_مرکز_نوم__نام_مرکز":" لیسه ذکور بی بی مهرو","Polling_Center_Name":"Bi Bi Mahru Boys High School","د_مرکز_ځای__موقعیت_مرکز":"مکروريان سوم","Polling_Center_Location":"3rd Makrorian","Verification_Note":"Building","PS_Male":3,"PS_Female":1,"Map_Accuracy":"تعمیر"},"geometry":{"x":7703014.3751615509,"y":4101757.9932036921}},{"attributes":{"OBJECTID":3652,"ولایت":"کابل","Province":"KABUL","PC_Code":"0101201","ولسوالي":"کابل - ناحیه 10","District":"KABUL-D10","د_مرکز_نوم__نام_مرکز":" مسجد حضرت يوسف","Polling_Center_Name":"Hazrat Yousuf Mosque","د_مرکز_ځای__موقعیت_مرکز":"چهار قلعه","Polling_Center_Location":"Chahar Qala","Verification_Note":"Building","PS_Male":1,"PS_Female":1,"Map_Accuracy":"تعمیر"},"geometry":{"x":7700471.5775042251,"y":4103736.48986689}},{"attributes":{"OBJECTID":3653,"ولایت":"کابل","Province":"KABUL","PC_Code":"0101215","ولسوالي":"کابل - ناحیه 10","District":"KABUL-D10","د_مرکز_نوم__نام_مرکز":" لیسه استاد مصباح ","Polling_Center_Name":"Ustad Misbah Secondary School","د_مرکز_ځای__موقعیت_مرکز":"سرک دوم تایمنی","Polling_Center_Location":"2nd Road, Taimani","Verification_Note":"Building","PS_Male":3,"PS_Female":2,"Map_Accuracy":"تعمیر"},"geometry":{"x":7698175.7031754032,"y":4103388.0536282659}},{"attributes":{"OBJECTID":3654,"ولایت":"کابل","Province":"KABUL","PC_Code":"0101216","ولسوالي":"کابل - ناحیه 10","District":"KABUL-D10","د_مرکز_نوم__نام_مرکز":" مسجد حسينيه","Polling_Center_Name":"Husainia Mosque","د_مرکز_ځای__موقعیت_مرکز":"قلعه فتح الله","Polling_Center_Location":"Qala-e-Fathullah","Verification_Note":"Building","PS_Male":4,"PS_Female":3,"Map_Accuracy":"تعمیر"},"geometry":{"x":7699780.1387510635,"y":4102771.2266080678}},{"attributes":{"OBJECTID":3655,"ولایت":"کابل","Province":"KABUL","PC_Code":"0101235","ولسوالي":"کابل - ناحیه 11","District":"KABUL-D11","د_مرکز_نوم__نام_مرکز":" فاتحه خانه زنانه","Polling_Center_Name":"Fatiha Khana Zanana","د_مرکز_ځای__موقعیت_مرکز":"حصه اول خير خانه","Polling_Center_Location":"Hesa-e-Awal, Khair Khana","Verification_Note":"Building","PS_Male":3,"PS_Female":2,"Map_Accuracy":"تعمیر"},"geometry":{"x":7694525.40571529,"y":4106196.7392004058}},{"attributes":{"OBJECTID":3656,"ولایت":"کابل","Province":"KABUL","PC_Code":"0101239","ولسوالي":"کابل - ناحیه 11","District":"KABUL-D11","د_مرکز_نوم__نام_مرکز":"ليسه غلام حيدر خان","Polling_Center_Name":"Ghulam Haider Khan High School","د_مرکز_ځای__موقعیت_مرکز":"ليسه مريم","Polling_Center_Location":"Lesay Mariam","Verification_Note":"Building","PS_Male":4,"PS_Female":3,"Map_Accuracy":"تعمیر"},"geometry":{"x":7696366.7547708377,"y":4106908.9814968854}},{"attributes":{"OBJECTID":3657,"ولایت":"کابل","Province":"KABUL","PC_Code":"0101251","ولسوالي":"کابل - ناحیه 12","District":"KABUL-D12","د_مرکز_نوم__نام_مرکز":" لیسه بی بی عایشه صدیقه","Polling_Center_Name":"Bi Bi Aisha Sediqa High School","د_مرکز_ځای__موقعیت_مرکز":"احمد شاه بابا مينه","Polling_Center_Location":"Ahmad Shah Baba Mina","Verification_Note":"Building","PS_Male":3,"PS_Female":3,"Map_Accuracy":"تعمیر"},"geometry":{"x":7716483.3578382283,"y":4097779.1446995139}},{"attributes":{"OBJECTID":3658,"ولایت":"کابل","Province":"KABUL","PC_Code":"0101255","ولسوالي":"کابل - ناحیه 12","District":"KABUL-D12","د_مرکز_نوم__نام_مرکز":" مسجد زن آباد ","Polling_Center_Name":"Zan Abad Mosque","د_مرکز_ځای__موقعیت_مرکز":"زن آباد","Polling_Center_Location":"Zan Abad","Verification_Note":"Building","PS_Male":3,"PS_Female":2,"Map_Accuracy":"تعمیر"},"geometry":{"x":7715218.3687858507,"y":4096427.0540672764}},{"attributes":{"OBJECTID":3659,"ولایت":"کابل","Province":"KABUL","PC_Code":"0101497","ولسوالي":"کابل - ناحیه 12","District":"KABUL-D12","د_مرکز_نوم__نام_مرکز":" لیسه عالی محمد موسی شفیق","Polling_Center_Name":"Mohammad Musa Shafiq High School","د_مرکز_ځای__موقعیت_مرکز":"بلاک ۱۲","Polling_Center_Location":"Block 12","Verification_Note":"Building","PS_Male":3,"PS_Female":3,"Map_Accuracy":"تعمیر"},"geometry":{"x":7716899.4200010374,"y":4096588.3952166066}},{"attributes":{"OBJECTID":3660,"ولایت":"کابل","Province":"KABUL","PC_Code":"0101269","ولسوالي":"کابل - ناحیه 13","District":"KABUL-D13","د_مرکز_نوم__نام_مرکز":"مسجد مهدويه","Polling_Center_Name":"Mahdawia Mosque","د_مرکز_ځای__موقعیت_مرکز":"مهتاب قلعه","Polling_Center_Location":"Mahtab Qala","Verification_Note":"Building","PS_Male":2,"PS_Female":2,"Map_Accuracy":"تعمیر"},"geometry":{"x":7691776.5734916255,"y":4096758.5933791697}},{"attributes":{"OBJECTID":3661,"ولایت":"کابل","Province":"KABUL","PC_Code":"0101270","ولسوالي":"کابل - ناحیه 13","District":"KABUL-D13","د_مرکز_نوم__نام_مرکز":"مسجد حسينيه","Polling_Center_Name":"Husainia Mosque","د_مرکز_ځای__موقعیت_مرکز":"ميدان طلوع","Polling_Center_Location":"Maidan Tolo","Verification_Note":"Building","PS_Male":2,"PS_Female":1,"Map_Accuracy":"تعمیر"},"geometry":{"x":7691171.3806271479,"y":4095421.5461448878}},{"attributes":{"OBJECTID":3662,"ولایت":"کابل","Province":"KABUL","PC_Code":"0101274","ولسوالي":"کابل - ناحیه 13","District":"KABUL-D13","د_مرکز_نوم__نام_مرکز":"مسجد بابل حوایج","Polling_Center_Name":"Babul Hawaiej Mosque","د_مرکز_ځای__موقعیت_مرکز":"پل خشک","Polling_Center_Location":"Pul-e-Khushk","Verification_Note":"Building","PS_Male":1,"PS_Female":1,"Map_Accuracy":"تعمیر"},"geometry":{"x":7688002.7347738259,"y":4096504.7505626157}},{"attributes":{"OBJECTID":3663,"ولایت":"کابل","Province":"KABUL","PC_Code":"0101275","ولسوالي":"کابل - ناحیه 13","District":"KABUL-D13","د_مرکز_نوم__نام_مرکز":" مسجد امام باقر","Polling_Center_Name":"Imam Baqer Mosque","د_مرکز_ځای__موقعیت_مرکز":"پل خشک","Polling_Center_Location":"Pul-e-Khushk","Verification_Note":"Building","PS_Male":2,"PS_Female":2,"Map_Accuracy":"تعمیر"},"geometry":{"x":7687885.4997652918,"y":4095489.2123029903}},{"attributes":{"OBJECTID":3664,"ولایت":"کابل","Province":"KABUL","PC_Code":"0101290","ولسوالي":"کابل - ناحیه 15","District":"KABUL-D15","د_مرکز_نوم__نام_مرکز":"مسجد قطيبيه","Polling_Center_Name":"Qatebia Mosque","د_مرکز_ځای__موقعیت_مرکز":"دو جمپه خواجه بغرا","Polling_Center_Location":"Du Jampa-e-Khwaja Bughra","Verification_Note":"Building","PS_Male":3,"PS_Female":2,"Map_Accuracy":"تعمیر"},"geometry":{"x":7699579.1402784847,"y":4107474.2628208473}},{"attributes":{"OBJECTID":3665,"ولایت":"کابل","Province":"KABUL","PC_Code":"0101305","ولسوالي":"کابل - ناحیه 15","District":"KABUL-D15","د_مرکز_نوم__نام_مرکز":" مسجد شاه  اوليا","Polling_Center_Name":"Shah-e-Awlia Mosque","د_مرکز_ځای__موقعیت_مرکز":"پسته کچالو","Polling_Center_Location":"Posta-e-Kachalu","Verification_Note":"Building","PS_Male":2,"PS_Female":1,"Map_Accuracy":"تعمیر"},"geometry":{"x":7698905.5760959536,"y":4108773.2029822394}},{"attributes":{"OBJECTID":3666,"ولایت":"کابل","Province":"KABUL","PC_Code":"0101322","ولسوالي":"کابل - ناحیه 16","District":"KABUL-D16","د_مرکز_نوم__نام_مرکز":"مسجد عثمان غني","Polling_Center_Name":"Usman Ghani Mosque","د_مرکز_ځای__موقعیت_مرکز":"ده خدايداد","Polling_Center_Location":"Deh Khudaidad","Verification_Note":"Village","PS_Male":1,"PS_Female":1,"Map_Accuracy":"قریه"},"geometry":{"x":7706680.67034569,"y":4099196.3082955331}},{"attributes":{"OBJECTID":3667,"ولایت":"کابل","Province":"KABUL","PC_Code":"0101323","ولسوالي":"کابل - ناحیه 16","District":"KABUL-D16","د_مرکز_نوم__نام_مرکز":"تعمیر ناحیه شانزدهم","Polling_Center_Name":"Building of 16th District","د_مرکز_ځای__موقعیت_مرکز":"مکروريان اول","Polling_Center_Location":"First Makroryan","Verification_Note":"Village","PS_Male":2,"PS_Female":1,"Map_Accuracy":"قریه"},"geometry":{"x":7703701.4090024643,"y":4099106.8209587932}},{"attributes":{"OBJECTID":3668,"ولایت":"کابل","Province":"KABUL","PC_Code":"0101506","ولسوالي":"کابل - ناحیه 16","District":"KABUL-D16","د_مرکز_نوم__نام_مرکز":" لیسه نسوان ده خدایداد","Polling_Center_Name":"Deh Khudaidad Girls High School","د_مرکز_ځای__موقعیت_مرکز":"ده خدایداد","Polling_Center_Location":"Deh Khudaidad","Verification_Note":"Building","PS_Male":1,"PS_Female":1,"Map_Accuracy":"تعمیر"},"geometry":{"x":7706344.68808496,"y":4100165.3591024503}},{"attributes":{"OBJECTID":3669,"ولایت":"کابل","Province":"KABUL","PC_Code":"0102398","ولسوالي":"پغمان","District":"PAGHMAN","د_مرکز_نوم__نام_مرکز":" ليسه عبدالله بن عباس","Polling_Center_Name":"Abdullah Ibne Abbas High School","د_مرکز_ځای__موقعیت_مرکز":"الا بالا","Polling_Center_Location":"Ala Bala","Verification_Note":"Village","PS_Male":2,"PS_Female":1,"Map_Accuracy":"قریه"},"geometry":{"x":7681051.0385148451,"y":4109048.7785737514}},{"attributes":{"OBJECTID":3670,"ولایت":"کابل","Province":"KABUL","PC_Code":"0102403","ولسوالي":"پغمان","District":"PAGHMAN","د_مرکز_نوم__نام_مرکز":" مکتب متوسطه عبدالله بن عمر","Polling_Center_Name":"Abdullah Ibne Omer Secondary School ","د_مرکز_ځای__موقعیت_مرکز":"پراچي","Polling_Center_Location":"Parachi","Verification_Note":"Building","PS_Male":1,"PS_Female":1,"Map_Accuracy":"تعمیر"},"geometry":{"x":7675477.1858948208,"y":4108914.14483203}},{"attributes":{"OBJECTID":3671,"ولایت":"کابل","Province":"KABUL","PC_Code":"0102404","ولسوالي":"پغمان","District":"PAGHMAN","د_مرکز_نوم__نام_مرکز":" لیسه چهلتن","Polling_Center_Name":"Cheheltan High School ","د_مرکز_ځای__موقعیت_مرکز":"چهلتن","Polling_Center_Location":"Cheheltan","Verification_Note":"Village","PS_Male":2,"PS_Female":1,"Map_Accuracy":"قریه"},"geometry":{"x":7679850.4667121992,"y":4100137.299265258}},{"attributes":{"OBJECTID":3672,"ولایت":"کابل","Province":"KABUL","PC_Code":"0103419","ولسوالي":"چهار آسیاب","District":"CHAHAR ASYAB","د_مرکز_نوم__نام_مرکز":" مسجد چهل دختران","Polling_Center_Name":"Chehel Dukhtaran Mosque ","د_مرکز_ځای__موقعیت_مرکز":"چل دختران","Polling_Center_Location":"Chel Dukhtaran","Verification_Note":"Village","PS_Male":3,"PS_Female":1,"Map_Accuracy":"قریه"},"geometry":{"x":7694873.9570597224,"y":4079700.3758678362}},{"attributes":{"OBJECTID":3673,"ولایت":"کابل","Province":"KABUL","PC_Code":"0103424","ولسوالي":"چهار آسیاب","District":"CHAHAR ASYAB","د_مرکز_نوم__نام_مرکز":" مسجد الیاس خیل ","Polling_Center_Name":"Elyas Khel Mosque","د_مرکز_ځای__موقعیت_مرکز":"قلعه غفار","Polling_Center_Location":"Qala-e-Ghafar","Verification_Note":"Building","PS_Male":1,"PS_Female":1,"Map_Accuracy":"تعمیر"},"geometry":{"x":7696985.2848235108,"y":4081994.5966022238}},{"attributes":{"OBJECTID":3674,"ولایت":"کابل","Province":"KABUL","PC_Code":"0103425","ولسوالي":"چهار آسیاب","District":"CHAHAR ASYAB","د_مرکز_نوم__نام_مرکز":" ليسه ملالي شهېد","Polling_Center_Name":"Malalai Shaheed High School","د_مرکز_ځای__موقعیت_مرکز":"قلعه نعيم","Polling_Center_Location":"Qala-e-Naim","Verification_Note":"Building","PS_Male":2,"PS_Female":3,"Map_Accuracy":"تعمیر"},"geometry":{"x":7699290.0235233828,"y":4082174.7291765586}},{"attributes":{"OBJECTID":3675,"ولایت":"کابل","Province":"KABUL","PC_Code":"0105463","ولسوالي":"ده سبز","District":"DEHSABZ","د_مرکز_نوم__نام_مرکز":"مکتب ذکور پاچا صاحب","Polling_Center_Name":"Pacha Sahib Boys School","د_مرکز_ځای__موقعیت_مرکز":"پاچا صاحب","Polling_Center_Location":"Pacha Sahib","Verification_Note":"Building","PS_Male":4,"PS_Female":3,"Map_Accuracy":"تعمیر"},"geometry":{"x":7705192.7868334837,"y":4110217.4599200487}},{"attributes":{"OBJECTID":3676,"ولایت":"کابل","Province":"KABUL","PC_Code":"0106391","ولسوالي":"شکردره","District":"SHAKAR DARA","د_مرکز_نوم__نام_مرکز":" ليسه غازه","Polling_Center_Name":"Ghaza High School","د_مرکز_ځای__موقعیت_مرکز":"قریه غازه","Polling_Center_Location":"Ghaza Village","Verification_Note":"Building","PS_Male":2,"PS_Female":2,"Map_Accuracy":"تعمیر"},"geometry":{"x":7682770.73874405,"y":4115552.154200688}},{"attributes":{"OBJECTID":3677,"ولایت":"کابل","Province":"KABUL","PC_Code":"0106392","ولسوالي":"شکردره","District":"SHAKAR DARA","د_مرکز_نوم__نام_مرکز":" مکتب ابتدائيه حاجي پيک","Polling_Center_Name":"Haji Paik Primary School","د_مرکز_ځای__موقعیت_مرکز":"حاجي پيک","Polling_Center_Location":"Haji Paik ","Verification_Note":"Building","PS_Male":3,"PS_Female":2,"Map_Accuracy":"تعمیر"},"geometry":{"x":7690632.8091383278,"y":4120776.44813022}},{"attributes":{"OBJECTID":3678,"ولایت":"کابل","Province":"KABUL","PC_Code":"0106396","ولسوالي":"شکردره","District":"SHAKAR DARA","د_مرکز_نوم__نام_مرکز":"ليسه حضرت عثمان","Polling_Center_Name":"Hazrat-e-Usman High School","د_مرکز_ځای__موقعیت_مرکز":"کاريز مير پايان","Polling_Center_Location":"Karez Mir-e-Payan","Verification_Note":"Building","PS_Male":4,"PS_Female":1,"Map_Accuracy":"تعمیر"},"geometry":{"x":7687551.6815554723,"y":4114657.0568001866}},{"attributes":{"OBJECTID":3679,"ولایت":"کابل","Province":"KABUL","PC_Code":"0106397","ولسوالي":"شکردره","District":"SHAKAR DARA","د_مرکز_نوم__نام_مرکز":" ليسه شکردره","Polling_Center_Name":"Shakar Dara High School","د_مرکز_ځای__موقعیت_مرکز":"شاه مردان","Polling_Center_Location":"Shah-e-Mardan ","Verification_Note":"Building","PS_Male":4,"PS_Female":3,"Map_Accuracy":"تعمیر"},"geometry":{"x":7684992.162597429,"y":4120680.5480775312}},{"attributes":{"OBJECTID":3680,"ولایت":"کابل","Province":"KABUL","PC_Code":"0108339","ولسوالي":"میر بچه کوت","District":"MIR BACHA KOT","د_مرکز_نوم__نام_مرکز":"مکتب متوسطه دکو","Polling_Center_Name":"Dako Secondary School","د_مرکز_ځای__موقعیت_مرکز":"مرکز دکو","Polling_Center_Location":"Markaz-e-Dako","Verification_Note":"Building","PS_Male":2,"PS_Female":1,"Map_Accuracy":"تعمیر"},"geometry":{"x":7691825.9136295244,"y":4126934.3860184625}},{"attributes":{"OBJECTID":3681,"ولایت":"کابل","Province":"KABUL","PC_Code":"0108344","ولسوالي":"میر بچه کوت","District":"MIR BACHA KOT","د_مرکز_نوم__نام_مرکز":"مکتب دشت","Polling_Center_Name":"Dasht School","د_مرکز_ځای__موقعیت_مرکز":"قريه مرزا خيل","Polling_Center_Location":"Mirza Khel Village","Verification_Note":"Village","PS_Male":2,"PS_Female":1,"Map_Accuracy":"قریه"},"geometry":{"x":7694556.8835277073,"y":4131820.7312915772}},{"attributes":{"OBJECTID":3682,"ولایت":"کابل","Province":"KABUL","PC_Code":"0111382","ولسوالي":"گلدره","District":"GULDARA","د_مرکز_نوم__نام_مرکز":" مسجد گدره","Polling_Center_Name":"Gudara Mosque","د_مرکز_ځای__موقعیت_مرکز":"قريه گدره","Polling_Center_Location":"Gudra Village","Verification_Note":"Building","PS_Male":2,"PS_Female":1,"Map_Accuracy":"تعمیر"},"geometry":{"x":7683710.529054787,"y":4129394.4331179261}},{"attributes":{"OBJECTID":3683,"ولایت":"کابل","Province":"KABUL","PC_Code":"0112346","ولسوالي":"فرزه","District":"FARZA","د_مرکز_نوم__نام_مرکز":" مسجد حسن خيل","Polling_Center_Name":"Hasan Khel Mosque","د_مرکز_ځای__موقعیت_مرکز":"حسن خيل","Polling_Center_Location":"Hasan Khel","Verification_Note":"Building","PS_Male":2,"PS_Female":1,"Map_Accuracy":"تعمیر"},"geometry":{"x":7688850.8868797384,"y":4134502.1469499767}},{"attributes":{"OBJECTID":3684,"ولایت":"کابل","Province":"KABUL","PC_Code":"0114363","ولسوالي":"قره باغ","District":"QARA BAGH","د_مرکز_نوم__نام_مرکز":" لیسه باغ علم","Polling_Center_Name":"Bagh-e-Alam High School","د_مرکز_ځای__موقعیت_مرکز":"باغ علم","Polling_Center_Location":"Bagh-e-Alam","Verification_Note":"Building","PS_Male":2,"PS_Female":1,"Map_Accuracy":"تعمیر"},"geometry":{"x":7705771.5574602261,"y":4147324.9388462678}},{"attributes":{"OBJECTID":3685,"ولایت":"کابل","Province":"KABUL","PC_Code":"0114364","ولسوالي":"قره باغ","District":"QARA BAGH","د_مرکز_نوم__نام_مرکز":"مسجد جامع چاونی","Polling_Center_Name":"Chawni Mosque","د_مرکز_ځای__موقعیت_مرکز":"چاوني","Polling_Center_Location":"Chawni","Verification_Note":"Village","PS_Male":3,"PS_Female":2,"Map_Accuracy":"قریه"},"geometry":{"x":7707895.0535575487,"y":4147896.8784906715}},{"attributes":{"OBJECTID":3686,"ولایت":"کابل","Province":"KABUL","PC_Code":"0115487","ولسوالي":"سروبی","District":"SURUBI","د_مرکز_نوم__نام_مرکز":"مسجد گاز عليا","Polling_Center_Name":"Gaz-e-Ulya Mosque","د_مرکز_ځای__موقعیت_مرکز":"وزبين، گاز علیا","Polling_Center_Location":"Gaz-e-Ulya, Wazbin","Verification_Note":"Building","PS_Male":2,"PS_Female":3,"Map_Accuracy":"تعمیر"},"geometry":{"x":7774903.1553500071,"y":4133378.8325952291}},{"attributes":{"OBJECTID":3687,"ولایت":"کابل","Province":"KABUL","PC_Code":"0115515","ولسوالي":"سروبی","District":"SURUBI","د_مرکز_نوم__نام_مرکز":"مسجد شیر خان کچ","Polling_Center_Name":"Sher Khan Kach Mosque","د_مرکز_ځای__موقعیت_مرکز":"شیرخان کچ","Polling_Center_Location":"Sher Khan Kech","Verification_Note":"Building","PS_Male":1,"PS_Female":1,"Map_Accuracy":"تعمیر"},"geometry":{"x":7754070.6722220592,"y":4109332.9388365373}},{"attributes":{"OBJECTID":3688,"ولایت":"کاپيسا","Province":"KAPISA","PC_Code":"0201017","ولسوالي":"محمود راقی ","District":"MAHMUDI RAQI","د_مرکز_نوم__نام_مرکز":"منزل رئیس دادا ","Polling_Center_Name":"Raees Dada House","د_مرکز_ځای__موقعیت_مرکز":"زراعت ","Polling_Center_Location":"Zaraut","Verification_Note":"Building","PS_Male":1,"PS_Female":2,"Map_Accuracy":"تعمیر"},"geometry":{"x":7723502.9044400454,"y":4165991.6503274888}},{"attributes":{"OBJECTID":3689,"ولایت":"کاپيسا","Province":"KAPISA","PC_Code":"0201018","ولسوالي":"محمود راقی ","District":"MAHMUDI RAQI","د_مرکز_نوم__نام_مرکز":"منزل عزیزالرحمن ","Polling_Center_Name":"Azizurahman House ","د_مرکز_ځای__موقعیت_مرکز":"قروتک ","Polling_Center_Location":"Qorotak","Verification_Note":"Building","PS_Male":1,"PS_Female":2,"Map_Accuracy":"تعمیر"},"geometry":{"x":7719807.4556831494,"y":4168908.3857006282}},{"attributes":{"OBJECTID":3690,"ولایت":"کاپيسا","Province":"KAPISA","PC_Code":"0202021","ولسوالي":"حصه دوم کوهستان","District":"HISSA-E-DUWUMI KOHISTAN","د_مرکز_نوم__نام_مرکز":"منزل ضابط ستار","Polling_Center_Name":"Zabit Sattar House ","د_مرکز_ځای__موقعیت_مرکز":"جمال آغه پایین ","Polling_Center_Location":"Jamal Agha Payen","Verification_Note":"Building","PS_Male":2,"PS_Female":2,"Map_Accuracy":"تعمیر"},"geometry":{"x":7713758.92462055,"y":4171625.0252567083}},{"attributes":{"OBJECTID":3691,"ولایت":"کاپيسا","Province":"KAPISA","PC_Code":"0202022","ولسوالي":"حصه دوم کوهستان","District":"HISSA-E-DUWUMI KOHISTAN","د_مرکز_نوم__نام_مرکز":"مکتب ابتدائیه عنایت الله ","Polling_Center_Name":"Enayatullah Shaheed Primary School","د_مرکز_ځای__موقعیت_مرکز":"قزاق ","Polling_Center_Location":"Qazaq","Verification_Note":"Building","PS_Male":2,"PS_Female":1,"Map_Accuracy":"تعمیر"},"geometry":{"x":7718916.60709786,"y":4174635.6973288953}},{"attributes":{"OBJECTID":3692,"ولایت":"کاپيسا","Province":"KAPISA","PC_Code":"0204027","ولسوالي":"حصه اول کوهستان ","District":"HISSA-E-AWALI KOHISTAN","د_مرکز_نوم__نام_مرکز":"لیسه میرمسجدی خان ","Polling_Center_Name":"Mer Masjidi Khan High School","د_مرکز_ځای__موقعیت_مرکز":"اشترگرام ","Polling_Center_Location":"Ashtar Geram","Verification_Note":"Building","PS_Male":3,"PS_Female":2,"Map_Accuracy":"تعمیر"},"geometry":{"x":7714342.6439552568,"y":4177378.7668885216}},{"attributes":{"OBJECTID":3693,"ولایت":"کاپيسا","Province":"KAPISA","PC_Code":"0204031","ولسوالي":"حصه اول کوهستان ","District":"HISSA-E-AWALI KOHISTAN","د_مرکز_نوم__نام_مرکز":"مکتب متوسطه جلدک","Polling_Center_Name":"Jaldak Secondary School","د_مرکز_ځای__موقعیت_مرکز":"قریه جلدک ","Polling_Center_Location":"Jaldak Village","Verification_Note":"Building","PS_Male":3,"PS_Female":2,"Map_Accuracy":"تعمیر"},"geometry":{"x":7715921.0452416055,"y":4177630.4123285562}},{"attributes":{"OBJECTID":3694,"ولایت":"کاپيسا","Province":"KAPISA","PC_Code":"0204032","ولسوالي":"حصه اول کوهستان ","District":"HISSA-E-AWALI KOHISTAN","د_مرکز_نوم__نام_مرکز":"لیسه ایزدیار شهید","Polling_Center_Name":"Ezed Yar Shaheed High School","د_مرکز_ځای__موقعیت_مرکز":"توغک ","Polling_Center_Location":"Tughak ","Verification_Note":"Building","PS_Male":3,"PS_Female":2,"Map_Accuracy":"تعمیر"},"geometry":{"x":7714067.1159703992,"y":4174858.1877101138}},{"attributes":{"OBJECTID":3695,"ولایت":"کاپيسا","Province":"KAPISA","PC_Code":"0205056","ولسوالي":"نجراب ","District":"NIJRAB","د_مرکز_نوم__نام_مرکز":"لیسه عبدالغفار شهید ","Polling_Center_Name":"Abdul Ghafar Shaheed High School ","د_مرکز_ځای__موقعیت_مرکز":"اسکینی دره پته ","Polling_Center_Location":"Eskini Dara-e-Pata","Verification_Note":"Building","PS_Male":2,"PS_Female":1,"Map_Accuracy":"تعمیر"},"geometry":{"x":7758078.9664853923,"y":4172229.9149590433}},{"attributes":{"OBJECTID":3696,"ولایت":"کاپيسا","Province":"KAPISA","PC_Code":"0205057","ولسوالي":"نجراب ","District":"NIJRAB","د_مرکز_نوم__نام_مرکز":"لیسه ذکور تاجکان ","Polling_Center_Name":"Tajikan Boys High School ","د_مرکز_ځای__موقعیت_مرکز":"تاجکان دره پته ","Polling_Center_Location":"Tajikan Dara-e-Pata","Verification_Note":"Building","PS_Male":1,"PS_Female":1,"Map_Accuracy":"تعمیر"},"geometry":{"x":7755009.5875615925,"y":4170731.0064231008}},{"attributes":{"OBJECTID":3697,"ولایت":"کاپيسا","Province":"KAPISA","PC_Code":"0206080","ولسوالي":"تگاب ","District":"TAGAB","د_مرکز_نوم__نام_مرکز":"مسجد تتر خیل","Polling_Center_Name":"Tater Khel Mosque","د_مرکز_ځای__موقعیت_مرکز":" تتر خیل","Polling_Center_Location":"Tater Khel","Verification_Note":"Village","PS_Male":2,"PS_Female":1,"Map_Accuracy":"قریه"},"geometry":{"x":7755875.5518992357,"y":4147568.9792690203}},{"attributes":{"OBJECTID":3698,"ولایت":"کاپيسا","Province":"KAPISA","PC_Code":"0206081","ولسوالي":"تگاب ","District":"TAGAB","د_مرکز_نوم__نام_مرکز":"مسجد کلان","Polling_Center_Name":"Masjid Kalan ","د_مرکز_ځای__موقعیت_مرکز":"قلعه صالح","Polling_Center_Location":"Qala-e-Saleh","Verification_Note":"Village","PS_Male":2,"PS_Female":1,"Map_Accuracy":"قریه"},"geometry":{"x":7752132.363890022,"y":4149901.0257732198}},{"attributes":{"OBJECTID":3699,"ولایت":"کاپيسا","Province":"KAPISA","PC_Code":"0206085","ولسوالي":"تگاب ","District":"TAGAB","د_مرکز_نوم__نام_مرکز":"متوسطه شهید سلیم","Polling_Center_Name":"Shaheed Salam Secondary School","د_مرکز_ځای__موقعیت_مرکز":" لندا خیل","Polling_Center_Location":"Landa Khel","Verification_Note":"Building","PS_Male":2,"PS_Female":1,"Map_Accuracy":"تعمیر"},"geometry":{"x":7750255.9603268243,"y":4154803.5228968859}},{"attributes":{"OBJECTID":3700,"ولایت":"کاپيسا","Province":"KAPISA","PC_Code":"0207109","ولسوالي":"اله سای ","District":"ALASAY","د_مرکز_نوم__نام_مرکز":"لیسه حیات الله شهید ( کوچی)","Polling_Center_Name":"Hayatullah Shaheed High School (Kuchi)","د_مرکز_ځای__موقعیت_مرکز":"مرکز اله سای ","Polling_Center_Location":"Alasay Center","Verification_Note":"Village","PS_Male":2,"PS_Female":1,"Map_Accuracy":"قریه"},"geometry":{"x":7761096.8512391336,"y":4149295.3143314123}},{"attributes":{"OBJECTID":3701,"ولایت":"پروان","Province":"PARWAN","PC_Code":"0301001","ولسوالي":"چاریکار","District":"CHARIKAR","د_مرکز_نوم__نام_مرکز":"لیسه نعمان","Polling_Center_Name":"Noman High School ","د_مرکز_ځای__موقعیت_مرکز":"چاریکار","Polling_Center_Location":"Charikar","Verification_Note":"Building","PS_Male":3,"PS_Female":2,"Map_Accuracy":"تعمیر"},"geometry":{"x":7700586.012827564,"y":4166103.2902629673}},{"attributes":{"OBJECTID":3702,"ولایت":"پروان","Province":"PARWAN","PC_Code":"0301016","ولسوالي":"چاریکار","District":"CHARIKAR","د_مرکز_نوم__نام_مرکز":"لیسه دادو ","Polling_Center_Name":"Dado High School","د_مرکز_ځای__موقعیت_مرکز":"سعدالله","Polling_Center_Location":"Saudullah","Verification_Note":"Building","PS_Male":2,"PS_Female":1,"Map_Accuracy":"تعمیر"},"geometry":{"x":7705889.493781548,"y":4171449.8841597587}},{"attributes":{"OBJECTID":3703,"ولایت":"پروان","Province":"PARWAN","PC_Code":"0301017","ولسوالي":"چاریکار","District":"CHARIKAR","د_مرکز_نوم__نام_مرکز":"مکتب متوسطه خواجه سیاران علیا","Polling_Center_Name":"Khwaja Sayaran Ulya School","د_مرکز_ځای__موقعیت_مرکز":"خواجه سیاران علیا","Polling_Center_Location":"Khwaja Sayaran Ulya","Verification_Note":"Building","PS_Male":1,"PS_Female":1,"Map_Accuracy":"تعمیر"},"geometry":{"x":7697311.9963970445,"y":4165135.2794364989}},{"attributes":{"OBJECTID":3704,"ولایت":"پروان","Province":"PARWAN","PC_Code":"0302100","ولسوالي":"بگرام ","District":"BAGRAM","د_مرکز_نوم__نام_مرکز":"لیسه شفق شهید ","Polling_Center_Name":"Shafaq Shaheed High School","د_مرکز_ځای__موقعیت_مرکز":"مرکز والسوالی ","Polling_Center_Location":"District Compound","Verification_Note":"Building","PS_Male":3,"PS_Female":1,"Map_Accuracy":"تعمیر"},"geometry":{"x":7706322.6423730031,"y":4158682.3446900249}},{"attributes":{"OBJECTID":3705,"ولایت":"پروان","Province":"PARWAN","PC_Code":"0302101","ولسوالي":"بگرام ","District":"BAGRAM","د_مرکز_نوم__نام_مرکز":"لیسه ابوذر غفاری ","Polling_Center_Name":"Abu Zar Ghafari High School","د_مرکز_ځای__موقعیت_مرکز":"رباط","Polling_Center_Location":"Rabat","Verification_Note":"Building","PS_Male":2,"PS_Female":2,"Map_Accuracy":"تعمیر"},"geometry":{"x":7700723.0582526773,"y":4152244.3173380271}},{"attributes":{"OBJECTID":3706,"ولایت":"پروان","Province":"PARWAN","PC_Code":"0303076","ولسوالي":"شینواری ","District":"SHINWARI","د_مرکز_نوم__نام_مرکز":"مدرسه دراز گرد","Polling_Center_Name":"Daraz Gird Madrassa","د_مرکز_ځای__موقعیت_مرکز":"دراز گرد","Polling_Center_Location":"Daraz Gird","Verification_Note":"Building","PS_Male":2,"PS_Female":1,"Map_Accuracy":"تعمیر"},"geometry":{"x":7670590.1166468523,"y":4165268.2232627422}},{"attributes":{"OBJECTID":3707,"ولایت":"پروان","Province":"PARWAN","PC_Code":"0303077","ولسوالي":"شینواری ","District":"SHINWARI","د_مرکز_نوم__نام_مرکز":"لیسه عبدالستار شهید","Polling_Center_Name":"Abdul Sattar Shaheed High School","د_مرکز_ځای__موقعیت_مرکز":"باغ افغان ","Polling_Center_Location":"Bagh-e-Afghan","Verification_Note":"Building","PS_Male":1,"PS_Female":1,"Map_Accuracy":"تعمیر"},"geometry":{"x":7692696.2750870511,"y":4173956.6559334993}},{"attributes":{"OBJECTID":3708,"ولایت":"پروان","Province":"PARWAN","PC_Code":"0304047","ولسوالي":"سیدخیل ","District":"SAYID KHIAL","د_مرکز_نوم__نام_مرکز":"مسجد انچو","Polling_Center_Name":"Ancho Mosque","د_مرکز_ځای__موقعیت_مرکز":"قلعه پستک ","Polling_Center_Location":"Qala-e-Pastak ","Verification_Note":"Building","PS_Male":3,"PS_Female":2,"Map_Accuracy":"تعمیر"},"geometry":{"x":7713784.5448013581,"y":4164682.5815877765}},{"attributes":{"OBJECTID":3709,"ولایت":"پروان","Province":"PARWAN","PC_Code":"0307082","ولسوالي":"سیاه گرد غوربند","District":"SYAHGIRDI GHORBAND","د_مرکز_نوم__نام_مرکز":"لیسه حضرت علی","Polling_Center_Name":"Hazrat Ali High School","د_مرکز_ځای__موقعیت_مرکز":"سیاه گرد","Polling_Center_Location":"Seya Gird Bazar","Verification_Note":"Building","PS_Male":2,"PS_Female":1,"Map_Accuracy":"تعمیر"},"geometry":{"x":7665158.7663333789,"y":4163567.7682141662}},{"attributes":{"OBJECTID":3710,"ولایت":"پروان","Province":"PARWAN","PC_Code":"0308145","ولسوالي":"کوه صافی","District":"KOHI SAFI","د_مرکز_نوم__نام_مرکز":"مسجد سیاه سنگ","Polling_Center_Name":"Seya Sang Mosque","د_مرکز_ځای__موقعیت_مرکز":"سیاه سنگ ","Polling_Center_Location":"Seya Sang ","Verification_Note":"Building","PS_Male":2,"PS_Female":1,"Map_Accuracy":"تعمیر"},"geometry":{"x":7733879.7611681819,"y":4135531.1422560364}},{"attributes":{"OBJECTID":3711,"ولایت":"پروان","Province":"PARWAN","PC_Code":"0310126","ولسوالي":"شیخ علی ","District":"SHAYKH ALI","د_مرکز_نوم__نام_مرکز":"لیسه نوی","Polling_Center_Name":"Navi High School","د_مرکز_ځای__موقعیت_مرکز":"نوی","Polling_Center_Location":"Nevy","Verification_Note":"Building","PS_Male":1,"PS_Female":1,"Map_Accuracy":"تعمیر"},"geometry":{"x":7626757.1721382886,"y":4156578.6662252173}},{"attributes":{"OBJECTID":3712,"ولایت":"پروان","Province":"PARWAN","PC_Code":"0310127","ولسوالي":"شیخ علی ","District":"SHAYKH ALI","د_مرکز_نوم__نام_مرکز":"ممبر پاواز ","Polling_Center_Name":"Membar-e-Pawaz","د_مرکز_ځای__موقعیت_مرکز":"پاواز بالا","Polling_Center_Location":"Pawaz Bala ","Verification_Note":"Building","PS_Male":1,"PS_Female":1,"Map_Accuracy":"تعمیر"},"geometry":{"x":7634608.3232037164,"y":4150110.9570671245}},{"attributes":{"OBJECTID":3713,"ولایت":"وردک","Province":"WARDAK","PC_Code":"0401011","ولسوالي":"میدان شهر","District":"MAYDAN SHAHR","د_مرکز_نوم__نام_مرکز":"فامیلی کورونه","Polling_Center_Name":"Family Houses","د_مرکز_ځای__موقعیت_مرکز":"فامیلی کوچیانو کلی","Polling_Center_Location":"Family Kuchian Kalai","Verification_Note":"Village","PS_Male":2,"PS_Female":2,"Map_Accuracy":"قریه"},"geometry":{"x":7664685.7586850449,"y":4080754.9836591333}},{"attributes":{"OBJECTID":3714,"ولایت":"وردک","Province":"WARDAK","PC_Code":"0403015","ولسوالي":"جلریز","District":"JALREZ","د_مرکز_نوم__نام_مرکز":"متوسطه اسماعیل خیل","Polling_Center_Name":"Ismaiel Khel Secondary School","د_مرکز_ځای__موقعیت_مرکز":"اسماعیل خیل","Polling_Center_Location":"Ismaiel Khel","Verification_Note":"Building","PS_Male":2,"PS_Female":1,"Map_Accuracy":"تعمیر"},"geometry":{"x":7649179.2975947633,"y":4091440.8851390481}},{"attributes":{"OBJECTID":3715,"ولایت":"وردک","Province":"WARDAK","PC_Code":"0403016","ولسوالي":"جلریز","District":"JALREZ","د_مرکز_نوم__نام_مرکز":"مکتب میراحمدشاه","Polling_Center_Name":"Mir Ahmad Shah School","د_مرکز_ځای__موقعیت_مرکز":"قلعه شاه","Polling_Center_Location":"Qala-e-Shah ","Verification_Note":"Building","PS_Male":2,"PS_Female":1,"Map_Accuracy":"تعمیر"},"geometry":{"x":7642038.2836173847,"y":4099676.1299351975}},{"attributes":{"OBJECTID":3716,"ولایت":"وردک","Province":"WARDAK","PC_Code":"0403020","ولسوالي":"جلریز","District":"JALREZ","د_مرکز_نوم__نام_مرکز":"لیسه عالی امام محمد باقر (ع)","Polling_Center_Name":"Imam-e-Mohammad Baqir High School","د_مرکز_ځای__موقعیت_مرکز":"قلعه اسلم","Polling_Center_Location":"Qala-e-Aslam","Verification_Note":"Building","PS_Male":2,"PS_Female":1,"Map_Accuracy":"تعمیر"},"geometry":{"x":7627293.6207644232,"y":4087261.944565475}},{"attributes":{"OBJECTID":3717,"ولایت":"وردک","Province":"WARDAK","PC_Code":"0403021","ولسوالي":"جلریز","District":"JALREZ","د_مرکز_نوم__نام_مرکز":"لیسه شهید یعقوبی","Polling_Center_Name":"Shaheed Yaqubi High School","د_مرکز_ځای__موقعیت_مرکز":"سیاه خاک","Polling_Center_Location":"Sia Khak","Verification_Note":"Building","PS_Male":2,"PS_Female":1,"Map_Accuracy":"تعمیر"},"geometry":{"x":7623207.90602164,"y":4086486.7594288662}},{"attributes":{"OBJECTID":3718,"ولایت":"وردک","Province":"WARDAK","PC_Code":"0404094","ولسوالي":"چک وردک","District":"CHAKI WARDAK","د_مرکز_نوم__نام_مرکز":"مسجد قریه شکرداد","Polling_Center_Name":"Shuker Dad Village Mosque","د_مرکز_ځای__موقعیت_مرکز":"قریه شکرداد","Polling_Center_Location":"Shakardad Village","Verification_Note":"Village","PS_Male":1,"PS_Female":1,"Map_Accuracy":"قریه"},"geometry":{"x":7620073.3061213754,"y":4042541.1808007658}},{"attributes":{"OBJECTID":3719,"ولایت":"وردک","Province":"WARDAK","PC_Code":"0404099","ولسوالي":"چک وردک","District":"CHAKI WARDAK","د_مرکز_نوم__نام_مرکز":"مسجد قریه زرکک","Polling_Center_Name":"Zarkak Village Mosque","د_مرکز_ځای__موقعیت_مرکز":"قریه گوده زرکک","Polling_Center_Location":"Goda (Zakak) Village","Verification_Note":"Village","PS_Male":1,"PS_Female":1,"Map_Accuracy":"قریه"},"geometry":{"x":7625209.0597721934,"y":4057358.2063701078}},{"attributes":{"OBJECTID":3720,"ولایت":"وردک","Province":"WARDAK","PC_Code":"0404100","ولسوالي":"چک وردک","District":"CHAKI WARDAK","د_مرکز_نوم__نام_مرکز":"منزل قاضی علم گل","Polling_Center_Name":"Qazi Alam Gul House","د_مرکز_ځای__موقعیت_مرکز":"قریه کراکت","Polling_Center_Location":"Kerakat Village","Verification_Note":"Village","PS_Male":2,"PS_Female":1,"Map_Accuracy":"قریه"},"geometry":{"x":7606549.2381078787,"y":4027059.1818449646}},{"attributes":{"OBJECTID":3721,"ولایت":"وردک","Province":"WARDAK","PC_Code":"0405115","ولسوالي":"سید آباد","District":"SAYYD ABAD","د_مرکز_نوم__نام_مرکز":"مکتب زهین خان خیل","Polling_Center_Name":"Zahen Khan Khel School","د_مرکز_ځای__موقعیت_مرکز":"زهین خان خیل","Polling_Center_Location":"Zahen Khan Khel","Verification_Note":"Village","PS_Male":1,"PS_Female":1,"Map_Accuracy":"قریه"},"geometry":{"x":7651827.5159230717,"y":4043027.2100754678}},{"attributes":{"OBJECTID":3722,"ولایت":"وردک","Province":"WARDAK","PC_Code":"0405116","ولسوالي":"سید آباد","District":"SAYYD ABAD","د_مرکز_نوم__نام_مرکز":"مکتب اوتړی","Polling_Center_Name":"Otary School","د_مرکز_ځای__موقعیت_مرکز":"اوتړی","Polling_Center_Location":"Otarri","Verification_Note":"Village","PS_Male":1,"PS_Female":1,"Map_Accuracy":"قریه"},"geometry":{"x":7638955.3994129635,"y":4010505.8474088609}},{"attributes":{"OBJECTID":3723,"ولایت":"وردک","Province":"WARDAK","PC_Code":"0405120","ولسوالي":"سید آباد","District":"SAYYD ABAD","د_مرکز_نوم__نام_مرکز":"خیمه درداخل قریه الف خیل","Polling_Center_Name":"Tent in Alif Khel Village","د_مرکز_ځای__موقعیت_مرکز":"الف خیل-چینارخیل","Polling_Center_Location":"Alif Khel-Chinar Khel","Verification_Note":"Village","PS_Male":1,"PS_Female":1,"Map_Accuracy":"قریه"},"geometry":{"x":7636495.3934005238,"y":4024199.4309078306}},{"attributes":{"OBJECTID":3724,"ولایت":"وردک","Province":"WARDAK","PC_Code":"0405138","ولسوالي":"سید آباد","District":"SAYYD ABAD","د_مرکز_نوم__نام_مرکز":"خیمه و خانه شخصی در قریه سنداور ","Polling_Center_Name":"Tent and Private House","د_مرکز_ځای__موقعیت_مرکز":"سنداور","Polling_Center_Location":"Sandawar","Verification_Note":"Village","PS_Male":2,"PS_Female":1,"Map_Accuracy":"قریه"},"geometry":{"x":7629764.6340481117,"y":4003423.2261207104}},{"attributes":{"OBJECTID":3725,"ولایت":"وردک","Province":"WARDAK","PC_Code":"0405139","ولسوالي":"سید آباد","District":"SAYYD ABAD","د_مرکز_نوم__نام_مرکز":"مکتب امام محمد","Polling_Center_Name":"Imam-e-Mohammad School","د_مرکز_ځای__موقعیت_مرکز":"دوآب","Polling_Center_Location":"Du Aab","Verification_Note":"Village","PS_Male":2,"PS_Female":1,"Map_Accuracy":"قریه"},"geometry":{"x":7654633.6019872464,"y":4034129.1066530645}},{"attributes":{"OBJECTID":3726,"ولایت":"وردک","Province":"WARDAK","PC_Code":"0406064","ولسوالي":"دایمیرداد","District":"DAYMIRDAD","د_مرکز_نوم__نام_مرکز":"مکتب للندر","Polling_Center_Name":"Lalanar School","د_مرکز_ځای__موقعیت_مرکز":"للندر","Polling_Center_Location":"Lalandar","Verification_Note":"Building","PS_Male":2,"PS_Female":1,"Map_Accuracy":"تعمیر"},"geometry":{"x":7598874.6130381711,"y":4052201.0883139297}},{"attributes":{"OBJECTID":3727,"ولایت":"وردک","Province":"WARDAK","PC_Code":"0406065","ولسوالي":"دایمیرداد","District":"DAYMIRDAD","د_مرکز_نوم__نام_مرکز":"خانه شخصی","Polling_Center_Name":"Private House","د_مرکز_ځای__موقعیت_مرکز":"پره قلعه","Polling_Center_Location":"Para Qala","Verification_Note":"Village","PS_Male":1,"PS_Female":1,"Map_Accuracy":"قریه"},"geometry":{"x":7595145.3911722861,"y":4044256.1372328475}},{"attributes":{"OBJECTID":3728,"ولایت":"وردک","Province":"WARDAK","PC_Code":"0407033","ولسوالي":"حصه اول بهسود","District":"HISSA-E-AWALI BIHSUD","د_مرکز_نوم__نام_مرکز":"مسجد قریه پائین نقط","Polling_Center_Name":"Payen Nuqat Mosque","د_مرکز_ځای__موقعیت_مرکز":"قریه پائین نقط","Polling_Center_Location":"Paien Nuqat Village","Verification_Note":"Building","PS_Male":1,"PS_Female":1,"Map_Accuracy":"تعمیر"},"geometry":{"x":7596370.3742260709,"y":4086021.6409851983}},{"attributes":{"OBJECTID":3729,"ولایت":"وردک","Province":"WARDAK","PC_Code":"0408076","ولسوالي":"جغتو","District":"JAGHATU","د_مرکز_نوم__نام_مرکز":"کلینیک کلانده","Polling_Center_Name":"Kalandeh Clinic","د_مرکز_ځای__موقعیت_مرکز":"کلانده","Polling_Center_Location":"Kalandeh","Verification_Note":"Building","PS_Male":2,"PS_Female":1,"Map_Accuracy":"تعمیر"},"geometry":{"x":7614022.613122955,"y":4004842.3043082058}},{"attributes":{"OBJECTID":3730,"ولایت":"وردک","Province":"WARDAK","PC_Code":"0409049","ولسوالي":"مرکز بهسود","District":"MARKAZ-E-BEHSUD","د_مرکز_نوم__نام_مرکز":"دشت قلعه جریخانه ","Polling_Center_Name":"Dasht-e-Qala Jarikhana","د_مرکز_ځای__موقعیت_مرکز":"دشت قلعه","Polling_Center_Location":"Dasht Qala","Verification_Note":"Building","PS_Male":1,"PS_Female":1,"Map_Accuracy":"تعمیر"},"geometry":{"x":7516502.6092349365,"y":4109626.4620400146}},{"attributes":{"OBJECTID":3731,"ولایت":"لوگر","Province":"LOGAR","PC_Code":"0501002","ولسوالي":"پل علم","District":"PULI ALAM","د_مرکز_نوم__نام_مرکز":"ليسه جهادى کلنگار","Polling_Center_Name":"Kolangar Jehadi High School","د_مرکز_ځای__موقعیت_مرکز":"کلنگار","Polling_Center_Location":"Kalangar","Verification_Note":"Building","PS_Male":6,"PS_Female":3,"Map_Accuracy":"تعمیر"},"geometry":{"x":7683026.8080819137,"y":4034951.167309463}},{"attributes":{"OBJECTID":3732,"ولایت":"لوگر","Province":"LOGAR","PC_Code":"0501007","ولسوالي":"پل علم","District":"PULI ALAM","د_مرکز_نوم__نام_مرکز":"مکتب متوسطه حصارک","Polling_Center_Name":"Hesarak Secondary School","د_مرکز_ځای__موقعیت_مرکز":"حصارک","Polling_Center_Location":"Hesarak","Verification_Note":"Building","PS_Male":3,"PS_Female":3,"Map_Accuracy":"تعمیر"},"geometry":{"x":7685111.7664847262,"y":4028837.7864596918}},{"attributes":{"OBJECTID":3733,"ولایت":"لوگر","Province":"LOGAR","PC_Code":"0502024","ولسوالي":"برکی برک","District":"BARAKI BARAK","د_مرکز_نوم__نام_مرکز":"زیارت شاه صامت پیر یخ پوش","Polling_Center_Name":"Ziarat-e-Shah Samit Per Yakh Posh","د_مرکز_ځای__موقعیت_مرکز":"قلعه بابى","Polling_Center_Location":"Qala Babi","Verification_Note":"Building","PS_Male":1,"PS_Female":1,"Map_Accuracy":"تعمیر"},"geometry":{"x":7677268.5046316162,"y":4020857.5637086108}},{"attributes":{"OBJECTID":3734,"ولایت":"لوگر","Province":"LOGAR","PC_Code":"0502029","ولسوالي":"برکی برک","District":"BARAKI BARAK","د_مرکز_نوم__نام_مرکز":"مکتب متوسطه تگاب","Polling_Center_Name":"Tagab Secondary School","د_مرکز_ځای__موقعیت_مرکز":"تگاب","Polling_Center_Location":"Tagab","Verification_Note":"Building","PS_Male":1,"PS_Female":1,"Map_Accuracy":"تعمیر"},"geometry":{"x":7664946.5969498977,"y":4026686.745604068}},{"attributes":{"OBJECTID":3735,"ولایت":"لوگر","Province":"LOGAR","PC_Code":"0504046","ولسوالي":"خوشی","District":"KHUSHI","د_مرکز_نوم__نام_مرکز":"ليسه خوشى و مکتب ميانه ده اناث","Polling_Center_Name":"Khoshi High School & Mian Deh Girls School","د_مرکز_ځای__موقعیت_مرکز":"ميان ده","Polling_Center_Location":"Mian Deh","Verification_Note":"Building","PS_Male":5,"PS_Female":3,"Map_Accuracy":"تعمیر"},"geometry":{"x":7702578.8922003731,"y":4030153.3601673767}},{"attributes":{"OBJECTID":3736,"ولایت":"لوگر","Province":"LOGAR","PC_Code":"0504047","ولسوالي":"خوشی","District":"KHUSHI","د_مرکز_نوم__نام_مرکز":"مکتب کاريزونه","Polling_Center_Name":"Karezona School","د_مرکز_ځای__موقعیت_مرکز":"کاريزونه","Polling_Center_Location":"Karizona","Verification_Note":"Building","PS_Male":2,"PS_Female":1,"Map_Accuracy":"تعمیر"},"geometry":{"x":7708244.81605804,"y":4033884.7223324478}},{"attributes":{"OBJECTID":3737,"ولایت":"لوگر","Province":"LOGAR","PC_Code":"0505051","ولسوالي":"محمد آغه","District":"MOHAMMAD AGHA","د_مرکز_نوم__نام_مرکز":"مکتب ده نو","Polling_Center_Name":"Deh Naw School ","د_مرکز_ځای__موقعیت_مرکز":"ده نو","Polling_Center_Location":"Deh Naw","Verification_Note":"Building","PS_Male":3,"PS_Female":2,"Map_Accuracy":"تعمیر"},"geometry":{"x":7691494.672465913,"y":4049548.0946029425}},{"attributes":{"OBJECTID":3738,"ولایت":"لوگر","Province":"LOGAR","PC_Code":"0506068","ولسوالي":"خروار","District":"KHAR WAR","د_مرکز_نوم__نام_مرکز":"مکتب خواجه انگور","Polling_Center_Name":"Khwaja Angor School","د_مرکز_ځای__موقعیت_مرکز":"قریه خواجه انگور","Polling_Center_Location":"Khwaja Angor Village","Verification_Note":"Village","PS_Male":3,"PS_Female":4,"Map_Accuracy":"قریه"},"geometry":{"x":7684904.756759651,"y":3988613.4692553803}},{"attributes":{"OBJECTID":3739,"ولایت":"لوگر","Province":"LOGAR","PC_Code":"0506069","ولسوالي":"خروار","District":"KHAR WAR","د_مرکز_نوم__نام_مرکز":"مکتب اپه خان","Polling_Center_Name":"Apa Khan School","د_مرکز_ځای__موقعیت_مرکز":"قریه منی بازار","Polling_Center_Location":"Mani Bazar Village","Verification_Note":"Village","PS_Male":1,"PS_Female":1,"Map_Accuracy":"قریه"},"geometry":{"x":7666167.60033188,"y":3987945.6860566363}},{"attributes":{"OBJECTID":3740,"ولایت":"لوگر","Province":"LOGAR","PC_Code":"0506073","ولسوالي":"خروار","District":"KHAR WAR","د_مرکز_نوم__نام_مرکز":"منگو","Polling_Center_Name":"Mango","د_مرکز_ځای__موقعیت_مرکز":"منگو","Polling_Center_Location":"Mango","Verification_Note":"Village","PS_Male":4,"PS_Female":2,"Map_Accuracy":"قریه"},"geometry":{"x":7669604.31019821,"y":3985654.3097627759}},{"attributes":{"OBJECTID":3741,"ولایت":"ننگرهار","Province":"NANGARHAR","PC_Code":"0601014","ولسوالي":"جلال آباد","District":"JALALABAD","د_مرکز_نوم__نام_مرکز":"بي بي زينب مکتب","Polling_Center_Name":"Bibi Zainab School","د_مرکز_ځای__موقعیت_مرکز":"دریمه ناحیه","Polling_Center_Location":"D03-Nahia 3","Verification_Note":"Building","PS_Male":0,"PS_Female":6,"Map_Accuracy":"تعمیر"},"geometry":{"x":7840482.1954058,"y":4087786.2468552664}},{"attributes":{"OBJECTID":3742,"ولایت":"ننگرهار","Province":"NANGARHAR","PC_Code":"0601015","ولسوالي":"جلال آباد","District":"JALALABAD","د_مرکز_نوم__نام_مرکز":"استقلال مکتب","Polling_Center_Name":"Estiqlal School","د_مرکز_ځای__موقعیت_مرکز":"پنځمه ناحیه","Polling_Center_Location":"D05-Nahia 5","Verification_Note":"Building","PS_Male":0,"PS_Female":6,"Map_Accuracy":"تعمیر"},"geometry":{"x":7840721.9965132736,"y":4085707.0149349868}},{"attributes":{"OBJECTID":3743,"ولایت":"ننگرهار","Province":"NANGARHAR","PC_Code":"0601035","ولسوالي":"جلال آباد","District":"JALALABAD","د_مرکز_نوم__نام_مرکز":"اتفاق جومات","Polling_Center_Name":"Etifaq Mosque","د_مرکز_ځای__موقعیت_مرکز":"دویمه ناحیه","Polling_Center_Location":"D02-Nahia 2","Verification_Note":"Building","PS_Male":5,"PS_Female":0,"Map_Accuracy":"تعمیر"},"geometry":{"x":7842239.2444373593,"y":4085186.7806869671}},{"attributes":{"OBJECTID":3744,"ولایت":"ننگرهار","Province":"NANGARHAR","PC_Code":"0601036","ولسوالي":"جلال آباد","District":"JALALABAD","د_مرکز_نوم__نام_مرکز":"ګونبزي جومات","Polling_Center_Name":"Gonbazi Mosque","د_مرکز_ځای__موقعیت_مرکز":"دویمه ناحیه","Polling_Center_Location":"D02-Nahia 2","Verification_Note":"Building","PS_Male":5,"PS_Female":0,"Map_Accuracy":"تعمیر"},"geometry":{"x":7843269.2591953836,"y":4085010.1368801743}},{"attributes":{"OBJECTID":3745,"ولایت":"ننگرهار","Province":"NANGARHAR","PC_Code":"0603083","ولسوالي":"سرخرود","District":"SURKH RUD","د_مرکز_نوم__نام_مرکز":"افغان مینه متوسطه","Polling_Center_Name":"Afghan Mena Secondary School","د_مرکز_ځای__موقعیت_مرکز":"افغان مينه","Polling_Center_Location":"Afghan Mena","Verification_Note":"Building","PS_Male":2,"PS_Female":1,"Map_Accuracy":"تعمیر"},"geometry":{"x":7839267.6930820756,"y":4089065.2357797921}},{"attributes":{"OBJECTID":3746,"ولایت":"ننگرهار","Province":"NANGARHAR","PC_Code":"0604102","ولسوالي":"چپرهار","District":"CHAPARHAR","د_مرکز_نوم__نام_مرکز":"ګراتک مکتب","Polling_Center_Name":"Gratak School","د_مرکز_ځای__موقعیت_مرکز":"هيديا خيل","Polling_Center_Location":"Hedya Khel","Verification_Note":"Building","PS_Male":2,"PS_Female":1,"Map_Accuracy":"تعمیر"},"geometry":{"x":7830818.234262675,"y":4061684.2212786824}},{"attributes":{"OBJECTID":3747,"ولایت":"ننگرهار","Province":"NANGARHAR","PC_Code":"0604103","ولسوالي":"چپرهار","District":"CHAPARHAR","د_مرکز_نوم__نام_مرکز":"ډاګو حاجيانو جومات","Polling_Center_Name":"Daago Hajiyano Mosque","د_مرکز_ځای__موقعیت_مرکز":"ډاګو کلى","Polling_Center_Location":"Daago Village","Verification_Note":"Village","PS_Male":3,"PS_Female":0,"Map_Accuracy":"قریه"},"geometry":{"x":7828690.8865109645,"y":4063319.2882628441}},{"attributes":{"OBJECTID":3748,"ولایت":"ننگرهار","Province":"NANGARHAR","PC_Code":"0604119","ولسوالي":"چپرهار","District":"CHAPARHAR","د_مرکز_نوم__نام_مرکز":"کنډي باغ مکتب","Polling_Center_Name":"Kandi Bagh School","د_مرکز_ځای__موقعیت_مرکز":"خليفه خيل","Polling_Center_Location":"Khalifa Khel","Verification_Note":"Building","PS_Male":1,"PS_Female":2,"Map_Accuracy":"تعمیر"},"geometry":{"x":7835090.7809596471,"y":4066433.5161549374}},{"attributes":{"OBJECTID":3749,"ولایت":"ننگرهار","Province":"NANGARHAR","PC_Code":"0605153","ولسوالي":"کامه","District":"KAMA","د_مرکز_نوم__نام_مرکز":"خښی جومات","Polling_Center_Name":"Khashe Mosque","د_مرکز_ځای__موقعیت_مرکز":"خښی","Polling_Center_Location":"Khashe ","Verification_Note":"Building","PS_Male":2,"PS_Female":0,"Map_Accuracy":"تعمیر"},"geometry":{"x":7855139.207518097,"y":4086833.8701442927}},{"attributes":{"OBJECTID":3750,"ولایت":"ننگرهار","Province":"NANGARHAR","PC_Code":"0605164","ولسوالي":"کامه","District":"KAMA","د_مرکز_نوم__نام_مرکز":"ماما خيل جومات","Polling_Center_Name":"Mama Khel Mosque","د_مرکز_ځای__موقعیت_مرکز":"ماما خيل","Polling_Center_Location":"Mama Khel","Verification_Note":"Village","PS_Male":0,"PS_Female":2,"Map_Accuracy":"قریه"},"geometry":{"x":7865552.819715701,"y":4085975.255837664}},{"attributes":{"OBJECTID":3751,"ولایت":"ننگرهار","Province":"NANGARHAR","PC_Code":"0605176","ولسوالي":"کامه","District":"KAMA","د_مرکز_نوم__نام_مرکز":"ګرداوچارديوالي","Polling_Center_Name":"Gardaaw Chardewali","د_مرکز_ځای__موقعیت_مرکز":"ګرداو","Polling_Center_Location":"Gerdaw","Verification_Note":"Building","PS_Male":0,"PS_Female":3,"Map_Accuracy":"تعمیر"},"geometry":{"x":7872317.6194552034,"y":4081681.4426056817}},{"attributes":{"OBJECTID":3752,"ولایت":"ننگرهار","Province":"NANGARHAR","PC_Code":"0606199","ولسوالي":"کوز کنړ","District":"KUZ KUNAR","د_مرکز_نوم__نام_مرکز":"خوض باغ جومات","Polling_Center_Name":"Khaws Bagh Mosque","د_مرکز_ځای__موقعیت_مرکز":"کوزکاشکوټ","Polling_Center_Location":"Koz Kashkot Village","Verification_Note":"Village","PS_Male":2,"PS_Female":0,"Map_Accuracy":"قریه"},"geometry":{"x":7866887.4591470771,"y":4105781.6608649492}},{"attributes":{"OBJECTID":3753,"ولایت":"ننگرهار","Province":"NANGARHAR","PC_Code":"0607131","ولسوالي":"رودات","District":"RODAT","د_مرکز_نوم__نام_مرکز":"جامع جومات","Polling_Center_Name":"Mosque","د_مرکز_ځای__موقعیت_مرکز":"کابل کمپ","Polling_Center_Location":"Kabul Camp","Verification_Note":"Building","PS_Male":3,"PS_Female":1,"Map_Accuracy":"تعمیر"},"geometry":{"x":7861781.1105397493,"y":4071004.7464630753}},{"attributes":{"OBJECTID":3754,"ولایت":"ننگرهار","Province":"NANGARHAR","PC_Code":"0607132","ولسوالي":"رودات","District":"RODAT","د_مرکز_نوم__نام_مرکز":"زاړه کلی جومات","Polling_Center_Name":"Zaara vvillage Mosque","د_مرکز_ځای__موقعیت_مرکز":"قلعه ميرجی","Polling_Center_Location":"Meerjay Village","Verification_Note":"Village","PS_Male":0,"PS_Female":2,"Map_Accuracy":"قریه"},"geometry":{"x":7850299.058322303,"y":4058762.9701731205}},{"attributes":{"OBJECTID":3755,"ولایت":"ننگرهار","Province":"NANGARHAR","PC_Code":"0607136","ولسوالي":"رودات","District":"RODAT","د_مرکز_نوم__نام_مرکز":"کان ليسه","Polling_Center_Name":"Kaan High School","د_مرکز_ځای__موقعیت_مرکز":"خان کلي","Polling_Center_Location":"Khan Village","Verification_Note":"Village","PS_Male":2,"PS_Female":0,"Map_Accuracy":"قریه"},"geometry":{"x":7847919.9081088081,"y":4064895.6465488151}},{"attributes":{"OBJECTID":3756,"ولایت":"ننگرهار","Province":"NANGARHAR","PC_Code":"0608282","ولسوالي":"خوګیاڼي","District":"KHUGYANI","د_مرکز_نوم__نام_مرکز":"نوي بازار جومات","Polling_Center_Name":"Nawi Bazaar Mosque","د_مرکز_ځای__موقعیت_مرکز":"کجه خوګيانې","Polling_Center_Location":"Kaja Khogyany","Verification_Note":"Building","PS_Male":3,"PS_Female":0,"Map_Accuracy":"تعمیر"},"geometry":{"x":7813490.9703552686,"y":4063114.7174068317}},{"attributes":{"OBJECTID":3757,"ولایت":"ننگرهار","Province":"NANGARHAR","PC_Code":"0608283","ولسوالي":"خوګیاڼي","District":"KHUGYANI","د_مرکز_نوم__نام_مرکز":"کجه ابتدائيه مکتب","Polling_Center_Name":"Kaja Primary School","د_مرکز_ځای__موقعیت_مرکز":"کجه نوي بازار","Polling_Center_Location":"Kaja Nawi Bazaar","Verification_Note":"Building","PS_Male":2,"PS_Female":1,"Map_Accuracy":"تعمیر"},"geometry":{"x":7813532.69624,"y":4062727.0892592743}},{"attributes":{"OBJECTID":3758,"ولایت":"ننگرهار","Province":"NANGARHAR","PC_Code":"0609440","ولسوالي":"بټي کوټ","District":"BATI KOT","د_مرکز_نوم__نام_مرکز":"لوړتۍ جومات","Polling_Center_Name":"Lortai Mosque","د_مرکز_ځای__موقعیت_مرکز":"لورتۍ","Polling_Center_Location":"Lortai","Verification_Note":"Building","PS_Male":2,"PS_Female":1,"Map_Accuracy":"تعمیر"},"geometry":{"x":7875030.1158838682,"y":4063395.41858571}},{"attributes":{"OBJECTID":3759,"ولایت":"ننگرهار","Province":"NANGARHAR","PC_Code":"0609441","ولسوالي":"بټي کوټ","District":"BATI KOT","د_مرکز_نوم__نام_مرکز":"جامع جومات","Polling_Center_Name":"Jaame Mosque","د_مرکز_ځای__موقعیت_مرکز":"فارم ۴","Polling_Center_Location":"Farm 4","Verification_Note":"Building","PS_Male":1,"PS_Female":1,"Map_Accuracy":"تعمیر"},"geometry":{"x":7871384.9213092178,"y":4063646.2515842691}},{"attributes":{"OBJECTID":3760,"ولایت":"ننگرهار","Province":"NANGARHAR","PC_Code":"0609446","ولسوالي":"بټي کوټ","District":"BATI KOT","د_مرکز_نوم__نام_مرکز":"تکيه مکتب","Polling_Center_Name":"Takya School","د_مرکز_ځای__موقعیت_مرکز":"تکيه","Polling_Center_Location":"Takya","Verification_Note":"Village","PS_Male":2,"PS_Female":1,"Map_Accuracy":"قریه"},"geometry":{"x":7881035.3883036636,"y":4070613.3845188022}},{"attributes":{"OBJECTID":3761,"ولایت":"ننگرهار","Province":"NANGARHAR","PC_Code":"0610320","ولسوالي":"ده بالا","District":"DEH BALA","د_مرکز_نوم__نام_مرکز":"مکتب قلا کلي","Polling_Center_Name":"Qala Village School","د_مرکز_ځای__موقعیت_مرکز":"قلا کلي","Polling_Center_Location":"Qala Village ","Verification_Note":"Village","PS_Male":1,"PS_Female":2,"Map_Accuracy":"قریه"},"geometry":{"x":7845793.0601816066,"y":4054264.2610169873}},{"attributes":{"OBJECTID":3762,"ولایت":"ننگرهار","Province":"NANGARHAR","PC_Code":"0610321","ولسوالي":"ده بالا","District":"DEH BALA","د_مرکز_نوم__نام_مرکز":"جاودره جامع مسجد","Polling_Center_Name":"Jawdara Jaame Mosque","د_مرکز_ځای__موقعیت_مرکز":"جاودره","Polling_Center_Location":"Jawdara","Verification_Note":"Village","PS_Male":2,"PS_Female":0,"Map_Accuracy":"قریه"},"geometry":{"x":7845703.179711543,"y":4040524.9846815467}},{"attributes":{"OBJECTID":3763,"ولایت":"ننگرهار","Province":"NANGARHAR","PC_Code":"0610326","ولسوالي":"ده بالا","District":"DEH BALA","د_مرکز_نوم__نام_مرکز":"اوغز لیسه","Polling_Center_Name":"Awghaz High School","د_مرکز_ځای__موقعیت_مرکز":"اوغز کلی","Polling_Center_Location":"Awghaz Village","Verification_Note":"Village","PS_Male":2,"PS_Female":2,"Map_Accuracy":"قریه"},"geometry":{"x":7842907.7602809779,"y":4036663.0925856456}},{"attributes":{"OBJECTID":3764,"ولایت":"ننگرهار","Province":"NANGARHAR","PC_Code":"0611309","ولسوالي":"پچیر و اګام","District":"PACHIR WAGAM","د_مرکز_نوم__نام_مرکز":"کوزصبر جومات","Polling_Center_Name":"Koz Sabr Mosque","د_مرکز_ځای__موقعیت_مرکز":"کوزصبر","Polling_Center_Location":"Koz Sabr","Verification_Note":"Building","PS_Male":3,"PS_Female":0,"Map_Accuracy":"تعمیر"},"geometry":{"x":7825148.9641411155,"y":4058177.1021587327}},{"attributes":{"OBJECTID":3765,"ولایت":"ننگرهار","Province":"NANGARHAR","PC_Code":"0611310","ولسوالي":"پچیر و اګام","District":"PACHIR WAGAM","د_مرکز_نوم__نام_مرکز":"حیوانی کلینیک","Polling_Center_Name":"Veterinary Clinic","د_مرکز_ځای__موقعیت_مرکز":"لنډيخيل","Polling_Center_Location":"Landi Khel","Verification_Note":"Village","PS_Male":2,"PS_Female":0,"Map_Accuracy":"قریه"},"geometry":{"x":7822815.250090979,"y":4056408.6988363639}},{"attributes":{"OBJECTID":3766,"ولایت":"ننگرهار","Province":"NANGARHAR","PC_Code":"0612226","ولسوالي":"دره نور","District":"DARAH-E-NOOR","د_مرکز_نوم__نام_مرکز":"برکوټ مکتب","Polling_Center_Name":"BarKot School","د_مرکز_ځای__موقعیت_مرکز":"کاشمونډ کلا","Polling_Center_Location":"Kashmond Kala","Verification_Note":"Building","PS_Male":2,"PS_Female":0,"Map_Accuracy":"تعمیر"},"geometry":{"x":7857376.8283573836,"y":4120062.7324487418}},{"attributes":{"OBJECTID":3767,"ولایت":"ننگرهار","Province":"NANGARHAR","PC_Code":"0612227","ولسوالي":"دره نور","District":"DARAH-E-NOOR","د_مرکز_نوم__نام_مرکز":"کاشمونډ کلینيک","Polling_Center_Name":"Kashmond  Clinic","د_مرکز_ځای__موقعیت_مرکز":"کاشمونډ کلا","Polling_Center_Location":"Kashmond Kala","Verification_Note":"Building","PS_Male":1,"PS_Female":2,"Map_Accuracy":"تعمیر"},"geometry":{"x":7857499.2720048912,"y":4120754.5828135088}},{"attributes":{"OBJECTID":3768,"ولایت":"ننگرهار","Province":"NANGARHAR","PC_Code":"0612231","ولسوالي":"دره نور","District":"DARAH-E-NOOR","د_مرکز_نوم__نام_مرکز":"مجګنډول ميدان","Polling_Center_Name":"Majangdol Maidan","د_مرکز_ځای__موقعیت_مرکز":"مجګنډول","Polling_Center_Location":"Majangdol","Verification_Note":"Village","PS_Male":1,"PS_Female":1,"Map_Accuracy":"قریه"},"geometry":{"x":7862145.1597836874,"y":4125778.0392235294}},{"attributes":{"OBJECTID":3769,"ولایت":"ننگرهار","Province":"NANGARHAR","PC_Code":"0613340","ولسوالي":"کوټ","District":"KOT","د_مرکز_نوم__نام_مرکز":"لوي جومات باندوک ","Polling_Center_Name":"Bandok  Mosque","د_مرکز_ځای__موقعیت_مرکز":"باندوک","Polling_Center_Location":"Bandok","Verification_Note":"Village","PS_Male":2,"PS_Female":1,"Map_Accuracy":"قریه"},"geometry":{"x":7855663.8440330513,"y":4045641.7336053252}},{"attributes":{"OBJECTID":3770,"ولایت":"ننگرهار","Province":"NANGARHAR","PC_Code":"0614487","ولسوالي":"ګوشته","District":"GOSHTA","د_مرکز_نوم__نام_مرکز":"حميد مومند مکتب","Polling_Center_Name":"Hameed Momand School","د_مرکز_ځای__موقعیت_مرکز":"ګوشته","Polling_Center_Location":"Goshta","Verification_Note":"Building","PS_Male":3,"PS_Female":0,"Map_Accuracy":"تعمیر"},"geometry":{"x":7880607.2457497045,"y":4076697.0376450866}},{"attributes":{"OBJECTID":3771,"ولایت":"ننگرهار","Province":"NANGARHAR","PC_Code":"0615364","ولسوالي":"اچین","District":"ACHIN","د_مرکز_نوم__نام_مرکز":"بندر خرکاني  هديره","Polling_Center_Name":"Bandar Kharkaani Graveyard","د_مرکز_ځای__موقعیت_مرکز":"بندر خرکاني کلی","Polling_Center_Location":"Bandar Kharkaani Village","Verification_Note":"Village","PS_Male":2,"PS_Female":0,"Map_Accuracy":"قریه"},"geometry":{"x":7876332.8956769928,"y":4033794.970487766}},{"attributes":{"OBJECTID":3772,"ولایت":"ننگرهار","Province":"NANGARHAR","PC_Code":"0615376","ولسوالي":"اچین","District":"ACHIN","د_مرکز_نوم__نام_مرکز":"لاندي مومند جومات","Polling_Center_Name":"Landi Momand Mosque","د_مرکز_ځای__موقعیت_مرکز":"لاندي مومند کلی","Polling_Center_Location":"Landi Momand Village","Verification_Note":"Village","PS_Male":2,"PS_Female":0,"Map_Accuracy":"قریه"},"geometry":{"x":7855569.3248798214,"y":4033540.0107019022}},{"attributes":{"OBJECTID":3773,"ولایت":"ننگرهار","Province":"NANGARHAR","PC_Code":"0615388","ولسوالي":"اچین","District":"ACHIN","د_مرکز_نوم__نام_مرکز":"د کهی ليسه","Polling_Center_Name":"Kahee High School","د_مرکز_ځای__موقعیت_مرکز":"سره قلعه","Polling_Center_Location":"Sra Qala","Verification_Note":"Building","PS_Male":1,"PS_Female":1,"Map_Accuracy":"تعمیر"},"geometry":{"x":7871148.2961468063,"y":4045558.7968958095}},{"attributes":{"OBJECTID":3774,"ولایت":"ننگرهار","Province":"NANGARHAR","PC_Code":"0616429","ولسوالي":"شینوار","District":"SHINWAR","د_مرکز_نوم__نام_مرکز":"زراعت اداره","Polling_Center_Name":"Agricultural Office","د_مرکز_ځای__موقعیت_مرکز":"شيرګړ","Polling_Center_Location":"Sher Garh","Verification_Note":"Building","PS_Male":3,"PS_Female":0,"Map_Accuracy":"تعمیر"},"geometry":{"x":7881107.8561789729,"y":4055686.5386182591}},{"attributes":{"OBJECTID":3775,"ولایت":"ننگرهار","Province":"NANGARHAR","PC_Code":"0619247","ولسوالي":"شیرزاد","District":"SHER ZAD","د_مرکز_نوم__نام_مرکز":"ګندومک مکتب","Polling_Center_Name":"Gandomak School","د_مرکز_ځای__موقعیت_مرکز":"ګندومک","Polling_Center_Location":"Gandomak","Verification_Note":"Village","PS_Male":3,"PS_Female":0,"Map_Accuracy":"قریه"},"geometry":{"x":7794523.3592044637,"y":4067703.9356434867}},{"attributes":{"OBJECTID":3776,"ولایت":"ننگرهار","Province":"NANGARHAR","PC_Code":"0619248","ولسوالي":"شیرزاد","District":"SHER ZAD","د_مرکز_نوم__نام_مرکز":"ګندومک خالي ساحه","Polling_Center_Name":"Gandomak Open Space","د_مرکز_ځای__موقعیت_مرکز":"ګندومک","Polling_Center_Location":"Gandomak","Verification_Note":"Village","PS_Male":0,"PS_Female":2,"Map_Accuracy":"قریه"},"geometry":{"x":7794648.3832377717,"y":4067560.9492746517}},{"attributes":{"OBJECTID":3777,"ولایت":"ننگرهار","Province":"NANGARHAR","PC_Code":"0620403","ولسوالي":"نازیان","District":"NAZYAN","د_مرکز_نوم__نام_مرکز":"جاې سرجومات","Polling_Center_Name":"Jay Sar Mosque","د_مرکز_ځای__موقعیت_مرکز":"مورچل کلي","Polling_Center_Location":"Morchal Village","Verification_Note":"Village","PS_Male":2,"PS_Female":1,"Map_Accuracy":"قریه"},"geometry":{"x":7881532.8261274435,"y":4037889.9189564958}},{"attributes":{"OBJECTID":3778,"ولایت":"ننگرهار","Province":"NANGARHAR","PC_Code":"0621261","ولسوالي":"حصارک","District":"HESARAK","د_مرکز_نوم__نام_مرکز":"راغه جومات","Polling_Center_Name":"Raagha Mosque","د_مرکز_ځای__موقعیت_مرکز":"راغه کلې","Polling_Center_Location":"Ragha Village","Verification_Note":"Village","PS_Male":3,"PS_Female":0,"Map_Accuracy":"قریه"},"geometry":{"x":7770811.2323192134,"y":4068856.6301331222}},{"attributes":{"OBJECTID":3779,"ولایت":"ننگرهار","Province":"NANGARHAR","PC_Code":"0621262","ولسوالي":"حصارک","District":"HESARAK","د_مرکز_نوم__نام_مرکز":"راغه مکتب","Polling_Center_Name":"Raagha School","د_مرکز_ځای__موقعیت_مرکز":"راغه کلې","Polling_Center_Location":"Ragha Village","Verification_Note":"Village","PS_Male":0,"PS_Female":3,"Map_Accuracy":"قریه"},"geometry":{"x":7770780.508139763,"y":4068781.5747671351}},{"attributes":{"OBJECTID":3780,"ولایت":"ننگرهار","Province":"NANGARHAR","PC_Code":"0621266","ولسوالي":"حصارک","District":"HESARAK","د_مرکز_نوم__نام_مرکز":"بولي ژمي جومات","Polling_Center_Name":"Bolee Zhamai Mosque","د_مرکز_ځای__موقعیت_مرکز":"باولي","Polling_Center_Location":"Baawlay","Verification_Note":"Village","PS_Male":0,"PS_Female":1,"Map_Accuracy":"قریه"},"geometry":{"x":7776468.65693377,"y":4078575.08748693}},{"attributes":{"OBJECTID":3781,"ولایت":"لغمان","Province":"LAGHMAN","PC_Code":"0701001","ولسوالي":"مهترلام","District":"MEHTARLAM","د_مرکز_نوم__نام_مرکز":"روښان لېسه","Polling_Center_Name":"Rokhan High School","د_مرکز_ځای__موقعیت_مرکز":"مهترلام","Polling_Center_Location":"Mahtarlam","Verification_Note":"Building","PS_Male":12,"PS_Female":0,"Map_Accuracy":"تعمیر"},"geometry":{"x":7815683.7338925526,"y":4117993.1866686046}},{"attributes":{"OBJECTID":3782,"ولایت":"لغمان","Province":"LAGHMAN","PC_Code":"0701002","ولسوالي":"مهترلام","District":"MEHTARLAM","د_مرکز_نوم__نام_مرکز":"مستورې لېسه","Polling_Center_Name":"Mastory High School","د_مرکز_ځای__موقعیت_مرکز":"مهترلام","Polling_Center_Location":"Mahtarlam","Verification_Note":"Building","PS_Male":0,"PS_Female":5,"Map_Accuracy":"تعمیر"},"geometry":{"x":7815301.8557189666,"y":4118181.7516385913}},{"attributes":{"OBJECTID":3783,"ولایت":"لغمان","Province":"LAGHMAN","PC_Code":"0702033","ولسوالي":"قرغه یي","District":"QARGHAYEE","د_مرکز_نوم__نام_مرکز":"دقرغيودهلکانوعالي لېسه اودنجونومنځنې ښوونځی","Polling_Center_Name":"Qarghayee Boys High School and Girls Secondary School ","د_مرکز_ځای__موقعیت_مرکز":"قرغه يي","Polling_Center_Location":"Qarghayee","Verification_Note":"Building","PS_Male":3,"PS_Female":1,"Map_Accuracy":"تعمیر"},"geometry":{"x":7819505.0214300975,"y":4102757.26506269}},{"attributes":{"OBJECTID":3784,"ولایت":"لغمان","Province":"LAGHMAN","PC_Code":"0703089","ولسوالي":"علیشنګ","District":"ALISHING","د_مرکز_نوم__نام_مرکز":"د غازي آباد تش میدان","Polling_Center_Name":"Ghazi Abad Village Open Space","د_مرکز_ځای__موقعیت_مرکز":"غازی آباد کلی","Polling_Center_Location":"Ghazi Abad Village","Verification_Note":"Building","PS_Male":1,"PS_Female":1,"Map_Accuracy":"تعمیر"},"geometry":{"x":7803848.0530486926,"y":4140361.6228248253}},{"attributes":{"OBJECTID":3785,"ولایت":"لغمان","Province":"LAGHMAN","PC_Code":"0703090","ولسوالي":"علیشنګ","District":"ALISHING","د_مرکز_نوم__نام_مرکز":"د وطن ګټو ښوونځی ","Polling_Center_Name":"Watangato School","د_مرکز_ځای__موقعیت_مرکز":"عليشنګ","Polling_Center_Location":"Alishang ","Verification_Note":"Building","PS_Male":2,"PS_Female":1,"Map_Accuracy":"تعمیر"},"geometry":{"x":7804391.8676855266,"y":4134488.2786687315}},{"attributes":{"OBJECTID":3786,"ولایت":"لغمان","Province":"LAGHMAN","PC_Code":"0704056","ولسوالي":"علینګار","District":"ALINGAR","د_مرکز_نوم__نام_مرکز":"درجائي ښوونځی","Polling_Center_Name":"Rajayee School","د_مرکز_ځای__موقعیت_مرکز":"رجایی","Polling_Center_Location":"Rajayee","Verification_Note":"Building","PS_Male":1,"PS_Female":1,"Map_Accuracy":"تعمیر"},"geometry":{"x":7828676.8157273307,"y":4136581.0426449925}},{"attributes":{"OBJECTID":3787,"ولایت":"لغمان","Province":"LAGHMAN","PC_Code":"0704057","ولسوالي":"علینګار","District":"ALINGAR","د_مرکز_نوم__نام_مرکز":"د سخرې دکلي جومات ","Polling_Center_Name":"Sakhre Village Mosque","د_مرکز_ځای__موقعیت_مرکز":"سخره","Polling_Center_Location":"Sakhra","Verification_Note":"Village","PS_Male":1,"PS_Female":1,"Map_Accuracy":"قریه"},"geometry":{"x":7831543.6800070815,"y":4139122.6356963143}},{"attributes":{"OBJECTID":3788,"ولایت":"پنجشیر","Province":"PANJSHIR","PC_Code":"0802026","ولسوالي":"رخه","District":"RUKHA","د_مرکز_نوم__نام_مرکز":"مسجد درخیل","Polling_Center_Name":"Dar Khel Mosque","د_مرکز_ځای__موقعیت_مرکز":"درخیل ","Polling_Center_Location":"Dar Khel","Verification_Note":"Building","PS_Male":1,"PS_Female":1,"Map_Accuracy":"تعمیر"},"geometry":{"x":7733777.8915889524,"y":4199247.9084269032}},{"attributes":{"OBJECTID":3789,"ولایت":"پنجشیر","Province":"PANJSHIR","PC_Code":"0802027","ولسوالي":"رخه","District":"RUKHA","د_مرکز_نوم__نام_مرکز":"مکتب کنده ","Polling_Center_Name":"Kanda School","د_مرکز_ځای__موقعیت_مرکز":"کنده وگوت","Polling_Center_Location":"Kanda Wagut","Verification_Note":"Building","PS_Male":1,"PS_Female":1,"Map_Accuracy":"تعمیر"},"geometry":{"x":7733832.1565011367,"y":4203540.90748781}},{"attributes":{"OBJECTID":3790,"ولایت":"پنجشیر","Province":"PANJSHIR","PC_Code":"0803045","ولسوالي":"دره","District":"DARAH","د_مرکز_نوم__نام_مرکز":"مکتب پسگران","Polling_Center_Name":"Pasgaran School","د_مرکز_ځای__موقعیت_مرکز":"پسگران ","Polling_Center_Location":"Pasgaran","Verification_Note":"Building","PS_Male":2,"PS_Female":1,"Map_Accuracy":"تعمیر"},"geometry":{"x":7754146.8425836377,"y":4202090.641197294}},{"attributes":{"OBJECTID":3791,"ولایت":"پنجشیر","Province":"PANJSHIR","PC_Code":"0803046","ولسوالي":"دره","District":"DARAH","د_مرکز_نوم__نام_مرکز":"مکتب ملک مرزای شهید","Polling_Center_Name":"Malek Merza Shaheed School","د_مرکز_ځای__موقعیت_مرکز":"بازار عبدالله خیل","Polling_Center_Location":"Bazara Abdullh Khel","Verification_Note":"Building","PS_Male":2,"PS_Female":1,"Map_Accuracy":"تعمیر"},"geometry":{"x":7749345.2878553011,"y":4196871.8543145061}},{"attributes":{"OBJECTID":3792,"ولایت":"پنجشیر","Province":"PANJSHIR","PC_Code":"0804017","ولسوالي":"حصه اول خنج","District":"HISSA-E-AWAL KHINJ","د_مرکز_نوم__نام_مرکز":"مسجد غنجو ","Polling_Center_Name":"Ghanjo Mosque","د_مرکز_ځای__موقعیت_مرکز":"غنجو ","Polling_Center_Location":"Ghanjo","Verification_Note":"Village","PS_Male":1,"PS_Female":1,"Map_Accuracy":"قریه"},"geometry":{"x":7769677.601379171,"y":4228574.7958273739}},{"attributes":{"OBJECTID":3793,"ولایت":"پنجشیر","Province":"PANJSHIR","PC_Code":"0804018","ولسوالي":"حصه اول خنج","District":"HISSA-E-AWAL KHINJ","د_مرکز_نوم__نام_مرکز":"مدرسه متا","Polling_Center_Name":"Mata Madrassa","د_مرکز_ځای__موقعیت_مرکز":"متا ","Polling_Center_Location":"Mata","Verification_Note":"Building","PS_Male":2,"PS_Female":1,"Map_Accuracy":"تعمیر"},"geometry":{"x":7764605.8831522353,"y":4224516.1381389573}},{"attributes":{"OBJECTID":3794,"ولایت":"پنجشیر","Province":"PANJSHIR","PC_Code":"0805030","ولسوالي":"عنابه","District":"UNABA","د_مرکز_نوم__نام_مرکز":"مکتب ذکور ","Polling_Center_Name":"Boys School","د_مرکز_ځای__موقعیت_مرکز":"عنابه ","Polling_Center_Location":"Unaba","Verification_Note":"Building","PS_Male":3,"PS_Female":0,"Map_Accuracy":"تعمیر"},"geometry":{"x":7722210.6087165736,"y":4195272.9465665072}},{"attributes":{"OBJECTID":3795,"ولایت":"پنجشیر","Province":"PANJSHIR","PC_Code":"0806089","ولسوالي":"شتل","District":"SHUTUL","د_مرکز_نوم__نام_مرکز":"مسجد اندروسات ","Polling_Center_Name":"Andarosat Mosque","د_مرکز_ځای__موقعیت_مرکز":"اندروسات","Polling_Center_Location":"Andarosat","Verification_Note":"Village","PS_Male":1,"PS_Female":1,"Map_Accuracy":"قریه"},"geometry":{"x":7711966.9446459711,"y":4191131.5108912289}},{"attributes":{"OBJECTID":3796,"ولایت":"پنجشیر","Province":"PANJSHIR","PC_Code":"0806090","ولسوالي":"شتل","District":"SHUTUL","د_مرکز_نوم__نام_مرکز":"مکتب کورابه ","Polling_Center_Name":"Koraba School ","د_مرکز_ځای__موقعیت_مرکز":"کورابه","Polling_Center_Location":"Koraba","Verification_Note":"Building","PS_Male":2,"PS_Female":1,"Map_Accuracy":"تعمیر"},"geometry":{"x":7714982.589651566,"y":4192259.4024507478}},{"attributes":{"OBJECTID":3797,"ولایت":"پنجشیر","Province":"PANJSHIR","PC_Code":"0807067","ولسوالي":"پریان","District":"PARYAN","د_مرکز_نوم__نام_مرکز":"مسجد بردامه ","Polling_Center_Name":"Bardama Mosque","د_مرکز_ځای__موقعیت_مرکز":"کرپیتاب","Polling_Center_Location":"Karpitab","Verification_Note":"Village","PS_Male":0,"PS_Female":2,"Map_Accuracy":"قریه"},"geometry":{"x":7802713.3044609539,"y":4259012.6885148585}},{"attributes":{"OBJECTID":3798,"ولایت":"پنجشیر","Province":"PANJSHIR","PC_Code":"0807095","ولسوالي":"پریان","District":"PARYAN","د_مرکز_نوم__نام_مرکز":"خیمه دره شال زور","Polling_Center_Name":"Dara-e-Shalzor Tent ","د_مرکز_ځای__موقعیت_مرکز":"دره شال زور ","Polling_Center_Location":"Dara-e-Shalzor","Verification_Note":"Village","PS_Male":1,"PS_Female":1,"Map_Accuracy":"قریه"},"geometry":{"x":7810837.2060899287,"y":4264981.4517383054}},{"attributes":{"OBJECTID":3799,"ولایت":"پنجشیر","Province":"PANJSHIR","PC_Code":"0808051","ولسوالي":"آبشار","District":"ABSHAR","د_مرکز_نوم__نام_مرکز":"لیسه ذکور عبدالودود شهید","Polling_Center_Name":"Abdul Wodod Shaheed Boys High School","د_مرکز_ځای__موقعیت_مرکز":"دوست علی","Polling_Center_Location":"Dost Ali","Verification_Note":"Village","PS_Male":2,"PS_Female":0,"Map_Accuracy":"قریه"},"geometry":{"x":7766626.7538109981,"y":4198425.7336342335}}]}