{"objectIdFieldName":"OBJECTID","globalIdFieldName":"","geometryType":"esriGeometryPoint","spatialReference":{"wkid":102100,"latestWkid":3857},"fields":[{"name":"OBJECTID","type":"esriFieldTypeOID","alias":"OBJECTID","sqlType":"sqlTypeOther","domain":null,"defaultValue":null},{"name":"ولایت","type":"esriFieldTypeString","alias":"ولایت","sqlType":"sqlTypeOther","length":255,"domain":null,"defaultValue":null},{"name":"Province","type":"esriFieldTypeString","alias":"Province","sqlType":"sqlTypeOther","length":255,"domain":null,"defaultValue":null},{"name":"PC_Code","type":"esriFieldTypeString","alias":"PC_Code","sqlType":"sqlTypeOther","length":255,"domain":null,"defaultValue":null},{"name":"ولسوالي","type":"esriFieldTypeString","alias":"ولسوالي","sqlType":"sqlTypeOther","length":255,"domain":null,"defaultValue":null},{"name":"District","type":"esriFieldTypeString","alias":"District","sqlType":"sqlTypeOther","length":255,"domain":null,"defaultValue":null},{"name":"د_مرکز_نوم__نام_مرکز","type":"esriFieldTypeString","alias":"د_مرکز_نوم__نام_مرکز","sqlType":"sqlTypeOther","length":255,"domain":null,"defaultValue":null},{"name":"Polling_Center_Name","type":"esriFieldTypeString","alias":"Polling_Center_Name","sqlType":"sqlTypeOther","length":255,"domain":null,"defaultValue":null},{"name":"د_مرکز_ځای__موقعیت_مرکز","type":"esriFieldTypeString","alias":"د_مرکز_ځای__موقعیت_مرکز","sqlType":"sqlTypeOther","length":255,"domain":null,"defaultValue":null},{"name":"Polling_Center_Location","type":"esriFieldTypeString","alias":"Polling_Center_Location","sqlType":"sqlTypeOther","length":255,"domain":null,"defaultValue":null},{"name":"Verification_Note","type":"esriFieldTypeString","alias":"Verification_Note","sqlType":"sqlTypeOther","length":250,"domain":null,"defaultValue":null},{"name":"PS_Male","type":"esriFieldTypeSmallInteger","alias":"PS_Male","sqlType":"sqlTypeOther","domain":null,"defaultValue":null},{"name":"PS_Female","type":"esriFieldTypeSmallInteger","alias":"PS_Female","sqlType":"sqlTypeOther","domain":null,"defaultValue":null},{"name":"Map_Accuracy","type":"esriFieldTypeString","alias":"Map_Accuracy","sqlType":"sqlTypeOther","length":10,"domain":null,"defaultValue":null}],"features":[{"attributes":{"OBJECTID":4000,"ولایت":"کندز","Province":"KUNDUZ","PC_Code":"1904176","ولسوالي":"خان آباد","District":"KHAN ABAD","د_مرکز_نوم__نام_مرکز":"مدرسه سرای قشلاق","Polling_Center_Name":"Srai Qeshlaq Madrassa","د_مرکز_ځای__موقعیت_مرکز":"قریه سرای قشلاق","Polling_Center_Location":"Srai Qeshlaq Village","Verification_Note":"Building","PS_Male":2,"PS_Female":1,"Map_Accuracy":"تعمیر"},"geometry":{"x":7688887.6223117039,"y":4401954.5129291266}},{"attributes":{"OBJECTID":4001,"ولایت":"کندز","Province":"KUNDUZ","PC_Code":"1904212","ولسوالي":"خان آباد","District":"KHAN ABAD","د_مرکز_نوم__نام_مرکز":"مکتب متوسطه دگری ","Polling_Center_Name":"Dagaree Secondary School","د_مرکز_ځای__موقعیت_مرکز":"قریه دگری چهار توت","Polling_Center_Location":"Dagaree Chahartoot Village","Verification_Note":"Building","PS_Male":2,"PS_Female":1,"Map_Accuracy":"تعمیر"},"geometry":{"x":7691428.0321659558,"y":4389137.6438488886}},{"attributes":{"OBJECTID":4002,"ولایت":"کندز","Province":"KUNDUZ","PC_Code":"1905071","ولسوالي":"حضرت امام صاحب","District":"HAZRAT-E-IMAM SAHIB","د_مرکز_نوم__نام_مرکز":"مکتب گجر","Polling_Center_Name":"Gujar School","د_مرکز_ځای__موقعیت_مرکز":"قریه گجر","Polling_Center_Location":"Gujar Village","Verification_Note":"Building","PS_Male":1,"PS_Female":1,"Map_Accuracy":"تعمیر"},"geometry":{"x":7684198.9166039638,"y":4463488.8743969947}},{"attributes":{"OBJECTID":4003,"ولایت":"کندز","Province":"KUNDUZ","PC_Code":"1905075","ولسوالي":"حضرت امام صاحب","District":"HAZRAT-E-IMAM SAHIB","د_مرکز_نوم__نام_مرکز":"مکتب آمو","Polling_Center_Name":"Aamoo School","د_مرکز_ځای__موقعیت_مرکز":"پل مدیر جنگل","Polling_Center_Location":"Pul Mudeer Jangal","Verification_Note":"Building","PS_Male":1,"PS_Female":1,"Map_Accuracy":"تعمیر"},"geometry":{"x":7679790.6436178461,"y":4472640.6448697}},{"attributes":{"OBJECTID":4004,"ولایت":"کندز","Province":"KUNDUZ","PC_Code":"1905091","ولسوالي":"حضرت امام صاحب","District":"HAZRAT-E-IMAM SAHIB","د_مرکز_نوم__نام_مرکز":"لیسه ذکور امام صاحب","Polling_Center_Name":"Imam Sahib Boys High School","د_مرکز_ځای__موقعیت_مرکز":"ناحیه سوم مرکز شهر امام صاحب","Polling_Center_Location":"D03 - Nahia 3","Verification_Note":"Building","PS_Male":3,"PS_Female":1,"Map_Accuracy":"تعمیر"},"geometry":{"x":7670179.8987573013,"y":4464314.0770999417}},{"attributes":{"OBJECTID":4005,"ولایت":"کندز","Province":"KUNDUZ","PC_Code":"1906186","ولسوالي":"دشت ارچی","District":"DASHT-E-ARCHI","د_مرکز_نوم__نام_مرکز":"مسجد عابدی","Polling_Center_Name":"Aabidi Mosque","د_مرکز_ځای__موقعیت_مرکز":"قریه عابدی","Polling_Center_Location":"Aabidi Village","Verification_Note":"Building","PS_Male":2,"PS_Female":1,"Map_Accuracy":"تعمیر"},"geometry":{"x":7701418.0069093853,"y":4442953.3121434748}},{"attributes":{"OBJECTID":4006,"ولایت":"کندز","Province":"KUNDUZ","PC_Code":"1906187","ولسوالي":"دشت ارچی","District":"DASHT-E-ARCHI","د_مرکز_نوم__نام_مرکز":"مسجد حبیب","Polling_Center_Name":"Habib Mosque","د_مرکز_ځای__موقعیت_مرکز":"قریه باغ حبیب","Polling_Center_Location":"Bagh Habib Village","Verification_Note":"Building","PS_Male":2,"PS_Female":1,"Map_Accuracy":"تعمیر"},"geometry":{"x":7702555.9281026125,"y":4450868.0218752474}},{"attributes":{"OBJECTID":4007,"ولایت":"کندز","Province":"KUNDUZ","PC_Code":"1907106","ولسوالي":"قلعه ذال","District":"QALA-E-ZAL","د_مرکز_نوم__نام_مرکز":"مکتب سافی کوت","Polling_Center_Name":"Safi Kot School","د_مرکز_ځای__موقعیت_مرکز":"سافی کوت","Polling_Center_Location":"Safi Kot","Verification_Note":"Building","PS_Male":1,"PS_Female":1,"Map_Accuracy":"تعمیر"},"geometry":{"x":7636668.85477066,"y":4424538.3288739845}},{"attributes":{"OBJECTID":4008,"ولایت":"کندز","Province":"KUNDUZ","PC_Code":"1907107","ولسوالي":"قلعه ذال","District":"QALA-E-ZAL","د_مرکز_نوم__نام_مرکز":"لیسه چار گل تپه","Polling_Center_Name":"Char Gul Tapa High School","د_مرکز_ځای__موقعیت_مرکز":"چار گل تپه","Polling_Center_Location":"Char Gul Tapa ","Verification_Note":"Building","PS_Male":1,"PS_Female":2,"Map_Accuracy":"تعمیر"},"geometry":{"x":7634709.6528833993,"y":4429928.3579674587}},{"attributes":{"OBJECTID":4009,"ولایت":"کندز","Province":"KUNDUZ","PC_Code":"1907111","ولسوالي":"قلعه ذال","District":"QALA-E-ZAL","د_مرکز_نوم__نام_مرکز":"مکتب خشت تپه","Polling_Center_Name":"Khesht Tapa School","د_مرکز_ځای__موقعیت_مرکز":"خشت تپه","Polling_Center_Location":"Khesh Tapa","Verification_Note":"Building","PS_Male":1,"PS_Female":1,"Map_Accuracy":"تعمیر"},"geometry":{"x":7577378.3184282817,"y":4428252.3562743813}},{"attributes":{"OBJECTID":4010,"ولایت":"سمنگان","Province":"SAMANGAN","PC_Code":"2001012","ولسوالي":"ایبک","District":"AYBAK","د_مرکز_نوم__نام_مرکز":"لیسه نسوان دره زندان ","Polling_Center_Name":"Dara Zandan Girls School","د_مرکز_ځای__موقعیت_مرکز":"قریه دره زندان","Polling_Center_Location":"Dare-e-Zendan Village","Verification_Note":"Building","PS_Male":3,"PS_Female":2,"Map_Accuracy":"تعمیر"},"geometry":{"x":7576266.0753020011,"y":4330566.4013382867}},{"attributes":{"OBJECTID":4011,"ولایت":"سمنگان","Province":"SAMANGAN","PC_Code":"2001016","ولسوالي":"ایبک","District":"AYBAK","د_مرکز_نوم__نام_مرکز":"مکتب متوسطه ربا طک","Polling_Center_Name":"Rabatak Secondary School","د_مرکز_ځای__موقعیت_مرکز":"قریه رباطک","Polling_Center_Location":"Rabatak Village","Verification_Note":"Building","PS_Male":2,"PS_Female":1,"Map_Accuracy":"تعمیر"},"geometry":{"x":7613834.5332772881,"y":4320702.0129766688}},{"attributes":{"OBJECTID":4012,"ولایت":"سمنگان","Province":"SAMANGAN","PC_Code":"2002029","ولسوالي":"حضرت سلطان","District":"HAZRAT-E-SULTAN","د_مرکز_نوم__نام_مرکز":"مسجد گاودره ","Polling_Center_Name":"Gawdara Mosque","د_مرکز_ځای__موقعیت_مرکز":"قریه اوچ قدوق","Polling_Center_Location":"Och Qadoq Village","Verification_Note":"Village","PS_Male":1,"PS_Female":1,"Map_Accuracy":"قریه"},"geometry":{"x":7609908.6143239439,"y":4374104.3225304261}},{"attributes":{"OBJECTID":4013,"ولایت":"سمنگان","Province":"SAMANGAN","PC_Code":"2005069","ولسوالي":"روی دوآب","District":"ROI-DO-AB","د_مرکز_نوم__نام_مرکز":"مدرسه قشقه","Polling_Center_Name":"Qashqa Madrassa","د_مرکز_ځای__موقعیت_مرکز":"قریه قشقه","Polling_Center_Location":"Qashqa Village","Verification_Note":"Building","PS_Male":2,"PS_Female":2,"Map_Accuracy":"تعمیر"},"geometry":{"x":7531971.1448878944,"y":4252446.6887076721}},{"attributes":{"OBJECTID":4014,"ولایت":"سمنگان","Province":"SAMANGAN","PC_Code":"2005070","ولسوالي":"روی دوآب","District":"ROI-DO-AB","د_مرکز_نوم__نام_مرکز":"مدرسه علاوالدین ","Polling_Center_Name":"Alauddin Madrassa","د_مرکز_ځای__موقعیت_مرکز":"قریه علاوالدین","Polling_Center_Location":"Alauddin Village","Verification_Note":"Building","PS_Male":2,"PS_Female":2,"Map_Accuracy":"تعمیر"},"geometry":{"x":7522219.0966317132,"y":4241147.3435900435}},{"attributes":{"OBJECTID":4015,"ولایت":"سمنگان","Province":"SAMANGAN","PC_Code":"2005074","ولسوالي":"روی دوآب","District":"ROI-DO-AB","د_مرکز_نوم__نام_مرکز":"مدرسه مدیرک","Polling_Center_Name":"Mudirak Madrassa","د_مرکز_ځای__موقعیت_مرکز":"قریه مدیرک","Polling_Center_Location":"Mudeerak Village","Verification_Note":"Building","PS_Male":2,"PS_Female":1,"Map_Accuracy":"تعمیر"},"geometry":{"x":7558441.0396123342,"y":4232949.8395533338}},{"attributes":{"OBJECTID":4016,"ولایت":"سمنگان","Province":"SAMANGAN","PC_Code":"2005075","ولسوالي":"روی دوآب","District":"ROI-DO-AB","د_مرکز_نوم__نام_مرکز":"مدرسه خمی بیاض","Polling_Center_Name":"Khami Bayaz Madrassa","د_مرکز_ځای__موقعیت_مرکز":"قریه خمی بیاض","Polling_Center_Location":"Khami Bayaz Village","Verification_Note":"Building","PS_Male":2,"PS_Female":1,"Map_Accuracy":"تعمیر"},"geometry":{"x":7570787.3796958923,"y":4233020.4482806921}},{"attributes":{"OBJECTID":4017,"ولایت":"سمنگان","Province":"SAMANGAN","PC_Code":"2006058","ولسوالي":"دره صوف پائین","District":"DARA-E-SOOF-E-PAYIN","د_مرکز_نوم__نام_مرکز":"مسجد خانه سنگی","Polling_Center_Name":"Khana Sangi Mosque","د_مرکز_ځای__موقعیت_مرکز":"قریه خانه سنگی","Polling_Center_Location":"Khana Sangi Village","Verification_Note":"Building","PS_Male":2,"PS_Female":2,"Map_Accuracy":"تعمیر"},"geometry":{"x":7504846.5368235,"y":4317874.8568805233}},{"attributes":{"OBJECTID":4018,"ولایت":"سمنگان","Province":"SAMANGAN","PC_Code":"2007044","ولسوالي":"دره صوف بالا","District":"DARA-E-SOOF-E-BALA","د_مرکز_نوم__نام_مرکز":"منبر اوی بلاق","Polling_Center_Name":"Menbar Oye Balaq","د_مرکز_ځای__موقعیت_مرکز":"قریه اوی بلاق","Polling_Center_Location":"Oye Balaq Village","Verification_Note":"Building","PS_Male":2,"PS_Female":1,"Map_Accuracy":"تعمیر"},"geometry":{"x":7466916.0867884643,"y":4255969.1933095977}},{"attributes":{"OBJECTID":4019,"ولایت":"بلخ","Province":"BALKH","PC_Code":"2101014","ولسوالي":"مزار شریف","District":"MAZAR-E-SHARIF","د_مرکز_نوم__نام_مرکز":"لیسه فاطمه بلخی","Polling_Center_Name":"Fatima Balkhi High School","د_مرکز_ځای__موقعیت_مرکز":"ناحیه دوم مزار شاروالی ","Polling_Center_Location":"D02 - Nahia 2","Verification_Note":"Building","PS_Male":4,"PS_Female":2,"Map_Accuracy":"تعمیر"},"geometry":{"x":7469346.4595524557,"y":4398289.552270785}},{"attributes":{"OBJECTID":4020,"ولایت":"بلخ","Province":"BALKH","PC_Code":"2101018","ولسوالي":"مزار شریف","District":"MAZAR-E-SHARIF","د_مرکز_نوم__نام_مرکز":"لیسه استقلال","Polling_Center_Name":"Esteqlal High School","د_مرکز_ځای__موقعیت_مرکز":"ناحیه پنجم","Polling_Center_Location":"D05 - Nahia 5","Verification_Note":"Building","PS_Male":4,"PS_Female":3,"Map_Accuracy":"تعمیر"},"geometry":{"x":7470421.8603800721,"y":4397617.8686351031}},{"attributes":{"OBJECTID":4021,"ولایت":"بلخ","Province":"BALKH","PC_Code":"2101034","ولسوالي":"مزار شریف","District":"MAZAR-E-SHARIF","د_مرکز_نوم__نام_مرکز":"مکتب شهید عبد العلی مزاری","Polling_Center_Name":"Shahid Abdul Ali Mazari School","د_مرکز_ځای__موقعیت_مرکز":"سید آباد . ناحیه سوم مزار شاروالی ","Polling_Center_Location":"D03 - Nahia 3 Sayed Abad","Verification_Note":"Building","PS_Male":4,"PS_Female":3,"Map_Accuracy":"تعمیر"},"geometry":{"x":7471990.7416235618,"y":4401245.1560454741}},{"attributes":{"OBJECTID":4022,"ولایت":"بلخ","Province":"BALKH","PC_Code":"2101038","ولسوالي":"مزار شریف","District":"MAZAR-E-SHARIF","د_مرکز_نوم__نام_مرکز":"مکتب سید یحیی عمری","Polling_Center_Name":"Sayed Yahya Omari School","د_مرکز_ځای__موقعیت_مرکز":"ناحیه نهم مزار شاروالی ","Polling_Center_Location":"D09- Nahia 9","Verification_Note":"Building","PS_Male":2,"PS_Female":1,"Map_Accuracy":"تعمیر"},"geometry":{"x":7469301.94845406,"y":4402688.4930001274}},{"attributes":{"OBJECTID":4023,"ولایت":"بلخ","Province":"BALKH","PC_Code":"2101039","ولسوالي":"مزار شریف","District":"MAZAR-E-SHARIF","د_مرکز_نوم__نام_مرکز":"مکتب نور خدا","Polling_Center_Name":"Noor Khuda School","د_مرکز_ځای__موقعیت_مرکز":"ناحیه هشتم مزار شاروالی ","Polling_Center_Location":"D08 - Nahia 8","Verification_Note":"Building","PS_Male":4,"PS_Female":4,"Map_Accuracy":"تعمیر"},"geometry":{"x":7471616.34300657,"y":4402368.8635709733}},{"attributes":{"OBJECTID":4024,"ولایت":"بلخ","Province":"BALKH","PC_Code":"2102066","ولسوالي":"نهر شاهی ","District":"NAHR-E-SHAHI","د_مرکز_نوم__نام_مرکز":"مکتب شهرک ترکمنیه","Polling_Center_Name":"Shahrak Turkmania School","د_مرکز_ځای__موقعیت_مرکز":"شهرک ترکمنیه","Polling_Center_Location":"Shahrak Turkmania","Verification_Note":"Building","PS_Male":2,"PS_Female":1,"Map_Accuracy":"تعمیر"},"geometry":{"x":7467604.5221417695,"y":4419534.4790716022}},{"attributes":{"OBJECTID":4025,"ولایت":"بلخ","Province":"BALKH","PC_Code":"2102070","ولسوالي":"نهر شاهی ","District":"NAHR-E-SHAHI","د_مرکز_نوم__نام_مرکز":"مکتب ابتدائیه علی سینا بلخی ","Polling_Center_Name":"Ali Sena Balkhi Primary School","د_مرکز_ځای__موقعیت_مرکز":"قریه سینا","Polling_Center_Location":"Seena Village","Verification_Note":"Building","PS_Male":3,"PS_Female":2,"Map_Accuracy":"تعمیر"},"geometry":{"x":7477437.19142409,"y":4400056.7694633454}},{"attributes":{"OBJECTID":4026,"ولایت":"بلخ","Province":"BALKH","PC_Code":"2104275","ولسوالي":"چارکنت","District":"CHAR KENT","د_مرکز_نوم__نام_مرکز":"مکتب نان وایی","Polling_Center_Name":"Naan Wayee School","د_مرکز_ځای__موقعیت_مرکز":"قریه نان وایی","Polling_Center_Location":"Naan Wayee Village","Verification_Note":"Building","PS_Male":2,"PS_Female":1,"Map_Accuracy":"تعمیر"},"geometry":{"x":7481272.3481456824,"y":4366220.6720969155}},{"attributes":{"OBJECTID":4027,"ولایت":"بلخ","Province":"BALKH","PC_Code":"2104276","ولسوالي":"چارکنت","District":"CHAR KENT","د_مرکز_نوم__نام_مرکز":"مکتب یکه تال","Polling_Center_Name":"Yaka Taal School","د_مرکز_ځای__موقعیت_مرکز":"قریه یکه تال","Polling_Center_Location":"Yaka Taal Village","Verification_Note":"Building","PS_Male":1,"PS_Female":1,"Map_Accuracy":"تعمیر"},"geometry":{"x":7477680.2095535323,"y":4354571.2752309665}},{"attributes":{"OBJECTID":4028,"ولایت":"بلخ","Province":"BALKH","PC_Code":"2104280","ولسوالي":"چارکنت","District":"CHAR KENT","د_مرکز_نوم__نام_مرکز":"مکتب پس قدوق","Polling_Center_Name":"Pas Qadoq School","د_مرکز_ځای__موقعیت_مرکز":"قریه پس قدوق","Polling_Center_Location":"Pas Qadoq Village","Verification_Note":"Building","PS_Male":1,"PS_Female":1,"Map_Accuracy":"تعمیر"},"geometry":{"x":7494310.995274432,"y":4352253.9799103215}},{"attributes":{"OBJECTID":4029,"ولایت":"بلخ","Province":"BALKH","PC_Code":"2104281","ولسوالي":"چارکنت","District":"CHAR KENT","د_مرکز_نوم__نام_مرکز":"مکتب شاه انجیر","Polling_Center_Name":"Shah Enjir School","د_مرکز_ځای__موقعیت_مرکز":"قریه شاه انجیر","Polling_Center_Location":"Shah Enjir Village","Verification_Note":"Building","PS_Male":1,"PS_Female":1,"Map_Accuracy":"تعمیر"},"geometry":{"x":7483100.5058415681,"y":4347916.1315614954}},{"attributes":{"OBJECTID":4030,"ولایت":"بلخ","Province":"BALKH","PC_Code":"2106152","ولسوالي":"بلخ","District":"BALKH","د_مرکز_نوم__نام_مرکز":"مکتب کشکک","Polling_Center_Name":"Kashkak School","د_مرکز_ځای__موقعیت_مرکز":"قریه کشکک","Polling_Center_Location":"Kashkak Village","Verification_Note":"Building","PS_Male":2,"PS_Female":1,"Map_Accuracy":"تعمیر"},"geometry":{"x":7448280.8222038187,"y":4396518.7719735578}},{"attributes":{"OBJECTID":4031,"ولایت":"بلخ","Province":"BALKH","PC_Code":"2106153","ولسوالي":"بلخ","District":"BALKH","د_مرکز_نوم__نام_مرکز":"مکتب سپین کوت","Polling_Center_Name":"Speen Kot School","د_مرکز_ځای__موقعیت_مرکز":"قریه قلعچه","Polling_Center_Location":"Qalacha Village","Verification_Note":"Building","PS_Male":1,"PS_Female":1,"Map_Accuracy":"تعمیر"},"geometry":{"x":7444601.7019011565,"y":4408221.6104157418}},{"attributes":{"OBJECTID":4032,"ولایت":"بلخ","Province":"BALKH","PC_Code":"2106157","ولسوالي":"بلخ","District":"BALKH","د_مرکز_نوم__نام_مرکز":"مکتب شهید رحمت الله","Polling_Center_Name":"Shaheed Rahmatullah School","د_مرکز_ځای__موقعیت_مرکز":"علم خیل ","Polling_Center_Location":"Alam Khel","Verification_Note":"Building","PS_Male":2,"PS_Female":1,"Map_Accuracy":"تعمیر"},"geometry":{"x":7438183.3295301944,"y":4401163.8089341074}},{"attributes":{"OBJECTID":4033,"ولایت":"بلخ","Province":"BALKH","PC_Code":"2106158","ولسوالي":"بلخ","District":"BALKH","د_مرکز_نوم__نام_مرکز":"مکتب ذکور چهارسنگ","Polling_Center_Name":"Chahar Sang Boys School","د_مرکز_ځای__موقعیت_مرکز":"چهارسنگ","Polling_Center_Location":"Chahar Sang","Verification_Note":"Building","PS_Male":3,"PS_Female":1,"Map_Accuracy":"تعمیر"},"geometry":{"x":7439629.6068261266,"y":4398210.1063618213}},{"attributes":{"OBJECTID":4034,"ولایت":"بلخ","Province":"BALKH","PC_Code":"2106176","ولسوالي":"بلخ","District":"BALKH","د_مرکز_نوم__نام_مرکز":"تعمیر مهمانخانه شاروالی","Polling_Center_Name":"Municipality Guesthouse","د_مرکز_ځای__موقعیت_مرکز":"مرکز ولسوالی بلخ","Polling_Center_Location":"Balk District Compound","Verification_Note":"Building","PS_Male":2,"PS_Female":2,"Map_Accuracy":"تعمیر"},"geometry":{"x":7447235.59452419,"y":4405342.3786487654}},{"attributes":{"OBJECTID":4035,"ولایت":"بلخ","Province":"BALKH","PC_Code":"2107239","ولسوالي":"شولگره","District":"SHOLGARA","د_مرکز_نوم__نام_مرکز":"تکیه خانه محمودیه","Polling_Center_Name":"Takya Khana Mahmudia","د_مرکز_ځای__موقعیت_مرکز":"قریه قیپچاق","Polling_Center_Location":"Qepchaq Village","Verification_Note":"Village","PS_Male":2,"PS_Female":1,"Map_Accuracy":"قریه"},"geometry":{"x":7445049.7984738313,"y":4347549.30003123}},{"attributes":{"OBJECTID":4036,"ولایت":"بلخ","Province":"BALKH","PC_Code":"2107263","ولسوالي":"شولگره","District":"SHOLGARA","د_مرکز_نوم__نام_مرکز":"لیسه سید جمال الدین افغانی","Polling_Center_Name":"Sayed Jamaluddin Afghani High School","د_مرکز_ځای__موقعیت_مرکز":"قریه رحیم سرخیل","Polling_Center_Location":"Raheem Sar Khel Village","Verification_Note":"Building","PS_Male":2,"PS_Female":1,"Map_Accuracy":"تعمیر"},"geometry":{"x":7448849.975383155,"y":4348005.3081342429}},{"attributes":{"OBJECTID":4037,"ولایت":"بلخ","Province":"BALKH","PC_Code":"2108223","ولسوالي":"چمتال","District":"CHIMTAL","د_مرکز_نوم__نام_مرکز":"مسجد نوشار بلوچ","Polling_Center_Name":"Nawshar Baloch Mosque","د_مرکز_ځای__موقعیت_مرکز":"قریه نوشار بلوچ","Polling_Center_Location":"Nawshar Baloch Village","Verification_Note":"Village","PS_Male":1,"PS_Female":1,"Map_Accuracy":"قریه"},"geometry":{"x":7417669.30586192,"y":4398196.6252206787}},{"attributes":{"OBJECTID":4038,"ولایت":"بلخ","Province":"BALKH","PC_Code":"2109120","ولسوالي":"دولت آباد","District":"DAWLAT ABAD","د_مرکز_نوم__نام_مرکز":"کلینیک قرشی گک","Polling_Center_Name":"Qarshigak Clinic","د_مرکز_ځای__موقعیت_مرکز":"قریه قرشی گک","Polling_Center_Location":"Qarshi Gak Village","Verification_Note":"Building","PS_Male":2,"PS_Female":2,"Map_Accuracy":"تعمیر"},"geometry":{"x":7434151.0770860538,"y":4444467.5299561843}},{"attributes":{"OBJECTID":4039,"ولایت":"بلخ","Province":"BALKH","PC_Code":"2109124","ولسوالي":"دولت آباد","District":"DAWLAT ABAD","د_مرکز_نوم__نام_مرکز":"مکتب چاهی","Polling_Center_Name":"Chaahee School","د_مرکز_ځای__موقعیت_مرکز":"قریه چاهی","Polling_Center_Location":"Chaahee Village","Verification_Note":"Building","PS_Male":2,"PS_Female":2,"Map_Accuracy":"تعمیر"},"geometry":{"x":7423411.9255091622,"y":4437603.6429558173}},{"attributes":{"OBJECTID":4040,"ولایت":"بلخ","Province":"BALKH","PC_Code":"2109141","ولسوالي":"دولت آباد","District":"DAWLAT ABAD","د_مرکز_نوم__نام_مرکز":"مکتب نخچیرآباد","Polling_Center_Name":"Nakhchir Abad School","د_مرکز_ځای__موقعیت_مرکز":"قریه نخچیرآباد","Polling_Center_Location":"Nakhchir Abad Village","Verification_Note":"Building","PS_Male":1,"PS_Female":1,"Map_Accuracy":"تعمیر"},"geometry":{"x":7446205.6821800917,"y":4439517.3083426952}},{"attributes":{"OBJECTID":4041,"ولایت":"بلخ","Province":"BALKH","PC_Code":"2109142","ولسوالي":"دولت آباد","District":"DAWLAT ABAD","د_مرکز_نوم__نام_مرکز":"مکتب چهار باغ سیدان","Polling_Center_Name":"Chahar Bagh Saydan School","د_مرکز_ځای__موقعیت_مرکز":"قریه چهار باغ سیدان","Polling_Center_Location":"Chahar Bagh Saydan Village","Verification_Note":"Building","PS_Male":1,"PS_Female":1,"Map_Accuracy":"تعمیر"},"geometry":{"x":7434545.8137740232,"y":4436038.2215297222}},{"attributes":{"OBJECTID":4042,"ولایت":"بلخ","Province":"BALKH","PC_Code":"2109146","ولسوالي":"دولت آباد","District":"DAWLAT ABAD","د_مرکز_نوم__نام_مرکز":"منزل صوفی تاج الدین","Polling_Center_Name":"Sufi Tajuddin Private House","د_مرکز_ځای__موقعیت_مرکز":"هاشم آباد افغانیه","Polling_Center_Location":"Hashim Abad Afghania","Verification_Note":"Building","PS_Male":1,"PS_Female":1,"Map_Accuracy":"تعمیر"},"geometry":{"x":7444227.3923397548,"y":4434722.638388142}},{"attributes":{"OBJECTID":4043,"ولایت":"بلخ","Province":"BALKH","PC_Code":"2110076","ولسوالي":"خلم","District":"KHULM","د_مرکز_نوم__نام_مرکز":"لیسه ذکور خلم","Polling_Center_Name":"Khulm Boys High School","د_مرکز_ځای__موقعیت_مرکز":"قریه آبدار مرکز خلم ","Polling_Center_Location":"Abdar Markaz Khulm Village","Verification_Note":"Building","PS_Male":4,"PS_Female":2,"Map_Accuracy":"تعمیر"},"geometry":{"x":7535507.4022088572,"y":4397059.7829417437}},{"attributes":{"OBJECTID":4044,"ولایت":"بلخ","Province":"BALKH","PC_Code":"2110091","ولسوالي":"خلم","District":"KHULM","د_مرکز_نوم__نام_مرکز":"شفاخانه خلم","Polling_Center_Name":"Khulm Hospital","د_مرکز_ځای__موقعیت_مرکز":"مرکز خلم  گذر آبدار ","Polling_Center_Location":"Markaz Khulm Guzar Aabdar","Verification_Note":"Building","PS_Male":1,"PS_Female":1,"Map_Accuracy":"تعمیر"},"geometry":{"x":7535115.7735610828,"y":4397049.6506130546}},{"attributes":{"OBJECTID":4045,"ولایت":"بلخ","Province":"BALKH","PC_Code":"2110092","ولسوالي":"خلم","District":"KHULM","د_مرکز_نوم__نام_مرکز":"مکتب ابتدائیه قریه کهنه خلم","Polling_Center_Name":"Khulm Old Village Primary School","د_مرکز_ځای__موقعیت_مرکز":"سلوزی - کهنه خلم ","Polling_Center_Location":"Salozai - Khulm Old Village","Verification_Note":"Building","PS_Male":1,"PS_Female":1,"Map_Accuracy":"تعمیر"},"geometry":{"x":7537947.9351027757,"y":4406420.9950675145}},{"attributes":{"OBJECTID":4046,"ولایت":"بلخ","Province":"BALKH","PC_Code":"2110097","ولسوالي":"خلم","District":"KHULM","د_مرکز_نوم__نام_مرکز":"لیسه ذکور خواجه برهان","Polling_Center_Name":"Khwaja Burhan Boys High School","د_مرکز_ځای__موقعیت_مرکز":"قریه سرهنگ اسماعیل خیل ","Polling_Center_Location":"Sarhang Ismail Khel Village","Verification_Note":"Building","PS_Male":1,"PS_Female":1,"Map_Accuracy":"تعمیر"},"geometry":{"x":7541170.7067189105,"y":4398581.6088249981}},{"attributes":{"OBJECTID":4047,"ولایت":"بلخ","Province":"BALKH","PC_Code":"2110098","ولسوالي":"خلم","District":"KHULM","د_مرکز_نوم__نام_مرکز":"مکتب متوسط ناهید شهید","Polling_Center_Name":"Nahid Shaheed Secondary School","د_مرکز_ځای__موقعیت_مرکز":"قریه سلوزی","Polling_Center_Location":"Salozai Village","Verification_Note":"Building","PS_Male":1,"PS_Female":1,"Map_Accuracy":"تعمیر"},"geometry":{"x":7536938.89182362,"y":4401468.2099550962}},{"attributes":{"OBJECTID":4048,"ولایت":"بلخ","Province":"BALKH","PC_Code":"2111192","ولسوالي":"چار بولک","District":"CHAR BOLAK","د_مرکز_نوم__نام_مرکز":"مکتب بیست پیکال","Polling_Center_Name":"Bist Paikal School","د_مرکز_ځای__موقعیت_مرکز":"قریه بیست پیکال","Polling_Center_Location":"Bist Paikal Village","Verification_Note":"Building","PS_Male":2,"PS_Female":1,"Map_Accuracy":"تعمیر"},"geometry":{"x":7403831.4927691817,"y":4405555.1041548848}},{"attributes":{"OBJECTID":4049,"ولایت":"بلخ","Province":"BALKH","PC_Code":"2111193","ولسوالي":"چار بولک","District":"CHAR BOLAK","د_مرکز_نوم__نام_مرکز":"مکتب چوبه","Polling_Center_Name":"Choba School","د_مرکز_ځای__موقعیت_مرکز":"قریه چوبه","Polling_Center_Location":"Choba Village","Verification_Note":"Building","PS_Male":2,"PS_Female":1,"Map_Accuracy":"تعمیر"},"geometry":{"x":7409933.628730692,"y":4408000.4706509635}},{"attributes":{"OBJECTID":4050,"ولایت":"بلخ","Province":"BALKH","PC_Code":"2111197","ولسوالي":"چار بولک","District":"CHAR BOLAK","د_مرکز_نوم__نام_مرکز":"مکتب قاضی فاروق شهید","Polling_Center_Name":"Qazi Farooq Shaheed School","د_مرکز_ځای__موقعیت_مرکز":"قریه ارزنکار","Polling_Center_Location":"Arzankar Village","Verification_Note":"Building","PS_Male":1,"PS_Female":1,"Map_Accuracy":"تعمیر"},"geometry":{"x":7422224.1020146012,"y":4400371.37616539}},{"attributes":{"OBJECTID":4051,"ولایت":"بلخ","Province":"BALKH","PC_Code":"2111198","ولسوالي":"چار بولک","District":"CHAR BOLAK","د_مرکز_نوم__نام_مرکز":"مکتب نوی کوت","Polling_Center_Name":"Nawai Kot School","د_مرکز_ځای__موقعیت_مرکز":"قریه نوی کوت ( ینگاریق)","Polling_Center_Location":"Nawai Kot (Yangareq) Village","Verification_Note":"Building","PS_Male":2,"PS_Female":1,"Map_Accuracy":"تعمیر"},"geometry":{"x":7429046.6164572984,"y":4399603.0351136476}},{"attributes":{"OBJECTID":4052,"ولایت":"بلخ","Province":"BALKH","PC_Code":"2112111","ولسوالي":"شور تیپه","District":"SHORTEPA","د_مرکز_نوم__نام_مرکز":"مکتب ابو جعفر","Polling_Center_Name":"Abu Jafar School","د_مرکز_ځای__موقعیت_مرکز":"قریه جوی وکیل","Polling_Center_Location":"Joy Wakeel Village","Verification_Note":"Building","PS_Male":2,"PS_Female":1,"Map_Accuracy":"تعمیر"},"geometry":{"x":7455227.887571983,"y":4487755.827855967}},{"attributes":{"OBJECTID":4053,"ولایت":"بلخ","Province":"BALKH","PC_Code":"2112112","ولسوالي":"شور تیپه","District":"SHORTEPA","د_مرکز_نوم__نام_مرکز":"مکتب شور آریق","Polling_Center_Name":"Shor Aareeq School","د_مرکز_ځای__موقعیت_مرکز":"قریه شور آریق","Polling_Center_Location":"Shor Aareeq Village","Verification_Note":"Building","PS_Male":2,"PS_Female":1,"Map_Accuracy":"تعمیر"},"geometry":{"x":7427848.0261415839,"y":4481335.5056992993}},{"attributes":{"OBJECTID":4054,"ولایت":"بلخ","Province":"BALKH","PC_Code":"2112116","ولسوالي":"شور تیپه","District":"SHORTEPA","د_مرکز_نوم__نام_مرکز":"مکتب ارنجی بشیرلی","Polling_Center_Name":"Arenji Bashirli School","د_مرکز_ځای__موقعیت_مرکز":"سید آباد کامه گذر","Polling_Center_Location":"Sayed Abad Kama Guzar ","Verification_Note":"Building","PS_Male":1,"PS_Female":1,"Map_Accuracy":"تعمیر"},"geometry":{"x":7485825.2451878488,"y":4462303.7395152152}},{"attributes":{"OBJECTID":4055,"ولایت":"بلخ","Province":"BALKH","PC_Code":"2112117","ولسوالي":"شور تیپه","District":"SHORTEPA","د_مرکز_نوم__نام_مرکز":"کلینیک اسلام سفلی","Polling_Center_Name":"Islam Sufla Clinic","د_مرکز_ځای__موقعیت_مرکز":"قریه اسلام سفلی","Polling_Center_Location":"Islam Sufla Village","Verification_Note":"Building","PS_Male":1,"PS_Female":1,"Map_Accuracy":"تعمیر"},"geometry":{"x":7384683.5551752448,"y":4479441.6949203536}},{"attributes":{"OBJECTID":4056,"ولایت":"بلخ","Province":"BALKH","PC_Code":"2114292","ولسوالي":"کشنده","District":"KISHINDEH","د_مرکز_نوم__نام_مرکز":"مکتب چکانه بالا","Polling_Center_Name":"Chakana Bala School","د_مرکز_ځای__موقعیت_مرکز":"قریه چکانه بالا","Polling_Center_Location":"Chakana Bala Village","Verification_Note":"Building","PS_Male":1,"PS_Female":1,"Map_Accuracy":"تعمیر"},"geometry":{"x":7457447.681708023,"y":4315619.7747801915}},{"attributes":{"OBJECTID":4057,"ولایت":"بلخ","Province":"BALKH","PC_Code":"2114293","ولسوالي":"کشنده","District":"KISHINDEH","د_مرکز_نوم__نام_مرکز":"مکتب تونج","Polling_Center_Name":"Tonj School","د_مرکز_ځای__موقعیت_مرکز":"قریه تونج","Polling_Center_Location":"Tonj Village","Verification_Note":"Building","PS_Male":2,"PS_Female":1,"Map_Accuracy":"تعمیر"},"geometry":{"x":7444065.2555014119,"y":4286638.7842004225}},{"attributes":{"OBJECTID":4058,"ولایت":"بلخ","Province":"BALKH","PC_Code":"2115314","ولسوالي":"زاری","District":"ZARI","د_مرکز_نوم__نام_مرکز":"مکتب پسته بلوچ","Polling_Center_Name":"Pasta Baloch School","د_مرکز_ځای__موقعیت_مرکز":"قریه پسته بلوچ","Polling_Center_Location":"Pasta Baloch Village","Verification_Note":"Building","PS_Male":1,"PS_Female":1,"Map_Accuracy":"تعمیر"},"geometry":{"x":7433703.6405266374,"y":4306612.5532427281}},{"attributes":{"OBJECTID":4059,"ولایت":"بلخ","Province":"BALKH","PC_Code":"2115315","ولسوالي":"زاری","District":"ZARI","د_مرکز_نوم__نام_مرکز":"مکتب بایه","Polling_Center_Name":"Baya School","د_مرکز_ځای__موقعیت_مرکز":"قریه بایه","Polling_Center_Location":"Baya Village","Verification_Note":"Building","PS_Male":1,"PS_Female":1,"Map_Accuracy":"تعمیر"},"geometry":{"x":7435307.3437313661,"y":4268279.1985295862}},{"attributes":{"OBJECTID":4060,"ولایت":"سرپل","Province":"SAR-E-PUL","PC_Code":"2204038","ولسوالي":"سوزمه قلعه","District":"SOZMA QALA","د_مرکز_نوم__نام_مرکز":"لیسه چارک","Polling_Center_Name":"Charak High School","د_مرکز_ځای__موقعیت_مرکز":"چارک سفلی ","Polling_Center_Location":"Charak Sufla","Verification_Note":"Building","PS_Male":2,"PS_Female":1,"Map_Accuracy":"تعمیر"},"geometry":{"x":7370534.7644057982,"y":4297969.9906532466}},{"attributes":{"OBJECTID":4061,"ولایت":"سرپل","Province":"SAR-E-PUL","PC_Code":"2204039","ولسوالي":"سوزمه قلعه","District":"SOZMA QALA","د_مرکز_نوم__نام_مرکز":"مسجد کته قلعه","Polling_Center_Name":"Kata Qala Mosque","د_مرکز_ځای__موقعیت_مرکز":"کته قلعه","Polling_Center_Location":"Kata Qala","Verification_Note":"Building","PS_Male":2,"PS_Female":1,"Map_Accuracy":"تعمیر"},"geometry":{"x":7368073.2054864652,"y":4289758.8642404974}},{"attributes":{"OBJECTID":4062,"ولایت":"سرپل","Province":"SAR-E-PUL","PC_Code":"2205110","ولسوالي":"سنگ چارک","District":"SANG CHARAK","د_مرکز_نوم__نام_مرکز":"مسجد قریه شبوکند","Polling_Center_Name":"Shbokand Village Mosque","د_مرکز_ځای__موقعیت_مرکز":"قریه شبوکند","Polling_Center_Location":"Shabokand Village","Verification_Note":"Building","PS_Male":1,"PS_Female":1,"Map_Accuracy":"تعمیر"},"geometry":{"x":7390325.5765118487,"y":4281437.2723548934}},{"attributes":{"OBJECTID":4063,"ولایت":"سرپل","Province":"SAR-E-PUL","PC_Code":"2206131","ولسوالي":"گوسفندی ","District":"GOSFANDI","د_مرکز_نوم__نام_مرکز":"مسجد جامع خواجهَ نهان","Polling_Center_Name":"Khwaja Nahan Mosque","د_مرکز_ځای__موقعیت_مرکز":"قریه خاسار","Polling_Center_Location":"Khasar Village","Verification_Note":"Building","PS_Male":2,"PS_Female":1,"Map_Accuracy":"تعمیر"},"geometry":{"x":7404823.73459759,"y":4283402.1762544513}},{"attributes":{"OBJECTID":4064,"ولایت":"غور","Province":"GHOR","PC_Code":"2301002","ولسوالي":"چغچران","District":"CHIGHCHERAN","د_مرکز_نوم__نام_مرکز":"لیسه سلطان رضیه غوری ","Polling_Center_Name":"Sultan Razia Ghori High School","د_مرکز_ځای__موقعیت_مرکز":"دهن کاسی ","Polling_Center_Location":"Dahn Kasi","Verification_Note":"Building","PS_Male":2,"PS_Female":2,"Map_Accuracy":"تعمیر"},"geometry":{"x":7264446.7520066686,"y":4099498.7264983654}},{"attributes":{"OBJECTID":4065,"ولایت":"غور","Province":"GHOR","PC_Code":"2301003","ولسوالي":"چغچران","District":"CHIGHCHERAN","د_مرکز_نوم__نام_مرکز":"مکتب الندر","Polling_Center_Name":"Alandar School","د_مرکز_ځای__موقعیت_مرکز":" الندر","Polling_Center_Location":"Alandar","Verification_Note":"Building","PS_Male":3,"PS_Female":2,"Map_Accuracy":"تعمیر"},"geometry":{"x":7248771.0730452463,"y":4102095.4184935242}},{"attributes":{"OBJECTID":4066,"ولایت":"غور","Province":"GHOR","PC_Code":"2301007","ولسوالي":"چغچران","District":"CHIGHCHERAN","د_مرکز_نوم__نام_مرکز":"مکتب ابتدای خوا جه غار","Polling_Center_Name":"Khwaja Ghaar Primary School","د_مرکز_ځای__موقعیت_مرکز":" خواجه غار","Polling_Center_Location":"Khwaja Ghaar","Verification_Note":"Building","PS_Male":3,"PS_Female":2,"Map_Accuracy":"تعمیر"},"geometry":{"x":7245358.3480764106,"y":4117211.5813419893}},{"attributes":{"OBJECTID":4067,"ولایت":"غور","Province":"GHOR","PC_Code":"2301025","ولسوالي":"چغچران","District":"CHIGHCHERAN","د_مرکز_نوم__نام_مرکز":"مسجد سوخته سفلی","Polling_Center_Name":"Sokhta-e-Sufla Mosque","د_مرکز_ځای__موقعیت_مرکز":" سوخته سفلی","Polling_Center_Location":"Sokhta-e-Sufla","Verification_Note":"Building","PS_Male":2,"PS_Female":2,"Map_Accuracy":"تعمیر"},"geometry":{"x":7229954.3621433862,"y":4089206.009337917}},{"attributes":{"OBJECTID":4068,"ولایت":"غور","Province":"GHOR","PC_Code":"2301026","ولسوالي":"چغچران","District":"CHIGHCHERAN","د_مرکز_نوم__نام_مرکز":"مسجد دهک غوری ها","Polling_Center_Name":"Dahak Ghoriha Mosque","د_مرکز_ځای__موقعیت_مرکز":"دهنه","Polling_Center_Location":"Dahna","Verification_Note":"Building","PS_Male":2,"PS_Female":2,"Map_Accuracy":"تعمیر"},"geometry":{"x":7253251.2569752671,"y":4060979.834268555}},{"attributes":{"OBJECTID":4069,"ولایت":"غور","Province":"GHOR","PC_Code":"2301236","ولسوالي":"چغچران","District":"CHIGHCHERAN","د_مرکز_نوم__نام_مرکز":"دهن کندیوال","Polling_Center_Name":"Dahn Kandiwal","د_مرکز_ځای__موقعیت_مرکز":"دهن کندیوال","Polling_Center_Location":"Dahn Kandiwal","Verification_Note":"Village","PS_Male":2,"PS_Female":2,"Map_Accuracy":"قریه"},"geometry":{"x":7265036.6462335251,"y":4092244.7130305991}},{"attributes":{"OBJECTID":4070,"ولایت":"غور","Province":"GHOR","PC_Code":"2302098","ولسوالي":"دولینه","District":"DULEENA","د_مرکز_نوم__نام_مرکز":"زمین دشت فراه رود","Polling_Center_Name":"Zameen Dasht Farah Rod ","د_مرکز_ځای__موقعیت_مرکز":" فراه رود","Polling_Center_Location":"Farah Rod","Verification_Note":"Village","PS_Male":1,"PS_Female":1,"Map_Accuracy":"قریه"},"geometry":{"x":7217131.2139640823,"y":4018458.3745093793}},{"attributes":{"OBJECTID":4071,"ولایت":"غور","Province":"GHOR","PC_Code":"2302102","ولسوالي":"دولینه","District":"DULEENA","د_مرکز_نوم__نام_مرکز":"مکتب دولینه","Polling_Center_Name":"Dolina School","د_مرکز_ځای__موقعیت_مرکز":" مرکز دولینه","Polling_Center_Location":"Markaz Dolina","Verification_Note":"Building","PS_Male":2,"PS_Female":1,"Map_Accuracy":"تعمیر"},"geometry":{"x":7211651.2982963584,"y":4049865.930656746}},{"attributes":{"OBJECTID":4072,"ولایت":"غور","Province":"GHOR","PC_Code":"2302103","ولسوالي":"دولینه","District":"DULEENA","د_مرکز_نوم__نام_مرکز":"گرما بک ارباب معاذالله ","Polling_Center_Name":"Garma Bak Arbab Maazallah","د_مرکز_ځای__موقعیت_مرکز":"قلعه نقشی ","Polling_Center_Location":"Qala-e-Naqshi","Verification_Note":"Building","PS_Male":2,"PS_Female":1,"Map_Accuracy":"تعمیر"},"geometry":{"x":7247390.7970754169,"y":4053774.5951974392}},{"attributes":{"OBJECTID":4073,"ولایت":"غور","Province":"GHOR","PC_Code":"2303054","ولسوالي":"دولت یار ","District":"DAWLATYAR","د_مرکز_نوم__نام_مرکز":"مکتب گری امام داد","Polling_Center_Name":"Geri Imam Dad School","د_مرکز_ځای__موقعیت_مرکز":" گری امام داد","Polling_Center_Location":"Geri Imam Dad","Verification_Note":"Village","PS_Male":1,"PS_Female":1,"Map_Accuracy":"قریه"},"geometry":{"x":7310248.7212343551,"y":4088558.6758284196}},{"attributes":{"OBJECTID":4074,"ولایت":"غور","Province":"GHOR","PC_Code":"2303055","ولسوالي":"دولت یار ","District":"DAWLATYAR","د_مرکز_نوم__نام_مرکز":"مسجد قریه علی بازار ","Polling_Center_Name":"Ali Bazar Village Mosque","د_مرکز_ځای__موقعیت_مرکز":"قریه علی بازار ","Polling_Center_Location":"Ali Bazar Village","Verification_Note":"Village","PS_Male":2,"PS_Female":1,"Map_Accuracy":"قریه"},"geometry":{"x":7331181.2438490912,"y":4103139.4162502959}},{"attributes":{"OBJECTID":4075,"ولایت":"غور","Province":"GHOR","PC_Code":"2303237","ولسوالي":"دولت یار ","District":"DAWLATYAR","د_مرکز_نوم__نام_مرکز":"خیمه بازار","Polling_Center_Name":"Bazar Tent","د_مرکز_ځای__موقعیت_مرکز":"بازار","Polling_Center_Location":"Bazar","Verification_Note":"Building","PS_Male":1,"PS_Female":1,"Map_Accuracy":"تعمیر"},"geometry":{"x":7324322.7175511234,"y":4103101.9621702954}},{"attributes":{"OBJECTID":4076,"ولایت":"غور","Province":"GHOR","PC_Code":"2305115","ولسوالي":"پسابند ","District":"PASABAND","د_مرکز_نوم__نام_مرکز":"مکتب خم بولاق","Polling_Center_Name":"Khum Bolaq School","د_مرکز_ځای__موقعیت_مرکز":" خم بولاق","Polling_Center_Location":"Khum Bolaq","Verification_Note":"Building","PS_Male":2,"PS_Female":1,"Map_Accuracy":"تعمیر"},"geometry":{"x":7264286.7291254662,"y":4009446.2281579822}},{"attributes":{"OBJECTID":4077,"ولایت":"غور","Province":"GHOR","PC_Code":"2305116","ولسوالي":"پسابند ","District":"PASABAND","د_مرکز_نوم__نام_مرکز":"مکتب تلمستان","Polling_Center_Name":"Talmestan School","د_مرکز_ځای__موقعیت_مرکز":"تلمستان","Polling_Center_Location":"Talmestan ","Verification_Note":"Building","PS_Male":1,"PS_Female":2,"Map_Accuracy":"تعمیر"},"geometry":{"x":7280766.0335096717,"y":3985484.8529833034}},{"attributes":{"OBJECTID":4078,"ولایت":"غور","Province":"GHOR","PC_Code":"2306076","ولسوالي":"شهرک ","District":"SHAHRAK","د_مرکز_نوم__نام_مرکز":"زمین زراعتی","Polling_Center_Name":"Agricultural Land / Open Space","د_مرکز_ځای__موقعیت_مرکز":" دهنه مرغا","Polling_Center_Location":"Dahn Murgha","Verification_Note":"Village","PS_Male":2,"PS_Female":1,"Map_Accuracy":"قریه"},"geometry":{"x":7155104.7039124146,"y":4078886.0541017503}},{"attributes":{"OBJECTID":4079,"ولایت":"غور","Province":"GHOR","PC_Code":"2306095","ولسوالي":"شهرک ","District":"SHAHRAK","د_مرکز_نوم__نام_مرکز":"مکتب ابتدای خواجه بور","Polling_Center_Name":"khwaja Bor Primary School","د_مرکز_ځای__موقعیت_مرکز":" خواجه بور","Polling_Center_Location":"Khwaja Bor","Verification_Note":"Village","PS_Male":1,"PS_Female":1,"Map_Accuracy":"قریه"},"geometry":{"x":7155117.99323323,"y":4014871.7350678965}},{"attributes":{"OBJECTID":4080,"ولایت":"غور","Province":"GHOR","PC_Code":"2307139","ولسوالي":"لعل و سرجنگل ","District":"LAL WA SARJANGAL","د_مرکز_نوم__نام_مرکز":"مسجد  قلعه جنگل","Polling_Center_Name":"Qala-e-Jangal Mosque","د_مرکز_ځای__موقعیت_مرکز":"قریه  قلعه جنگل","Polling_Center_Location":"Qala-e-Jangal Village","Verification_Note":"Building","PS_Male":1,"PS_Female":1,"Map_Accuracy":"تعمیر"},"geometry":{"x":7340892.0137248971,"y":4079243.3892798349}},{"attributes":{"OBJECTID":4081,"ولایت":"غور","Province":"GHOR","PC_Code":"2307155","ولسوالي":"لعل و سرجنگل ","District":"LAL WA SARJANGAL","د_مرکز_نوم__نام_مرکز":"مسجد جامع سفید اب ","Polling_Center_Name":"Safid Aab Mosque","د_مرکز_ځای__موقعیت_مرکز":"قریه سر بغندی","Polling_Center_Location":"Sar Baghandi Village","Verification_Note":"Building","PS_Male":2,"PS_Female":3,"Map_Accuracy":"تعمیر"},"geometry":{"x":7383935.7909861319,"y":4117329.6094060093}},{"attributes":{"OBJECTID":4082,"ولایت":"غور","Province":"GHOR","PC_Code":"2307174","ولسوالي":"لعل و سرجنگل ","District":"LAL WA SARJANGAL","د_مرکز_نوم__نام_مرکز":"مکتب شنیه چپرقل   ","Polling_Center_Name":"Shinya Chaparqul School","د_مرکز_ځای__موقعیت_مرکز":"شینیه چپرقل ","Polling_Center_Location":"Shinya Chaparqul","Verification_Note":"Village","PS_Male":1,"PS_Female":1,"Map_Accuracy":"قریه"},"geometry":{"x":7392684.0702806339,"y":4109515.9597186074}},{"attributes":{"OBJECTID":4083,"ولایت":"غور","Province":"GHOR","PC_Code":"2308228","ولسوالي":"تیوره","District":"TAYWARA","د_مرکز_نوم__نام_مرکز":"مکتب قبه","Polling_Center_Name":"Qoba School","د_مرکز_ځای__موقعیت_مرکز":"قبه","Polling_Center_Location":"Qoba","Verification_Note":"Building","PS_Male":2,"PS_Female":1,"Map_Accuracy":"تعمیر"},"geometry":{"x":7157155.4115343019,"y":3957967.7069058567}},{"attributes":{"OBJECTID":4084,"ولایت":"غور","Province":"GHOR","PC_Code":"2308229","ولسوالي":"تیوره","District":"TAYWARA","د_مرکز_نوم__نام_مرکز":"مکتب زهی نوروز","Polling_Center_Name":"Zahi Nawroz School","د_مرکز_ځای__موقعیت_مرکز":" زهی نوروز","Polling_Center_Location":"Zahi Nawroz","Verification_Note":"Building","PS_Male":2,"PS_Female":1,"Map_Accuracy":"تعمیر"},"geometry":{"x":7165436.5920190439,"y":3963770.8019897342}},{"attributes":{"OBJECTID":4085,"ولایت":"غور","Province":"GHOR","PC_Code":"2309194","ولسوالي":"تولک ","District":"TULAK","د_مرکز_نوم__نام_مرکز":"مکتب گزک","Polling_Center_Name":"Gazak School","د_مرکز_ځای__موقعیت_مرکز":"گزک","Polling_Center_Location":"Gazak","Verification_Note":"Village","PS_Male":2,"PS_Female":1,"Map_Accuracy":"قریه"},"geometry":{"x":7085647.6390010118,"y":4046067.1146392077}},{"attributes":{"OBJECTID":4086,"ولایت":"غور","Province":"GHOR","PC_Code":"2309195","ولسوالي":"تولک ","District":"TULAK","د_مرکز_نوم__نام_مرکز":"منزل ارباب رسول","Polling_Center_Name":"Arbab Rasool Private House","د_مرکز_ځای__موقعیت_مرکز":"خا کچه","Polling_Center_Location":"Khakchah","Verification_Note":"Village","PS_Male":2,"PS_Female":1,"Map_Accuracy":"قریه"},"geometry":{"x":7081447.9319864511,"y":4009297.30144123}},{"attributes":{"OBJECTID":4087,"ولایت":"دایکندی","Province":"DAYKUNDI","PC_Code":"2401009","ولسوالي":"نیلی","District":"NILI","د_مرکز_نوم__نام_مرکز":"مسجد حقداد سیوک","Polling_Center_Name":"Siyok Haqdad Mosque","د_مرکز_ځای__موقعیت_مرکز":"سیوک","Polling_Center_Location":"Siyok","Verification_Note":"Building","PS_Male":2,"PS_Female":1,"Map_Accuracy":"تعمیر"},"geometry":{"x":7341082.6182966195,"y":3996620.4511909485}},{"attributes":{"OBJECTID":4088,"ولایت":"دایکندی","Province":"DAYKUNDI","PC_Code":"2401010","ولسوالي":"نیلی","District":"NILI","د_مرکز_نوم__نام_مرکز":"مسجد قول قدیر","Polling_Center_Name":"Qol Qadir Mosque","د_مرکز_ځای__موقعیت_مرکز":"قول قدیر","Polling_Center_Location":"Qol Qadir","Verification_Note":"Building","PS_Male":2,"PS_Female":1,"Map_Accuracy":"تعمیر"},"geometry":{"x":7361405.2269872762,"y":4012268.7705072165}},{"attributes":{"OBJECTID":4089,"ولایت":"دایکندی","Province":"DAYKUNDI","PC_Code":"2402014","ولسوالي":"شهرستان","District":"SHAHRISTAN","د_مرکز_نوم__نام_مرکز":"مسجد اولک","Polling_Center_Name":"Olak Mosque","د_مرکز_ځای__موقعیت_مرکز":"اولک","Polling_Center_Location":"Olak","Verification_Note":"Building","PS_Male":1,"PS_Female":1,"Map_Accuracy":"تعمیر"},"geometry":{"x":7429224.86233915,"y":3973366.1610838845}},{"attributes":{"OBJECTID":4090,"ولایت":"دایکندی","Province":"DAYKUNDI","PC_Code":"2402032","ولسوالي":"شهرستان","District":"SHAHRISTAN","د_مرکز_نوم__نام_مرکز":"مسجد منگور","Polling_Center_Name":"Mangor Mosque","د_مرکز_ځای__موقعیت_مرکز":"میانه منگور","Polling_Center_Location":"Miyana Mangor","Verification_Note":"Building","PS_Male":1,"PS_Female":1,"Map_Accuracy":"تعمیر"},"geometry":{"x":7425468.3471605144,"y":3966074.1191084832}},{"attributes":{"OBJECTID":4091,"ولایت":"دایکندی","Province":"DAYKUNDI","PC_Code":"2402033","ولسوالي":"شهرستان","District":"SHAHRISTAN","د_مرکز_نوم__نام_مرکز":"مسجد یامه تگابلور","Polling_Center_Name":"Yama Tagablor Mosque","د_مرکز_ځای__موقعیت_مرکز":"یامه تگابلور","Polling_Center_Location":"Yama Tagablor","Verification_Note":"Building","PS_Male":1,"PS_Female":1,"Map_Accuracy":"تعمیر"},"geometry":{"x":7397542.8933210038,"y":3995957.837827608}},{"attributes":{"OBJECTID":4092,"ولایت":"دایکندی","Province":"DAYKUNDI","PC_Code":"2403121","ولسوالي":"گیزاب","District":"GIZAB","د_مرکز_نوم__نام_مرکز":"مسجد تله ده خاک","Polling_Center_Name":"Tala Deh Khak Mosque","د_مرکز_ځای__موقعیت_مرکز":"تله ده خاک","Polling_Center_Location":"Tala Deh Khak","Verification_Note":"Village","PS_Male":1,"PS_Female":1,"Map_Accuracy":"قریه"},"geometry":{"x":7422347.8759300224,"y":3950537.6545770913}},{"attributes":{"OBJECTID":4093,"ولایت":"دایکندی","Province":"DAYKUNDI","PC_Code":"2403122","ولسوالي":"گیزاب","District":"GIZAB","د_مرکز_نوم__نام_مرکز":"مسجد محمد خواجه","Polling_Center_Name":"Mohammad Khwaja Mosque","د_مرکز_ځای__موقعیت_مرکز":"محمد خواجه","Polling_Center_Location":"Mohammad Khwaja","Verification_Note":"Village","PS_Male":1,"PS_Female":1,"Map_Accuracy":"قریه"},"geometry":{"x":7390039.6000795849,"y":3952059.39181152}},{"attributes":{"OBJECTID":4094,"ولایت":"دایکندی","Province":"DAYKUNDI","PC_Code":"2405090","ولسوالي":"خدیر","District":"KHEDIR","د_مرکز_نوم__نام_مرکز":"مسجد دشتک","Polling_Center_Name":"Dashtak Mosque","د_مرکز_ځای__موقعیت_مرکز":"دشتک","Polling_Center_Location":"Dashtak","Verification_Note":"Building","PS_Male":1,"PS_Female":1,"Map_Accuracy":"تعمیر"},"geometry":{"x":7325818.7056788616,"y":4022610.834971875}},{"attributes":{"OBJECTID":4095,"ولایت":"دایکندی","Province":"DAYKUNDI","PC_Code":"2406128","ولسوالي":"کیتی","District":"KITI","د_مرکز_نوم__نام_مرکز":"مسجد ارگان","Polling_Center_Name":"Argan Mosque","د_مرکز_ځای__موقعیت_مرکز":"ارگان","Polling_Center_Location":"Argan","Verification_Note":"Building","PS_Male":2,"PS_Female":1,"Map_Accuracy":"تعمیر"},"geometry":{"x":7313904.1460702121,"y":3950005.0565070361}},{"attributes":{"OBJECTID":4096,"ولایت":"دایکندی","Province":"DAYKUNDI","PC_Code":"2407151","ولسوالي":"میرامور","District":"MIRAMOR","د_مرکز_نوم__نام_مرکز":"مکتب جوی توت","Polling_Center_Name":"Joy Toot School","د_مرکز_ځای__موقعیت_مرکز":"جوی توت","Polling_Center_Location":"Joy Toot","Verification_Note":"Building","PS_Male":1,"PS_Female":1,"Map_Accuracy":"تعمیر"},"geometry":{"x":7417676.6061941311,"y":4009448.3461216688}},{"attributes":{"OBJECTID":4097,"ولایت":"دایکندی","Province":"DAYKUNDI","PC_Code":"2407152","ولسوالي":"میرامور","District":"MIRAMOR","د_مرکز_نوم__نام_مرکز":"لیسه زکور نهال","Polling_Center_Name":"Nihal Boys High School","د_مرکز_ځای__موقعیت_مرکز":"کیل جوی نهال","Polling_Center_Location":"Kel Joy Nihal","Verification_Note":"Building","PS_Male":2,"PS_Female":1,"Map_Accuracy":"تعمیر"},"geometry":{"x":7484385.7350037694,"y":4012782.0375071913}},{"attributes":{"OBJECTID":4098,"ولایت":"دایکندی","Province":"DAYKUNDI","PC_Code":"2407156","ولسوالي":"میرامور","District":"MIRAMOR","د_مرکز_نوم__نام_مرکز":"متوسطه نر خسی","Polling_Center_Name":"Nar Khasi Secondary School","د_مرکز_ځای__موقعیت_مرکز":"نر خسی","Polling_Center_Location":"Nar Khasi","Verification_Note":"Building","PS_Male":1,"PS_Female":1,"Map_Accuracy":"تعمیر"},"geometry":{"x":7469730.9570736513,"y":4004607.7427221984}},{"attributes":{"OBJECTID":4099,"ولایت":"دایکندی","Province":"DAYKUNDI","PC_Code":"2409067","ولسوالي":"کجران","District":"KEJRAN","د_مرکز_نوم__نام_مرکز":"مسجد جامع بوکه","Polling_Center_Name":"Boka Mosque","د_مرکز_ځای__موقعیت_مرکز":"بوکه","Polling_Center_Location":"Boka","Verification_Note":"Building","PS_Male":1,"PS_Female":1,"Map_Accuracy":"تعمیر"},"geometry":{"x":7288713.5048777014,"y":3927746.7432882339}},{"attributes":{"OBJECTID":4100,"ولایت":"دایکندی","Province":"DAYKUNDI","PC_Code":"2409068","ولسوالي":"کجران","District":"KEJRAN","د_مرکز_نوم__نام_مرکز":"مسجد جامع بالا دشت","Polling_Center_Name":"Bala Dasht Mosque","د_مرکز_ځای__موقعیت_مرکز":"بالا دشت","Polling_Center_Location":"Bala Dasht","Verification_Note":"Building","PS_Male":1,"PS_Female":1,"Map_Accuracy":"تعمیر"},"geometry":{"x":7299721.8447944522,"y":3915534.4074983075}},{"attributes":{"OBJECTID":4101,"ولایت":"ارزگان","Province":"UROZGAN","PC_Code":"2501001","ولسوالي":"ترینکوټ","District":"TIRINKOT","د_مرکز_نوم__نام_مرکز":"مکتب متوسطه سفيدخار","Polling_Center_Name":"Safid Khaar Secondary School","د_مرکز_ځای__موقعیت_مرکز":"سفيدخار","Polling_Center_Location":"Safid Khaar","Verification_Note":"Building","PS_Male":2,"PS_Female":1,"Map_Accuracy":"تعمیر"},"geometry":{"x":7329229.2454460859,"y":3846628.3749866337}},{"attributes":{"OBJECTID":4102,"ولایت":"ارزگان","Province":"UROZGAN","PC_Code":"2502037","ولسوالي":"دهراود","District":"DEHRAOUD","د_مرکز_نوم__نام_مرکز":"لیسه بازار شهرنو","Polling_Center_Name":"Bazar Shahr-e-Naw High School","د_مرکز_ځای__موقعیت_مرکز":"بازار دهراود ","Polling_Center_Location":"Bazar Dehrawood","Verification_Note":"Building","PS_Male":5,"PS_Female":1,"Map_Accuracy":"تعمیر"},"geometry":{"x":7286371.5231289864,"y":3845705.3191625252}},{"attributes":{"OBJECTID":4103,"ولایت":"ارزگان","Province":"UROZGAN","PC_Code":"2502038","ولسوالي":"دهراود","District":"DEHRAOUD","د_مرکز_نوم__نام_مرکز":"د دیب سنګ کلی لیسه ","Polling_Center_Name":"Deb Sang Village High School","د_مرکز_ځای__موقعیت_مرکز":"دیب سنګ کلی","Polling_Center_Location":"Deb Sang Village","Verification_Note":"Building","PS_Male":6,"PS_Female":1,"Map_Accuracy":"تعمیر"},"geometry":{"x":7293437.7270689867,"y":3850162.7709165663}},{"attributes":{"OBJECTID":4104,"ولایت":"ارزگان","Province":"UROZGAN","PC_Code":"2502043","ولسوالي":"دهراود","District":"DEHRAOUD","د_مرکز_نوم__نام_مرکز":"د کښته لدیاني د ملک زلمی کور","Polling_Center_Name":"Kakhtia Ladyani Malak Zalmai Private House","د_مرکز_ځای__موقعیت_مرکز":"مکتب لنډیانه ","Polling_Center_Location":"Maktab Landiyana","Verification_Note":"Building","PS_Male":5,"PS_Female":1,"Map_Accuracy":"تعمیر"},"geometry":{"x":7284292.4735647477,"y":3844435.3153145984}},{"attributes":{"OBJECTID":4105,"ولایت":"ارزگان","Province":"UROZGAN","PC_Code":"2502044","ولسوالي":"دهراود","District":"DEHRAOUD","د_مرکز_نوم__نام_مرکز":"لبنان مکتب","Polling_Center_Name":"Lebnan School","د_مرکز_ځای__موقعیت_مرکز":"لبنان","Polling_Center_Location":"Lebnan","Verification_Note":"Building","PS_Male":5,"PS_Female":1,"Map_Accuracy":"تعمیر"},"geometry":{"x":7293335.354325667,"y":3846545.8030017763}},{"attributes":{"OBJECTID":4106,"ولایت":"ارزگان","Province":"UROZGAN","PC_Code":"2504035","ولسوالي":"شهید حساس","District":"SHAHID-E-HASSAS","د_مرکز_نوم__نام_مرکز":"مکتب قلعه کلان","Polling_Center_Name":"Qala-e-Kalan School","د_مرکز_ځای__موقعیت_مرکز":"ګورګین کلی","Polling_Center_Location":"Gorgeen Village","Verification_Note":"Village","PS_Male":3,"PS_Female":1,"Map_Accuracy":"قریه"},"geometry":{"x":7294304.7578473352,"y":3898722.6562097818}},{"attributes":{"OBJECTID":4107,"ولایت":"ارزگان","Province":"UROZGAN","PC_Code":"2505024","ولسوالي":"خاص ارزگان","District":"KHAS UROZGAN","د_مرکز_نوم__نام_مرکز":"لیسه شاه زمان","Polling_Center_Name":"Shah Zaman High School","د_مرکز_ځای__موقعیت_مرکز":"بازار ولسوالی","Polling_Center_Location":"District Bazar","Verification_Note":"Building","PS_Male":4,"PS_Female":1,"Map_Accuracy":"تعمیر"},"geometry":{"x":7418427.6097804271,"y":3887148.945863992}},{"attributes":{"OBJECTID":4108,"ولایت":"زابل","Province":"ZABUL","PC_Code":"2603031","ولسوالي":"شینکې","District":"SHINKAI","د_مرکز_نوم__نام_مرکز":"شاه علم ليسه","Polling_Center_Name":"Shah Alam High School","د_مرکز_ځای__موقعیت_مرکز":"د ولسوالي مركز","Polling_Center_Location":"District Compound","Verification_Note":"Building","PS_Male":2,"PS_Female":2,"Map_Accuracy":"تعمیر"},"geometry":{"x":7495901.6817797907,"y":3761182.0046554804}},{"attributes":{"OBJECTID":4109,"ولایت":"زابل","Province":"ZABUL","PC_Code":"2608034","ولسوالي":"اتغر","District":"ATGHAR","د_مرکز_نوم__نام_مرکز":"د طاهر کور","Polling_Center_Name":"Tahir Private House","د_مرکز_ځای__موقعیت_مرکز":"قریه انګوری مسجد","Polling_Center_Location":"Angori Mosque Village","Verification_Note":"Building","PS_Male":2,"PS_Female":1,"Map_Accuracy":"تعمیر"},"geometry":{"x":7503684.1208895184,"y":3731141.6558567211}},{"attributes":{"OBJECTID":4110,"ولایت":"کندهار","Province":"کندهار","PC_Code":"2701003","ولسوالي":"کندهار","District":"KANDAHAR","د_مرکز_نوم__نام_مرکز":"د محمود طرزي ليسه","Polling_Center_Name":"Mohamood Tarzi High School","د_مرکز_ځای__موقعیت_مرکز":"نهمه ناحيه","Polling_Center_Location":"D09 - Nahia 9","Verification_Note":"Building","PS_Male":9,"PS_Female":0,"Map_Accuracy":"تعمیر"},"geometry":{"x":7314738.6348218247,"y":3714183.0545598939}},{"attributes":{"OBJECTID":4111,"ولایت":"کندهار","Province":"کندهار","PC_Code":"2701036","ولسوالي":"کندهار","District":"KANDAHAR","د_مرکز_نوم__نام_مرکز":"د فاضل كندهاري مكتب","Polling_Center_Name":"Fazil Kandahari School","د_مرکز_ځای__موقعیت_مرکز":"شپږمه ناحيه","Polling_Center_Location":"D06 - Nahia 6","Verification_Note":"Building","PS_Male":4,"PS_Female":3,"Map_Accuracy":"تعمیر"},"geometry":{"x":7307799.1892728023,"y":3713087.2056400254}},{"attributes":{"OBJECTID":4112,"ولایت":"کندهار","Province":"کندهار","PC_Code":"2701045","ولسوالي":"کندهار","District":"KANDAHAR","د_مرکز_نوم__نام_مرکز":"مشرقي ليسه","Polling_Center_Name":"Mashriqi High School","د_مرکز_ځای__موقعیت_مرکز":"دريمه ناحيه","Polling_Center_Location":"D03 - Nahia 3","Verification_Note":"Building","PS_Male":9,"PS_Female":0,"Map_Accuracy":"تعمیر"},"geometry":{"x":7314501.6757009439,"y":3711550.373045437}},{"attributes":{"OBJECTID":4113,"ولایت":"کندهار","Province":"کندهار","PC_Code":"2701048","ولسوالي":"کندهار","District":"KANDAHAR","د_مرکز_نوم__نام_مرکز":"شهيد عبدالطيف لیسه","Polling_Center_Name":"Shaheed Abdul Latif High School","د_مرکز_ځای__موقعیت_مرکز":"څلورمه ناحيه","Polling_Center_Location":"D04 - Nahia 4","Verification_Note":"Building","PS_Male":5,"PS_Female":0,"Map_Accuracy":"تعمیر"},"geometry":{"x":7318119.5146239251,"y":3713210.7044418454}},{"attributes":{"OBJECTID":4114,"ولایت":"کندهار","Province":"کندهار","PC_Code":"2702104","ولسوالي":"ارغنداب","District":"ARGHANDAB","د_مرکز_نوم__نام_مرکز":"د شهيد فيض مكتب","Polling_Center_Name":"Shaheed Faiz School","د_مرکز_ځای__موقعیت_مرکز":"چهارغولبه","Polling_Center_Location":"Chahar Gholba","Verification_Note":"Building","PS_Male":2,"PS_Female":1,"Map_Accuracy":"تعمیر"},"geometry":{"x":7306514.6937060505,"y":3724311.5598011091}},{"attributes":{"OBJECTID":4115,"ولایت":"کندهار","Province":"کندهار","PC_Code":"2702105","ولسوالي":"ارغنداب","District":"ARGHANDAB","د_مرکز_نوم__نام_مرکز":"مكتب كوهك","Polling_Center_Name":"Kohak School","د_مرکز_ځای__موقعیت_مرکز":"كوهك","Polling_Center_Location":"Kohak","Verification_Note":"Building","PS_Male":2,"PS_Female":1,"Map_Accuracy":"تعمیر"},"geometry":{"x":7303933.324958358,"y":3717276.6687225178}},{"attributes":{"OBJECTID":4116,"ولایت":"کندهار","Province":"کندهار","PC_Code":"2703081","ولسوالي":"دامان","District":"DAMAN","د_مرکز_نوم__نام_مرکز":"دكريم شاه خان سراچه","Polling_Center_Name":"Karim Shah Khan Saracha ","د_مرکز_ځای__موقعیت_مرکز":"ښوراندام","Polling_Center_Location":"Shorandam","Verification_Note":"Building","PS_Male":0,"PS_Female":2,"Map_Accuracy":"تعمیر"},"geometry":{"x":7326949.2096544132,"y":3709164.8680667058}},{"attributes":{"OBJECTID":4117,"ولایت":"کندهار","Province":"کندهار","PC_Code":"2704184","ولسوالي":"پنجوایې","District":"PANJWAYEE","د_مرکز_نوم__نام_مرکز":"سليمان ماكو مكتب","Polling_Center_Name":"Sulaiman Makoo School","د_مرکز_ځای__موقعیت_مرکز":"زنګي آباد","Polling_Center_Location":"Zangi Abad","Verification_Note":"Village","PS_Male":2,"PS_Female":1,"Map_Accuracy":"قریه"},"geometry":{"x":7278335.949063167,"y":3695995.197651647}},{"attributes":{"OBJECTID":4118,"ولایت":"کندهار","Province":"کندهار","PC_Code":"2704195","ولسوالي":"پنجوایې","District":"PANJWAYEE","د_مرکز_نوم__نام_مرکز":"د ملا عبدالرحمْن دربار","Polling_Center_Name":"Mullah Abdul Rahman Darbar","د_مرکز_ځای__موقعیت_مرکز":"هراسي ","Polling_Center_Location":"Herasi","Verification_Note":"Building","PS_Male":1,"PS_Female":1,"Map_Accuracy":"تعمیر"},"geometry":{"x":7291977.1196150072,"y":3703481.7608089149}},{"attributes":{"OBJECTID":4119,"ولایت":"کندهار","Province":"کندهار","PC_Code":"2705162","ولسوالي":"ژیړی","District":"ZHIRE","د_مرکز_نوم__نام_مرکز":"مكتب نلغام","Polling_Center_Name":"Nalgham School","د_مرکز_ځای__موقعیت_مرکز":"نلغام","Polling_Center_Location":"Nalgham","Verification_Note":"Village","PS_Male":1,"PS_Female":1,"Map_Accuracy":"قریه"},"geometry":{"x":7271158.2386156395,"y":3697149.8278143406}},{"attributes":{"OBJECTID":4120,"ولایت":"کندهار","Province":"کندهار","PC_Code":"2706097","ولسوالي":"شاه ولي كوټ","District":"SHAH WALI KOT","د_مرکز_نوم__نام_مرکز":"مسجد كجور","Polling_Center_Name":"Kajoor Mosque","د_مرکز_ځای__موقعیت_مرکز":"كجور","Polling_Center_Location":"Kajoor","Verification_Note":"Village","PS_Male":2,"PS_Female":0,"Map_Accuracy":"قریه"},"geometry":{"x":7337192.9360639229,"y":3795235.4037343338}},{"attributes":{"OBJECTID":4121,"ولایت":"کندهار","Province":"کندهار","PC_Code":"2706098","ولسوالي":"شاه ولي كوټ","District":"SHAH WALI KOT","د_مرکز_نوم__نام_مرکز":"مكتب زرتاله","Polling_Center_Name":"Zartala School","د_مرکز_ځای__موقعیت_مرکز":"زرتاله","Polling_Center_Location":"Zartala","Verification_Note":"Village","PS_Male":1,"PS_Female":1,"Map_Accuracy":"قریه"},"geometry":{"x":7350023.4847629741,"y":3751584.2597689182}},{"attributes":{"OBJECTID":4122,"ولایت":"کندهار","Province":"کندهار","PC_Code":"2707119","ولسوالي":"خاک ریز","District":"KHAKREZ","د_مرکز_نوم__نام_مرکز":"د ملك محمد شاه كور","Polling_Center_Name":"Malak Mohammad Shah Private House","د_مرکز_ځای__موقعیت_مرکز":"لام","Polling_Center_Location":"Laam","Verification_Note":"Village","PS_Male":2,"PS_Female":0,"Map_Accuracy":"قریه"},"geometry":{"x":7278007.6723376028,"y":3784413.2230192274}},{"attributes":{"OBJECTID":4123,"ولایت":"کندهار","Province":"کندهار","PC_Code":"2709127","ولسوالي":"غورك","District":"GHORAK","د_مرکز_نوم__نام_مرکز":"كلينيك شاه كاريز","Polling_Center_Name":"Shah Karez Clinic","د_مرکز_ځای__موقعیت_مرکز":"شاه كاريز","Polling_Center_Location":"Shah Karez","Verification_Note":"Building","PS_Male":1,"PS_Female":1,"Map_Accuracy":"تعمیر"},"geometry":{"x":7253154.9002711847,"y":3774369.1542262211}},{"attributes":{"OBJECTID":4124,"ولایت":"کندهار","Province":"کندهار","PC_Code":"2709128","ولسوالي":"غورك","District":"GHORAK","د_مرکز_نوم__نام_مرکز":"باران مكتب","Polling_Center_Name":"Baran School","د_مرکز_ځای__موقعیت_مرکز":"شاه كاريز","Polling_Center_Location":"Shah Karez","Verification_Note":"Village","PS_Male":1,"PS_Female":1,"Map_Accuracy":"قریه"},"geometry":{"x":7252954.368227277,"y":3774021.0748092085}},{"attributes":{"OBJECTID":4125,"ولایت":"کندهار","Province":"کندهار","PC_Code":"2710132","ولسوالي":"میوند","District":"MAIWAND","د_مرکز_نوم__نام_مرکز":"مسجد قلعه ښامير","Polling_Center_Name":"Qala Shameer Mosque","د_مرکز_ځای__موقعیت_مرکز":"قلعه ښامير","Polling_Center_Location":"Shameer Qala","Verification_Note":"Village","PS_Male":1,"PS_Female":1,"Map_Accuracy":"قریه"},"geometry":{"x":7253529.8911078647,"y":3700543.2360765412}},{"attributes":{"OBJECTID":4126,"ولایت":"کندهار","Province":"کندهار","PC_Code":"2710146","ولسوالي":"میوند","District":"MAIWAND","د_مرکز_نوم__نام_مرکز":"د پيرزاده كلي هوټل","Polling_Center_Name":"Pirzada Village Hotel","د_مرکز_ځای__موقعیت_مرکز":"پيرزاده كلي","Polling_Center_Location":"Pirzada Village","Verification_Note":"Building","PS_Male":2,"PS_Female":0,"Map_Accuracy":"تعمیر"},"geometry":{"x":7243067.5131809339,"y":3712833.2235500142}},{"attributes":{"OBJECTID":4127,"ولایت":"کندهار","Province":"کندهار","PC_Code":"2710147","ولسوالي":"میوند","District":"MAIWAND","د_مرکز_نوم__نام_مرکز":"د ملك عطاءالله كور","Polling_Center_Name":"Malak Ataullah Private House","د_مرکز_ځای__موقعیت_مرکز":"شاهي كاريز","Polling_Center_Location":"Shahee Karez","Verification_Note":"Village","PS_Male":2,"PS_Female":0,"Map_Accuracy":"قریه"},"geometry":{"x":7261265.6149932854,"y":3700691.3177973405}},{"attributes":{"OBJECTID":4128,"ولایت":"کندهار","Province":"کندهار","PC_Code":"2711223","ولسوالي":"سپین بولدک","District":"SPIN BOLDAK","د_مرکز_نوم__نام_مرکز":"د حاجي محمد ايوب مكتب","Polling_Center_Name":"Haji Mohammad Ayub School","د_مرکز_ځای__موقعیت_مرکز":"رباط","Polling_Center_Location":"Rabat","Verification_Note":"Village","PS_Male":3,"PS_Female":1,"Map_Accuracy":"قریه"},"geometry":{"x":7394219.7972401865,"y":3638810.8204572722}},{"attributes":{"OBJECTID":4129,"ولایت":"کندهار","Province":"کندهار","PC_Code":"2714201","ولسوالي":"شورابك","District":"SHORABAK","د_مرکز_نوم__نام_مرکز":"د ولسوالي مركز","Polling_Center_Name":"District Building Office","د_مرکز_ځای__موقعیت_مرکز":"ابوزي","Polling_Center_Location":"Abozi","Verification_Note":"Village","PS_Male":4,"PS_Female":2,"Map_Accuracy":"قریه"},"geometry":{"x":7346475.9107025787,"y":3520626.0091048107}},{"attributes":{"OBJECTID":4130,"ولایت":"کندهار","Province":"کندهار","PC_Code":"2714202","ولسوالي":"شورابك","District":"SHORABAK","د_مرکز_نوم__نام_مرکز":"كسمزي","Polling_Center_Name":"Kasamzai ","د_مرکز_ځای__موقعیت_مرکز":"د كسمزو كلي","Polling_Center_Location":"Kasamzo Village","Verification_Note":"Village","PS_Male":3,"PS_Female":2,"Map_Accuracy":"قریه"},"geometry":{"x":7356109.3357961737,"y":3481536.2154696435}},{"attributes":{"OBJECTID":4131,"ولایت":"کندهار","Province":"کندهار","PC_Code":"2715256","ولسوالي":"معروف","District":"MARUF","د_مرکز_نوم__نام_مرکز":"ټي بي سي","Polling_Center_Name":"TBC","د_مرکز_ځای__موقعیت_مرکز":" ټي بي سي سرطانه","Polling_Center_Location":"TBC Saratan","Verification_Note":"Village","PS_Male":2,"PS_Female":2,"Map_Accuracy":"قریه"},"geometry":{"x":7485868.8701830991,"y":3713272.0961295143}},{"attributes":{"OBJECTID":4132,"ولایت":"جوزجان","Province":"JAWZJAN","PC_Code":"2801002","ولسوالي":"شبرغان","District":"SHEBERGHAN","د_مرکز_نوم__نام_مرکز":"لیسه خدیجه","Polling_Center_Name":"Khadija High School","د_مرکز_ځای__موقعیت_مرکز":"ناحیه سوم","Polling_Center_Location":"D03 - Nahia 3","Verification_Note":"Building","PS_Male":7,"PS_Female":5,"Map_Accuracy":"تعمیر"},"geometry":{"x":7318850.8925839961,"y":4392308.2637604475}},{"attributes":{"OBJECTID":4133,"ولایت":"جوزجان","Province":"JAWZJAN","PC_Code":"2801003","ولسوالي":"شبرغان","District":"SHEBERGHAN","د_مرکز_نوم__نام_مرکز":"لیسه میرویس مینه","Polling_Center_Name":"Mirwais Neeka High Schoo","د_مرکز_ځای__موقعیت_مرکز":"ناحیه دوم","Polling_Center_Location":"D02 - Nahia 2","Verification_Note":"Building","PS_Male":3,"PS_Female":2,"Map_Accuracy":"تعمیر"},"geometry":{"x":7319377.32134277,"y":4393808.9970752448}},{"attributes":{"OBJECTID":4134,"ولایت":"جوزجان","Province":"JAWZJAN","PC_Code":"2801006","ولسوالي":"شبرغان","District":"SHEBERGHAN","د_مرکز_نوم__نام_مرکز":"لیسه فرزام شهید","Polling_Center_Name":"Farzam Shaheed High School","د_مرکز_ځای__موقعیت_مرکز":"ناحیه سوم","Polling_Center_Location":"D03 - Nahia 3","Verification_Note":"Building","PS_Male":4,"PS_Female":2,"Map_Accuracy":"تعمیر"},"geometry":{"x":7319660.86544415,"y":4389715.35691607}},{"attributes":{"OBJECTID":4135,"ولایت":"جوزجان","Province":"JAWZJAN","PC_Code":"2801022","ولسوالي":"شبرغان","District":"SHEBERGHAN","د_مرکز_نوم__نام_مرکز":"لیسه تونکه","Polling_Center_Name":"Tonka High School","د_مرکز_ځای__موقعیت_مرکز":"ناحیه اول","Polling_Center_Location":"D01 - Nahia 1","Verification_Note":"Building","PS_Male":3,"PS_Female":2,"Map_Accuracy":"تعمیر"},"geometry":{"x":7324382.56290938,"y":4384281.2888362631}},{"attributes":{"OBJECTID":4136,"ولایت":"جوزجان","Province":"JAWZJAN","PC_Code":"2801023","ولسوالي":"شبرغان","District":"SHEBERGHAN","د_مرکز_نوم__نام_مرکز":"مسجد منگوتی افغانیه","Polling_Center_Name":"Mangotai Afghania Mosque","د_مرکز_ځای__موقعیت_مرکز":"ناحیه سوم","Polling_Center_Location":"D03 - Nahia 3","Verification_Note":"Building","PS_Male":2,"PS_Female":1,"Map_Accuracy":"تعمیر"},"geometry":{"x":7325529.426397305,"y":4368633.4800023139}},{"attributes":{"OBJECTID":4137,"ولایت":"جوزجان","Province":"JAWZJAN","PC_Code":"2804071","ولسوالي":"منگجیک","District":"MINGAJIK","د_مرکز_نوم__نام_مرکز":"مکتب بالجه عبدالرحمن","Polling_Center_Name":"Balja Abdul Rahman School","د_مرکز_ځای__موقعیت_مرکز":"بالجه عبدالرحمن","Polling_Center_Location":"Balja Abdul Rahman","Verification_Note":"Building","PS_Male":2,"PS_Female":1,"Map_Accuracy":"تعمیر"},"geometry":{"x":7350708.0740278661,"y":4448178.802813597}},{"attributes":{"OBJECTID":4138,"ولایت":"جوزجان","Province":"JAWZJAN","PC_Code":"2806084","ولسوالي":"خم آب","District":"KHAMYAB","د_مرکز_نوم__نام_مرکز":"مکتب خم آب","Polling_Center_Name":"Khum Aab","د_مرکز_ځای__موقعیت_مرکز":"خم آب","Polling_Center_Location":"Khum Aab","Verification_Note":"Building","PS_Male":2,"PS_Female":2,"Map_Accuracy":"تعمیر"},"geometry":{"x":7317799.9965158924,"y":4512650.3192212433}},{"attributes":{"OBJECTID":4139,"ولایت":"جوزجان","Province":"JAWZJAN","PC_Code":"2807033","ولسوالي":"آقچه","District":"AQCHAH","د_مرکز_نوم__نام_مرکز":"لیسه ذکور آقچه","Polling_Center_Name":"Aaqcha Boys High School","د_مرکز_ځای__موقعیت_مرکز":"ناحیه اول","Polling_Center_Location":"D01 - Nahia 1","Verification_Note":"Building","PS_Male":5,"PS_Female":3,"Map_Accuracy":"تعمیر"},"geometry":{"x":7366847.3708385788,"y":4425790.0337180793}},{"attributes":{"OBJECTID":4140,"ولایت":"جوزجان","Province":"JAWZJAN","PC_Code":"2808050","ولسوالي":"فیض آباد","District":"FAIZABAD","د_مرکز_نوم__نام_مرکز":"مکتب متوسطه ذکور حیدر آباد","Polling_Center_Name":"Haidar Abad Boys Secondary School","د_مرکز_ځای__موقعیت_مرکز":"حیدر آباد","Polling_Center_Location":"Haidar Abad","Verification_Note":"Building","PS_Male":1,"PS_Female":1,"Map_Accuracy":"تعمیر"},"geometry":{"x":7402765.0609529428,"y":4410453.8996490389}},{"attributes":{"OBJECTID":4141,"ولایت":"فارياب","Province":"FARYAB","PC_Code":"2901005","ولسوالي":"میمنه ","District":"MAIMANA","د_مرکز_نوم__نام_مرکز":"لیسه ذکور تورپاختو ","Polling_Center_Name":"Tor Pakhto Boys High School","د_مرکز_ځای__موقعیت_مرکز":"ناحیه هفتم","Polling_Center_Location":"D07 - Nahia 7","Verification_Note":"Building","PS_Male":2,"PS_Female":3,"Map_Accuracy":"تعمیر"},"geometry":{"x":7207612.7908100262,"y":4290455.2456676736}},{"attributes":{"OBJECTID":4142,"ولایت":"فارياب","Province":"FARYAB","PC_Code":"2901006","ولسوالي":"میمنه ","District":"MAIMANA","د_مرکز_نوم__نام_مرکز":"لیسه ستاره","Polling_Center_Name":"Sitara High School","د_مرکز_ځای__موقعیت_مرکز":"ناحیه جهارم","Polling_Center_Location":"D04 - Nahia 4","Verification_Note":"Building","PS_Male":0,"PS_Female":5,"Map_Accuracy":"تعمیر"},"geometry":{"x":7211188.2214597985,"y":4290114.1226581931}},{"attributes":{"OBJECTID":4143,"ولایت":"فارياب","Province":"FARYAB","PC_Code":"2902025","ولسوالي":"پشتون کوت","District":"PASHTUN KOT","د_مرکز_نوم__نام_مرکز":"مسجد قلعه سر حوض","Polling_Center_Name":"Sar Hawz Qala Mosque","د_مرکز_ځای__موقعیت_مرکز":" سر حوض","Polling_Center_Location":"Sar Hawz","Verification_Note":"Village","PS_Male":1,"PS_Female":1,"Map_Accuracy":"قریه"},"geometry":{"x":7211718.3215353712,"y":4245473.0826799423}},{"attributes":{"OBJECTID":4144,"ولایت":"فارياب","Province":"FARYAB","PC_Code":"2902026","ولسوالي":"پشتون کوت","District":"PASHTUN KOT","د_مرکز_نوم__نام_مرکز":"مسجد آقدره","Polling_Center_Name":"Aaqdara Mosque","د_مرکز_ځای__موقعیت_مرکز":"آقدره","Polling_Center_Location":"Aaqdara","Verification_Note":"Village","PS_Male":1,"PS_Female":1,"Map_Accuracy":"قریه"},"geometry":{"x":7225006.2152304016,"y":4259195.2393907458}},{"attributes":{"OBJECTID":4145,"ولایت":"فارياب","Province":"FARYAB","PC_Code":"2902046","ولسوالي":"پشتون کوت","District":"PASHTUN KOT","د_مرکز_نوم__نام_مرکز":"مکتب سرخاب گل قدوق","Polling_Center_Name":"Sarkhab Gul Qadoq School","د_مرکز_ځای__موقعیت_مرکز":"سرخاب گل قدوق","Polling_Center_Location":"Sarkhab Gul Qadoq","Verification_Note":"Village","PS_Male":1,"PS_Female":1,"Map_Accuracy":"قریه"},"geometry":{"x":7204907.4277343154,"y":4277423.57138145}},{"attributes":{"OBJECTID":4146,"ولایت":"فارياب","Province":"FARYAB","PC_Code":"2902050","ولسوالي":"پشتون کوت","District":"PASHTUN KOT","د_مرکز_نوم__نام_مرکز":"مکتب عاشور بابا","Polling_Center_Name":"Ashor Baba School","د_مرکز_ځای__موقعیت_مرکز":"عاشور بابا","Polling_Center_Location":"Ashor Baba","Verification_Note":"Village","PS_Male":1,"PS_Female":1,"Map_Accuracy":"قریه"},"geometry":{"x":7195646.041284509,"y":4290762.9952389}},{"attributes":{"OBJECTID":4147,"ولایت":"فارياب","Province":"FARYAB","PC_Code":"2904067","ولسوالي":"المار","District":"ALMAR","د_مرکز_نوم__نام_مرکز":"مسجد جامع حاجی سعید احمد ","Polling_Center_Name":"Haji Sayeed Ahmad Mosque","د_مرکز_ځای__موقعیت_مرکز":"بخار قلعه","Polling_Center_Location":"Bukhar Qala","Verification_Note":"Building","PS_Male":1,"PS_Female":1,"Map_Accuracy":"تعمیر"},"geometry":{"x":7180832.0620110258,"y":4280940.1147189811}},{"attributes":{"OBJECTID":4148,"ولایت":"فارياب","Province":"FARYAB","PC_Code":"2905140","ولسوالي":"بل چراغ","District":"BIL CHIRAGH","د_مرکز_نوم__نام_مرکز":"مکتب متوسطه قورچی","Polling_Center_Name":"Qorchi Secondary School","د_مرکز_ځای__موقعیت_مرکز":"قورچی","Polling_Center_Location":"Qorchi","Verification_Note":"Village","PS_Male":2,"PS_Female":2,"Map_Accuracy":"قریه"},"geometry":{"x":7301491.4061367847,"y":4287793.01822909}},{"attributes":{"OBJECTID":4149,"ولایت":"فارياب","Province":"FARYAB","PC_Code":"2905141","ولسوالي":"بل چراغ","District":"BIL CHIRAGH","د_مرکز_نوم__نام_مرکز":"مکتب نسوان کولیان","Polling_Center_Name":"Koliyan Girls School","د_مرکز_ځای__موقعیت_مرکز":"کولیان","Polling_Center_Location":"Kolyan","Verification_Note":"Village","PS_Male":3,"PS_Female":1,"Map_Accuracy":"قریه"},"geometry":{"x":7280762.6460575722,"y":4284891.58426781}},{"attributes":{"OBJECTID":4150,"ولایت":"فارياب","Province":"FARYAB","PC_Code":"2906144","ولسوالي":"شیرین تگاب","District":"SHIRIN TAGAB","د_مرکز_نوم__نام_مرکز":"بارکزی","Polling_Center_Name":"Barakzai ","د_مرکز_ځای__موقعیت_مرکز":"قریه بارکزی","Polling_Center_Location":"Barakzai Village","Verification_Note":"Village","PS_Male":3,"PS_Female":4,"Map_Accuracy":"قریه"},"geometry":{"x":7208373.8131504916,"y":4344537.5351949111}},{"attributes":{"OBJECTID":4151,"ولایت":"فارياب","Province":"FARYAB","PC_Code":"2907081","ولسوالي":"قیصار ","District":"QAISAR","د_مرکز_نوم__نام_مرکز":"مکتب ابتدائیه ذکور هزاره قلعه چهلگزی","Polling_Center_Name":"hazara Qala Chehlgazai Boys Primary School","د_مرکز_ځای__موقعیت_مرکز":"هزاره قلعه ","Polling_Center_Location":"Hazara Qala","Verification_Note":"Building","PS_Male":2,"PS_Female":2,"Map_Accuracy":"تعمیر"},"geometry":{"x":7126844.4233085066,"y":4265128.3197502941}},{"attributes":{"OBJECTID":4152,"ولایت":"فارياب","Province":"FARYAB","PC_Code":"2907086","ولسوالي":"قیصار ","District":"QAISAR","د_مرکز_نوم__نام_مرکز":"مسجد جامع شاخ","Polling_Center_Name":"Shakh Mosque","د_مرکز_ځای__موقعیت_مرکز":"بازار کهنه شاخ","Polling_Center_Location":"Bazar Kuhna Shakh","Verification_Note":"Building","PS_Male":2,"PS_Female":2,"Map_Accuracy":"تعمیر"},"geometry":{"x":7137630.1643186808,"y":4246318.6046582535}},{"attributes":{"OBJECTID":4153,"ولایت":"فارياب","Province":"FARYAB","PC_Code":"2907103","ولسوالي":"قیصار ","District":"QAISAR","د_مرکز_نوم__نام_مرکز":"مسجد جامع صیاد بورغن","Polling_Center_Name":"Sayad Borghan Mosque","د_مرکز_ځای__موقعیت_مرکز":"صیاد بورغن","Polling_Center_Location":"Sayad Borghan ","Verification_Note":"Building","PS_Male":2,"PS_Female":1,"Map_Accuracy":"تعمیر"},"geometry":{"x":7167709.5746077858,"y":4247452.436013341}},{"attributes":{"OBJECTID":4154,"ولایت":"فارياب","Province":"FARYAB","PC_Code":"2907104","ولسوالي":"قیصار ","District":"QAISAR","د_مرکز_نوم__نام_مرکز":"لیسه نادم قیصاری","Polling_Center_Name":"Naadim Qaisari High School","د_مرکز_ځای__موقعیت_مرکز":"مرکز ولسوالی قیصار","Polling_Center_Location":"District Compound","Verification_Note":"Building","PS_Male":2,"PS_Female":2,"Map_Accuracy":"تعمیر"},"geometry":{"x":7157112.3676267937,"y":4257968.0198003054}},{"attributes":{"OBJECTID":4155,"ولایت":"فارياب","Province":"FARYAB","PC_Code":"2907108","ولسوالي":"قیصار ","District":"QAISAR","د_مرکز_نوم__نام_مرکز":"مسجد خیل رستم خان","Polling_Center_Name":"Khel Rostum Khan Mosque","د_مرکز_ځای__موقعیت_مرکز":"قریه خیل رستم خان","Polling_Center_Location":"Khel Rostum Khan Village","Verification_Note":"Village","PS_Male":2,"PS_Female":1,"Map_Accuracy":"قریه"},"geometry":{"x":7119531.8849201165,"y":4256806.0716552734}},{"attributes":{"OBJECTID":4156,"ولایت":"فارياب","Province":"FARYAB","PC_Code":"2908134","ولسوالي":"گرزیوان","District":"GURZIWAN","د_مرکز_نوم__نام_مرکز":"مسجد جامع فریش","Polling_Center_Name":"Faresh Mosque","د_مرکز_ځای__موقعیت_مرکز":"قریه فریش","Polling_Center_Location":"Faresh Village","Verification_Note":"Building","PS_Male":1,"PS_Female":2,"Map_Accuracy":"تعمیر"},"geometry":{"x":7244908.960197635,"y":4251170.6969063357}},{"attributes":{"OBJECTID":4157,"ولایت":"فارياب","Province":"FARYAB","PC_Code":"2909160","ولسوالي":"دولت آباد","District":"DAWLAT ABAD","د_مرکز_نوم__نام_مرکز":"مسجد جامع بازار قلعه","Polling_Center_Name":"Bazar Qala Mosque","د_مرکز_ځای__موقعیت_مرکز":"بازار قلعه","Polling_Center_Location":"Bazar Qala","Verification_Note":"Building","PS_Male":2,"PS_Female":1,"Map_Accuracy":"تعمیر"},"geometry":{"x":7223242.3467668332,"y":4351794.353377521}},{"attributes":{"OBJECTID":4158,"ولایت":"فارياب","Province":"FARYAB","PC_Code":"2909161","ولسوالي":"دولت آباد","District":"DAWLAT ABAD","د_مرکز_نوم__نام_مرکز":"مکتب طاهری, شور دریا","Polling_Center_Name":"Taheri School","د_مرکز_ځای__موقعیت_مرکز":"شور دریا","Polling_Center_Location":"Shor Darya","Verification_Note":"Village","PS_Male":1,"PS_Female":1,"Map_Accuracy":"قریه"},"geometry":{"x":7218490.6798682958,"y":4364013.0827330649}},{"attributes":{"OBJECTID":4159,"ولایت":"فارياب","Province":"FARYAB","PC_Code":"2910118","ولسوالي":"کوهستان","District":"KOHISTAN","د_مرکز_نوم__نام_مرکز":"مسجد خواجه هشتمین","Polling_Center_Name":"Khwaja Hashtumeen Mosque","د_مرکز_ځای__موقعیت_مرکز":"قریه هشتمین","Polling_Center_Location":"Hashtumeen Village","Verification_Note":"Building","PS_Male":1,"PS_Female":1,"Map_Accuracy":"تعمیر"},"geometry":{"x":7238070.037262,"y":4224416.0474697426}},{"attributes":{"OBJECTID":4160,"ولایت":"فارياب","Province":"FARYAB","PC_Code":"2910119","ولسوالي":"کوهستان","District":"KOHISTAN","د_مرکز_نوم__نام_مرکز":"مسجد گورزن","Polling_Center_Name":"Gorzan Mosque","د_مرکز_ځای__موقعیت_مرکز":"گورزن","Polling_Center_Location":"Gorzan ","Verification_Note":"Building","PS_Male":2,"PS_Female":2,"Map_Accuracy":"تعمیر"},"geometry":{"x":7223796.8580935374,"y":4220423.7709125876}},{"attributes":{"OBJECTID":4161,"ولایت":"فارياب","Province":"FARYAB","PC_Code":"2913182","ولسوالي":"اندخوی","District":"ANDKHOY","د_مرکز_نوم__نام_مرکز":"لیسه ابو مسلم","Polling_Center_Name":"Abu Muslim High School","د_مرکز_ځای__موقعیت_مرکز":"بازار اندخوی","Polling_Center_Location":"Bazar Andkhoy","Verification_Note":"Building","PS_Male":2,"PS_Female":3,"Map_Accuracy":"تعمیر"},"geometry":{"x":7249555.8776817285,"y":4432536.1948983}},{"attributes":{"OBJECTID":4162,"ولایت":"فارياب","Province":"FARYAB","PC_Code":"2913187","ولسوالي":"اندخوی","District":"ANDKHOY","د_مرکز_نوم__نام_مرکز":"لیسه نسوان تواچی ","Polling_Center_Name":"Tawachi Girls High School","د_مرکز_ځای__موقعیت_مرکز":"تواچی ","Polling_Center_Location":"Tawachi","Verification_Note":"Building","PS_Male":3,"PS_Female":2,"Map_Accuracy":"تعمیر"},"geometry":{"x":7251014.0060506389,"y":4429404.4362720549}},{"attributes":{"OBJECTID":4163,"ولایت":"فارياب","Province":"FARYAB","PC_Code":"2913188","ولسوالي":"اندخوی","District":"ANDKHOY","د_مرکز_نوم__نام_مرکز":"لیسه نسوان کلال خانه","Polling_Center_Name":"Kulal Khana Girls High School","د_مرکز_ځای__موقعیت_مرکز":"کلال خانه","Polling_Center_Location":"Kulal Khana","Verification_Note":"Building","PS_Male":3,"PS_Female":2,"Map_Accuracy":"تعمیر"},"geometry":{"x":7248778.6505629793,"y":4433104.6338480264}},{"attributes":{"OBJECTID":4164,"ولایت":"هلمند","Province":"HELMAND","PC_Code":"3001008","ولسوالي":"لشکرگاه","District":"LASHKARGAH","د_مرکز_نوم__نام_مرکز":"لیسه ملالی","Polling_Center_Name":"Malalai High School","د_مرکز_ځای__موقعیت_مرکز":"کارته لگن ناحیه 2","Polling_Center_Location":"Karta-e-Lagan Nahia 2","Verification_Note":"Building","PS_Male":2,"PS_Female":2,"Map_Accuracy":"تعمیر"},"geometry":{"x":7166414.8665909469,"y":3710777.8008148298}},{"attributes":{"OBJECTID":4165,"ولایت":"هلمند","Province":"HELMAND","PC_Code":"3001014","ولسوالي":"لشکرگاه","District":"LASHKARGAH","د_مرکز_نوم__نام_مرکز":"د تور تانک د نجونو مکتب","Polling_Center_Name":"Tor Tank Girls School","د_مرکز_ځای__موقعیت_مرکز":"تور تانک","Polling_Center_Location":"Tor Tank","Verification_Note":"Building","PS_Male":0,"PS_Female":5,"Map_Accuracy":"تعمیر"},"geometry":{"x":7164788.5066415742,"y":3710699.5906378552}},{"attributes":{"OBJECTID":4166,"ولایت":"هلمند","Province":"HELMAND","PC_Code":"3001015","ولسوالي":"لشکرگاه","District":"LASHKARGAH","د_مرکز_نوم__نام_مرکز":"د کلا کهنه د هلکانو مکتب","Polling_Center_Name":"Kala Kuhna Boys School","د_مرکز_ځای__موقعیت_مرکز":"کلا کهنه","Polling_Center_Location":"Kala Kuhna","Verification_Note":"Building","PS_Male":3,"PS_Female":3,"Map_Accuracy":"تعمیر"},"geometry":{"x":7163839.0671573728,"y":3707327.88590046}},{"attributes":{"OBJECTID":4167,"ولایت":"هلمند","Province":"HELMAND","PC_Code":"3001031","ولسوالي":"لشکرگاه","District":"LASHKARGAH","د_مرکز_نوم__نام_مرکز":"د حاجی عبدالله مسجد","Polling_Center_Name":"Haji Abdullah Mosque","د_مرکز_ځای__موقعیت_مرکز":"د مهاجرینو کلی","Polling_Center_Location":"Muhajereeno Village","Verification_Note":"Building","PS_Male":4,"PS_Female":3,"Map_Accuracy":"تعمیر"},"geometry":{"x":7165151.1777502112,"y":3716339.9809226543}},{"attributes":{"OBJECTID":4168,"ولایت":"هلمند","Province":"HELMAND","PC_Code":"3002066","ولسوالي":"نادعلی","District":"NAD ALI","د_مرکز_نوم__نام_مرکز":"کلینیک ولسوالی ناد علی","Polling_Center_Name":"Nad Ali District Clinic","د_مرکز_ځای__موقعیت_مرکز":"مرکز ولسوالی","Polling_Center_Location":"District Compound","Verification_Note":"Building","PS_Male":3,"PS_Female":1,"Map_Accuracy":"تعمیر"},"geometry":{"x":7150974.3077524155,"y":3716197.2972906306}},{"attributes":{"OBJECTID":4169,"ولایت":"هلمند","Province":"HELMAND","PC_Code":"3002067","ولسوالي":"نادعلی","District":"NAD ALI","د_مرکز_نوم__نام_مرکز":"ليسه مركزي ","Polling_Center_Name":"Central High School","د_مرکز_ځای__موقعیت_مرکز":"مرکز ولسوالی","Polling_Center_Location":"District Compound","Verification_Note":"Building","PS_Male":4,"PS_Female":4,"Map_Accuracy":"تعمیر"},"geometry":{"x":7150988.0056157522,"y":3716719.8171445131}},{"attributes":{"OBJECTID":4170,"ولایت":"هلمند","Province":"HELMAND","PC_Code":"3003094","ولسوالي":"ناوه بارکزایی","District":"NAWA-E-BARAKZAYI","د_مرکز_نوم__نام_مرکز":"د نبی خان مسجد","Polling_Center_Name":"Nabi Khan Mosque","د_مرکز_ځای__موقعیت_مرکز":"خلج","Polling_Center_Location":"Khalj","Verification_Note":"Village","PS_Male":3,"PS_Female":1,"Map_Accuracy":"قریه"},"geometry":{"x":7157922.3171098642,"y":3683591.9273597375}},{"attributes":{"OBJECTID":4171,"ولایت":"هلمند","Province":"HELMAND","PC_Code":"3003095","ولسوالي":"ناوه بارکزایی","District":"NAWA-E-BARAKZAYI","د_مرکز_نوم__نام_مرکز":"د عبدالحكيم مسجد","Polling_Center_Name":"Abdul Hakeem Mosque","د_مرکز_ځای__موقعیت_مرکز":"خلج","Polling_Center_Location":"Khalj","Verification_Note":"Building","PS_Male":0,"PS_Female":4,"Map_Accuracy":"تعمیر"},"geometry":{"x":7158330.94980986,"y":3681996.1418263242}},{"attributes":{"OBJECTID":4172,"ولایت":"هلمند","Province":"HELMAND","PC_Code":"3003099","ولسوالي":"ناوه بارکزایی","District":"NAWA-E-BARAKZAYI","د_مرکز_نوم__نام_مرکز":"د نیک محمد مسجد","Polling_Center_Name":"Nek Mohammad Mosque","د_مرکز_ځای__موقعیت_مرکز":"هزار اسپ","Polling_Center_Location":"Hazar Asp","Verification_Note":"Building","PS_Male":3,"PS_Female":1,"Map_Accuracy":"تعمیر"},"geometry":{"x":7156056.7538386732,"y":3677690.1794930547}},{"attributes":{"OBJECTID":4173,"ولایت":"هلمند","Province":"HELMAND","PC_Code":"3003100","ولسوالي":"ناوه بارکزایی","District":"NAWA-E-BARAKZAYI","د_مرکز_نوم__نام_مرکز":"كلينيك بلاک ـ ۱","Polling_Center_Name":"Clinic Block 1","د_مرکز_ځای__موقعیت_مرکز":"بلاک ـ ۱","Polling_Center_Location":"Block 1","Verification_Note":"Building","PS_Male":3,"PS_Female":1,"Map_Accuracy":"تعمیر"},"geometry":{"x":7159904.5532261543,"y":3683906.1063823029}},{"attributes":{"OBJECTID":4174,"ولایت":"هلمند","Province":"HELMAND","PC_Code":"3004034","ولسوالي":"نهرسراج","District":"NAHR-E-SARAJ","د_مرکز_نوم__نام_مرکز":"مكتب وزير فتح خان ","Polling_Center_Name":"Wazir Fateh Khan School","د_مرکز_ځای__موقعیت_مرکز":"مالگیر","Polling_Center_Location":"Malgeer","Verification_Note":"Village","PS_Male":3,"PS_Female":2,"Map_Accuracy":"قریه"},"geometry":{"x":7181114.6476516053,"y":3735948.1669292152}},{"attributes":{"OBJECTID":4175,"ولایت":"هلمند","Province":"HELMAND","PC_Code":"3004035","ولسوالي":"نهرسراج","District":"NAHR-E-SARAJ","د_مرکز_نوم__نام_مرکز":"ليسه ابوالفتح بستي ","Polling_Center_Name":"Abul Fath Basti High School","د_مرکز_ځای__موقعیت_مرکز":"گرشک","Polling_Center_Location":"Gereshk","Verification_Note":"Building","PS_Male":5,"PS_Female":2,"Map_Accuracy":"تعمیر"},"geometry":{"x":7188361.1246013753,"y":3739180.7843309343}},{"attributes":{"OBJECTID":4176,"ولایت":"هلمند","Province":"HELMAND","PC_Code":"3004049","ولسوالي":"نهرسراج","District":"NAHR-E-SARAJ","د_مرکز_نوم__نام_مرکز":"خانه علاوالدين","Polling_Center_Name":"Alauddin Private House","د_مرکز_ځای__موقعیت_مرکز":"منطقه نهرسراج","Polling_Center_Location":"Nahr Siraj Area","Verification_Note":"Village","PS_Male":3,"PS_Female":1,"Map_Accuracy":"قریه"},"geometry":{"x":7196183.1589407846,"y":3727835.6579503044}},{"attributes":{"OBJECTID":4177,"ولایت":"هلمند","Province":"HELMAND","PC_Code":"3006123","ولسوالي":"گرم سیر","District":"GARM SER","د_مرکز_نوم__نام_مرکز":"دولتی تعمير","Polling_Center_Name":"Government Building","د_مرکز_ځای__موقعیت_مرکز":"بي بي جانه","Polling_Center_Location":"Bibi Jana","Verification_Note":"District","PS_Male":2,"PS_Female":2,"Map_Accuracy":"ولسوالی"},"geometry":{"x":7163140.4093352333,"y":3613502.2551333159}},{"attributes":{"OBJECTID":4178,"ولایت":"هلمند","Province":"HELMAND","PC_Code":"3009186","ولسوالي":"موسی قلعه","District":"MUSA QALA","د_مرکز_نوم__نام_مرکز":"مرکزی ليسه","Polling_Center_Name":"Central High School","د_مرکز_ځای__موقعیت_مرکز":"تخته پول","Polling_Center_Location":"Takhta Pol","Verification_Note":"Building","PS_Male":4,"PS_Female":1,"Map_Accuracy":"تعمیر"},"geometry":{"x":7210283.0893593282,"y":3809168.2176853567}},{"attributes":{"OBJECTID":4179,"ولایت":"هلمند","Province":"HELMAND","PC_Code":"3010157","ولسوالي":"کجکی","District":"KAJAKI","د_مرکز_نوم__نام_مرکز":"مكتب مرکز ولسوالی","Polling_Center_Name":"District Center School","د_مرکز_ځای__موقعیت_مرکز":"مرکز ولسوالی","Polling_Center_Location":"District Compound","Verification_Note":"Village","PS_Male":3,"PS_Female":2,"Map_Accuracy":"قریه"},"geometry":{"x":7247322.3155510686,"y":3806329.8494288921}},{"attributes":{"OBJECTID":4180,"ولایت":"هلمند","Province":"HELMAND","PC_Code":"3010158","ولسوالي":"کجکی","District":"KAJAKI","د_مرکز_نوم__نام_مرکز":"مسجد کجکی وسط","Polling_Center_Name":"Kajaki Wasat Mosque","د_مرکز_ځای__موقعیت_مرکز":"کجکی وسط","Polling_Center_Location":"Kajaki Wasat","Verification_Note":"Village","PS_Male":3,"PS_Female":1,"Map_Accuracy":"قریه"},"geometry":{"x":7244901.4928861968,"y":3809270.6119091287}},{"attributes":{"OBJECTID":4181,"ولایت":"هلمند","Province":"HELMAND","PC_Code":"3014076","ولسوالي":"مارجه","District":"MARJA","د_مرکز_نوم__نام_مرکز":"خانه میراب","Polling_Center_Name":"Miraab Private House","د_مرکز_ځای__موقعیت_مرکز":"بلاک ۱۱ کلان","Polling_Center_Location":"Block 11 Kalan","Verification_Note":"Village","PS_Male":2,"PS_Female":0,"Map_Accuracy":"قریه"},"geometry":{"x":7137661.0732884966,"y":3682036.4908818305}},{"attributes":{"OBJECTID":4182,"ولایت":"هلمند","Province":"HELMAND","PC_Code":"3014077","ولسوالي":"مارجه","District":"MARJA","د_مرکز_نوم__نام_مرکز":"مسجد مارجه بلاک الف ـ ۱","Polling_Center_Name":"Marja Block 1 - A Mosque","د_مرکز_ځای__موقعیت_مرکز":"مارجه بلاک الف ـ ۱","Polling_Center_Location":"Marja Block 1 - A","Verification_Note":"Village","PS_Male":3,"PS_Female":1,"Map_Accuracy":"قریه"},"geometry":{"x":7135840.3372630626,"y":3698102.6617155}},{"attributes":{"OBJECTID":4183,"ولایت":"هلمند","Province":"HELMAND","PC_Code":"3014085","ولسوالي":"مارجه","District":"MARJA","د_مرکز_نوم__نام_مرکز":"د مير همزه كور","Polling_Center_Name":"Mir Hamza Private House","د_مرکز_ځای__موقعیت_مرکز":"تریخ زابر","Polling_Center_Location":"Treekh Zabar","Verification_Note":"Village","PS_Male":2,"PS_Female":1,"Map_Accuracy":"قریه"},"geometry":{"x":7150266.1087367125,"y":3701548.9711350873}},{"attributes":{"OBJECTID":4184,"ولایت":"بادغيس","Province":"BADGHIS","PC_Code":"3101014","ولسوالي":"قلعه نو","District":"QALA-E-NOW","د_مرکز_نوم__نام_مرکز":"قریه میر میراک","Polling_Center_Name":"Mir Mirak Village","د_مرکز_ځای__موقعیت_مرکز":"صحن قریه آب دول","Polling_Center_Location":"Sahn-e-Aab Dool Village","Verification_Note":"Village","PS_Male":3,"PS_Female":1,"Map_Accuracy":"قریه"},"geometry":{"x":7021883.8279954493,"y":4146132.9784422293}},{"attributes":{"OBJECTID":4185,"ولایت":"بادغيس","Province":"BADGHIS","PC_Code":"3101015","ولسوالي":"قلعه نو","District":"QALA-E-NOW","د_مرکز_نوم__نام_مرکز":"مکتب ندامی","Polling_Center_Name":"Nadami School","د_مرکز_ځای__موقعیت_مرکز":"ندامی","Polling_Center_Location":"Nadami ","Verification_Note":"Building","PS_Male":3,"PS_Female":1,"Map_Accuracy":"تعمیر"},"geometry":{"x":7026076.1578673534,"y":4139912.4714997709}},{"attributes":{"OBJECTID":4186,"ولایت":"بادغيس","Province":"BADGHIS","PC_Code":"3101019","ولسوالي":"قلعه نو","District":"QALA-E-NOW","د_مرکز_نوم__نام_مرکز":"مکتب متوسطه خان آقا ","Polling_Center_Name":"Khan Aqa Secondary School","د_مرکز_ځای__موقعیت_مرکز":"قریه خان آقا","Polling_Center_Location":"Khan Aqa Village","Verification_Note":"Building","PS_Male":2,"PS_Female":2,"Map_Accuracy":"تعمیر"},"geometry":{"x":7014238.6836664937,"y":4131699.0340932682}},{"attributes":{"OBJECTID":4187,"ولایت":"بادغيس","Province":"BADGHIS","PC_Code":"3104055","ولسوالي":"قادس","District":"QADIS","د_مرکز_نوم__نام_مرکز":"مکتب ارباب سرور","Polling_Center_Name":"Arbab Sarwar School","د_مرکز_ځای__موقعیت_مرکز":"ارباب سرور","Polling_Center_Location":"Arbab Sarwar","Verification_Note":"Building","PS_Male":1,"PS_Female":1,"Map_Accuracy":"تعمیر"},"geometry":{"x":7059040.2613658533,"y":4139673.5085396767}},{"attributes":{"OBJECTID":4188,"ولایت":"بادغيس","Province":"BADGHIS","PC_Code":"3104056","ولسوالي":"قادس","District":"QADIS","د_مرکز_نوم__نام_مرکز":"مکتب آب بخش","Polling_Center_Name":"Aab Bakhsh School","د_مرکز_ځای__موقعیت_مرکز":" آب بخش","Polling_Center_Location":"Aab Bakhsh ","Verification_Note":"Building","PS_Male":1,"PS_Female":1,"Map_Accuracy":"تعمیر"},"geometry":{"x":7043394.5952523388,"y":4146452.6306676343}},{"attributes":{"OBJECTID":4189,"ولایت":"بادغيس","Province":"BADGHIS","PC_Code":"3104081","ولسوالي":"قادس","District":"QADIS","د_مرکز_نوم__نام_مرکز":"مکتب گلچین","Polling_Center_Name":"Gulchin Clinic","د_مرکز_ځای__موقعیت_مرکز":"گلچین","Polling_Center_Location":"Gulchin ","Verification_Note":"Building","PS_Male":2,"PS_Female":1,"Map_Accuracy":"تعمیر"},"geometry":{"x":7084829.9784168191,"y":4145936.6598822251}},{"attributes":{"OBJECTID":4190,"ولایت":"بادغيس","Province":"BADGHIS","PC_Code":"3106106","ولسوالي":"جوند","District":"JAWAND","د_مرکز_نوم__نام_مرکز":"مسجد قریه قاز","Polling_Center_Name":"Qaz Village Mosque","د_مرکز_ځای__موقعیت_مرکز":" قاز","Polling_Center_Location":"Qaz ","Verification_Note":"Building","PS_Male":1,"PS_Female":1,"Map_Accuracy":"تعمیر"},"geometry":{"x":7203355.632919468,"y":4169123.4853047952}},{"attributes":{"OBJECTID":4191,"ولایت":"بادغيس","Province":"BADGHIS","PC_Code":"3106107","ولسوالي":"جوند","District":"JAWAND","د_مرکز_نوم__نام_مرکز":"مسجد سرتاوه","Polling_Center_Name":"Sartawah Mosque","د_مرکز_ځای__موقعیت_مرکز":" سرتاوه","Polling_Center_Location":"Sartawah ","Verification_Note":"Building","PS_Male":1,"PS_Female":1,"Map_Accuracy":"تعمیر"},"geometry":{"x":7187886.2089369707,"y":4176953.2312036604}},{"attributes":{"OBJECTID":4192,"ولایت":"بادغيس","Province":"BADGHIS","PC_Code":"3106111","ولسوالي":"جوند","District":"JAWAND","د_مرکز_نوم__نام_مرکز":"مسجد قریه دهن دو آبی","Polling_Center_Name":"Dahan-e- do Aabi Village","د_مرکز_ځای__موقعیت_مرکز":" دهن دو آبی","Polling_Center_Location":"Dahan-e- do Aabi","Verification_Note":"Village","PS_Male":2,"PS_Female":1,"Map_Accuracy":"قریه"},"geometry":{"x":7156204.3868605532,"y":4154297.0542341322}},{"attributes":{"OBJECTID":4193,"ولایت":"بادغيس","Province":"BADGHIS","PC_Code":"3107126","ولسوالي":"غورماچ","District":"GHORMACH","د_مرکز_نوم__نام_مرکز":"مسجد فریه توتک","Polling_Center_Name":"Totak Village Mosque ","د_مرکز_ځای__موقعیت_مرکز":" توتک","Polling_Center_Location":"Totak  ","Verification_Note":"Village","PS_Male":1,"PS_Female":1,"Map_Accuracy":"قریه"},"geometry":{"x":7116196.8910121173,"y":4255775.7528116927}},{"attributes":{"OBJECTID":4194,"ولایت":"بادغيس","Province":"BADGHIS","PC_Code":"3107127","ولسوالي":"غورماچ","District":"GHORMACH","د_مرکز_نوم__نام_مرکز":"مسجد تیز ناوه","Polling_Center_Name":"Teznawa Mosque ","د_مرکز_ځای__موقعیت_مرکز":" تیز ناوه","Polling_Center_Location":"Teznawa ","Verification_Note":"Village","PS_Male":1,"PS_Female":1,"Map_Accuracy":"قریه"},"geometry":{"x":7120723.4732398614,"y":4241685.3904499784}},{"attributes":{"OBJECTID":4195,"ولایت":"بادغيس","Province":"BADGHIS","PC_Code":"3107131","ولسوالي":"غورماچ","District":"GHORMACH","د_مرکز_نوم__نام_مرکز":"مکتب قریه  خاتون","Polling_Center_Name":"Khatoon Village School ","د_مرکز_ځای__موقعیت_مرکز":"خاتون","Polling_Center_Location":"Khatoon  ","Verification_Note":"Village","PS_Male":2,"PS_Female":1,"Map_Accuracy":"قریه"},"geometry":{"x":7099880.999187611,"y":4251779.4221076146}},{"attributes":{"OBJECTID":4196,"ولایت":"بادغيس","Province":"BADGHIS","PC_Code":"3107132","ولسوالي":"غورماچ","District":"GHORMACH","د_مرکز_نوم__نام_مرکز":"مکتب  قریه جرسیاه","Polling_Center_Name":"Jar-e-siah Village School ","د_مرکز_ځای__موقعیت_مرکز":" جرسیاه","Polling_Center_Location":"jar-e-siah  ","Verification_Note":"Village","PS_Male":1,"PS_Female":1,"Map_Accuracy":"قریه"},"geometry":{"x":7110133.08235129,"y":4239399.7954678237}},{"attributes":{"OBJECTID":4197,"ولایت":"هرات","Province":"HERAT","PC_Code":"3201002","ولسوالي":"هرات","District":"HERAT","د_مرکز_نوم__نام_مرکز":"لیسه گوهرشاد","Polling_Center_Name":"Gauhar shad High School","د_مرکز_ځای__موقعیت_مرکز":" ناحیه اول","Polling_Center_Location":"D01 - Nahia 1","Verification_Note":"Building","PS_Male":3,"PS_Female":2,"Map_Accuracy":"تعمیر"},"geometry":{"x":6926308.4242170937,"y":4075908.4630288109}},{"attributes":{"OBJECTID":4198,"ولایت":"هرات","Province":"HERAT","PC_Code":"3201003","ولسوالي":"هرات","District":"HERAT","د_مرکز_نوم__نام_مرکز":"لیسه ملکه جلالی","Polling_Center_Name":"Malika Jalali High School","د_مرکز_ځای__موقعیت_مرکز":" ناحیه دوم","Polling_Center_Location":"D02 - Nahia 2","Verification_Note":"Building","PS_Male":0,"PS_Female":5,"Map_Accuracy":"تعمیر"},"geometry":{"x":6923249.9245471284,"y":4075045.743063882}},{"attributes":{"OBJECTID":4199,"ولایت":"هرات","Province":"HERAT","PC_Code":"3201023","ولسوالي":"هرات","District":"HERAT","د_مرکز_نوم__نام_مرکز":" لیسه فکری سلجوقی","Polling_Center_Name":"Fekri Saljooqi High School ","د_مرکز_ځای__موقعیت_مرکز":" ناحیه هشتم","Polling_Center_Location":"D08 - Nahia 8","Verification_Note":"Building","PS_Male":3,"PS_Female":3,"Map_Accuracy":"تعمیر"},"geometry":{"x":6928083.6016277261,"y":4076320.9540873319}}]}