{"objectIdFieldName":"OBJECTID","globalIdFieldName":"","geometryType":"esriGeometryPoint","spatialReference":{"wkid":102100,"latestWkid":3857},"fields":[{"name":"OBJECTID","type":"esriFieldTypeOID","alias":"OBJECTID","sqlType":"sqlTypeOther","domain":null,"defaultValue":null},{"name":"ولایت","type":"esriFieldTypeString","alias":"ولایت","sqlType":"sqlTypeOther","length":255,"domain":null,"defaultValue":null},{"name":"Province","type":"esriFieldTypeString","alias":"Province","sqlType":"sqlTypeOther","length":255,"domain":null,"defaultValue":null},{"name":"PC_Code","type":"esriFieldTypeString","alias":"PC_Code","sqlType":"sqlTypeOther","length":255,"domain":null,"defaultValue":null},{"name":"ولسوالي","type":"esriFieldTypeString","alias":"ولسوالي","sqlType":"sqlTypeOther","length":255,"domain":null,"defaultValue":null},{"name":"District","type":"esriFieldTypeString","alias":"District","sqlType":"sqlTypeOther","length":255,"domain":null,"defaultValue":null},{"name":"د_مرکز_نوم__نام_مرکز","type":"esriFieldTypeString","alias":"د_مرکز_نوم__نام_مرکز","sqlType":"sqlTypeOther","length":255,"domain":null,"defaultValue":null},{"name":"Polling_Center_Name","type":"esriFieldTypeString","alias":"Polling_Center_Name","sqlType":"sqlTypeOther","length":255,"domain":null,"defaultValue":null},{"name":"د_مرکز_ځای__موقعیت_مرکز","type":"esriFieldTypeString","alias":"د_مرکز_ځای__موقعیت_مرکز","sqlType":"sqlTypeOther","length":255,"domain":null,"defaultValue":null},{"name":"Polling_Center_Location","type":"esriFieldTypeString","alias":"Polling_Center_Location","sqlType":"sqlTypeOther","length":255,"domain":null,"defaultValue":null},{"name":"Verification_Note","type":"esriFieldTypeString","alias":"Verification_Note","sqlType":"sqlTypeOther","length":250,"domain":null,"defaultValue":null},{"name":"PS_Male","type":"esriFieldTypeSmallInteger","alias":"PS_Male","sqlType":"sqlTypeOther","domain":null,"defaultValue":null},{"name":"PS_Female","type":"esriFieldTypeSmallInteger","alias":"PS_Female","sqlType":"sqlTypeOther","domain":null,"defaultValue":null},{"name":"Map_Accuracy","type":"esriFieldTypeString","alias":"Map_Accuracy","sqlType":"sqlTypeOther","length":10,"domain":null,"defaultValue":null}],"features":[{"attributes":{"OBJECTID":4600,"ولایت":"غور","Province":"GHOR","PC_Code":"2307160","ولسوالي":"لعل و سرجنگل ","District":"LAL WA SARJANGAL","د_مرکز_نوم__نام_مرکز":"مکتب خم شور","Polling_Center_Name":"Kham Shor School","د_مرکز_ځای__موقعیت_مرکز":"قریه دهن خم شور","Polling_Center_Location":"Dahan Kham Shor Village","Verification_Note":"Building","PS_Male":2,"PS_Female":1,"Map_Accuracy":"تعمیر"},"geometry":{"x":7344660.3677313849,"y":4108988.4995542914}},{"attributes":{"OBJECTID":4601,"ولایت":"غور","Province":"GHOR","PC_Code":"2308221","ولسوالي":"تیوره","District":"TAYWARA","د_مرکز_نوم__نام_مرکز":"مکتب سور","Polling_Center_Name":"Sor School","د_مرکز_ځای__موقعیت_مرکز":" سور","Polling_Center_Location":"Sor","Verification_Note":"Village","PS_Male":2,"PS_Female":1,"Map_Accuracy":"قریه"},"geometry":{"x":7179617.878061045,"y":3980115.5208364278}},{"attributes":{"OBJECTID":4602,"ولایت":"غور","Province":"GHOR","PC_Code":"2309188","ولسوالي":"تولک ","District":"TULAK","د_مرکز_نوم__نام_مرکز":"مسجد کوتاه","Polling_Center_Name":"Kotah Mosque","د_مرکز_ځای__موقعیت_مرکز":" کوتاه","Polling_Center_Location":"Kotah","Verification_Note":"Village","PS_Male":2,"PS_Female":1,"Map_Accuracy":"قریه"},"geometry":{"x":7070800.1525607966,"y":4035671.7213691771}},{"attributes":{"OBJECTID":4603,"ولایت":"دایکندی","Province":"DAYKUNDI","PC_Code":"2401002","ولسوالي":"نیلی","District":"NILI","د_مرکز_نوم__نام_مرکز":"مسجد جرف","Polling_Center_Name":"Jaraf Mosque","د_مرکز_ځای__موقعیت_مرکز":"جرف","Polling_Center_Location":"Jaraf","Verification_Note":"Building","PS_Male":3,"PS_Female":2,"Map_Accuracy":"تعمیر"},"geometry":{"x":7357852.9886402152,"y":4008420.0310277417}},{"attributes":{"OBJECTID":4604,"ولایت":"دایکندی","Province":"DAYKUNDI","PC_Code":"2402026","ولسوالي":"شهرستان","District":"SHAHRISTAN","د_مرکز_نوم__نام_مرکز":"مسجد چوچان","Polling_Center_Name":"Chochan Mosque","د_مرکز_ځای__موقعیت_مرکز":"چوچان","Polling_Center_Location":"Chochan","Verification_Note":"Building","PS_Male":1,"PS_Female":1,"Map_Accuracy":"تعمیر"},"geometry":{"x":7428106.956390366,"y":3967235.7917951718}},{"attributes":{"OBJECTID":4605,"ولایت":"دایکندی","Province":"DAYKUNDI","PC_Code":"2402027","ولسوالي":"شهرستان","District":"SHAHRISTAN","د_مرکز_نوم__نام_مرکز":"مسجد جنگلک","Polling_Center_Name":"Jangalak Mosque","د_مرکز_ځای__موقعیت_مرکز":"جنگلک","Polling_Center_Location":"Jangalak","Verification_Note":"Building","PS_Male":1,"PS_Female":1,"Map_Accuracy":"تعمیر"},"geometry":{"x":7423320.9719192125,"y":3984067.4119827524}},{"attributes":{"OBJECTID":4606,"ولایت":"دایکندی","Province":"DAYKUNDI","PC_Code":"2403105","ولسوالي":"گیزاب","District":"GIZAB","د_مرکز_نوم__نام_مرکز":"مسجد جامع هزار ده تمزان ","Polling_Center_Name":"Hazar Deh Tamzan Mosque","د_مرکز_ځای__موقعیت_مرکز":"تمزان ","Polling_Center_Location":"Tamzan","Verification_Note":"Building","PS_Male":1,"PS_Female":1,"Map_Accuracy":"تعمیر"},"geometry":{"x":7356465.2887735516,"y":3981853.0518869087}},{"attributes":{"OBJECTID":4607,"ولایت":"دایکندی","Province":"DAYKUNDI","PC_Code":"2403106","ولسوالي":"گیزاب","District":"GIZAB","د_مرکز_نوم__نام_مرکز":"مکتب بازار بیری","Polling_Center_Name":"Bazar Beri School","د_مرکز_ځای__موقعیت_مرکز":"مرکز بازار بیری","Polling_Center_Location":"Markaz Bazar Beri","Verification_Note":"Building","PS_Male":1,"PS_Female":1,"Map_Accuracy":"تعمیر"},"geometry":{"x":7350438.0797349028,"y":3950292.0294908732}},{"attributes":{"OBJECTID":4608,"ولایت":"دایکندی","Province":"DAYKUNDI","PC_Code":"2403116","ولسوالي":"گیزاب","District":"GIZAB","د_مرکز_نوم__نام_مرکز":"مسجد بازار قریه نیکوزی","Polling_Center_Name":"Nikozai Village Mosque","د_مرکز_ځای__موقعیت_مرکز":"قریه دنیکوزی","Polling_Center_Location":"Nikozai Village","Verification_Note":"Village","PS_Male":1,"PS_Female":1,"Map_Accuracy":"قریه"},"geometry":{"x":7371896.5646797381,"y":3951098.1862695813}},{"attributes":{"OBJECTID":4609,"ولایت":"دایکندی","Province":"DAYKUNDI","PC_Code":"2404038","ولسوالي":"اشترلی","District":"ISHTERLAI","د_مرکز_نوم__نام_مرکز":"مدرسه سر تاله","Polling_Center_Name":"Sar Tala Madrassa","د_مرکز_ځای__موقعیت_مرکز":"سر تاله","Polling_Center_Location":"Sar Tala","Verification_Note":"Building","PS_Male":1,"PS_Female":1,"Map_Accuracy":"تعمیر"},"geometry":{"x":7397601.89042474,"y":4041334.7625600323}},{"attributes":{"OBJECTID":4610,"ولایت":"دایکندی","Province":"DAYKUNDI","PC_Code":"2404039","ولسوالي":"اشترلی","District":"ISHTERLAI","د_مرکز_نوم__نام_مرکز":"مسجد دهن ده یک","Polling_Center_Name":"Dahan Deh Yak Mosque","د_مرکز_ځای__موقعیت_مرکز":"شیخمیران","Polling_Center_Location":"Shikhmeeran","Verification_Note":"Building","PS_Male":2,"PS_Female":1,"Map_Accuracy":"تعمیر"},"geometry":{"x":7373537.7100838795,"y":4034875.6948720664}},{"attributes":{"OBJECTID":4611,"ولایت":"دایکندی","Province":"DAYKUNDI","PC_Code":"2404048","ولسوالي":"اشترلی","District":"ISHTERLAI","د_مرکز_نوم__نام_مرکز":"مسجد باریک","Polling_Center_Name":"Bareek Mosque","د_مرکز_ځای__موقعیت_مرکز":"باریک سیاه دره","Polling_Center_Location":"Bareek Siyah Dara","Verification_Note":"Building","PS_Male":2,"PS_Female":1,"Map_Accuracy":"تعمیر"},"geometry":{"x":7361423.974302724,"y":4025841.0406616479}},{"attributes":{"OBJECTID":4612,"ولایت":"دایکندی","Province":"DAYKUNDI","PC_Code":"2404049","ولسوالي":"اشترلی","District":"ISHTERLAI","د_مرکز_نوم__نام_مرکز":"مدرسه قوچنقی","Polling_Center_Name":"Qochanqi Madrassa","د_مرکز_ځای__موقعیت_مرکز":"قوچنقی","Polling_Center_Location":"Qochanqi","Verification_Note":"Building","PS_Male":2,"PS_Female":1,"Map_Accuracy":"تعمیر"},"geometry":{"x":7378341.51346593,"y":4038129.10518799}},{"attributes":{"OBJECTID":4613,"ولایت":"دایکندی","Province":"DAYKUNDI","PC_Code":"2405102","ولسوالي":"خدیر","District":"KHEDIR","د_مرکز_نوم__نام_مرکز":"مسجد خاک فقیر","Polling_Center_Name":"Khak Faqeer Mosque","د_مرکز_ځای__موقعیت_مرکز":"خاک فقیر","Polling_Center_Location":"Khak Faqeer","Verification_Note":"Building","PS_Male":1,"PS_Female":1,"Map_Accuracy":"تعمیر"},"geometry":{"x":7307130.2938297167,"y":3991566.4885953665}},{"attributes":{"OBJECTID":4614,"ولایت":"دایکندی","Province":"DAYKUNDI","PC_Code":"2405103","ولسوالي":"خدیر","District":"KHEDIR","د_مرکز_نوم__نام_مرکز":"مسجد شنیه جلیل پسی بند","Polling_Center_Name":"Shinya Jalil Pasi Band Mosque","د_مرکز_ځای__موقعیت_مرکز":"پسی بند","Polling_Center_Location":"Pasi Band","Verification_Note":"Building","PS_Male":1,"PS_Female":1,"Map_Accuracy":"تعمیر"},"geometry":{"x":7336509.8574045189,"y":4026894.6172125041}},{"attributes":{"OBJECTID":4615,"ولایت":"دایکندی","Province":"DAYKUNDI","PC_Code":"2407145","ولسوالي":"میرامور","District":"MIRAMOR","د_مرکز_نوم__نام_مرکز":"مکتب تگاب","Polling_Center_Name":"Tagab Mosque","د_مرکز_ځای__موقعیت_مرکز":"تگاب","Polling_Center_Location":"Tagab","Verification_Note":"Building","PS_Male":3,"PS_Female":1,"Map_Accuracy":"تعمیر"},"geometry":{"x":7434430.1338987686,"y":4003547.2969901562}},{"attributes":{"OBJECTID":4616,"ولایت":"دایکندی","Province":"DAYKUNDI","PC_Code":"2408081","ولسوالي":"سنگ تخت","District":"SANG-E-TAKHT","د_مرکز_نوم__نام_مرکز":"مسجد ارل","Polling_Center_Name":"Aral Mosque","د_مرکز_ځای__موقعیت_مرکز":"ارل","Polling_Center_Location":"Aral","Verification_Note":"Building","PS_Male":2,"PS_Female":1,"Map_Accuracy":"تعمیر"},"geometry":{"x":7318765.5550623536,"y":4062767.6903614774}},{"attributes":{"OBJECTID":4617,"ولایت":"دایکندی","Province":"DAYKUNDI","PC_Code":"2408082","ولسوالي":"سنگ تخت","District":"SANG-E-TAKHT","د_مرکز_نوم__نام_مرکز":"مسجد شینیه قلعه","Polling_Center_Name":"Shinya Qala Mosque","د_مرکز_ځای__موقعیت_مرکز":"شینیه قلعه","Polling_Center_Location":"Shinya Qala","Verification_Note":"Building","PS_Male":2,"PS_Female":1,"Map_Accuracy":"تعمیر"},"geometry":{"x":7326840.9380912744,"y":4047042.2256042808}},{"attributes":{"OBJECTID":4618,"ولایت":"دایکندی","Province":"DAYKUNDI","PC_Code":"2409061","ولسوالي":"کجران","District":"KEJRAN","د_مرکز_نوم__نام_مرکز":"مسجد سنگ شهرک","Polling_Center_Name":"Sang Shahrak Mosque","د_مرکز_ځای__موقعیت_مرکز":"سنگ شهرک","Polling_Center_Location":"Sang Shahrak","Verification_Note":"Building","PS_Male":2,"PS_Female":1,"Map_Accuracy":"تعمیر"},"geometry":{"x":7316689.9279045388,"y":3933126.5397944823}},{"attributes":{"OBJECTID":4619,"ولایت":"دایکندی","Province":"DAYKUNDI","PC_Code":"2409062","ولسوالي":"کجران","District":"KEJRAN","د_مرکز_نوم__نام_مرکز":"منبرغرینج","Polling_Center_Name":"Gharenj Menbar","د_مرکز_ځای__موقعیت_مرکز":"غرینج","Polling_Center_Location":"Gharenj","Verification_Note":"Building","PS_Male":2,"PS_Female":1,"Map_Accuracy":"تعمیر"},"geometry":{"x":7320394.0991001353,"y":3941560.4369849116}},{"attributes":{"OBJECTID":4620,"ولایت":"ارزگان","Province":"UROZGAN","PC_Code":"2501013","ولسوالي":"ترینکوټ","District":"TIRINKOT","د_مرکز_نوم__نام_مرکز":"لیسه کوټوال","Polling_Center_Name":"Kotwal High School","د_مرکز_ځای__موقعیت_مرکز":"کوټوال","Polling_Center_Location":"Kotwal","Verification_Note":"Building","PS_Male":3,"PS_Female":2,"Map_Accuracy":"تعمیر"},"geometry":{"x":7334821.2264451869,"y":3850774.7000300661}},{"attributes":{"OBJECTID":4621,"ولایت":"ارزگان","Province":"UROZGAN","PC_Code":"2501014","ولسوالي":"ترینکوټ","District":"TIRINKOT","د_مرکز_نوم__نام_مرکز":"مکتب متوسطه چرمگر","Polling_Center_Name":"Charamgar Secondary School","د_مرکز_ځای__موقعیت_مرکز":"چرمگر","Polling_Center_Location":"Charamgar","Verification_Note":"Building","PS_Male":3,"PS_Female":2,"Map_Accuracy":"تعمیر"},"geometry":{"x":7332088.4687559977,"y":3848031.9542669207}},{"attributes":{"OBJECTID":4622,"ولایت":"ارزگان","Province":"UROZGAN","PC_Code":"2505027","ولسوالي":"خاص ارزگان","District":"KHAS UROZGAN","د_مرکز_نوم__نام_مرکز":"د مټک خان کلی لیسه","Polling_Center_Name":"Matak Khan Village High School","د_مرکز_ځای__موقعیت_مرکز":"مټک خان کلی","Polling_Center_Location":"Matak Khan Village","Verification_Note":"Building","PS_Male":2,"PS_Female":2,"Map_Accuracy":"تعمیر"},"geometry":{"x":7428248.067203287,"y":3888189.3467186317}},{"attributes":{"OBJECTID":4623,"ولایت":"ارزگان","Province":"UROZGAN","PC_Code":"2505028","ولسوالي":"خاص ارزگان","District":"KHAS UROZGAN","د_مرکز_نوم__نام_مرکز":"مارغوندی مکتب","Polling_Center_Name":"Marghonde School","د_مرکز_ځای__موقعیت_مرکز":"ناوه سلطان محمد کلی","Polling_Center_Location":"Nawa Sultan Mohammad Village","Verification_Note":"Village","PS_Male":3,"PS_Female":2,"Map_Accuracy":"قریه"},"geometry":{"x":7432273.9321350455,"y":3907892.4933099076}},{"attributes":{"OBJECTID":4624,"ولایت":"زابل","Province":"ZABUL","PC_Code":"2601004","ولسوالي":"قلات","District":"QALAT","د_مرکز_نوم__نام_مرکز":"ولايتي شفاخانه","Polling_Center_Name":"Provincial Hospital","د_مرکز_ځای__موقعیت_مرکز":"قلات","Polling_Center_Location":"Qalat","Verification_Note":"Building","PS_Male":3,"PS_Female":2,"Map_Accuracy":"تعمیر"},"geometry":{"x":7447124.8104801439,"y":3776771.0343095139}},{"attributes":{"OBJECTID":4625,"ولایت":"زابل","Province":"ZABUL","PC_Code":"2606011","ولسوالي":"شاه جوی","District":"SHAH JOI","د_مرکز_نوم__نام_مرکز":"مکتب بازرګان","Polling_Center_Name":"Bazargan School","د_مرکز_ځای__موقعیت_مرکز":"بازرګان","Polling_Center_Location":"Bazargan","Verification_Note":"Building","PS_Male":4,"PS_Female":1,"Map_Accuracy":"تعمیر"},"geometry":{"x":7508996.7957202457,"y":3835863.342130214}},{"attributes":{"OBJECTID":4626,"ولایت":"زابل","Province":"ZABUL","PC_Code":"2606012","ولسوالي":"شاه جوی","District":"SHAH JOI","د_مرکز_نوم__نام_مرکز":"مكتب غلام رباط مالند","Polling_Center_Name":"Ghulam Rabat Maland School","د_مرکز_ځای__موقعیت_مرکز":"غلام رباط","Polling_Center_Location":"Ghulam Rabat","Verification_Note":"Building","PS_Male":2,"PS_Female":1,"Map_Accuracy":"تعمیر"},"geometry":{"x":7505664.5269133784,"y":3844775.247359}},{"attributes":{"OBJECTID":4627,"ولایت":"کندهار","Province":"کندهار","PC_Code":"2701025","ولسوالي":"کندهار","District":"KANDAHAR","د_مرکز_نوم__نام_مرکز":"د سردار مدد مكتب","Polling_Center_Name":"Sardar Madad School","د_مرکز_ځای__موقعیت_مرکز":"دوهمه ناحيه","Polling_Center_Location":"D02 - Nahia 2","Verification_Note":"Building","PS_Male":1,"PS_Female":5,"Map_Accuracy":"تعمیر"},"geometry":{"x":7314275.9453770965,"y":3712195.8171342686}},{"attributes":{"OBJECTID":4628,"ولایت":"کندهار","Province":"کندهار","PC_Code":"2701029","ولسوالي":"کندهار","District":"KANDAHAR","د_مرکز_نوم__نام_مرکز":"تيمورشاهي لیسه","Polling_Center_Name":"Taimor Shahi High School","د_مرکز_ځای__موقعیت_مرکز":"څلورمه ناحيه","Polling_Center_Location":"D04 - Nahia 4","Verification_Note":"Building","PS_Male":5,"PS_Female":7,"Map_Accuracy":"تعمیر"},"geometry":{"x":7315089.2956706062,"y":3713458.8391995952}},{"attributes":{"OBJECTID":4629,"ولایت":"کندهار","Province":"کندهار","PC_Code":"2704187","ولسوالي":"پنجوایې","District":"PANJWAYEE","د_مرکز_نوم__نام_مرکز":"د حاجي عبدالله خان مكتب ","Polling_Center_Name":"Haji Abdullah Khan School","د_مرکز_ځای__موقعیت_مرکز":"سفيد روان","Polling_Center_Location":"Safid Rawan","Verification_Note":"Building","PS_Male":2,"PS_Female":1,"Map_Accuracy":"تعمیر"},"geometry":{"x":7282705.1477948241,"y":3698779.84152852}},{"attributes":{"OBJECTID":4630,"ولایت":"کندهار","Province":"کندهار","PC_Code":"2708248","ولسوالي":"ارغستان","District":"ARGHISTAN","د_مرکز_نوم__نام_مرکز":"كلينيك كرم خيل","Polling_Center_Name":"Karam Khel Clinic","د_مرکز_ځای__موقعیت_مرکز":"كرم خيل","Polling_Center_Location":"Karam Khel","Verification_Note":"Village","PS_Male":2,"PS_Female":3,"Map_Accuracy":"قریه"},"geometry":{"x":7427845.64724407,"y":3706927.8244970515}},{"attributes":{"OBJECTID":4631,"ولایت":"کندهار","Province":"کندهار","PC_Code":"2708249","ولسوالي":"ارغستان","District":"ARGHISTAN","د_مرکز_نوم__نام_مرکز":"مكتب شنه خټه","Polling_Center_Name":"Shna Khata School","د_مرکز_ځای__موقعیت_مرکز":"شنه خټه","Polling_Center_Location":"Shna Khata","Verification_Note":"Village","PS_Male":2,"PS_Female":1,"Map_Accuracy":"قریه"},"geometry":{"x":7393002.2647999227,"y":3710472.9916386083}},{"attributes":{"OBJECTID":4632,"ولایت":"کندهار","Province":"کندهار","PC_Code":"2711204","ولسوالي":"سپین بولدک","District":"SPIN BOLDAK","د_مرکز_نوم__نام_مرکز":"د مخابراتو مركز","Polling_Center_Name":"Mukhabirato Markaz","د_مرکز_ځای__موقعیت_مرکز":"عوامي كمپ","Polling_Center_Location":"Awami Camp","Verification_Note":"Building","PS_Male":4,"PS_Female":2,"Map_Accuracy":"تعمیر"},"geometry":{"x":7391083.7479601577,"y":3633664.7162712589}},{"attributes":{"OBJECTID":4633,"ولایت":"کندهار","Province":"کندهار","PC_Code":"2711214","ولسوالي":"سپین بولدک","District":"SPIN BOLDAK","د_مرکز_نوم__نام_مرکز":"حاجي نعمت دتیلو پمپ","Polling_Center_Name":"Haji Nemat Oil Stioation","د_مرکز_ځای__موقعیت_مرکز":"سپين بولدك","Polling_Center_Location":"Speen Boldak","Verification_Note":"Building","PS_Male":4,"PS_Female":2,"Map_Accuracy":"تعمیر"},"geometry":{"x":7389993.2488700114,"y":3635468.8555248454}},{"attributes":{"OBJECTID":4634,"ولایت":"کندهار","Province":"کندهار","PC_Code":"2711215","ولسوالي":"سپین بولدک","District":"SPIN BOLDAK","د_مرکز_نوم__نام_مرکز":"د احمد شاه اطاقونه","Polling_Center_Name":"Ahmad Shah Rooms","د_مرکز_ځای__موقعیت_مرکز":"ويش","Polling_Center_Location":"Wesh","Verification_Note":"Building","PS_Male":4,"PS_Female":0,"Map_Accuracy":"تعمیر"},"geometry":{"x":7391348.6349148937,"y":3632249.3641733453}},{"attributes":{"OBJECTID":4635,"ولایت":"کندهار","Province":"کندهار","PC_Code":"2711226","ولسوالي":"سپین بولدک","District":"SPIN BOLDAK","د_مرکز_نوم__نام_مرکز":"د مرغه خیمه ","Polling_Center_Name":"Margha Khaima","د_مرکز_ځای__موقعیت_مرکز":"ذكريا کلی","Polling_Center_Location":"Zikriya Village","Verification_Note":"Village","PS_Male":4,"PS_Female":2,"Map_Accuracy":"قریه"},"geometry":{"x":7388375.7755555883,"y":3624054.2742932215}},{"attributes":{"OBJECTID":4636,"ولایت":"کندهار","Province":"کندهار","PC_Code":"2713259","ولسوالي":"ميانشين","District":"MIYANISHIN","د_مرکز_نوم__نام_مرکز":"حاجي عبدالحليم مسجد","Polling_Center_Name":"Haji Abdul Haleem Mosque","د_مرکز_ځای__موقعیت_مرکز":"زمتو كلي","Polling_Center_Location":"Zamto Village","Verification_Note":"Village","PS_Male":1,"PS_Female":1,"Map_Accuracy":"قریه"},"geometry":{"x":7366916.0716623217,"y":3812207.5436638668}},{"attributes":{"OBJECTID":4637,"ولایت":"کندهار","Province":"کندهار","PC_Code":"2713260","ولسوالي":"ميانشين","District":"MIYANISHIN","د_مرکز_نوم__نام_مرکز":"مسجد غلينګ","Polling_Center_Name":"Ghaleeng Mosque","د_مرکز_ځای__موقعیت_مرکز":"غلينګ","Polling_Center_Location":"Ghaleeng","Verification_Note":"Village","PS_Male":2,"PS_Female":0,"Map_Accuracy":"قریه"},"geometry":{"x":7373913.8775675818,"y":3815106.9754337594}},{"attributes":{"OBJECTID":4638,"ولایت":"کندهار","Province":"کندهار","PC_Code":"2717013","ولسوالي":"ډند","District":"DAND","د_مرکز_نوم__نام_مرکز":"مكتب كرز","Polling_Center_Name":"Karz School","د_مرکز_ځای__موقعیت_مرکز":"شپږمه ناحيه","Polling_Center_Location":"D06 - Nahia 6","Verification_Note":"Village","PS_Male":3,"PS_Female":3,"Map_Accuracy":"قریه"},"geometry":{"x":7316211.6287955306,"y":3707904.7139776349}},{"attributes":{"OBJECTID":4639,"ولایت":"کندهار","Province":"کندهار","PC_Code":"2718241","ولسوالي":"تخته پل","District":"TAKHTA PUL","د_مرکز_نوم__نام_مرکز":"دحاجي طالب اكا كور","Polling_Center_Name":"Haji Talib Aka Private House","د_مرکز_ځای__موقعیت_مرکز":"داسحق زو كلي","Polling_Center_Location":"Ishaaqzo Village","Verification_Note":"Village","PS_Male":2,"PS_Female":2,"Map_Accuracy":"قریه"},"geometry":{"x":7320064.46416546,"y":3688161.1140472367}},{"attributes":{"OBJECTID":4640,"ولایت":"جوزجان","Province":"JAWZJAN","PC_Code":"2801016","ولسوالي":"شبرغان","District":"SHEBERGHAN","د_مرکز_نوم__نام_مرکز":"ریاست زراعت ","Polling_Center_Name":"Agriculture Department","د_مرکز_ځای__موقعیت_مرکز":"ناحیه چهارم","Polling_Center_Location":"D04 - Nahia 4","Verification_Note":"Building","PS_Male":3,"PS_Female":2,"Map_Accuracy":"تعمیر"},"geometry":{"x":7319605.9259358644,"y":4394200.7985507995}},{"attributes":{"OBJECTID":4641,"ولایت":"جوزجان","Province":"JAWZJAN","PC_Code":"2801017","ولسوالي":"شبرغان","District":"SHEBERGHAN","د_مرکز_نوم__نام_مرکز":"لیسه مصرآباد","Polling_Center_Name":"Mesr Abad High School","د_مرکز_ځای__موقعیت_مرکز":"ناحیه چهارم","Polling_Center_Location":"D04 - Nahia 4","Verification_Note":"Building","PS_Male":3,"PS_Female":2,"Map_Accuracy":"تعمیر"},"geometry":{"x":7331490.7320710048,"y":4404338.2705366388}},{"attributes":{"OBJECTID":4642,"ولایت":"جوزجان","Province":"JAWZJAN","PC_Code":"2802114","ولسوالي":"خواجه دوکوه","District":"KHWAJA DUKOH","د_مرکز_نوم__نام_مرکز":"مکتب متوسطه طاغن ","Polling_Center_Name":"Taghan Secondary School","د_مرکز_ځای__موقعیت_مرکز":"لب جر طاغن ","Polling_Center_Location":"Lab Jar Taghan","Verification_Note":"Building","PS_Male":1,"PS_Female":1,"Map_Accuracy":"تعمیر"},"geometry":{"x":7306605.4914487116,"y":4399757.6460055485}},{"attributes":{"OBJECTID":4643,"ولایت":"جوزجان","Province":"JAWZJAN","PC_Code":"2803115","ولسوالي":"خانقاه","District":"KHANAQA","د_مرکز_نوم__نام_مرکز":"لیسه ذکور علیلی","Polling_Center_Name":"Alili Boys High School","د_مرکز_ځای__موقعیت_مرکز":"خانقا","Polling_Center_Location":"Khanqa","Verification_Note":"Building","PS_Male":2,"PS_Female":1,"Map_Accuracy":"تعمیر"},"geometry":{"x":7358386.4950922094,"y":4420309.8682340831}},{"attributes":{"OBJECTID":4644,"ولایت":"جوزجان","Province":"JAWZJAN","PC_Code":"2805089","ولسوالي":"قوش تیپه","District":"QUSH TEPA","د_مرکز_نوم__نام_مرکز":"لیسه قوش تپه","Polling_Center_Name":"Qosh Tapa High School","د_مرکز_ځای__موقعیت_مرکز":"قوش تبه ","Polling_Center_Location":"Qosh Taba","Verification_Note":"Building","PS_Male":4,"PS_Female":3,"Map_Accuracy":"تعمیر"},"geometry":{"x":7279360.5091661438,"y":4312844.42715361}},{"attributes":{"OBJECTID":4645,"ولایت":"جوزجان","Province":"JAWZJAN","PC_Code":"2809065","ولسوالي":"مردیان","District":"MARDYAN","د_مرکز_نوم__نام_مرکز":"مکتب متوسطه الم لیک","Polling_Center_Name":"Alam Lek Secondary School","د_مرکز_ځای__موقعیت_مرکز":"قریه الم لیک","Polling_Center_Location":"Alam Lek Village","Verification_Note":"Building","PS_Male":1,"PS_Female":1,"Map_Accuracy":"تعمیر"},"geometry":{"x":7372090.7882481068,"y":4433106.5047576725}},{"attributes":{"OBJECTID":4646,"ولایت":"جوزجان","Province":"JAWZJAN","PC_Code":"2811098","ولسوالي":"درز آب","District":"DARZAB","د_مرکز_نوم__نام_مرکز":"مکتب امام بخاری","Polling_Center_Name":"Imam Bukhari School","د_مرکز_ځای__موقعیت_مرکز":"قریه سردره ","Polling_Center_Location":"Sardara Village","Verification_Note":"Building","PS_Male":2,"PS_Female":1,"Map_Accuracy":"تعمیر"},"geometry":{"x":7285616.3083263524,"y":4295086.261916995}},{"attributes":{"OBJECTID":4647,"ولایت":"جوزجان","Province":"JAWZJAN","PC_Code":"2811099","ولسوالي":"درز آب","District":"DARZAB","د_مرکز_نوم__نام_مرکز":"مکتب آق بولاق","Polling_Center_Name":"Aaq Bolaq School","د_مرکز_ځای__موقعیت_مرکز":"آق بولاق","Polling_Center_Location":"Aaq Bolaq","Verification_Note":"Village","PS_Male":1,"PS_Female":1,"Map_Accuracy":"قریه"},"geometry":{"x":7295444.3543989062,"y":4308478.1746375263}},{"attributes":{"OBJECTID":4648,"ولایت":"جوزجان","Province":"JAWZJAN","PC_Code":"2811108","ولسوالي":"درز آب","District":"DARZAB","د_مرکز_نوم__نام_مرکز":"مکتب ترکمن قدوق","Polling_Center_Name":"Turkman Qadoq School","د_مرکز_ځای__موقعیت_مرکز":"ترکمن قدوق","Polling_Center_Location":"Turkman Qadoq","Verification_Note":"Building","PS_Male":1,"PS_Female":1,"Map_Accuracy":"تعمیر"},"geometry":{"x":7277592.6392121539,"y":4297793.7671102062}},{"attributes":{"OBJECTID":4649,"ولایت":"جوزجان","Province":"JAWZJAN","PC_Code":"2811109","ولسوالي":"درز آب","District":"DARZAB","د_مرکز_نوم__نام_مرکز":"مسجد قره یغاچ","Polling_Center_Name":"Qara Yaghach Mosque","د_مرکز_ځای__موقعیت_مرکز":"قریه قره یغاچ","Polling_Center_Location":"Qara Yaghach Village","Verification_Note":"Village","PS_Male":1,"PS_Female":1,"Map_Accuracy":"قریه"},"geometry":{"x":7292174.0838692337,"y":4302446.499392651}},{"attributes":{"OBJECTID":4650,"ولایت":"فارياب","Province":"FARYAB","PC_Code":"2902030","ولسوالي":"پشتون کوت","District":"PASHTUN KOT","د_مرکز_نوم__نام_مرکز":"لیسه انجلاد","Polling_Center_Name":"Injelad High School","د_مرکز_ځای__موقعیت_مرکز":"انجلاد","Polling_Center_Location":"Injelad","Verification_Note":"Village","PS_Male":2,"PS_Female":1,"Map_Accuracy":"قریه"},"geometry":{"x":7216866.545195546,"y":4286536.739609696}},{"attributes":{"OBJECTID":4651,"ولایت":"فارياب","Province":"FARYAB","PC_Code":"2902031","ولسوالي":"پشتون کوت","District":"PASHTUN KOT","د_مرکز_نوم__نام_مرکز":"مسجد علیکه بالا","Polling_Center_Name":"Alaika Bala Mosque","د_مرکز_ځای__موقعیت_مرکز":"علیکه بالا","Polling_Center_Location":"Alaika Bala","Verification_Note":"Village","PS_Male":2,"PS_Female":1,"Map_Accuracy":"قریه"},"geometry":{"x":7219302.2846721895,"y":4282489.2008705661}},{"attributes":{"OBJECTID":4652,"ولایت":"فارياب","Province":"FARYAB","PC_Code":"2902040","ولسوالي":"پشتون کوت","District":"PASHTUN KOT","د_مرکز_نوم__نام_مرکز":"مسجد اوراض بالا پوگانی","Polling_Center_Name":"Awraz Bala Pogani Mosque","د_مرکز_ځای__موقعیت_مرکز":"اوراض بالا پوگانی","Polling_Center_Location":"Awraz Bala Pogani","Verification_Note":"Village","PS_Male":1,"PS_Female":1,"Map_Accuracy":"قریه"},"geometry":{"x":7216220.3121743985,"y":4270262.2875058055}},{"attributes":{"OBJECTID":4653,"ولایت":"فارياب","Province":"FARYAB","PC_Code":"2902041","ولسوالي":"پشتون کوت","District":"PASHTUN KOT","د_مرکز_نوم__نام_مرکز":"مسجد پشه خان","Polling_Center_Name":"Pasha Khan Mosque","د_مرکز_ځای__موقعیت_مرکز":"پشه خان","Polling_Center_Location":"Pasha Khan","Verification_Note":"Village","PS_Male":1,"PS_Female":1,"Map_Accuracy":"قریه"},"geometry":{"x":7207616.4799379595,"y":4282917.9959330335}},{"attributes":{"OBJECTID":4654,"ولایت":"فارياب","Province":"FARYAB","PC_Code":"2904078","ولسوالي":"المار","District":"ALMAR","د_مرکز_نوم__نام_مرکز":"قرققول مسجد تورجان","Polling_Center_Name":"Qarqaqol Torjan Mosque","د_مرکز_ځای__موقعیت_مرکز":"قریه قرققول","Polling_Center_Location":"Qarqaqol Village","Verification_Note":"Village","PS_Male":1,"PS_Female":1,"Map_Accuracy":"قریه"},"geometry":{"x":7152665.0983098634,"y":4281900.849857688}},{"attributes":{"OBJECTID":4655,"ولایت":"فارياب","Province":"FARYAB","PC_Code":"2904079","ولسوالي":"المار","District":"ALMAR","د_مرکز_نوم__نام_مرکز":"مسجد هوتکی","Polling_Center_Name":"Hotaki Mosque","د_مرکز_ځای__موقعیت_مرکز":"قریه هوتکی","Polling_Center_Location":"Hotaki Village","Verification_Note":"Village","PS_Male":1,"PS_Female":1,"Map_Accuracy":"قریه"},"geometry":{"x":7166610.3925973549,"y":4286795.89656622}},{"attributes":{"OBJECTID":4656,"ولایت":"فارياب","Province":"FARYAB","PC_Code":"2907097","ولسوالي":"قیصار ","District":"QAISAR","د_مرکز_نوم__نام_مرکز":"مسجد یمبلاق","Polling_Center_Name":"Yambalaq Mosque","د_مرکز_ځای__موقعیت_مرکز":"چهلگزی","Polling_Center_Location":"Chehl Gazai","Verification_Note":"Village","PS_Male":1,"PS_Female":1,"Map_Accuracy":"قریه"},"geometry":{"x":7126462.5963418931,"y":4265532.4439622238}},{"attributes":{"OBJECTID":4657,"ولایت":"فارياب","Province":"FARYAB","PC_Code":"2908128","ولسوالي":"گرزیوان","District":"GURZIWAN","د_مرکز_نوم__نام_مرکز":"لیسه نسوان دونگ قلعه","Polling_Center_Name":"Dong Qala Girls High School","د_مرکز_ځای__موقعیت_مرکز":"دونگ قلعه","Polling_Center_Location":"Dong Qala","Verification_Note":"Building","PS_Male":3,"PS_Female":2,"Map_Accuracy":"تعمیر"},"geometry":{"x":7258446.8997328915,"y":4260509.0812625214}},{"attributes":{"OBJECTID":4658,"ولایت":"فارياب","Province":"FARYAB","PC_Code":"2908129","ولسوالي":"گرزیوان","District":"GURZIWAN","د_مرکز_نوم__نام_مرکز":"مکتب نسوان دره شاخ","Polling_Center_Name":"Dara-e-Shakh Girls School","د_مرکز_ځای__موقعیت_مرکز":"دره شاخ","Polling_Center_Location":"Dara-e-Shakh","Verification_Note":"Building","PS_Male":3,"PS_Female":1,"Map_Accuracy":"تعمیر"},"geometry":{"x":7260864.1056274995,"y":4249230.5831261054}},{"attributes":{"OBJECTID":4659,"ولایت":"فارياب","Province":"FARYAB","PC_Code":"2910112","ولسوالي":"کوهستان","District":"KOHISTAN","د_مرکز_نوم__نام_مرکز":"مکتب ابتدای بندر","Polling_Center_Name":"Bandar Primary School","د_مرکز_ځای__موقعیت_مرکز":"بندرکوهستان","Polling_Center_Location":"Bandar Kohistan","Verification_Note":"Building","PS_Male":2,"PS_Female":2,"Map_Accuracy":"تعمیر"},"geometry":{"x":7188912.8974686116,"y":4211477.5098241121}},{"attributes":{"OBJECTID":4660,"ولایت":"فارياب","Province":"FARYAB","PC_Code":"2910113","ولسوالي":"کوهستان","District":"KOHISTAN","د_مرکز_نوم__نام_مرکز":"مسجد بر غر","Polling_Center_Name":"Bar Ghar Mosque","د_مرکز_ځای__موقعیت_مرکز":"قریه زی مراد","Polling_Center_Location":"Ze Murad Village","Verification_Note":"Building","PS_Male":1,"PS_Female":1,"Map_Accuracy":"تعمیر"},"geometry":{"x":7185746.9689240567,"y":4199689.4502302706}},{"attributes":{"OBJECTID":4661,"ولایت":"فارياب","Province":"FARYAB","PC_Code":"2912194","ولسوالي":"قرغان","District":"QURGHAN","د_مرکز_نوم__نام_مرکز":"لیسه یوسف اند خویی","Polling_Center_Name":"Yousuf Andkhoy High School","د_مرکز_ځای__موقعیت_مرکز":"نماز گاه کاگر ","Polling_Center_Location":"Namazgah Kagar","Verification_Note":"Building","PS_Male":1,"PS_Female":2,"Map_Accuracy":"تعمیر"},"geometry":{"x":7246839.6809931733,"y":4432597.4915894121}},{"attributes":{"OBJECTID":4662,"ولایت":"فارياب","Province":"FARYAB","PC_Code":"2912195","ولسوالي":"قرغان","District":"QURGHAN","د_مرکز_نوم__نام_مرکز":"لیسه ذکورمیر آباد","Polling_Center_Name":"Mir Abad Boys High School","د_مرکز_ځای__موقعیت_مرکز":"میر آباد","Polling_Center_Location":"Mir Abad","Verification_Note":"Building","PS_Male":3,"PS_Female":2,"Map_Accuracy":"تعمیر"},"geometry":{"x":7246235.4020617157,"y":4424559.6383900121}},{"attributes":{"OBJECTID":4663,"ولایت":"هلمند","Province":"HELMAND","PC_Code":"3001002","ولسوالي":"لشکرگاه","District":"LASHKARGAH","د_مرکز_نوم__نام_مرکز":"سینمای لشکرگاه","Polling_Center_Name":"Lashkargah Cinema","د_مرکز_ځای__موقعیت_مرکز":"ناحیه 2","Polling_Center_Location":"D02 - Nahia 2","Verification_Note":"Building","PS_Male":0,"PS_Female":4,"Map_Accuracy":"تعمیر"},"geometry":{"x":7164619.6372004338,"y":3708686.7947435677}},{"attributes":{"OBJECTID":4664,"ولایت":"هلمند","Province":"HELMAND","PC_Code":"3001025","ولسوالي":"لشکرگاه","District":"LASHKARGAH","د_مرکز_نوم__نام_مرکز":"مکتب بشران","Polling_Center_Name":"Bushran School","د_مرکز_ځای__موقعیت_مرکز":"بشران کلی","Polling_Center_Location":"Bushran Village","Verification_Note":"Building","PS_Male":2,"PS_Female":2,"Map_Accuracy":"تعمیر"},"geometry":{"x":7160997.2286123484,"y":3718246.5820262507}},{"attributes":{"OBJECTID":4665,"ولایت":"هلمند","Province":"HELMAND","PC_Code":"3001026","ولسوالي":"لشکرگاه","District":"LASHKARGAH","د_مرکز_نوم__نام_مرکز":"د سیدانو مکتب باباجی","Polling_Center_Name":"Sayedano School Babaji","د_مرکز_ځای__موقعیت_مرکز":"سیدانو کلی","Polling_Center_Location":"Sayedano Village","Verification_Note":"Building","PS_Male":2,"PS_Female":2,"Map_Accuracy":"تعمیر"},"geometry":{"x":7164019.94685838,"y":3720399.7863276377}},{"attributes":{"OBJECTID":4666,"ولایت":"هلمند","Province":"HELMAND","PC_Code":"3002084","ولسوالي":"نادعلی","District":"NAD ALI","د_مرکز_نوم__نام_مرکز":"مسجد چاه میرزا ","Polling_Center_Name":"Chah Mirza Mosque","د_مرکز_ځای__موقعیت_مرکز":"چاه میرزا","Polling_Center_Location":"Chah Mirza","Verification_Note":"Village","PS_Male":4,"PS_Female":0,"Map_Accuracy":"قریه"},"geometry":{"x":7150595.6867871322,"y":3721219.433583051}},{"attributes":{"OBJECTID":4667,"ولایت":"هلمند","Province":"HELMAND","PC_Code":"3003089","ولسوالي":"ناوه بارکزایی","District":"NAWA-E-BARAKZAYI","د_مرکز_نوم__نام_مرکز":"مسجد احمد شاه","Polling_Center_Name":"Ahmad Shah Mosque","د_مرکز_ځای__موقعیت_مرکز":"عینک","Polling_Center_Location":"Ainak","Verification_Note":"Village","PS_Male":3,"PS_Female":0,"Map_Accuracy":"قریه"},"geometry":{"x":7161481.0631943569,"y":3703465.4191005826}},{"attributes":{"OBJECTID":4668,"ولایت":"هلمند","Province":"HELMAND","PC_Code":"3004040","ولسوالي":"نهرسراج","District":"NAHR-E-SARAJ","د_مرکز_نوم__نام_مرکز":"شفاخانه گرشک","Polling_Center_Name":"Gereshk Hospital","د_مرکز_ځای__موقعیت_مرکز":"گرشک","Polling_Center_Location":"Gereshk","Verification_Note":"Building","PS_Male":0,"PS_Female":4,"Map_Accuracy":"تعمیر"},"geometry":{"x":7188288.760253191,"y":3739382.6044850275}},{"attributes":{"OBJECTID":4669,"ولایت":"هلمند","Province":"HELMAND","PC_Code":"3004041","ولسوالي":"نهرسراج","District":"NAHR-E-SARAJ","د_مرکز_نوم__نام_مرکز":"مسجد روف خان شيله ","Polling_Center_Name":"Rawoof Khan Shila Mosque","د_مرکز_ځای__موقعیت_مرکز":"گرشک","Polling_Center_Location":"Gereshk","Verification_Note":"Building","PS_Male":4,"PS_Female":1,"Map_Accuracy":"تعمیر"},"geometry":{"x":7187510.8908209875,"y":3740461.9899470732}},{"attributes":{"OBJECTID":4670,"ولایت":"هلمند","Province":"HELMAND","PC_Code":"3004052","ولسوالي":"نهرسراج","District":"NAHR-E-SARAJ","د_مرکز_نوم__نام_مرکز":"تعمير ميرزا خان ","Polling_Center_Name":"Mirza Khan Building","د_مرکز_ځای__موقعیت_مرکز":"ده ادم خان","Polling_Center_Location":"Deh Adam Khan","Verification_Note":"Village","PS_Male":4,"PS_Female":0,"Map_Accuracy":"قریه"},"geometry":{"x":7190139.5926161595,"y":3740979.7927706912}},{"attributes":{"OBJECTID":4671,"ولایت":"هلمند","Province":"HELMAND","PC_Code":"3004053","ولسوالي":"نهرسراج","District":"NAHR-E-SARAJ","د_مرکز_نوم__نام_مرکز":"مكتب حيدرآباد ","Polling_Center_Name":"Haidar Abad School","د_مرکز_ځای__موقعیت_مرکز":"حیدر آباد","Polling_Center_Location":"Haidar Abad","Verification_Note":"Village","PS_Male":2,"PS_Female":2,"Map_Accuracy":"قریه"},"geometry":{"x":7210059.92717614,"y":3753209.4231878296}},{"attributes":{"OBJECTID":4672,"ولایت":"هلمند","Province":"HELMAND","PC_Code":"3008135","ولسوالي":"سنگین قلعه","District":"SANGIN QALA","د_مرکز_نوم__نام_مرکز":"مكتب هاشم سارواني","Polling_Center_Name":"Hashim Sarwani School","د_مرکز_ځای__موقعیت_مرکز":"د ولسوالی مرکز","Polling_Center_Location":"District Compound","Verification_Note":"Building","PS_Male":7,"PS_Female":0,"Map_Accuracy":"تعمیر"},"geometry":{"x":7217824.76667437,"y":3772982.84425848}},{"attributes":{"OBJECTID":4673,"ولایت":"هلمند","Province":"HELMAND","PC_Code":"3010147","ولسوالي":"کجکی","District":"KAJAKI","د_مرکز_نوم__نام_مرکز":"مکتب کجكي سفلی","Polling_Center_Name":"Kajaki Sufla School","د_مرکز_ځای__موقعیت_مرکز":"کجكي سفلی","Polling_Center_Location":"Kajaki Sufla","Verification_Note":"Village","PS_Male":3,"PS_Female":1,"Map_Accuracy":"قریه"},"geometry":{"x":7242899.2348462865,"y":3799102.1618630663}},{"attributes":{"OBJECTID":4674,"ولایت":"هلمند","Province":"HELMAND","PC_Code":"3014063","ولسوالي":"مارجه","District":"MARJA","د_مرکز_نوم__نام_مرکز":"مكتب كاريز سدي ","Polling_Center_Name":"Karez Sadi School","د_مرکز_ځای__موقعیت_مرکز":"کاریز سدی","Polling_Center_Location":"Karez Sadi","Verification_Note":"Village","PS_Male":2,"PS_Female":1,"Map_Accuracy":"قریه"},"geometry":{"x":7139839.2005391307,"y":3701535.5469628721}},{"attributes":{"OBJECTID":4675,"ولایت":"هلمند","Province":"HELMAND","PC_Code":"3014064","ولسوالي":"مارجه","District":"MARJA","د_مرکز_نوم__نام_مرکز":"خانه وكيل محمد اخلاص","Polling_Center_Name":"Wakeel Mohammad Ikhlas School","د_مرکز_ځای__موقعیت_مرکز":"مارجه","Polling_Center_Location":"Marja","Verification_Note":"Village","PS_Male":2,"PS_Female":1,"Map_Accuracy":"قریه"},"geometry":{"x":7138159.7356266752,"y":3700974.2811657786}},{"attributes":{"OBJECTID":4676,"ولایت":"بادغيس","Province":"BADGHIS","PC_Code":"3102039","ولسوالي":"آبکمری","District":"AB KAMARI","د_مرکز_نوم__نام_مرکز":"مکتب آغک","Polling_Center_Name":"Aaghak School","د_مرکز_ځای__موقعیت_مرکز":"آغک","Polling_Center_Location":"Aaghak ","Verification_Note":"Building","PS_Male":1,"PS_Female":1,"Map_Accuracy":"تعمیر"},"geometry":{"x":7017680.4374189451,"y":4153307.9465358108}},{"attributes":{"OBJECTID":4677,"ولایت":"بادغيس","Province":"BADGHIS","PC_Code":"3102040","ولسوالي":"آبکمری","District":"AB KAMARI","د_مرکز_نوم__نام_مرکز":"مکتب لیسه کوچه زرد","Polling_Center_Name":"Zard Koja High School","د_مرکز_ځای__موقعیت_مرکز":" کوچه زرد","Polling_Center_Location":"Zard Koja","Verification_Note":"Building","PS_Male":2,"PS_Female":1,"Map_Accuracy":"تعمیر"},"geometry":{"x":7006658.2905457541,"y":4143128.2664106563}},{"attributes":{"OBJECTID":4678,"ولایت":"بادغيس","Province":"BADGHIS","PC_Code":"3103024","ولسوالي":"مقر","District":"MUQUR","د_مرکز_نوم__نام_مرکز":"مسجد میرانزی","Polling_Center_Name":"Meeranzai Mosque","د_مرکز_ځای__موقعیت_مرکز":"میرانزی","Polling_Center_Location":"Meeranzai","Verification_Note":"Village","PS_Male":1,"PS_Female":1,"Map_Accuracy":"قریه"},"geometry":{"x":7045794.7614725009,"y":4171594.1866787}},{"attributes":{"OBJECTID":4679,"ولایت":"بادغيس","Province":"BADGHIS","PC_Code":"3103025","ولسوالي":"مقر","District":"MUQUR","د_مرکز_نوم__نام_مرکز":"مکتب  لیسه زاد علی ","Polling_Center_Name":"Zad Ali High School","د_مرکز_ځای__موقعیت_مرکز":"زاد علی ","Polling_Center_Location":"Zad Ali ","Verification_Note":"Building","PS_Male":2,"PS_Female":1,"Map_Accuracy":"تعمیر"},"geometry":{"x":7045563.1746302508,"y":4168048.2641144022}},{"attributes":{"OBJECTID":4680,"ولایت":"بادغيس","Province":"BADGHIS","PC_Code":"3104060","ولسوالي":"قادس","District":"QADIS","د_مرکز_نوم__نام_مرکز":"مکتب بویه کادانک","Polling_Center_Name":"Boya kadank School","د_مرکز_ځای__موقعیت_مرکز":"بویه کادانک","Polling_Center_Location":"Boya kadank ","Verification_Note":"Building","PS_Male":1,"PS_Female":1,"Map_Accuracy":"تعمیر"},"geometry":{"x":7070679.5746279545,"y":4120681.8070294559}},{"attributes":{"OBJECTID":4681,"ولایت":"بادغيس","Province":"BADGHIS","PC_Code":"3104061","ولسوالي":"قادس","District":"QADIS","د_مرکز_نوم__نام_مرکز":"مکتب خواجه های شورآب","Polling_Center_Name":"Khwaja Ha-e- Shur Aab Village ","د_مرکز_ځای__موقعیت_مرکز":"خواجه ها شورآب","Polling_Center_Location":"Khwaja Ha-e-Shue Aab","Verification_Note":"Building","PS_Male":1,"PS_Female":1,"Map_Accuracy":"تعمیر"},"geometry":{"x":7068450.4997859672,"y":4130103.1671609804}},{"attributes":{"OBJECTID":4682,"ولایت":"بادغيس","Province":"BADGHIS","PC_Code":"3104070","ولسوالي":"قادس","District":"QADIS","د_مرکز_نوم__نام_مرکز":"مکتب لیسه لنگر شریف","Polling_Center_Name":"Langari Sharif High School ","د_مرکز_ځای__موقعیت_مرکز":"لنگر شریف","Polling_Center_Location":"langar-e- Sharif","Verification_Note":"Building","PS_Male":2,"PS_Female":1,"Map_Accuracy":"تعمیر"},"geometry":{"x":7064550.4737461917,"y":4146204.5822412223}},{"attributes":{"OBJECTID":4683,"ولایت":"بادغيس","Province":"BADGHIS","PC_Code":"3105148","ولسوالي":"بالا مرغاب","District":"BALA MURGHAB","د_مرکز_نوم__نام_مرکز":"کلینیک مرغاب","Polling_Center_Name":"Murghab Clinic ","د_مرکز_ځای__موقعیت_مرکز":"مرغاب","Polling_Center_Location":"Murghab","Verification_Note":"Building","PS_Male":0,"PS_Female":2,"Map_Accuracy":"تعمیر"},"geometry":{"x":7049558.0960831568,"y":4243447.211167112}},{"attributes":{"OBJECTID":4684,"ولایت":"بادغيس","Province":"BADGHIS","PC_Code":"3105189","ولسوالي":"بالا مرغاب","District":"BALA MURGHAB","د_مرکز_نوم__نام_مرکز":"مکتب قبچاق کپه بابا","Polling_Center_Name":"Qabchaq Kapa Baba School","د_مرکز_ځای__موقعیت_مرکز":"قبچاق کپه بابا ","Polling_Center_Location":"Qabchaq Kapa Baba","Verification_Note":"Building","PS_Male":1,"PS_Female":1,"Map_Accuracy":"تعمیر"},"geometry":{"x":7052448.3229844347,"y":4240477.2233709842}},{"attributes":{"OBJECTID":4685,"ولایت":"بادغيس","Province":"BADGHIS","PC_Code":"3106089","ولسوالي":"جوند","District":"JAWAND","د_مرکز_نوم__نام_مرکز":"مکتب چهار تاق","Polling_Center_Name":"Char Taq School","د_مرکز_ځای__موقعیت_مرکز":"چهار تاق","Polling_Center_Location":"Char Taq","Verification_Note":"Building","PS_Male":2,"PS_Female":1,"Map_Accuracy":"تعمیر"},"geometry":{"x":7141470.6678267382,"y":4172391.4275388271}},{"attributes":{"OBJECTID":4686,"ولایت":"بادغيس","Province":"BADGHIS","PC_Code":"3106122","ولسوالي":"جوند","District":"JAWAND","د_مرکز_نوم__نام_مرکز":"مسجد قریه پیتو","Polling_Center_Name":"Qarye Petow Village Mosque ","د_مرکز_ځای__موقعیت_مرکز":" پیتو","Polling_Center_Location":"Petow","Verification_Note":"Building","PS_Male":1,"PS_Female":2,"Map_Accuracy":"تعمیر"},"geometry":{"x":7129699.5589667112,"y":4188901.7413610965}},{"attributes":{"OBJECTID":4687,"ولایت":"بادغيس","Province":"BADGHIS","PC_Code":"3107142","ولسوالي":"غورماچ","District":"GHORMACH","د_مرکز_نوم__نام_مرکز":"قریه نغاره خان","Polling_Center_Name":"Nagharah Khan Village ","د_مرکز_ځای__موقعیت_مرکز":"قریه نغاره خان","Polling_Center_Location":"Nagharah khan Village","Verification_Note":"Village","PS_Male":2,"PS_Female":1,"Map_Accuracy":"قریه"},"geometry":{"x":7109506.88572529,"y":4263413.226794824}},{"attributes":{"OBJECTID":4688,"ولایت":"بادغيس","Province":"BADGHIS","PC_Code":"3107143","ولسوالي":"غورماچ","District":"GHORMACH","د_مرکز_نوم__نام_مرکز":"ابگرمک","Polling_Center_Name":"Aabgarmak","د_مرکز_ځای__موقعیت_مرکز":"ابگرمک","Polling_Center_Location":"Aabgarmak","Verification_Note":"Village","PS_Male":1,"PS_Female":1,"Map_Accuracy":"قریه"},"geometry":{"x":7105669.0494322367,"y":4264488.488830559}},{"attributes":{"OBJECTID":4689,"ولایت":"هرات","Province":"HERAT","PC_Code":"3201007","ولسوالي":"هرات","District":"HERAT","د_مرکز_نوم__نام_مرکز":"لیسه هاتفی","Polling_Center_Name":"Hatefi High school","د_مرکز_ځای__موقعیت_مرکز":" ناحیه چهارم","Polling_Center_Location":"D04 - Nahia 4","Verification_Note":"Building","PS_Male":5,"PS_Female":4,"Map_Accuracy":"تعمیر"},"geometry":{"x":6925913.0997622125,"y":4073317.4729243368}},{"attributes":{"OBJECTID":4690,"ولایت":"هرات","Province":"HERAT","PC_Code":"3201017","ولسوالي":"هرات","District":"HERAT","د_مرکز_نوم__نام_مرکز":"لیسه فتح نو آباد","Polling_Center_Name":"Fath Now Abad High school","د_مرکز_ځای__موقعیت_مرکز":"ناحیه یازدهم","Polling_Center_Location":"D11 - Nahia 11","Verification_Note":"Building","PS_Male":4,"PS_Female":4,"Map_Accuracy":"تعمیر"},"geometry":{"x":6930621.9175623506,"y":4075986.1558742896}},{"attributes":{"OBJECTID":4691,"ولایت":"هرات","Province":"HERAT","PC_Code":"3202052","ولسوالي":"انجیل","District":"ENJIL","د_مرکز_نوم__نام_مرکز":"مسجد جامع تلاب","Polling_Center_Name":"Tallab Mosque ","د_مرکز_ځای__موقعیت_مرکز":"قریه تلاب","Polling_Center_Location":"Tallab Village  ","Verification_Note":"Building","PS_Male":2,"PS_Female":1,"Map_Accuracy":"تعمیر"},"geometry":{"x":6910732.3383512944,"y":4072009.909194909}},{"attributes":{"OBJECTID":4692,"ولایت":"هرات","Province":"HERAT","PC_Code":"3202053","ولسوالي":"انجیل","District":"ENJIL","د_مرکز_نوم__نام_مرکز":"لیسه رواشان","Polling_Center_Name":"Rawashan High School ","د_مرکز_ځای__موقعیت_مرکز":"قریه خیر دوزان","Polling_Center_Location":"Khirdozan Village","Verification_Note":"Building","PS_Male":2,"PS_Female":1,"Map_Accuracy":"تعمیر"},"geometry":{"x":6908204.9317267686,"y":4075116.7629144117}},{"attributes":{"OBJECTID":4693,"ولایت":"هرات","Province":"HERAT","PC_Code":"3203090","ولسوالي":"گذره","District":"GUZARA","د_مرکز_نوم__نام_مرکز":"لیسه خواجه محمد کنجانی","Polling_Center_Name":"khwaja Mohammad Kanjani High School","د_مرکز_ځای__موقعیت_مرکز":"قریه سیاوشان","Polling_Center_Location":"Seyawshan Village","Verification_Note":"Building","PS_Male":2,"PS_Female":1,"Map_Accuracy":"تعمیر"},"geometry":{"x":6932856.8489227444,"y":4060246.1351664364}},{"attributes":{"OBJECTID":4694,"ولایت":"هرات","Province":"HERAT","PC_Code":"3203091","ولسوالي":"گذره","District":"GUZARA","د_مرکز_نوم__نام_مرکز":"لیسه ناگهان","Polling_Center_Name":"Nagahan High School","د_مرکز_ځای__موقعیت_مرکز":"قریه ناگهان","Polling_Center_Location":"Nagahan Village","Verification_Note":"Building","PS_Male":2,"PS_Female":1,"Map_Accuracy":"تعمیر"},"geometry":{"x":6922934.32599837,"y":4065475.1588156968}},{"attributes":{"OBJECTID":4695,"ولایت":"هرات","Province":"HERAT","PC_Code":"3203111","ولسوالي":"گذره","District":"GUZARA","د_مرکز_نوم__نام_مرکز":"مکتب ابتدائیه کل خرما","Polling_Center_Name":"Kol Khurma Primary School","د_مرکز_ځای__موقعیت_مرکز":"قریه کل خرما ","Polling_Center_Location":"Kal khurma Village ","Verification_Note":"Building","PS_Male":1,"PS_Female":1,"Map_Accuracy":"تعمیر"},"geometry":{"x":6941733.3259692378,"y":4062543.1140972227}},{"attributes":{"OBJECTID":4696,"ولایت":"هرات","Province":"HERAT","PC_Code":"3203113","ولسوالي":"گذره","District":"GUZARA","د_مرکز_نوم__نام_مرکز":"مکتب ابتدائیه گل هزار ","Polling_Center_Name":"Gul Hazar  Primary School ","د_مرکز_ځای__موقعیت_مرکز":"گل هزار ","Polling_Center_Location":"Gul Hazar ","Verification_Note":"Village","PS_Male":2,"PS_Female":1,"Map_Accuracy":"قریه"},"geometry":{"x":6917318.8142852932,"y":4019786.0353389159}},{"attributes":{"OBJECTID":4697,"ولایت":"هرات","Province":"HERAT","PC_Code":"3204160","ولسوالي":"کرخ ","District":"KARRUKH","د_مرکز_نوم__نام_مرکز":"مکتب میرزا بهار ","Polling_Center_Name":"Mirzabahar School ","د_مرکز_ځای__موقعیت_مرکز":"قریه میزا بهار ","Polling_Center_Location":"Mirzabahar Villag ","Verification_Note":"Building","PS_Male":3,"PS_Female":2,"Map_Accuracy":"تعمیر"},"geometry":{"x":6995416.0260774344,"y":4098607.5143528953}},{"attributes":{"OBJECTID":4698,"ولایت":"هرات","Province":"HERAT","PC_Code":"3204161","ولسوالي":"کرخ ","District":"KARRUKH","د_مرکز_نوم__نام_مرکز":"مکتب بادام تو ","Polling_Center_Name":"Badamto School ","د_مرکز_ځای__موقعیت_مرکز":"قریه بادام تو ","Polling_Center_Location":"Badamto Village ","Verification_Note":"Building","PS_Male":2,"PS_Female":2,"Map_Accuracy":"تعمیر"},"geometry":{"x":7004976.8018449545,"y":4098720.4427713007}},{"attributes":{"OBJECTID":4699,"ولایت":"هرات","Province":"HERAT","PC_Code":"3205265","ولسوالي":"زنده جان ","District":"ZENDAJAN","د_مرکز_نوم__نام_مرکز":"مکتب ابتدایی ده سرخ","Polling_Center_Name":"Deh Sorkh Primary School ","د_مرکز_ځای__موقعیت_مرکز":" ده سرخ","Polling_Center_Location":"Deh Sorkh ","Verification_Note":"Building","PS_Male":2,"PS_Female":1,"Map_Accuracy":"تعمیر"},"geometry":{"x":6891928.8789216131,"y":4081614.6592180058}},{"attributes":{"OBJECTID":4700,"ولایت":"هرات","Province":"HERAT","PC_Code":"3205266","ولسوالي":"زنده جان ","District":"ZENDAJAN","د_مرکز_نوم__نام_مرکز":"مکتب کبوتر خان","Polling_Center_Name":"Kabotar Khan School ","د_مرکز_ځای__موقعیت_مرکز":" کبوتر خان","Polling_Center_Location":"Kabotar Khan","Verification_Note":"Building","PS_Male":2,"PS_Female":1,"Map_Accuracy":"تعمیر"},"geometry":{"x":6900379.6579901688,"y":4067611.0503480583}},{"attributes":{"OBJECTID":4701,"ولایت":"هرات","Province":"HERAT","PC_Code":"3207172","ولسوالي":"کشک (رباط سنگی)","District":"KUSHK (RUBAT-E-SANGI)","د_مرکز_نوم__نام_مرکز":"مکتب هفتو ","Polling_Center_Name":"Hafto School ","د_مرکز_ځای__موقعیت_مرکز":"قریه هفتو سفلی ","Polling_Center_Location":"Hafto Sofla Village ","Verification_Note":"Building","PS_Male":3,"PS_Female":1,"Map_Accuracy":"تعمیر"},"geometry":{"x":6912042.7413031384,"y":4150322.6622414291}},{"attributes":{"OBJECTID":4702,"ولایت":"هرات","Province":"HERAT","PC_Code":"3211453","ولسوالي":"غوریان ","District":"GHORYAN","د_مرکز_نوم__نام_مرکز":"مکتب نو آباد ","Polling_Center_Name":"Now Abad School","د_مرکز_ځای__موقعیت_مرکز":"برنا باد ","Polling_Center_Location":"Barna Bad ","Verification_Note":"Village","PS_Male":1,"PS_Female":1,"Map_Accuracy":"قریه"},"geometry":{"x":6856244.2417272031,"y":4078278.5205532238}},{"attributes":{"OBJECTID":4703,"ولایت":"هرات","Province":"HERAT","PC_Code":"3211454","ولسوالي":"غوریان ","District":"GHORYAN","د_مرکز_نوم__نام_مرکز":"مسجد مولوی سراج ","Polling_Center_Name":"Mawlawe Seraj Mosque ","د_مرکز_ځای__موقعیت_مرکز":"محل طاهریان ","Polling_Center_Location":"Mahal-e- Taheryan ","Verification_Note":"Village","PS_Male":1,"PS_Female":1,"Map_Accuracy":"قریه"},"geometry":{"x":6844747.3072070256,"y":4073415.3173335046}},{"attributes":{"OBJECTID":4704,"ولایت":"هرات","Province":"HERAT","PC_Code":"3213238","ولسوالي":"کهسان ","District":"KOHSAN","د_مرکز_نوم__نام_مرکز":"مکتب ابتدایی بنیاد","Polling_Center_Name":"Bunyad Primary School ","د_مرکز_ځای__موقعیت_مرکز":" قریه بنیاد","Polling_Center_Location":"Bunyad Village ","Verification_Note":"Village","PS_Male":2,"PS_Female":2,"Map_Accuracy":"قریه"},"geometry":{"x":6801262.6858379431,"y":4124912.1819106191}},{"attributes":{"OBJECTID":4705,"ولایت":"هرات","Province":"HERAT","PC_Code":"3214310","ولسوالي":"شیندند","District":"SHINDAND","د_مرکز_نوم__نام_مرکز":"مسجد شیر آباد","Polling_Center_Name":"Shir Abad Mosque ","د_مرکز_ځای__موقعیت_مرکز":" خیفان دوم","Polling_Center_Location":"Khaifan Duowm ","Verification_Note":"Building","PS_Male":1,"PS_Female":1,"Map_Accuracy":"تعمیر"},"geometry":{"x":6917567.4619527124,"y":3932066.1864344254}},{"attributes":{"OBJECTID":4706,"ولایت":"هرات","Province":"HERAT","PC_Code":"3214311","ولسوالي":"شیندند","District":"SHINDAND","د_مرکز_نوم__نام_مرکز":"مسجد عبدالله خان","Polling_Center_Name":"Abdullah Khan Mosque ","د_مرکز_ځای__موقعیت_مرکز":"ده میرزا قاسم ","Polling_Center_Location":"Deh Mirza Qasem ","Verification_Note":"Building","PS_Male":2,"PS_Female":1,"Map_Accuracy":"تعمیر"},"geometry":{"x":6924060.3449116349,"y":3933880.2358397767}},{"attributes":{"OBJECTID":4707,"ولایت":"هرات","Province":"HERAT","PC_Code":"3214332","ولسوالي":"شیندند","District":"SHINDAND","د_مرکز_نوم__نام_مرکز":"مکتب شهرآباد","Polling_Center_Name":"Shahr Abad School ","د_مرکز_ځای__موقعیت_مرکز":"شهر آباد اول ","Polling_Center_Location":"Shahr Abad-e-Awal ","Verification_Note":"Building","PS_Male":2,"PS_Female":2,"Map_Accuracy":"تعمیر"},"geometry":{"x":6926507.2809026577,"y":3929722.5479309335}},{"attributes":{"OBJECTID":4708,"ولایت":"هرات","Province":"HERAT","PC_Code":"3214333","ولسوالي":"شیندند","District":"SHINDAND","د_مرکز_نوم__نام_مرکز":"مسجد سنوغان","Polling_Center_Name":"Sano Ghan Mosque ","د_مرکز_ځای__موقعیت_مرکز":"شهر آباد دوم ","Polling_Center_Location":"Shahr Abad-e-Duowm","Verification_Note":"Village","PS_Male":1,"PS_Female":1,"Map_Accuracy":"قریه"},"geometry":{"x":6921550.9731578082,"y":3924572.9427116141}},{"attributes":{"OBJECTID":4709,"ولایت":"هرات","Province":"HERAT","PC_Code":"3214467","ولسوالي":"شیندند","District":"SHINDAND","د_مرکز_نوم__نام_مرکز":"مسجد معروف خيل","Polling_Center_Name":"Maruf Khel Mosque ","د_مرکز_ځای__موقعیت_مرکز":"معروف خیل ","Polling_Center_Location":"Maruf Khel ","Verification_Note":"Village","PS_Male":1,"PS_Female":1,"Map_Accuracy":"قریه"},"geometry":{"x":6922455.2948523909,"y":3926797.5972983092}},{"attributes":{"OBJECTID":4710,"ولایت":"هرات","Province":"HERAT","PC_Code":"3215352","ولسوالي":"فرسی ","District":"FERSI","د_مرکز_نوم__نام_مرکز":"مسجد جامع کشک خاک","Polling_Center_Name":"Kashak Khak Mosque ","د_مرکز_ځای__موقعیت_مرکز":"شیله ","Polling_Center_Location":"Shelah ","Verification_Note":"Village","PS_Male":3,"PS_Female":1,"Map_Accuracy":"قریه"},"geometry":{"x":7028910.42668701,"y":3993140.638661705}},{"attributes":{"OBJECTID":4711,"ولایت":"هرات","Province":"HERAT","PC_Code":"3215362","ولسوالي":"فرسی ","District":"FERSI","د_مرکز_نوم__نام_مرکز":"شورای انکشا فی","Polling_Center_Name":"Shura-e- Ankishafi","د_مرکز_ځای__موقعیت_مرکز":"دهن خوب آب ","Polling_Center_Location":"Dahn-e-Khob Aab","Verification_Note":"Village","PS_Male":1,"PS_Female":1,"Map_Accuracy":"قریه"},"geometry":{"x":7024537.1714731157,"y":3989832.1960578114}},{"attributes":{"OBJECTID":4712,"ولایت":"هرات","Province":"HERAT","PC_Code":"3216396","ولسوالي":"چشت شریف","District":"CHISHT-E-SHARIF","د_مرکز_نوم__نام_مرکز":"مکتب آرویج","Polling_Center_Name":"Arwej School","د_مرکز_ځای__موقعیت_مرکز":"آرویج ","Polling_Center_Location":"Arwej","Verification_Note":"Building","PS_Male":1,"PS_Female":1,"Map_Accuracy":"تعمیر"},"geometry":{"x":7069333.9501892179,"y":4078489.5938026235}},{"attributes":{"OBJECTID":4713,"ولایت":" فراه","Province":"FARAH","PC_Code":"3301014","ولسوالي":"فراه","District":"FARAH","د_مرکز_نوم__نام_مرکز":"لیسه نسوان","Polling_Center_Name":"Girls High School","د_مرکز_ځای__موقعیت_مرکز":"قلعه زمان","Polling_Center_Location":"Qala-e-Zaman","Verification_Note":"Building","PS_Male":3,"PS_Female":1,"Map_Accuracy":"تعمیر"},"geometry":{"x":6916849.1373161264,"y":3817454.0792333335}},{"attributes":{"OBJECTID":4714,"ولایت":" فراه","Province":"FARAH","PC_Code":"3303056","ولسوالي":"خاک سفید ","District":"KHAK-E-SAFED","د_مرکز_نوم__نام_مرکز":" مسجد جیجه","Polling_Center_Name":"Jeja Mosque ","د_مرکز_ځای__موقعیت_مرکز":"قریه جیجه ","Polling_Center_Location":"Jija Village ","Verification_Note":"Building","PS_Male":1,"PS_Female":1,"Map_Accuracy":"تعمیر"},"geometry":{"x":6900344.1715628989,"y":3874353.6113052294}},{"attributes":{"OBJECTID":4715,"ولایت":" فراه","Province":"FARAH","PC_Code":"3303057","ولسوالي":"خاک سفید ","District":"KHAK-E-SAFED","د_مرکز_نوم__نام_مرکز":"مسجد ناجو ","Polling_Center_Name":"Najo Mosque","د_مرکز_ځای__موقعیت_مرکز":"قریه ناجو","Polling_Center_Location":"Najo Village ","Verification_Note":"Building","PS_Male":1,"PS_Female":1,"Map_Accuracy":"تعمیر"},"geometry":{"x":6896742.3637597784,"y":3875612.7720646486}},{"attributes":{"OBJECTID":4716,"ولایت":" فراه","Province":"FARAH","PC_Code":"3304073","ولسوالي":"قلعه کاه ","District":"QALA-E-KAH","د_مرکز_نوم__نام_مرکز":" مسجد  کلا ته شیردل","Polling_Center_Name":"Kalatah Shirdel Mosque ","د_مرکز_ځای__موقعیت_مرکز":" کلا ته شیردل","Polling_Center_Location":"Kalata Shirdel ","Verification_Note":"Building","PS_Male":1,"PS_Female":1,"Map_Accuracy":"تعمیر"},"geometry":{"x":6833411.9273242466,"y":3802862.0173990652}},{"attributes":{"OBJECTID":4717,"ولایت":" فراه","Province":"FARAH","PC_Code":"3304074","ولسوالي":"قلعه کاه ","District":"QALA-E-KAH","د_مرکز_نوم__نام_مرکز":" مسجد  جمعه علی","Polling_Center_Name":"Jumaa Ali  Mosque ","د_مرکز_ځای__موقعیت_مرکز":" جمعه علی","Polling_Center_Location":"Juma Ali ","Verification_Note":"Building","PS_Male":2,"PS_Female":1,"Map_Accuracy":"تعمیر"},"geometry":{"x":6819043.5455008782,"y":3794780.7826611996}},{"attributes":{"OBJECTID":4718,"ولایت":" فراه","Province":"FARAH","PC_Code":"3304084","ولسوالي":"قلعه کاه ","District":"QALA-E-KAH","د_مرکز_نوم__نام_مرکز":"مسجد کاریزک ","Polling_Center_Name":"Karizak Mosque ","د_مرکز_ځای__موقعیت_مرکز":"کاریزک","Polling_Center_Location":"Karizak ","Verification_Note":"Village","PS_Male":1,"PS_Female":1,"Map_Accuracy":"قریه"},"geometry":{"x":6841832.6523566805,"y":3816813.2412978411}},{"attributes":{"OBJECTID":4719,"ولایت":" فراه","Province":"FARAH","PC_Code":"3305085","ولسوالي":"شیب کوه ","District":"SHIB KOH","د_مرکز_نوم__نام_مرکز":"لیسه  کین","Polling_Center_Name":"Keen High School ","د_مرکز_ځای__موقعیت_مرکز":" قریه کین","Polling_Center_Location":"Keen Village ","Verification_Note":"Building","PS_Male":1,"PS_Female":1,"Map_Accuracy":"تعمیر"},"geometry":{"x":6858421.9248130657,"y":3780667.2339746356}},{"attributes":{"OBJECTID":4720,"ولایت":" فراه","Province":"FARAH","PC_Code":"3306137","ولسوالي":"بالا بلوک ","District":"BALA BULUK","د_مرکز_نوم__نام_مرکز":" مسجد اوریه","Polling_Center_Name":"Orya Mosque","د_مرکز_ځای__موقعیت_مرکز":"اوریه","Polling_Center_Location":"Orya ","Verification_Note":"Village","PS_Male":1,"PS_Female":1,"Map_Accuracy":"قریه"},"geometry":{"x":6981899.0903037116,"y":3867778.6851907447}},{"attributes":{"OBJECTID":4721,"ولایت":" فراه","Province":"FARAH","PC_Code":"3310167","ولسوالي":"گلستان","District":"GULISTAN","د_مرکز_نوم__نام_مرکز":"مسجد لارتی","Polling_Center_Name":"Larti Mosque ","د_مرکز_ځای__موقعیت_مرکز":"لارتی","Polling_Center_Location":"Larti ","Verification_Note":"Village","PS_Male":1,"PS_Female":1,"Map_Accuracy":"قریه"},"geometry":{"x":7079601.7227219343,"y":3832602.5882399082}},{"attributes":{"OBJECTID":4722,"ولایت":" فراه","Province":"FARAH","PC_Code":"3310168","ولسوالي":"گلستان","District":"GULISTAN","د_مرکز_نوم__نام_مرکز":"مکتب ابتدائیه نسوان قلعه کهنه","Polling_Center_Name":"Qala Kohna Girls Primary School","د_مرکز_ځای__موقعیت_مرکز":"قلعه کهنه","Polling_Center_Location":"Qala-e-Kohna","Verification_Note":"Village","PS_Male":1,"PS_Female":1,"Map_Accuracy":"قریه"},"geometry":{"x":7086870.9578284062,"y":3843734.0109077245}},{"attributes":{"OBJECTID":4723,"ولایت":" فراه","Province":"FARAH","PC_Code":"3311191","ولسوالي":"پرچمن","District":"PUR CHAMAN","د_مرکز_نوم__نام_مرکز":" مکتب ابتدائیه نیزگان","Polling_Center_Name":"Nezagan Primary School","د_مرکز_ځای__موقعیت_مرکز":" نیزگان","Polling_Center_Location":"Nezagan ","Verification_Note":"Building","PS_Male":2,"PS_Female":1,"Map_Accuracy":"تعمیر"},"geometry":{"x":7073092.1151227131,"y":3916357.1319424286}},{"attributes":{"OBJECTID":4724,"ولایت":" فراه","Province":"FARAH","PC_Code":"3311192","ولسوالي":"پرچمن","District":"PUR CHAMAN","د_مرکز_نوم__نام_مرکز":" مسجد گرد خوله","Polling_Center_Name":"Gerd Khola Mosque ","د_مرکز_ځای__موقعیت_مرکز":" گرد خوله ","Polling_Center_Location":"Gerd Khola","Verification_Note":"Building","PS_Male":1,"PS_Female":1,"Map_Accuracy":"تعمیر"},"geometry":{"x":7078849.6627136655,"y":3935328.5951475725}},{"attributes":{"OBJECTID":4725,"ولایت":" فراه","Province":"FARAH","PC_Code":"3311202","ولسوالي":"پرچمن","District":"PUR CHAMAN","د_مرکز_نوم__نام_مرکز":"مسجد کشت باج","Polling_Center_Name":"Kesht Baj Mosque  ","د_مرکز_ځای__موقعیت_مرکز":" کشت باج","Polling_Center_Location":"Kesht Baj ","Verification_Note":"Building","PS_Male":1,"PS_Female":1,"Map_Accuracy":"تعمیر"},"geometry":{"x":7071547.4625663906,"y":3938363.1052340791}},{"attributes":{"OBJECTID":4726,"ولایت":"نيمروز","Province":"NIMROZ","PC_Code":"3404021","ولسوالي":"چهار برجک","District":"CHAR BURJAK","د_مرکز_نوم__نام_مرکز":"مکتب جدید ","Polling_Center_Name":"New School ","د_مرکز_ځای__موقعیت_مرکز":"مرکز ولسوالی ","Polling_Center_Location":"Char Burjak District Center  ","Verification_Note":"Building","PS_Male":2,"PS_Female":1,"Map_Accuracy":"تعمیر"},"geometry":{"x":6908487.5986305624,"y":3539520.6317099109}},{"attributes":{"OBJECTID":4727,"ولایت":"نيمروز","Province":"NIMROZ","PC_Code":"3404022","ولسوالي":"چهار برجک","District":"CHAR BURJAK","د_مرکز_نوم__نام_مرکز":"مکتب خجو","Polling_Center_Name":"Khajo School ","د_مرکز_ځای__موقعیت_مرکز":"خجو ","Polling_Center_Location":"Khajo ","Verification_Note":"Building","PS_Male":2,"PS_Female":2,"Map_Accuracy":"تعمیر"},"geometry":{"x":6932637.7432218008,"y":3529212.4146115854}},{"attributes":{"OBJECTID":4728,"ولایت":"نيمروز","Province":"NIMROZ","PC_Code":"3405041","ولسوالي":"خاشرود","District":"KHASHROD","د_مرکز_نوم__نام_مرکز":"مکتب دیوالک","Polling_Center_Name":"Dewalak School","د_مرکز_ځای__موقعیت_مرکز":" دیوالک","Polling_Center_Location":"Dewlak","Verification_Note":"Village","PS_Male":1,"PS_Female":1,"Map_Accuracy":"قریه"},"geometry":{"x":7013615.62402375,"y":3720477.5069371685}},{"attributes":{"OBJECTID":4729,"ولایت":"نيمروز","Province":"NIMROZ","PC_Code":"3405042","ولسوالي":"خاشرود","District":"KHASHROD","د_مرکز_نوم__نام_مرکز":"مکتب قریه لوخی","Polling_Center_Name":"Lowkhi Village School","د_مرکز_ځای__موقعیت_مرکز":"قریه لوخی","Polling_Center_Location":"Lowkhi Village","Verification_Note":"Village","PS_Male":1,"PS_Female":1,"Map_Accuracy":"قریه"},"geometry":{"x":6999959.3207003288,"y":3714784.4402551055}},{"attributes":{"OBJECTID":4730,"ولایت":"نيمروز","Province":"NIMROZ","PC_Code":"3406051","ولسوالي":"دلارام","District":"DELARAM","د_مرکز_نوم__نام_مرکز":"قریه استوی ","Polling_Center_Name":"Astawi Village ","د_مرکز_ځای__موقعیت_مرکز":"قریه استوی ","Polling_Center_Location":"Astawi Village ","Verification_Note":"Village","PS_Male":1,"PS_Female":1,"Map_Accuracy":"قریه"},"geometry":{"x":7030698.7386843637,"y":3763196.3347821459}},{"attributes":{"OBJECTID":4731,"ولایت":"کابل","Province":"KABUL","PC_Code":"0101017","ولسوالي":"کابل - ناحیه 01","District":"KABUL-D01","د_مرکز_نوم__نام_مرکز":"مسجد امام باقر","Polling_Center_Name":"Imam-e-Baqir Mosque","د_مرکز_ځای__موقعیت_مرکز":"قريه هزاره ها","Polling_Center_Location":"Hazara ha Village","Verification_Note":"Building","PS_Male":2,"PS_Female":1,"Map_Accuracy":"تعمیر"},"geometry":{"x":7699750.0869413242,"y":4097558.1469048262}},{"attributes":{"OBJECTID":4732,"ولایت":"کابل","Province":"KABUL","PC_Code":"0101027","ولسوالي":"کابل - ناحیه 02","District":"KABUL-D02","د_مرکز_نوم__نام_مرکز":"مسجد عمر فاروق","Polling_Center_Name":"Omar Farooq Mosque","د_مرکز_ځای__موقعیت_مرکز":"کارته پروان","Polling_Center_Location":"Kart-e-Parwan","Verification_Note":"Building","PS_Male":1,"PS_Female":1,"Map_Accuracy":"تعمیر"},"geometry":{"x":7696689.6280483305,"y":4100312.4142784253}},{"attributes":{"OBJECTID":4733,"ولایت":"کابل","Province":"KABUL","PC_Code":"0101028","ولسوالي":"کابل - ناحیه 02","District":"KABUL-D02","د_مرکز_نوم__نام_مرکز":"ليسه استقلال","Polling_Center_Name":"Istiqlal High School","د_مرکز_ځای__موقعیت_مرکز":"ليسه استقلال","Polling_Center_Location":"Istiqlal High School","Verification_Note":"Building","PS_Male":4,"PS_Female":3,"Map_Accuracy":"تعمیر"},"geometry":{"x":7700632.1024363376,"y":4099236.0233256742}},{"attributes":{"OBJECTID":4734,"ولایت":"کابل","Province":"KABUL","PC_Code":"0101036","ولسوالي":"کابل - ناحیه 03","District":"KABUL-D03","د_مرکز_نوم__نام_مرکز":"مکتب متوسطه نمبر١٢ جمال مينه","Polling_Center_Name":"Jamal Menah 13th Number Secondary School","د_مرکز_ځای__موقعیت_مرکز":"کارته سخي","Polling_Center_Location":"Kart-e-Sakhi","Verification_Note":"Building","PS_Male":4,"PS_Female":3,"Map_Accuracy":"تعمیر"},"geometry":{"x":7696638.3142158538,"y":4099151.7185658365}},{"attributes":{"OBJECTID":4735,"ولایت":"کابل","Province":"KABUL","PC_Code":"0101055","ولسوالي":"کابل - ناحیه 04","District":"KABUL-D04","د_مرکز_نوم__نام_مرکز":" مکتب متوسطه امیرشیرعلی خان","Polling_Center_Name":"Amir Shir Ali Khan Secondary School","د_مرکز_ځای__موقعیت_مرکز":"کارته پروان","Polling_Center_Location":"Kart-e-Parwan","Verification_Note":"Building","PS_Male":3,"PS_Female":3,"Map_Accuracy":"تعمیر"},"geometry":{"x":7697003.6380679533,"y":4100825.0232540518}},{"attributes":{"OBJECTID":4736,"ولایت":"کابل","Province":"KABUL","PC_Code":"0101075","ولسوالي":"کابل - ناحیه 05","District":"KABUL-D05","د_مرکز_نوم__نام_مرکز":"  مسجد امام حسین ","Polling_Center_Name":"Imam-e-Hussain Mosque","د_مرکز_ځای__موقعیت_مرکز":"ديوان بيگي","Polling_Center_Location":"Dewan Begi","Verification_Note":"Building","PS_Male":3,"PS_Female":1,"Map_Accuracy":"تعمیر"},"geometry":{"x":7692367.5964981206,"y":4098540.7454603165}},{"attributes":{"OBJECTID":4737,"ولایت":"کابل","Province":"KABUL","PC_Code":"0101076","ولسوالي":"کابل - ناحیه 05","District":"KABUL-D05","د_مرکز_نوم__نام_مرکز":" مسجد ايوب صابر","Polling_Center_Name":"Ayub Saber Mosque","د_مرکز_ځای__موقعیت_مرکز":"نو آباد قرغه","Polling_Center_Location":"Naw Abad, Qargha","Verification_Note":"Building","PS_Male":1,"PS_Female":1,"Map_Accuracy":"تعمیر"},"geometry":{"x":7689310.5718114078,"y":4100253.6846732721}},{"attributes":{"OBJECTID":4738,"ولایت":"کابل","Province":"KABUL","PC_Code":"0101085","ولسوالي":"کابل - ناحیه 05","District":"KABUL-D05","د_مرکز_نوم__نام_مرکز":" مسجد شهيد","Polling_Center_Name":"Shaheed Mosque","د_مرکز_ځای__موقعیت_مرکز":"قريه وردک ها","Polling_Center_Location":"Wardakeha Village","Verification_Note":"Building","PS_Male":1,"PS_Female":1,"Map_Accuracy":"تعمیر"},"geometry":{"x":7687538.0193143636,"y":4100010.6160384789}},{"attributes":{"OBJECTID":4739,"ولایت":"کابل","Province":"KABUL","PC_Code":"0101094","ولسوالي":"کابل - ناحیه 05","District":"KABUL-D05","د_مرکز_نوم__نام_مرکز":" لیسه میرغلام محمد غبار","Polling_Center_Name":"Mir Ghulam Ghubar High School","د_مرکز_ځای__موقعیت_مرکز":"سپين کلي","Polling_Center_Location":"Spin Kalai","Verification_Note":"Building","PS_Male":5,"PS_Female":4,"Map_Accuracy":"تعمیر"},"geometry":{"x":7692767.1154714,"y":4099458.2660540715}},{"attributes":{"OBJECTID":4740,"ولایت":"کابل","Province":"KABUL","PC_Code":"0101095","ولسوالي":"کابل - ناحیه 06","District":"KABUL-D06","د_مرکز_نوم__نام_مرکز":" ليسه چهار قلعه","Polling_Center_Name":"Char Qala High School","د_مرکز_ځای__موقعیت_مرکز":"چهار قلعه","Polling_Center_Location":"Chahar Qala","Verification_Note":"Building","PS_Male":4,"PS_Female":3,"Map_Accuracy":"تعمیر"},"geometry":{"x":7693373.1755147241,"y":4094561.3820581734}},{"attributes":{"OBJECTID":4741,"ولایت":"کابل","Province":"KABUL","PC_Code":"0101104","ولسوالي":"کابل - ناحیه 06","District":"KABUL-D06","د_مرکز_نوم__نام_مرکز":" لیسه قلعه بختیار","Polling_Center_Name":"Qala-e-Bakhtiar High School","د_مرکز_ځای__موقعیت_مرکز":" نوآباد قلعه بختیار","Polling_Center_Location":"Naw Abade Qala-e-Bakhtiar","Verification_Note":"Building","PS_Male":4,"PS_Female":4,"Map_Accuracy":"تعمیر"},"geometry":{"x":7693778.5343084931,"y":4092316.2152142152}},{"attributes":{"OBJECTID":4742,"ولایت":"کابل","Province":"KABUL","PC_Code":"0101114","ولسوالي":"کابل - ناحیه 06","District":"KABUL-D06","د_مرکز_نوم__نام_مرکز":" مسجد ابوذر غفاري","Polling_Center_Name":"Abu Zar Ghafari Mosque","د_مرکز_ځای__موقعیت_مرکز":"پل سوخته","Polling_Center_Location":"Pul-e-Sukhta","Verification_Note":"Building","PS_Male":3,"PS_Female":2,"Map_Accuracy":"تعمیر"},"geometry":{"x":7694137.0231438652,"y":4096728.3874617442}},{"attributes":{"OBJECTID":4743,"ولایت":"کابل","Province":"KABUL","PC_Code":"0101125","ولسوالي":"کابل - ناحیه 07","District":"KABUL-D07","د_مرکز_نوم__نام_مرکز":" ليسه خوشحال خان","Polling_Center_Name":"Khushhal Khan High School","د_مرکز_ځای__موقعیت_مرکز":"سرک چهلستون","Polling_Center_Location":"Chehel Seton Road","Verification_Note":"Building","PS_Male":4,"PS_Female":4,"Map_Accuracy":"تعمیر"},"geometry":{"x":7698580.9584420472,"y":4096063.6386957169}},{"attributes":{"OBJECTID":4744,"ولایت":"کابل","Province":"KABUL","PC_Code":"0101134","ولسوالي":"کابل - ناحیه 07","District":"KABUL-D07","د_مرکز_نوم__نام_مرکز":"ليسه غازي عبدالله","Polling_Center_Name":"Ghazi Abdullah High School","د_مرکز_ځای__موقعیت_مرکز":"قلعه اسفندیار","Polling_Center_Location":"Qala-e-Asfandiar","Verification_Note":"Building","PS_Male":4,"PS_Female":3,"Map_Accuracy":"تعمیر"},"geometry":{"x":7695820.4343322664,"y":4088749.4503224194}},{"attributes":{"OBJECTID":4745,"ولایت":"کابل","Province":"KABUL","PC_Code":"0101151","ولسوالي":"کابل - ناحیه 08","District":"KABUL-D08","د_مرکز_نوم__نام_مرکز":" لیسه ذبیح الله عصمتی","Polling_Center_Name":"Zabihullah Esmati High School","د_مرکز_ځای__موقعیت_مرکز":"دوصد فاميلي","Polling_Center_Location":"200 Family","Verification_Note":"Building","PS_Male":4,"PS_Female":3,"Map_Accuracy":"تعمیر"},"geometry":{"x":7706015.4551249631,"y":4094294.651962854}},{"attributes":{"OBJECTID":4746,"ولایت":"کابل","Province":"KABUL","PC_Code":"0101161","ولسوالي":"کابل - ناحیه 08","District":"KABUL-D08","د_مرکز_نوم__نام_مرکز":" مسجد عمر فاروق","Polling_Center_Name":"Omar Farooq Mosque","د_مرکز_ځای__موقعیت_مرکز":"تپه دوستی خیل کارته نو","Polling_Center_Location":"Tapa-e-DostiKhel, Kart-e-Naw","Verification_Note":"Building","PS_Male":4,"PS_Female":1,"Map_Accuracy":"تعمیر"},"geometry":{"x":7706889.5446722321,"y":4096582.9014666006}},{"attributes":{"OBJECTID":4747,"ولایت":"کابل","Province":"KABUL","PC_Code":"0101171","ولسوالي":"کابل - ناحیه 08","District":"KABUL-D08","د_مرکز_نوم__نام_مرکز":" مکتب متوسطه شاه شهيد خاص","Polling_Center_Name":"Shah Shaheed Khas Secondary School","د_مرکز_ځای__موقعیت_مرکز":"شاه شهيد خاص","Polling_Center_Location":"Shah Shaheed Khas","Verification_Note":"Building","PS_Male":3,"PS_Female":2,"Map_Accuracy":"تعمیر"},"geometry":{"x":7703378.7338736691,"y":4097606.8520208597}},{"attributes":{"OBJECTID":4748,"ولایت":"کابل","Province":"KABUL","PC_Code":"0101177","ولسوالي":"کابل - ناحیه 09","District":"KABUL-D09","د_مرکز_نوم__نام_مرکز":" مکتب متوسطه خواجه رواش","Polling_Center_Name":"Khwaja Rawash Secondary School","د_مرکز_ځای__موقعیت_مرکز":"خواجه رواش","Polling_Center_Location":"Khwaja Rawash","Verification_Note":"Building","PS_Male":2,"PS_Female":1,"Map_Accuracy":"تعمیر"},"geometry":{"x":7705886.3567982987,"y":4103371.355625242}},{"attributes":{"OBJECTID":4749,"ولایت":"کابل","Province":"KABUL","PC_Code":"0101186","ولسوالي":"کابل - ناحیه 09","District":"KABUL-D09","د_مرکز_نوم__نام_مرکز":" لیسه عالی قابل بای ","Polling_Center_Name":"Qabil Bai High School","د_مرکز_ځای__موقعیت_مرکز":"قابل باي","Polling_Center_Location":"Qabil Bai","Verification_Note":"Building","PS_Male":3,"PS_Female":1,"Map_Accuracy":"تعمیر"},"geometry":{"x":7707027.37712615,"y":4102499.3107219413}},{"attributes":{"OBJECTID":4750,"ولایت":"کابل","Province":"KABUL","PC_Code":"0101187","ولسوالي":"کابل - ناحیه 09","District":"KABUL-D09","د_مرکز_نوم__نام_مرکز":" مسجد منصور هلاج","Polling_Center_Name":"Mansoor Helaj Mosque","د_مرکز_ځای__موقعیت_مرکز":"قلعه وکيل","Polling_Center_Location":"Qala-e-Wakil","Verification_Note":"Building","PS_Male":2,"PS_Female":1,"Map_Accuracy":"تعمیر"},"geometry":{"x":7704112.7367473394,"y":4102969.9433111027}},{"attributes":{"OBJECTID":4751,"ولایت":"کابل","Province":"KABUL","PC_Code":"0101202","ولسوالي":"کابل - ناحیه 10","District":"KABUL-D10","د_مرکز_نوم__نام_مرکز":" مکتب متوسطه چهارقلعه وزير آباد","Polling_Center_Name":"Chahar Qala-e-Wazirabad Secondary School","د_مرکز_ځای__موقعیت_مرکز":"چهار قلعه","Polling_Center_Location":"Chahar Qala","Verification_Note":"Building","PS_Male":3,"PS_Female":2,"Map_Accuracy":"تعمیر"},"geometry":{"x":7701552.3806667216,"y":4103948.1674572229}},{"attributes":{"OBJECTID":4752,"ولایت":"کابل","Province":"KABUL","PC_Code":"0101211","ولسوالي":"کابل - ناحیه 10","District":"KABUL-D10","د_مرکز_نوم__نام_مرکز":" ليسه نسوان زرغونه","Polling_Center_Name":"Zarghona Girls High School","د_مرکز_ځای__موقعیت_مرکز":"قلعه فتح الله","Polling_Center_Location":"Qala-e-Fathullah","Verification_Note":"Building","PS_Male":3,"PS_Female":4,"Map_Accuracy":"تعمیر"},"geometry":{"x":7699890.6856845878,"y":4101770.1966446415}},{"attributes":{"OBJECTID":4753,"ولایت":"کابل","Province":"KABUL","PC_Code":"0101222","ولسوالي":"کابل - ناحیه 10","District":"KABUL-D10","د_مرکز_نوم__نام_مرکز":" وزارت امور زنان","Polling_Center_Name":"Ministry of Women Affairs","د_مرکز_ځای__موقعیت_مرکز":"شهر نو","Polling_Center_Location":"Shahr-e-Naw","Verification_Note":"Building","PS_Male":3,"PS_Female":2,"Map_Accuracy":"تعمیر"},"geometry":{"x":7700344.6766243055,"y":4100655.7892264277}},{"attributes":{"OBJECTID":4754,"ولایت":"کابل","Province":"KABUL","PC_Code":"0101232","ولسوالي":"کابل - ناحیه 11","District":"KABUL-D11","د_مرکز_نوم__نام_مرکز":" مکتب متوسطه بی بی حوا","Polling_Center_Name":"Bibi Hawa Secondary School","د_مرکز_ځای__موقعیت_مرکز":"گولايي حصه اول","Polling_Center_Location":"Golaye-e-Park","Verification_Note":"Building","PS_Male":3,"PS_Female":3,"Map_Accuracy":"تعمیر"},"geometry":{"x":7694397.0187201649,"y":4105813.873014681}},{"attributes":{"OBJECTID":4755,"ولایت":"کابل","Province":"KABUL","PC_Code":"0101241","ولسوالي":"کابل - ناحیه 11","District":"KABUL-D11","د_مرکز_نوم__نام_مرکز":"لیسه عبدالقادر بیدل","Polling_Center_Name":"Abdul Qader Bedil High School","د_مرکز_ځای__موقعیت_مرکز":"پروژه جديد","Polling_Center_Location":"Proja-e-Jadid","Verification_Note":"Building","PS_Male":5,"PS_Female":4,"Map_Accuracy":"تعمیر"},"geometry":{"x":7696531.3328456134,"y":4108195.1631379351}},{"attributes":{"OBJECTID":4756,"ولایت":"کابل","Province":"KABUL","PC_Code":"0101498","ولسوالي":"کابل - ناحیه 12","District":"KABUL-D12","د_مرکز_نوم__نام_مرکز":" لیسه نسوان احمد شاه بابا","Polling_Center_Name":"Ahmad Shah Baba Girls High School","د_مرکز_ځای__موقعیت_مرکز":"بلاک ۸ احمد شاه بابا مینه","Polling_Center_Location":"Block 8, Ahmad Shah Baba Mina","Verification_Note":"Building","PS_Male":3,"PS_Female":3,"Map_Accuracy":"تعمیر"},"geometry":{"x":7717264.7727962136,"y":4098654.9337474778}},{"attributes":{"OBJECTID":4757,"ولایت":"کابل","Province":"KABUL","PC_Code":"0101276","ولسوالي":"کابل - ناحیه 13","District":"KABUL-D13","د_مرکز_نوم__نام_مرکز":" مسجد حنيفي","Polling_Center_Name":"Hanefi Mosque","د_مرکز_ځای__موقعیت_مرکز":"قلعه دوغ آباد","Polling_Center_Location":"Qala-e-Dogh Abad","Verification_Note":"Building","PS_Male":2,"PS_Female":1,"Map_Accuracy":"تعمیر"},"geometry":{"x":7688627.8994681463,"y":4095587.1937501654}},{"attributes":{"OBJECTID":4758,"ولایت":"کابل","Province":"KABUL","PC_Code":"0101499","ولسوالي":"کابل - ناحیه 13","District":"KABUL-D13","د_مرکز_نوم__نام_مرکز":"مسجد امام مهدی","Polling_Center_Name":"Imam-e-Mehdi Mosque","د_مرکز_ځای__موقعیت_مرکز":"شهرک مهدیه ","Polling_Center_Location":"Shahrak-e-Mahdia","Verification_Note":"Building","PS_Male":2,"PS_Female":1,"Map_Accuracy":"تعمیر"},"geometry":{"x":7688606.9023857974,"y":4093192.6301424354}},{"attributes":{"OBJECTID":4759,"ولایت":"کابل","Province":"KABUL","PC_Code":"0101293","ولسوالي":"کابل - ناحیه 15","District":"KABUL-D15","د_مرکز_نوم__نام_مرکز":" لیسه محمد فقیر فیروزی","Polling_Center_Name":"Mohammad Faqer Ferozi High School","د_مرکز_ځای__موقعیت_مرکز":"حصه سوم خير خانه","Polling_Center_Location":"Hesa Sewom-e-Khair Khana","Verification_Note":"Building","PS_Male":5,"PS_Female":3,"Map_Accuracy":"تعمیر"},"geometry":{"x":7698512.2275620438,"y":4106915.4105043411}},{"attributes":{"OBJECTID":4760,"ولایت":"کابل","Province":"KABUL","PC_Code":"0101302","ولسوالي":"کابل - ناحیه 15","District":"KABUL-D15","د_مرکز_نوم__نام_مرکز":" مسجد سعد ابن وقاض","Polling_Center_Name":"Saad Ibne Weqas Mosque","د_مرکز_ځای__موقعیت_مرکز":"لب جر","Polling_Center_Location":"Lab-e-Jar","Verification_Note":"Building","PS_Male":3,"PS_Female":2,"Map_Accuracy":"تعمیر"},"geometry":{"x":7697881.0093138106,"y":4105267.4848768264}},{"attributes":{"OBJECTID":4761,"ولایت":"کابل","Province":"KABUL","PC_Code":"0101503","ولسوالي":"کابل - ناحیه 15","District":"KABUL-D15","د_مرکز_نوم__نام_مرکز":"مسجد حضرت عمر فاروق","Polling_Center_Name":"Hazrat-e-Omer Farooq Mosque","د_مرکز_ځای__موقعیت_مرکز":"تپه خواجه بغرا","Polling_Center_Location":"Tapa-e- Khwaja Bughra","Verification_Note":"Building","PS_Male":3,"PS_Female":2,"Map_Accuracy":"تعمیر"},"geometry":{"x":7700061.9440420046,"y":4106236.7317769006}},{"attributes":{"OBJECTID":4762,"ولایت":"کابل","Province":"KABUL","PC_Code":"0101319","ولسوالي":"کابل - ناحیه 16","District":"KABUL-D16","د_مرکز_نوم__نام_مرکز":"مکتب متوسطه نازو انا","Polling_Center_Name":"Nazo Ana Secondary School","د_مرکز_ځای__موقعیت_مرکز":"مکروريان اول","Polling_Center_Location":"First Makroryan","Verification_Note":"Building","PS_Male":3,"PS_Female":2,"Map_Accuracy":"تعمیر"},"geometry":{"x":7703542.43141127,"y":4100139.6409604549}},{"attributes":{"OBJECTID":4763,"ولایت":"کابل","Province":"KABUL","PC_Code":"0101327","ولسوالي":"کابل - ناحیه 17","District":"KABUL-D17","د_مرکز_نوم__نام_مرکز":"مرکز ناحيه ١٧","Polling_Center_Name":"17th Nahia Office","د_مرکز_ځای__موقعیت_مرکز":"سر کوتل خير خانه","Polling_Center_Location":"Sar-e-Kotal Khair Khana","Verification_Note":"Building","PS_Male":5,"PS_Female":4,"Map_Accuracy":"تعمیر"},"geometry":{"x":7690806.7725593634,"y":4107595.4242131487}},{"attributes":{"OBJECTID":4764,"ولایت":"کابل","Province":"KABUL","PC_Code":"0101509","ولسوالي":"کابل - ناحیه 21","District":"KABUL-D21","د_مرکز_نوم__نام_مرکز":" مسجد شریف گل سعید خان ","Polling_Center_Name":"Sharif Gul Said Khan Mosque","د_مرکز_ځای__موقعیت_مرکز":"ملواری غوندۍ","Polling_Center_Location":"Malwari Ghundi","Verification_Note":"Building","PS_Male":3,"PS_Female":4,"Map_Accuracy":"تعمیر"},"geometry":{"x":7725655.7577134855,"y":4104736.5566747561}},{"attributes":{"OBJECTID":4765,"ولایت":"کابل","Province":"KABUL","PC_Code":"0102405","ولسوالي":"پغمان","District":"PAGHMAN","د_مرکز_نوم__نام_مرکز":"کلينيک دوازده امام","Polling_Center_Name":"12 Imam Clinic","د_مرکز_ځای__موقعیت_مرکز":"دره پشه يي","Polling_Center_Location":"Dara-e-Pashaye","Verification_Note":"Building","PS_Male":2,"PS_Female":1,"Map_Accuracy":"تعمیر"},"geometry":{"x":7676301.6069116816,"y":4108334.0585834235}},{"attributes":{"OBJECTID":4766,"ولایت":"کابل","Province":"KABUL","PC_Code":"0102406","ولسوالي":"پغمان","District":"PAGHMAN","د_مرکز_نوم__نام_مرکز":" مکتب متوسطه حضرت عثمان","Polling_Center_Name":"Hazrat-e-Usman Secondary School","د_مرکز_ځای__موقعیت_مرکز":"دره زرگر","Polling_Center_Location":"Dara-e-Zargar","Verification_Note":"Building","PS_Male":2,"PS_Female":1,"Map_Accuracy":"تعمیر"},"geometry":{"x":7677448.0351403952,"y":4108458.68015898}},{"attributes":{"OBJECTID":4767,"ولایت":"کابل","Province":"KABUL","PC_Code":"0102416","ولسوالي":"پغمان","District":"PAGHMAN","د_مرکز_نوم__نام_مرکز":" مکتب ابتدائيه سموچک","Polling_Center_Name":"Sumuchak Primary School","د_مرکز_ځای__موقعیت_مرکز":"قریه سموچک","Polling_Center_Location":"Smochak Village","Verification_Note":"Building","PS_Male":1,"PS_Female":1,"Map_Accuracy":"تعمیر"},"geometry":{"x":7681056.7091297023,"y":4111630.4806571975}},{"attributes":{"OBJECTID":4768,"ولایت":"کابل","Province":"KABUL","PC_Code":"0104455","ولسوالي":"بگرامی","District":"BAGRAMI","د_مرکز_نوم__نام_مرکز":" لیسه حسین خیل","Polling_Center_Name":"Hussain Khel High School","د_مرکز_ځای__موقعیت_مرکز":"حسين خيل","Polling_Center_Location":"Hossain Khel","Verification_Note":"Village","PS_Male":2,"PS_Female":2,"Map_Accuracy":"قریه"},"geometry":{"x":7714761.5236143842,"y":4094700.1214260161}},{"attributes":{"OBJECTID":4769,"ولایت":"کابل","Province":"KABUL","PC_Code":"0105466","ولسوالي":"ده سبز","District":"DEHSABZ","د_مرکز_نوم__نام_مرکز":" ليسه ده يحي","Polling_Center_Name":"Deh Yahya High School","د_مرکز_ځای__موقعیت_مرکز":"ده يحي","Polling_Center_Location":"Deh Yahya","Verification_Note":"Building","PS_Male":2,"PS_Female":1,"Map_Accuracy":"تعمیر"},"geometry":{"x":7707352.0047988147,"y":4109545.9673948213}},{"attributes":{"OBJECTID":4770,"ولایت":"کابل","Province":"KABUL","PC_Code":"0106387","ولسوالي":"شکردره","District":"SHAKAR DARA","د_مرکز_نوم__نام_مرکز":" کلينيک بهزادي","Polling_Center_Name":"Behzadi Clinic","د_مرکز_ځای__موقعیت_مرکز":"بهزادي","Polling_Center_Location":"Behzadi","Verification_Note":"Building","PS_Male":3,"PS_Female":2,"Map_Accuracy":"تعمیر"},"geometry":{"x":7685420.6613737568,"y":4123877.8280825242}},{"attributes":{"OBJECTID":4771,"ولایت":"کابل","Province":"KABUL","PC_Code":"0107431","ولسوالي":"موسهی","District":"MUSAHI","د_مرکز_نوم__نام_مرکز":" مکتب متوسطه قشلاق","Polling_Center_Name":"Qeshlaq Secondary School","د_مرکز_ځای__موقعیت_مرکز":"سعيد خيل معین خيل","Polling_Center_Location":"Saied Khel Muien Khel","Verification_Note":"Village","PS_Male":1,"PS_Female":1,"Map_Accuracy":"قریه"},"geometry":{"x":7706325.7125645652,"y":4081665.29476317}},{"attributes":{"OBJECTID":4772,"ولایت":"کابل","Province":"KABUL","PC_Code":"0108335","ولسوالي":"میر بچه کوت","District":"MIR BACHA KOT","د_مرکز_نوم__نام_مرکز":" مکتب مشواني","Polling_Center_Name":"Mashwani School","د_مرکز_ځای__موقعیت_مرکز":"مشواني","Polling_Center_Location":"Mashwani","Verification_Note":"Building","PS_Male":1,"PS_Female":1,"Map_Accuracy":"تعمیر"},"geometry":{"x":7692278.3550019376,"y":4132152.9709777534}},{"attributes":{"OBJECTID":4773,"ولایت":"کابل","Province":"KABUL","PC_Code":"0109441","ولسوالي":"خاک جبار","District":"KHAK-E-JABAR","د_مرکز_نوم__نام_مرکز":"مسجد جامع بر ملنگ","Polling_Center_Name":"Bar Malang Mosque","د_مرکز_ځای__موقعیت_مرکز":"بر ملنگ","Polling_Center_Location":"Bar Malang","Verification_Note":"Building","PS_Male":1,"PS_Female":1,"Map_Accuracy":"تعمیر"},"geometry":{"x":7725914.0690259,"y":4076784.9894631431}},{"attributes":{"OBJECTID":4774,"ولایت":"کابل","Province":"KABUL","PC_Code":"0110356","ولسوالي":"کلکان","District":"KALAKAN","د_مرکز_نوم__نام_مرکز":" مکتب آقا سراي","Polling_Center_Name":"Aqa Sarai School","د_مرکز_ځای__موقعیت_مرکز":"قریه آقا سرای","Polling_Center_Location":"Aqa Sarai Village","Verification_Note":"Building","PS_Male":2,"PS_Female":1,"Map_Accuracy":"تعمیر"},"geometry":{"x":7701498.9050097354,"y":4134020.78046}},{"attributes":{"OBJECTID":4775,"ولایت":"کابل","Province":"KABUL","PC_Code":"0112349","ولسوالي":"فرزه","District":"FARZA","د_مرکز_نوم__نام_مرکز":" مسجد قلعه چنار","Polling_Center_Name":"Qala-e-Chinar Mosque","د_مرکز_ځای__موقعیت_مرکز":"قلعه چنار","Polling_Center_Location":"Qala-e-Chinar","Verification_Note":"Building","PS_Male":2,"PS_Female":2,"Map_Accuracy":"تعمیر"},"geometry":{"x":7685260.7954530306,"y":4136160.4590147883}},{"attributes":{"OBJECTID":4776,"ولایت":"کابل","Province":"KABUL","PC_Code":"0114359","ولسوالي":"قره باغ","District":"QARA BAGH","د_مرکز_نوم__نام_مرکز":" مدرسه اکا خيل","Polling_Center_Name":"Aka Khel Madrassa","د_مرکز_ځای__موقعیت_مرکز":"قریه اکا خيل","Polling_Center_Location":"Aka Khel Village","Verification_Note":"Village","PS_Male":1,"PS_Female":1,"Map_Accuracy":"قریه"},"geometry":{"x":7700077.8271069489,"y":4146071.8413673714}},{"attributes":{"OBJECTID":4777,"ولایت":"کابل","Province":"KABUL","PC_Code":"0114370","ولسوالي":"قره باغ","District":"QARA BAGH","د_مرکز_نوم__نام_مرکز":"مسجد جامع کاریز میر","Polling_Center_Name":"Kariz Mir Mosque","د_مرکز_ځای__موقعیت_مرکز":"کاريز مير","Polling_Center_Location":"Kariz Mir","Verification_Note":"Building","PS_Male":2,"PS_Female":1,"Map_Accuracy":"تعمیر"},"geometry":{"x":7702145.8504756279,"y":4143724.7471302524}},{"attributes":{"OBJECTID":4778,"ولایت":"کابل","Province":"KABUL","PC_Code":"0115483","ولسوالي":"سروبی","District":"SURUBI","د_مرکز_نوم__نام_مرکز":"کلينيک سروبي","Polling_Center_Name":"Surubi Clinic","د_مرکز_ځای__موقعیت_مرکز":"شهرک","Polling_Center_Location":"Shahrak","Verification_Note":"Building","PS_Male":3,"PS_Female":3,"Map_Accuracy":"تعمیر"},"geometry":{"x":7762170.818271704,"y":4107376.8700633347}},{"attributes":{"OBJECTID":4779,"ولایت":"کاپيسا","Province":"KAPISA","PC_Code":"0201003","ولسوالي":"محمود راقی ","District":"MAHMUDI RAQI","د_مرکز_نوم__نام_مرکز":"نسوان ریگروان","Polling_Center_Name":"Reg Rawan Girls School","د_مرکز_ځای__موقعیت_مرکز":"ریگ روان ","Polling_Center_Location":"Regerawan","Verification_Note":"Building","PS_Male":3,"PS_Female":1,"Map_Accuracy":"تعمیر"},"geometry":{"x":7721407.583305832,"y":4170513.71963422}},{"attributes":{"OBJECTID":4780,"ولایت":"کاپيسا","Province":"KAPISA","PC_Code":"0201013","ولسوالي":"محمود راقی ","District":"MAHMUDI RAQI","د_مرکز_نوم__نام_مرکز":"مسجد عبدالمالک ","Polling_Center_Name":"Abdul Malik Mosque","د_مرکز_ځای__موقعیت_مرکز":"کاکری ","Polling_Center_Location":"Kakari","Verification_Note":"Building","PS_Male":2,"PS_Female":1,"Map_Accuracy":"تعمیر"},"geometry":{"x":7719689.7543572709,"y":4166960.7484439984}},{"attributes":{"OBJECTID":4781,"ولایت":"کاپيسا","Province":"KAPISA","PC_Code":"0202023","ولسوالي":"حصه دوم کوهستان","District":"HISSA-E-DUWUMI KOHISTAN","د_مرکز_نوم__نام_مرکز":"مکتب محمدطاهر شهید","Polling_Center_Name":"Mohammad Tahir Shaheed School ","د_مرکز_ځای__موقعیت_مرکز":"قلعه نو ","Polling_Center_Location":"Qala-e-Now","Verification_Note":"Building","PS_Male":3,"PS_Female":1,"Map_Accuracy":"تعمیر"},"geometry":{"x":7720878.2101465352,"y":4175982.2185825631}},{"attributes":{"OBJECTID":4782,"ولایت":"کاپيسا","Province":"KAPISA","PC_Code":"0204033","ولسوالي":"حصه اول کوهستان ","District":"HISSA-E-AWALI KOHISTAN","د_مرکز_نوم__نام_مرکز":"مدرسه حقانیه شیرخان خیل ","Polling_Center_Name":"Sheer Khan khel Haqania Madrasa ","د_مرکز_ځای__موقعیت_مرکز":"شیرخان خیل ","Polling_Center_Location":"Sheer Khan Khel","Verification_Note":"Building","PS_Male":3,"PS_Female":1,"Map_Accuracy":"تعمیر"},"geometry":{"x":7714151.1109789871,"y":4182845.9266709387}},{"attributes":{"OBJECTID":4783,"ولایت":"کاپيسا","Province":"KAPISA","PC_Code":"0205047","ولسوالي":"نجراب ","District":"NIJRAB","د_مرکز_نوم__نام_مرکز":"مکتب نسوان بدخشی ","Polling_Center_Name":"Badakhshi Girls School","د_مرکز_ځای__موقعیت_مرکز":"بدخشی ","Polling_Center_Location":"Badakhshi","Verification_Note":"Building","PS_Male":1,"PS_Female":1,"Map_Accuracy":"تعمیر"},"geometry":{"x":7748860.6016791873,"y":4168042.691649884}},{"attributes":{"OBJECTID":4784,"ولایت":"کاپيسا","Province":"KAPISA","PC_Code":"0205058","ولسوالي":"نجراب ","District":"NIJRAB","د_مرکز_نوم__نام_مرکز":"ذکریا","Polling_Center_Name":"Zekria ","د_مرکز_ځای__موقعیت_مرکز":"پجغان","Polling_Center_Location":"Puchghan","Verification_Note":"Village","PS_Male":1,"PS_Female":2,"Map_Accuracy":"قریه"},"geometry":{"x":7761700.4221786261,"y":4167872.4249094278}},{"attributes":{"OBJECTID":4785,"ولایت":"پروان","Province":"PARWAN","PC_Code":"0301002","ولسوالي":"چاریکار","District":"CHARIKAR","د_مرکز_نوم__نام_مرکز":"لیسه صادقی (( رح ))","Polling_Center_Name":"Sadiqi High School ","د_مرکز_ځای__موقعیت_مرکز":"چاریکار","Polling_Center_Location":"Charikar","Verification_Note":"Building","PS_Male":2,"PS_Female":1,"Map_Accuracy":"تعمیر"},"geometry":{"x":7700306.5240952261,"y":4166728.5218105167}},{"attributes":{"OBJECTID":4786,"ولایت":"پروان","Province":"PARWAN","PC_Code":"0301012","ولسوالي":"چاریکار","District":"CHARIKAR","د_مرکز_نوم__نام_مرکز":"مکتب متوسطه هوفیان شریف","Polling_Center_Name":"Hofian Sharif Secondary School","د_مرکز_ځای__موقعیت_مرکز":"هوفیان شریف ","Polling_Center_Location":"Hofian-e-Sharif","Verification_Note":"Building","PS_Male":2,"PS_Female":1,"Map_Accuracy":"تعمیر"},"geometry":{"x":7699526.6698364988,"y":4169009.8857688159}},{"attributes":{"OBJECTID":4787,"ولایت":"پروان","Province":"PARWAN","PC_Code":"0301023","ولسوالي":"چاریکار","District":"CHARIKAR","د_مرکز_نوم__نام_مرکز":"مسجد جامی خلا زیئ","Polling_Center_Name":"Khala Zaye Mosque","د_مرکز_ځای__موقعیت_مرکز":" خلا زیئ","Polling_Center_Location":"Khalazaye","Verification_Note":"Village","PS_Male":2,"PS_Female":1,"Map_Accuracy":"قریه"},"geometry":{"x":7696874.9621987566,"y":4152156.0718734786}},{"attributes":{"OBJECTID":4788,"ولایت":"پروان","Province":"PARWAN","PC_Code":"0302107","ولسوالي":"بگرام ","District":"BAGRAM","د_مرکز_نوم__نام_مرکز":"نسوان قلعه دشت رباط","Polling_Center_Name":"Qala-e- Dasht Rabat Girls School","د_مرکز_ځای__موقعیت_مرکز":"دشت رباط ","Polling_Center_Location":"Dasht-e-Rabat ","Verification_Note":"Building","PS_Male":2,"PS_Female":1,"Map_Accuracy":"تعمیر"},"geometry":{"x":7703376.0733378418,"y":4155671.6057493165}},{"attributes":{"OBJECTID":4789,"ولایت":"پروان","Province":"PARWAN","PC_Code":"0302118","ولسوالي":"بگرام ","District":"BAGRAM","د_مرکز_نوم__نام_مرکز":"دارالعلو م مهمدی و مسجد شهر نو","Polling_Center_Name":"Darul Olum Mehdi and Shahr-e-Now Mosque","د_مرکز_ځای__موقعیت_مرکز":"شهرنو غلام علی ","Polling_Center_Location":"Shahr-e-Naw Ghulam Ali","Verification_Note":"Building","PS_Male":3,"PS_Female":1,"Map_Accuracy":"تعمیر"},"geometry":{"x":7706342.8780300394,"y":4158157.3317954838}},{"attributes":{"OBJECTID":4790,"ولایت":"پروان","Province":"PARWAN","PC_Code":"0306063","ولسوالي":"سالنگ ","District":"SALANG","د_مرکز_نوم__نام_مرکز":"لیسه ذکور سالنګ","Polling_Center_Name":"Salang Boys High School","د_مرکز_ځای__موقعیت_مرکز":"باغ میدان","Polling_Center_Location":"Bagh-e-Maidan","Verification_Note":"Building","PS_Male":2,"PS_Female":1,"Map_Accuracy":"تعمیر"},"geometry":{"x":7704884.18415812,"y":4194306.2366115972}},{"attributes":{"OBJECTID":4791,"ولایت":"پروان","Province":"PARWAN","PC_Code":"0308148","ولسوالي":"کوه صافی","District":"KOHI SAFI","د_مرکز_نوم__نام_مرکز":"مسجد ملا احمد خیل","Polling_Center_Name":"Mula Ahmad Khel Mosque","د_مرکز_ځای__موقعیت_مرکز":"ملا احمد خیل ","Polling_Center_Location":"Mula Ahmad Khel ","Verification_Note":"Building","PS_Male":1,"PS_Female":1,"Map_Accuracy":"تعمیر"},"geometry":{"x":7724877.1212899908,"y":4144428.7960297018}},{"attributes":{"OBJECTID":4792,"ولایت":"پروان","Province":"PARWAN","PC_Code":"0309138","ولسوالي":"سرخ پارسا ","District":"SURKHI PARSA","د_مرکز_نوم__نام_مرکز":"لیسه شهید علی دوست ","Polling_Center_Name":"Shaheed Ali Dost High School ","د_مرکز_ځای__موقعیت_مرکز":"دهن نیک ","Polling_Center_Location":"Dahan-e-Naik ","Verification_Note":"Building","PS_Male":1,"PS_Female":1,"Map_Accuracy":"تعمیر"},"geometry":{"x":7640699.4418752193,"y":4141696.7550935149}},{"attributes":{"OBJECTID":4793,"ولایت":"پروان","Province":"PARWAN","PC_Code":"0310128","ولسوالي":"شیخ علی ","District":"SHAYKH ALI","د_مرکز_نوم__نام_مرکز":"خیمه دهن بوتیان ","Polling_Center_Name":"Dahan-e-Botyan Tent","د_مرکز_ځای__موقعیت_مرکز":"قریه دهن بوتیان ","Polling_Center_Location":"Dahan-e-Botyan Village","Verification_Note":"Village","PS_Male":1,"PS_Female":1,"Map_Accuracy":"قریه"},"geometry":{"x":7609710.1327850558,"y":4153364.0265848711}},{"attributes":{"OBJECTID":4794,"ولایت":"پروان","Province":"PARWAN","PC_Code":"0310129","ولسوالي":"شیخ علی ","District":"SHAYKH ALI","د_مرکز_نوم__نام_مرکز":"مکتب متوسطه بابرِ","Polling_Center_Name":"Babor Secondary School","د_مرکز_ځای__موقعیت_مرکز":"بابر پایان ","Polling_Center_Location":"Babor Payan","Verification_Note":"Village","PS_Male":1,"PS_Female":1,"Map_Accuracy":"قریه"},"geometry":{"x":7637420.7255357876,"y":4162562.9371716008}},{"attributes":{"OBJECTID":4795,"ولایت":"وردک","Province":"WARDAK","PC_Code":"0401007","ولسوالي":"میدان شهر","District":"MAYDAN SHAHR","د_مرکز_نوم__نام_مرکز":"کلینیک ابراهیم خیل","Polling_Center_Name":"Ibrahim Khel Clinic","د_مرکز_ځای__موقعیت_مرکز":"ابراهیم خیل","Polling_Center_Location":"Ibrahim Khel","Verification_Note":"Village","PS_Male":2,"PS_Female":1,"Map_Accuracy":"قریه"},"geometry":{"x":7660898.2666317,"y":4076763.3591181338}},{"attributes":{"OBJECTID":4796,"ولایت":"وردک","Province":"WARDAK","PC_Code":"0402148","ولسوالي":"نرخ","District":"NERKH","د_مرکز_نوم__نام_مرکز":"منزل امام الدین ","Polling_Center_Name":"Imamuddin House","د_مرکز_ځای__موقعیت_مرکز":"زنانه کلینیک گاغندی مردانه ","Polling_Center_Location":"Femal Clinic Gaghundi","Verification_Note":"Village","PS_Male":1,"PS_Female":1,"Map_Accuracy":"قریه"},"geometry":{"x":7645603.355988536,"y":4075909.1709062234}},{"attributes":{"OBJECTID":4797,"ولایت":"وردک","Province":"WARDAK","PC_Code":"0402157","ولسوالي":"نرخ","District":"NERKH","د_مرکز_نوم__نام_مرکز":"مسجد کلان قریه هجان","Polling_Center_Name":"Hajan Village Mosque","د_مرکز_ځای__موقعیت_مرکز":"قریه هجان","Polling_Center_Location":"Hajan Village","Verification_Note":"Village","PS_Male":2,"PS_Female":1,"Map_Accuracy":"قریه"},"geometry":{"x":7670848.8420677632,"y":4074842.8382119089}},{"attributes":{"OBJECTID":4798,"ولایت":"وردک","Province":"WARDAK","PC_Code":"0402158","ولسوالي":"نرخ","District":"NERKH","د_مرکز_نوم__نام_مرکز":"مکتب مشک عالم","Polling_Center_Name":"Mushk-e-Aalam School","د_مرکز_ځای__موقعیت_مرکز":"اندر","Polling_Center_Location":"Andar","Verification_Note":"Village","PS_Male":2,"PS_Female":1,"Map_Accuracy":"قریه"},"geometry":{"x":7660627.1725021638,"y":4063419.1877826974}},{"attributes":{"OBJECTID":4799,"ولایت":"وردک","Province":"WARDAK","PC_Code":"0403022","ولسوالي":"جلریز","District":"JALREZ","د_مرکز_نوم__نام_مرکز":"متوسطه بی بی عایشه صدیقه","Polling_Center_Name":"Bibi Ayesha Sedeqa Secondary School","د_مرکز_ځای__موقعیت_مرکز":"قریه یادگار","Polling_Center_Location":"Yadgar Village","Verification_Note":"District","PS_Male":2,"PS_Female":1,"Map_Accuracy":"ولسوالی"},"geometry":{"x":7633685.6994716562,"y":4102321.8897923306}}]}