{"objectIdFieldName":"OBJECTID","globalIdFieldName":"","geometryType":"esriGeometryPoint","spatialReference":{"wkid":102100,"latestWkid":3857},"fields":[{"name":"OBJECTID","type":"esriFieldTypeOID","alias":"OBJECTID","sqlType":"sqlTypeOther","domain":null,"defaultValue":null},{"name":"ولایت","type":"esriFieldTypeString","alias":"ولایت","sqlType":"sqlTypeOther","length":255,"domain":null,"defaultValue":null},{"name":"Province","type":"esriFieldTypeString","alias":"Province","sqlType":"sqlTypeOther","length":255,"domain":null,"defaultValue":null},{"name":"PC_Code","type":"esriFieldTypeString","alias":"PC_Code","sqlType":"sqlTypeOther","length":255,"domain":null,"defaultValue":null},{"name":"ولسوالي","type":"esriFieldTypeString","alias":"ولسوالي","sqlType":"sqlTypeOther","length":255,"domain":null,"defaultValue":null},{"name":"District","type":"esriFieldTypeString","alias":"District","sqlType":"sqlTypeOther","length":255,"domain":null,"defaultValue":null},{"name":"د_مرکز_نوم__نام_مرکز","type":"esriFieldTypeString","alias":"د_مرکز_نوم__نام_مرکز","sqlType":"sqlTypeOther","length":255,"domain":null,"defaultValue":null},{"name":"Polling_Center_Name","type":"esriFieldTypeString","alias":"Polling_Center_Name","sqlType":"sqlTypeOther","length":255,"domain":null,"defaultValue":null},{"name":"د_مرکز_ځای__موقعیت_مرکز","type":"esriFieldTypeString","alias":"د_مرکز_ځای__موقعیت_مرکز","sqlType":"sqlTypeOther","length":255,"domain":null,"defaultValue":null},{"name":"Polling_Center_Location","type":"esriFieldTypeString","alias":"Polling_Center_Location","sqlType":"sqlTypeOther","length":255,"domain":null,"defaultValue":null},{"name":"Verification_Note","type":"esriFieldTypeString","alias":"Verification_Note","sqlType":"sqlTypeOther","length":250,"domain":null,"defaultValue":null},{"name":"PS_Male","type":"esriFieldTypeSmallInteger","alias":"PS_Male","sqlType":"sqlTypeOther","domain":null,"defaultValue":null},{"name":"PS_Female","type":"esriFieldTypeSmallInteger","alias":"PS_Female","sqlType":"sqlTypeOther","domain":null,"defaultValue":null},{"name":"Map_Accuracy","type":"esriFieldTypeString","alias":"Map_Accuracy","sqlType":"sqlTypeOther","length":10,"domain":null,"defaultValue":null}],"features":[{"attributes":{"OBJECTID":4800,"ولایت":"وردک","Province":"WARDAK","PC_Code":"0404091","ولسوالي":"چک وردک","District":"CHAKI WARDAK","د_مرکز_نوم__نام_مرکز":"منزل منگل","Polling_Center_Name":"Mangal House","د_مرکز_ځای__موقعیت_مرکز":"قلعه قربانی","Polling_Center_Location":"Qala-e-Qurbani ","Verification_Note":"Village","PS_Male":1,"PS_Female":1,"Map_Accuracy":"قریه"},"geometry":{"x":7631175.840138454,"y":4039617.0140006915}},{"attributes":{"OBJECTID":4801,"ولایت":"وردک","Province":"WARDAK","PC_Code":"0404101","ولسوالي":"چک وردک","District":"CHAKI WARDAK","د_مرکز_نوم__نام_مرکز":"مکتب سیاب","Polling_Center_Name":"Siab School","د_مرکز_ځای__موقعیت_مرکز":"بیرانه","Polling_Center_Location":"Berana","Verification_Note":"Village","PS_Male":1,"PS_Female":1,"Map_Accuracy":"قریه"},"geometry":{"x":7625962.474538669,"y":4046143.3350788578}},{"attributes":{"OBJECTID":4802,"ولایت":"وردک","Province":"WARDAK","PC_Code":"0405111","ولسوالي":"سید آباد","District":"SAYYD ABAD","د_مرکز_نوم__نام_مرکز":"مسجدجامع قلعه سعدالدین","Polling_Center_Name":"Qala-e-Saeduddin Village Mosque","د_مرکز_ځای__موقعیت_مرکز":"قلعه سعدالدین","Polling_Center_Location":"Qala Saduddin","Verification_Note":"Village","PS_Male":1,"PS_Female":1,"Map_Accuracy":"قریه"},"geometry":{"x":7649702.882140547,"y":4031355.7472628579}},{"attributes":{"OBJECTID":4803,"ولایت":"وردک","Province":"WARDAK","PC_Code":"0405123","ولسوالي":"سید آباد","District":"SAYYD ABAD","د_مرکز_نوم__نام_مرکز":"مسجد کلان قریه حسن بیک ","Polling_Center_Name":"Hassan Baik Mosque ","د_مرکز_ځای__موقعیت_مرکز":"حسن بیک","Polling_Center_Location":"Hasan Baik","Verification_Note":"Village","PS_Male":1,"PS_Female":1,"Map_Accuracy":"قریه"},"geometry":{"x":7638343.1399872117,"y":4031979.2984047979}},{"attributes":{"OBJECTID":4804,"ولایت":"وردک","Province":"WARDAK","PC_Code":"0405134","ولسوالي":"سید آباد","District":"SAYYD ABAD","د_مرکز_نوم__نام_مرکز":"خانه شخصی در قریه بینی سفید","Polling_Center_Name":"Private House","د_مرکز_ځای__موقعیت_مرکز":"بینی سفید","Polling_Center_Location":"Beni Safid","Verification_Note":"Village","PS_Male":1,"PS_Female":1,"Map_Accuracy":"قریه"},"geometry":{"x":7659041.607806582,"y":4029234.6326208413}},{"attributes":{"OBJECTID":4805,"ولایت":"وردک","Province":"WARDAK","PC_Code":"0406066","ولسوالي":"دایمیرداد","District":"DAYMIRDAD","د_مرکز_نوم__نام_مرکز":"کلینیک میران","Polling_Center_Name":"Miran Clinic","د_مرکز_ځای__موقعیت_مرکز":"قریه میران","Polling_Center_Location":"Miran Village","Verification_Note":"Village","PS_Male":1,"PS_Female":1,"Map_Accuracy":"قریه"},"geometry":{"x":7603789.9897194616,"y":4058641.6195932329}},{"attributes":{"OBJECTID":4806,"ولایت":"وردک","Province":"WARDAK","PC_Code":"0406067","ولسوالي":"دایمیرداد","District":"DAYMIRDAD","د_مرکز_نوم__نام_مرکز":"لیسه غازی عبدالکبیر خان","Polling_Center_Name":"Ghazi Abdul Kabir Khan High School","د_مرکز_ځای__موقعیت_مرکز":"قریه بابک","Polling_Center_Location":"Babak Village","Verification_Note":"Building","PS_Male":1,"PS_Female":1,"Map_Accuracy":"تعمیر"},"geometry":{"x":7612242.8371041492,"y":4059897.5654041544}},{"attributes":{"OBJECTID":4807,"ولایت":"وردک","Province":"WARDAK","PC_Code":"0407030","ولسوالي":"حصه اول بهسود","District":"HISSA-E-AWALI BIHSUD","د_مرکز_نوم__نام_مرکز":"مکتب متوسطه ارگین","Polling_Center_Name":"Argin Secondary School","د_مرکز_ځای__موقعیت_مرکز":"ارگین قول خویش","Polling_Center_Location":"Argin Quli Khwish","Verification_Note":"Village","PS_Male":1,"PS_Female":1,"Map_Accuracy":"قریه"},"geometry":{"x":7597394.8775561005,"y":4124098.85561347}},{"attributes":{"OBJECTID":4808,"ولایت":"وردک","Province":"WARDAK","PC_Code":"0408079","ولسوالي":"جغتو","District":"JAGHATU","د_مرکز_نوم__نام_مرکز":"دفتر ملک قریه","Polling_Center_Name":"Malik Qarya Office","د_مرکز_ځای__موقعیت_مرکز":"بوشا خیل","Polling_Center_Location":"Busha Khel","Verification_Note":"Village","PS_Male":1,"PS_Female":1,"Map_Accuracy":"قریه"},"geometry":{"x":7606962.97814611,"y":3995330.1245492324}},{"attributes":{"OBJECTID":4809,"ولایت":"وردک","Province":"WARDAK","PC_Code":"0409040","ولسوالي":"مرکز بهسود","District":"MARKAZ-E-BEHSUD","د_مرکز_نوم__نام_مرکز":"مکتب کهنه قلعه","Polling_Center_Name":"Kuhna Qala School","د_مرکز_ځای__موقعیت_مرکز":"کهنه قلعه","Polling_Center_Location":"Kuhna Qala","Verification_Note":"Building","PS_Male":1,"PS_Female":1,"Map_Accuracy":"تعمیر"},"geometry":{"x":7541795.685509678,"y":4065678.798334159}},{"attributes":{"OBJECTID":4810,"ولایت":"وردک","Province":"WARDAK","PC_Code":"0409041","ولسوالي":"مرکز بهسود","District":"MARKAZ-E-BEHSUD","د_مرکز_نوم__نام_مرکز":"مسجد تگاب زیرات","Polling_Center_Name":"Tagab-e-Zerat Mosque","د_مرکز_ځای__موقعیت_مرکز":"قریه زیرات","Polling_Center_Location":"Zerat Village","Verification_Note":"Building","PS_Male":1,"PS_Female":1,"Map_Accuracy":"تعمیر"},"geometry":{"x":7519794.397822164,"y":4063478.1220839769}},{"attributes":{"OBJECTID":4811,"ولایت":"وردک","Province":"WARDAK","PC_Code":"0409051","ولسوالي":"مرکز بهسود","District":"MARKAZ-E-BEHSUD","د_مرکز_نوم__نام_مرکز":"خیمه","Polling_Center_Name":"Tent","د_مرکز_ځای__موقعیت_مرکز":"قریه غواص","Polling_Center_Location":"Ghawas Village","Verification_Note":"Village","PS_Male":1,"PS_Female":1,"Map_Accuracy":"قریه"},"geometry":{"x":7509030.7592968829,"y":4098888.995120123}},{"attributes":{"OBJECTID":4812,"ولایت":"وردک","Province":"WARDAK","PC_Code":"0409061","ولسوالي":"مرکز بهسود","District":"MARKAZ-E-BEHSUD","د_مرکز_نوم__نام_مرکز":"مسجد تگاب بیرمگ","Polling_Center_Name":"Tagab Bermak Mosque","د_مرکز_ځای__موقعیت_مرکز":"تگاب بیرمک","Polling_Center_Location":"Tagab Beramak","Verification_Note":"Building","PS_Male":1,"PS_Female":1,"Map_Accuracy":"تعمیر"},"geometry":{"x":7511867.0507916883,"y":4057315.0279577374}},{"attributes":{"OBJECTID":4813,"ولایت":"لوگر","Province":"LOGAR","PC_Code":"0501010","ولسوالي":"پل علم","District":"PULI ALAM","د_مرکز_نوم__نام_مرکز":"مکتب بابوس","Polling_Center_Name":"Babos School","د_مرکز_ځای__موقعیت_مرکز":"بابوس","Polling_Center_Location":"Babos","Verification_Note":"Building","PS_Male":2,"PS_Female":2,"Map_Accuracy":"تعمیر"},"geometry":{"x":7677985.4511329085,"y":4039758.4001979977}},{"attributes":{"OBJECTID":4814,"ولایت":"لوگر","Province":"LOGAR","PC_Code":"0502032","ولسوالي":"برکی برک","District":"BARAKI BARAK","د_مرکز_نوم__نام_مرکز":"مکتب متوسطه رستم خيل","Polling_Center_Name":"Rostam Khel Secondary School","د_مرکز_ځای__موقعیت_مرکز":"رستم خيل","Polling_Center_Location":"Rostam Khel","Verification_Note":"Building","PS_Male":2,"PS_Female":1,"Map_Accuracy":"تعمیر"},"geometry":{"x":7676539.072536245,"y":4016530.3272936791}},{"attributes":{"OBJECTID":4815,"ولایت":"لوگر","Province":"LOGAR","PC_Code":"0503042","ولسوالي":"چرخ","District":"CHARKH","د_مرکز_نوم__نام_مرکز":"کلینيک ارگوم","Polling_Center_Name":"Argum Clinic","د_مرکز_ځای__موقعیت_مرکز":"قریه ارگوم","Polling_Center_Location":"Argum Village","Verification_Note":"Building","PS_Male":3,"PS_Female":2,"Map_Accuracy":"تعمیر"},"geometry":{"x":7674676.238818977,"y":4005872.5267613828}},{"attributes":{"OBJECTID":4816,"ولایت":"لوگر","Province":"LOGAR","PC_Code":"0505054","ولسوالي":"محمد آغه","District":"MOHAMMAD AGHA","د_مرکز_نوم__نام_مرکز":"مکتب سرخآب","Polling_Center_Name":"Sorkhaab School","د_مرکز_ځای__موقعیت_مرکز":"سرخآب","Polling_Center_Location":"Surkhaab","Verification_Note":"Building","PS_Male":2,"PS_Female":1,"Map_Accuracy":"تعمیر"},"geometry":{"x":7702649.2194018736,"y":4047989.7571599483}},{"attributes":{"OBJECTID":4817,"ولایت":"لوگر","Province":"LOGAR","PC_Code":"0505065","ولسوالي":"محمد آغه","District":"MOHAMMAD AGHA","د_مرکز_نوم__نام_مرکز":"مکتب قلعه احمدزای","Polling_Center_Name":"Qala-e-Ahmadzai Mosque","د_مرکز_ځای__موقعیت_مرکز":"قلعه احمدزای","Polling_Center_Location":"Qala-e-Ahmadzai","Verification_Note":"Building","PS_Male":3,"PS_Female":2,"Map_Accuracy":"تعمیر"},"geometry":{"x":7691729.4931393862,"y":4054798.7181638181}},{"attributes":{"OBJECTID":4818,"ولایت":"لوگر","Province":"LOGAR","PC_Code":"0507076","ولسوالي":"اذره","District":"AZRA","د_مرکز_نوم__نام_مرکز":"مکتب اناث و ذکور اکبر خيل","Polling_Center_Name":"Akbar Khel Boys & Girls School","د_مرکز_ځای__موقعیت_مرکز":"اکبر خيل","Polling_Center_Location":"Akbar Khel","Verification_Note":"Building","PS_Male":4,"PS_Female":4,"Map_Accuracy":"تعمیر"},"geometry":{"x":7755269.31263154,"y":4052590.2191778496}},{"attributes":{"OBJECTID":4819,"ولایت":"ننگرهار","Province":"NANGARHAR","PC_Code":"0601005","ولسوالي":"جلال آباد","District":"JALALABAD","د_مرکز_نوم__نام_مرکز":"بي بي عايشه","Polling_Center_Name":"Bibi Ayesha","د_مرکز_ځای__موقعیت_مرکز":"څلورمه ناحیه","Polling_Center_Location":"D04-Nahia 4","Verification_Note":"Building","PS_Male":5,"PS_Female":0,"Map_Accuracy":"تعمیر"},"geometry":{"x":7844744.5730672777,"y":4086512.2291382849}},{"attributes":{"OBJECTID":4820,"ولایت":"ننگرهار","Province":"NANGARHAR","PC_Code":"0601016","ولسوالي":"جلال آباد","District":"JALALABAD","د_مرکز_نوم__نام_مرکز":"کوچيانو جومات","Polling_Center_Name":"Kuchi Mosque","د_مرکز_ځای__موقعیت_مرکز":"پنځمه ناحیه","Polling_Center_Location":"D05-Nahia 5","Verification_Note":"Building","PS_Male":3,"PS_Female":1,"Map_Accuracy":"تعمیر"},"geometry":{"x":7841145.39017776,"y":4084723.4282042906}},{"attributes":{"OBJECTID":4821,"ولایت":"ننگرهار","Province":"NANGARHAR","PC_Code":"0601017","ولسوالي":"جلال آباد","District":"JALALABAD","د_مرکز_نوم__نام_مرکز":"نازوانا مکتب","Polling_Center_Name":"Nazo Ana School","د_مرکز_ځای__موقعیت_مرکز":"پنځمه ناحیه","Polling_Center_Location":"D05-Nahia 5","Verification_Note":"Building","PS_Male":5,"PS_Female":0,"Map_Accuracy":"تعمیر"},"geometry":{"x":7840852.4162022993,"y":4085701.3024678528}},{"attributes":{"OBJECTID":4822,"ولایت":"ننگرهار","Province":"NANGARHAR","PC_Code":"0601026","ولسوالي":"جلال آباد","District":"JALALABAD","د_مرکز_نوم__نام_مرکز":"اميرشهيد باغ","Polling_Center_Name":"Ameer Shaheed Bagh","د_مرکز_ځای__موقعیت_مرکز":"دویمه ناحیه","Polling_Center_Location":"D02-Nahia 2","Verification_Note":"Building","PS_Male":0,"PS_Female":5,"Map_Accuracy":"تعمیر"},"geometry":{"x":7841882.16045396,"y":4086556.4355238527}},{"attributes":{"OBJECTID":4823,"ولایت":"ننگرهار","Province":"NANGARHAR","PC_Code":"0601037","ولسوالي":"جلال آباد","District":"JALALABAD","د_مرکز_نوم__نام_مرکز":"سپين جومات","Polling_Center_Name":"Speen Mosque","د_مرکز_ځای__موقعیت_مرکز":"اوله ناحیه","Polling_Center_Location":"D01-Nahia 1","Verification_Note":"Building","PS_Male":4,"PS_Female":3,"Map_Accuracy":"تعمیر"},"geometry":{"x":7843172.3589182273,"y":4087172.2752810568}},{"attributes":{"OBJECTID":4824,"ولایت":"ننگرهار","Province":"NANGARHAR","PC_Code":"0601038","ولسوالي":"جلال آباد","District":"JALALABAD","د_مرکز_نوم__نام_مرکز":"طب پوهنځي","Polling_Center_Name":"Medical Faculty","د_مرکز_ځای__موقعیت_مرکز":"څلورمه ناحیه","Polling_Center_Location":"D04-Nahia 4","Verification_Note":"Building","PS_Male":4,"PS_Female":0,"Map_Accuracy":"تعمیر"},"geometry":{"x":7844335.01641551,"y":4086388.7086023092}},{"attributes":{"OBJECTID":4825,"ولایت":"ننگرهار","Province":"NANGARHAR","PC_Code":"0602048","ولسوالي":"بهسود","District":"BEHSUD","د_مرکز_نوم__نام_مرکز":"شهید سردار محمد داوود خان لیسه","Polling_Center_Name":"Shaheed Sardar Mohammad Dawood Khan High School","د_مرکز_ځای__موقعیت_مرکز":"جوي ١٠ ،١١","Polling_Center_Location":"Joee 10,11","Verification_Note":"Building","PS_Male":4,"PS_Female":2,"Map_Accuracy":"تعمیر"},"geometry":{"x":7848623.91260609,"y":4078926.66063039}},{"attributes":{"OBJECTID":4826,"ولایت":"ننگرهار","Province":"NANGARHAR","PC_Code":"0602062","ولسوالي":"بهسود","District":"BEHSUD","د_مرکز_نوم__نام_مرکز":"غلام محمد ديره","Polling_Center_Name":"Ghulam Mohammad Dera","د_مرکز_ځای__موقعیت_مرکز":"بنې ګاه","Polling_Center_Location":"Bani Gah","Verification_Note":"Village","PS_Male":0,"PS_Female":5,"Map_Accuracy":"قریه"},"geometry":{"x":7851444.7729930766,"y":4091011.8460033238}},{"attributes":{"OBJECTID":4827,"ولایت":"ننگرهار","Province":"NANGARHAR","PC_Code":"0603074","ولسوالي":"سرخرود","District":"SURKH RUD","د_مرکز_نوم__نام_مرکز":"سلطان پور جومات","Polling_Center_Name":"Sultanpoor Mosque","د_مرکز_ځای__موقعیت_مرکز":"سلطان پورعلیا","Polling_Center_Location":"Sultanpoor Ulia","Verification_Note":"Village","PS_Male":2,"PS_Female":0,"Map_Accuracy":"قریه"},"geometry":{"x":7825357.0614576228,"y":4084372.2507006973}},{"attributes":{"OBJECTID":4828,"ولایت":"ننگرهار","Province":"NANGARHAR","PC_Code":"0603086","ولسوالي":"سرخرود","District":"SURKH RUD","د_مرکز_نوم__نام_مرکز":"فتح آباد مکتب","Polling_Center_Name":"Fateh Abad School","د_مرکز_ځای__موقعیت_مرکز":"فتح آباد","Polling_Center_Location":"Fateh Abad","Verification_Note":"Village","PS_Male":0,"PS_Female":2,"Map_Accuracy":"قریه"},"geometry":{"x":7816659.2154584154,"y":4076368.5320267081}},{"attributes":{"OBJECTID":4829,"ولایت":"ننگرهار","Province":"NANGARHAR","PC_Code":"0603097","ولسوالي":"سرخرود","District":"SURKH RUD","د_مرکز_نوم__نام_مرکز":"درونته کلنيک","Polling_Center_Name":"Daronta Clinic","د_مرکز_ځای__موقعیت_مرکز":"درونته","Polling_Center_Location":"Daronta","Verification_Note":"Building","PS_Male":0,"PS_Female":2,"Map_Accuracy":"تعمیر"},"geometry":{"x":7832997.5147832334,"y":4093084.490265049}},{"attributes":{"OBJECTID":4830,"ولایت":"ننگرهار","Province":"NANGARHAR","PC_Code":"0604109","ولسوالي":"چپرهار","District":"CHAPARHAR","د_مرکز_نوم__نام_مرکز":"زغوکلي جومات","Polling_Center_Name":"Zagho Village Mosque","د_مرکز_ځای__موقعیت_مرکز":"زغوکلي","Polling_Center_Location":"Zagho Village","Verification_Note":"Village","PS_Male":0,"PS_Female":2,"Map_Accuracy":"قریه"},"geometry":{"x":7838278.4702382572,"y":4069228.7544425502}},{"attributes":{"OBJECTID":4831,"ولایت":"ننگرهار","Province":"NANGARHAR","PC_Code":"0605167","ولسوالي":"کامه","District":"KAMA","د_مرکز_نوم__نام_مرکز":"وټه پورجومات","Polling_Center_Name":"WataPoor Mosque","د_مرکز_ځای__موقعیت_مرکز":"وټه پور","Polling_Center_Location":"WataPoor","Verification_Note":"Village","PS_Male":0,"PS_Female":2,"Map_Accuracy":"قریه"},"geometry":{"x":7860279.0120851733,"y":4083459.56522426}},{"attributes":{"OBJECTID":4832,"ولایت":"ننگرهار","Province":"NANGARHAR","PC_Code":"0605179","ولسوالي":"کامه","District":"KAMA","د_مرکز_نوم__نام_مرکز":"ميرلالا چارديوالي","Polling_Center_Name":"Meer Lala Chardiwali ","د_مرکز_ځای__موقعیت_مرکز":"کنډۍ ميرلالا","Polling_Center_Location":"Kandi Meer Lala","Verification_Note":"Village","PS_Male":0,"PS_Female":2,"Map_Accuracy":"قریه"},"geometry":{"x":7860310.6924990639,"y":4083730.2488630563}},{"attributes":{"OBJECTID":4833,"ولایت":"ننگرهار","Province":"NANGARHAR","PC_Code":"0606191","ولسوالي":"کوز کنړ","District":"KUZ KUNAR","د_مرکز_نوم__نام_مرکز":"بازارک جومات","Polling_Center_Name":"Bazarak Mosque","د_مرکز_ځای__موقعیت_مرکز":"بازارک","Polling_Center_Location":"Bazarak","Verification_Note":"Village","PS_Male":2,"PS_Female":0,"Map_Accuracy":"قریه"},"geometry":{"x":7854883.4710255042,"y":4103421.6646182239}},{"attributes":{"OBJECTID":4834,"ولایت":"ننگرهار","Province":"NANGARHAR","PC_Code":"0606203","ولسوالي":"کوز کنړ","District":"KUZ KUNAR","د_مرکز_نوم__نام_مرکز":"سرکنډ مکتب","Polling_Center_Name":"Sarkand School","د_مرکز_ځای__موقعیت_مرکز":"سرکنډ","Polling_Center_Location":"Sarkand","Verification_Note":"Village","PS_Male":3,"PS_Female":0,"Map_Accuracy":"قریه"},"geometry":{"x":7873612.6525249518,"y":4109160.417659618}},{"attributes":{"OBJECTID":4835,"ولایت":"ننگرهار","Province":"NANGARHAR","PC_Code":"0606204","ولسوالي":"کوز کنړ","District":"KUZ KUNAR","د_مرکز_نوم__نام_مرکز":"ياسين بابا کلینیک","Polling_Center_Name":"Yaseen Baba Clinic","د_مرکز_ځای__موقعیت_مرکز":"ياسين بابا","Polling_Center_Location":"Yasee Baba","Verification_Note":"Building","PS_Male":2,"PS_Female":1,"Map_Accuracy":"تعمیر"},"geometry":{"x":7853096.5137863457,"y":4101332.4149285182}},{"attributes":{"OBJECTID":4836,"ولایت":"ننگرهار","Province":"NANGARHAR","PC_Code":"0606214","ولسوالي":"کوز کنړ","District":"KUZ KUNAR","د_مرکز_نوم__نام_مرکز":"اسلام پور کلي جومات","Polling_Center_Name":"Islam Poor Village Mosque","د_مرکز_ځای__موقعیت_مرکز":"اسلام پور","Polling_Center_Location":"Islampoor","Verification_Note":"Building","PS_Male":1,"PS_Female":1,"Map_Accuracy":"تعمیر"},"geometry":{"x":7862221.7709704526,"y":4107828.8590941727}},{"attributes":{"OBJECTID":4837,"ولایت":"ننگرهار","Province":"NANGARHAR","PC_Code":"0607139","ولسوالي":"رودات","District":"RODAT","د_مرکز_نوم__نام_مرکز":"بړو ګرى جومات","Polling_Center_Name":"Barogaray Mosque","د_مرکز_ځای__موقعیت_مرکز":"بړو ګري","Polling_Center_Location":"Barogaray","Verification_Note":"Village","PS_Male":2,"PS_Female":0,"Map_Accuracy":"قریه"},"geometry":{"x":7863757.9899621531,"y":4063240.8553727567}},{"attributes":{"OBJECTID":4838,"ولایت":"ننگرهار","Province":"NANGARHAR","PC_Code":"0608278","ولسوالي":"خوګیاڼي","District":"KHUGYANI","د_مرکز_نوم__نام_مرکز":"ملک يارهوتک لیسه","Polling_Center_Name":"Malak Yaar Hotak School","د_مرکز_ځای__موقعیت_مرکز":"کجه زوړ بازار","Polling_Center_Location":"Kaja Zor Bazaar","Verification_Note":"Building","PS_Male":2,"PS_Female":1,"Map_Accuracy":"تعمیر"},"geometry":{"x":7812680.4075018056,"y":4064418.2772274464}},{"attributes":{"OBJECTID":4839,"ولایت":"ننگرهار","Province":"NANGARHAR","PC_Code":"0608289","ولسوالي":"خوګیاڼي","District":"KHUGYANI","د_مرکز_نوم__نام_مرکز":"درګۍ ابتدائيه","Polling_Center_Name":"Dargay Primary School","د_مرکز_ځای__موقعیت_مرکز":"درګۍ","Polling_Center_Location":"Dargay","Verification_Note":"Village","PS_Male":2,"PS_Female":1,"Map_Accuracy":"قریه"},"geometry":{"x":7805163.7514687143,"y":4062727.6683697402}},{"attributes":{"OBJECTID":4840,"ولایت":"ننگرهار","Province":"NANGARHAR","PC_Code":"0608300","ولسوالي":"خوګیاڼي","District":"KHUGYANI","د_مرکز_نوم__نام_مرکز":"شيخانو کلي جومات","Polling_Center_Name":"Shekhano kaley Mosque","د_مرکز_ځای__موقعیت_مرکز":"وزير تنګي","Polling_Center_Location":"Wazeer Tangay","Verification_Note":"Village","PS_Male":1,"PS_Female":1,"Map_Accuracy":"قریه"},"geometry":{"x":7797482.1878551506,"y":4065674.887647137}},{"attributes":{"OBJECTID":4841,"ولایت":"ننگرهار","Province":"NANGARHAR","PC_Code":"0609450","ولسوالي":"بټي کوټ","District":"BATI KOT","د_مرکز_نوم__نام_مرکز":"زيارت جومات","Polling_Center_Name":"Ziarat Mosque","د_مرکز_ځای__موقعیت_مرکز":"غازي آباد","Polling_Center_Location":"Ghazi Abad","Verification_Note":"Village","PS_Male":2,"PS_Female":0,"Map_Accuracy":"قریه"},"geometry":{"x":7877764.9385496266,"y":4071507.0073424503}},{"attributes":{"OBJECTID":4842,"ولایت":"ننگرهار","Province":"NANGARHAR","PC_Code":"0609451","ولسوالي":"بټي کوټ","District":"BATI KOT","د_مرکز_نوم__نام_مرکز":"زيارت جومات ميدان","Polling_Center_Name":"Ziarat Mosque Maidan","د_مرکز_ځای__موقعیت_مرکز":"غازي آباد","Polling_Center_Location":"Ghazi Abad","Verification_Note":"Village","PS_Male":0,"PS_Female":2,"Map_Accuracy":"قریه"},"geometry":{"x":7877984.8424113169,"y":4071284.7268232778}},{"attributes":{"OBJECTID":4843,"ولایت":"ننگرهار","Province":"NANGARHAR","PC_Code":"0609461","ولسوالي":"بټي کوټ","District":"BATI KOT","د_مرکز_نوم__نام_مرکز":"سپين خوړ جومات","Polling_Center_Name":"Speen Khowar Mosque","د_مرکز_ځای__موقعیت_مرکز":"سپين خوړ","Polling_Center_Location":"Speen Khowar","Verification_Note":"Village","PS_Male":1,"PS_Female":1,"Map_Accuracy":"قریه"},"geometry":{"x":7878358.6621669643,"y":4064104.0605353191}},{"attributes":{"OBJECTID":4844,"ولایت":"ننگرهار","Province":"NANGARHAR","PC_Code":"0610329","ولسوالي":"ده بالا","District":"DEH BALA","د_مرکز_نوم__نام_مرکز":"نری اوبه لیسه ","Polling_Center_Name":"Naray Oba High School","د_مرکز_ځای__موقعیت_مرکز":"نري اوبه","Polling_Center_Location":"Naray Oba","Verification_Note":"Building","PS_Male":1,"PS_Female":1,"Map_Accuracy":"تعمیر"},"geometry":{"x":7841207.2626639344,"y":4056743.0735368952}},{"attributes":{"OBJECTID":4845,"ولایت":"ننگرهار","Province":"NANGARHAR","PC_Code":"0611306","ولسوالي":"پچیر و اګام","District":"PACHIR WAGAM","د_مرکز_نوم__نام_مرکز":"مورکي ابتدائيه مکتب","Polling_Center_Name":"Morkay Primary School","د_مرکز_ځای__موقعیت_مرکز":"مورکۍ","Polling_Center_Location":"Morkay","Verification_Note":"Village","PS_Male":0,"PS_Female":2,"Map_Accuracy":"قریه"},"geometry":{"x":7822982.1736674309,"y":4054558.5524446741}},{"attributes":{"OBJECTID":4846,"ولایت":"ننگرهار","Province":"NANGARHAR","PC_Code":"0611316","ولسوالي":"پچیر و اګام","District":"PACHIR WAGAM","د_مرکز_نوم__نام_مرکز":"جومات بنګزار","Polling_Center_Name":"Bangzar Mosque","د_مرکز_ځای__موقعیت_مرکز":"بنګزار","Polling_Center_Location":"Bangzaar","Verification_Note":"Village","PS_Male":1,"PS_Female":1,"Map_Accuracy":"قریه"},"geometry":{"x":7836110.3572890125,"y":4047079.9691785276}},{"attributes":{"OBJECTID":4847,"ولایت":"ننگرهار","Province":"NANGARHAR","PC_Code":"0612223","ولسوالي":"دره نور","District":"DARAH-E-NOOR","د_مرکز_نوم__نام_مرکز":"جومات بمبه کوټ","Polling_Center_Name":"Bamba Kot Mosque","د_مرکز_ځای__موقعیت_مرکز":"بمبه کوټ","Polling_Center_Location":"Bama Kot","Verification_Note":"Village","PS_Male":2,"PS_Female":1,"Map_Accuracy":"قریه"},"geometry":{"x":7860128.5660197623,"y":4123397.6955404058}},{"attributes":{"OBJECTID":4848,"ولایت":"ننگرهار","Province":"NANGARHAR","PC_Code":"0612234","ولسوالي":"دره نور","District":"DARAH-E-NOOR","د_مرکز_نوم__نام_مرکز":"سوتن ميدان","Polling_Center_Name":"Sotan Maidan","د_مرکز_ځای__موقعیت_مرکز":"سوتن","Polling_Center_Location":"Sotan","Verification_Note":"Village","PS_Male":0,"PS_Female":2,"Map_Accuracy":"قریه"},"geometry":{"x":7861779.406238351,"y":4125218.1578855664}},{"attributes":{"OBJECTID":4849,"ولایت":"ننگرهار","Province":"NANGARHAR","PC_Code":"0613342","ولسوالي":"کوټ","District":"KOT","د_مرکز_نوم__نام_مرکز":"آزاد میدان سيپاي کلي","Polling_Center_Name":"Saypay Village Azaad Maidan","د_مرکز_ځای__موقعیت_مرکز":"سيپاي کلي","Polling_Center_Location":"Saypay Village","Verification_Note":"Village","PS_Male":0,"PS_Female":3,"Map_Accuracy":"قریه"},"geometry":{"x":7856688.77371674,"y":4047619.3593146279}},{"attributes":{"OBJECTID":4850,"ولایت":"ننگرهار","Province":"NANGARHAR","PC_Code":"0614490","ولسوالي":"ګوشته","District":"GOSHTA","د_مرکز_نوم__نام_مرکز":"ملک سهیل حجره","Polling_Center_Name":"Malak Suhail Hujra","د_مرکز_ځای__موقعیت_مرکز":"چورخيل","Polling_Center_Location":"ChoorKhel","Verification_Note":"Village","PS_Male":2,"PS_Female":0,"Map_Accuracy":"قریه"},"geometry":{"x":7881305.0642228872,"y":4075666.7369419187}},{"attributes":{"OBJECTID":4851,"ولایت":"ننگرهار","Province":"NANGARHAR","PC_Code":"0614496","ولسوالي":"ګوشته","District":"GOSHTA","د_مرکز_نوم__نام_مرکز":"شالالا ميدان","Polling_Center_Name":"Shah Lala Maidan","د_مرکز_ځای__موقعیت_مرکز":"خوګاخيل","Polling_Center_Location":"KhogaKhel","Verification_Note":"Village","PS_Male":2,"PS_Female":0,"Map_Accuracy":"قریه"},"geometry":{"x":7894097.2533386126,"y":4095366.4051044583}},{"attributes":{"OBJECTID":4852,"ولایت":"ننگرهار","Province":"NANGARHAR","PC_Code":"0615356","ولسوالي":"اچین","District":"ACHIN","د_مرکز_نوم__نام_مرکز":"د وچ کوټیو او دولت خیلوجومات","Polling_Center_Name":"Wach Kotyo & Dawlatkhelo Mosque","د_مرکز_ځای__موقعیت_مرکز":"کوشتال","Polling_Center_Location":"Koshtal","Verification_Note":"Village","PS_Male":0,"PS_Female":3,"Map_Accuracy":"قریه"},"geometry":{"x":7869325.200148169,"y":4041340.3384426832}},{"attributes":{"OBJECTID":4853,"ولایت":"ننگرهار","Province":"NANGARHAR","PC_Code":"0615367","ولسوالي":"اچین","District":"ACHIN","د_مرکز_نوم__نام_مرکز":"پییښی دوکان کلي جومات","Polling_Center_Name":"Pekhe Dokan Village Mosque","د_مرکز_ځای__موقعیت_مرکز":"دوکان کلي","Polling_Center_Location":"Dokan Village","Verification_Note":"Village","PS_Male":2,"PS_Female":0,"Map_Accuracy":"قریه"},"geometry":{"x":7864563.1894425452,"y":4036338.44748497}},{"attributes":{"OBJECTID":4854,"ولایت":"ننگرهار","Province":"NANGARHAR","PC_Code":"0615391","ولسوالي":"اچین","District":"ACHIN","د_مرکز_نوم__نام_مرکز":"شهید ګل اصغر لیسه ","Polling_Center_Name":"Shaheed Gul Asghar High School","د_مرکز_ځای__موقعیت_مرکز":"عبدالخيل بازار","Polling_Center_Location":"Abdul Khel Bazaar","Verification_Note":"Village","PS_Male":1,"PS_Female":1,"Map_Accuracy":"قریه"},"geometry":{"x":7869796.9888480715,"y":4040190.4753128663}},{"attributes":{"OBJECTID":4855,"ولایت":"ننگرهار","Province":"NANGARHAR","PC_Code":"0616432","ولسوالي":"شینوار","District":"SHINWAR","د_مرکز_نوم__نام_مرکز":"سياچوب جومات","Polling_Center_Name":"Siya Chob Mosque","د_مرکز_ځای__موقعیت_مرکز":"سياچوب","Polling_Center_Location":"Siya Chob","Verification_Note":"Village","PS_Male":3,"PS_Female":0,"Map_Accuracy":"قریه"},"geometry":{"x":7873233.64639423,"y":4052604.1565534845}},{"attributes":{"OBJECTID":4856,"ولایت":"ننگرهار","Province":"NANGARHAR","PC_Code":"0617480","ولسوالي":"مهمند دره","District":"MUHMAND DARA","د_مرکز_نوم__نام_مرکز":"باسول اناث لیسه","Polling_Center_Name":"Basool Girls High School","د_مرکز_ځای__موقعیت_مرکز":"لاندي باسوول","Polling_Center_Location":"Landy Basool","Verification_Note":"Village","PS_Male":0,"PS_Female":2,"Map_Accuracy":"قریه"},"geometry":{"x":7888258.03954282,"y":4063278.6730626971}},{"attributes":{"OBJECTID":4857,"ولایت":"ننگرهار","Province":"NANGARHAR","PC_Code":"0619249","ولسوالي":"شیرزاد","District":"SHER ZAD","د_مرکز_نوم__نام_مرکز":"کاتي خيل","Polling_Center_Name":"Kaaty Khel","د_مرکز_ځای__موقعیت_مرکز":"مرکي خيل","Polling_Center_Location":"Marky Khel","Verification_Note":"Village","PS_Male":0,"PS_Female":3,"Map_Accuracy":"قریه"},"geometry":{"x":7782008.1474533752,"y":4070613.5529821441}},{"attributes":{"OBJECTID":4858,"ولایت":"ننگرهار","Province":"NANGARHAR","PC_Code":"0620406","ولسوالي":"نازیان","District":"NAZYAN","د_مرکز_نوم__نام_مرکز":"بابا ځاي","Polling_Center_Name":"Baba Zay","د_مرکز_ځای__موقعیت_مرکز":"بابا ځاي","Polling_Center_Location":"Baba Zay","Verification_Note":"Village","PS_Male":1,"PS_Female":1,"Map_Accuracy":"قریه"},"geometry":{"x":7884327.0789297447,"y":4030741.6942295581}},{"attributes":{"OBJECTID":4859,"ولایت":"ننگرهار","Province":"NANGARHAR","PC_Code":"0621257","ولسوالي":"حصارک","District":"HESARAK","د_مرکز_نوم__نام_مرکز":"عبدالرحمن مکتب","Polling_Center_Name":"Abdul Rahman School","د_مرکز_ځای__موقعیت_مرکز":"امين خيل","Polling_Center_Location":"Ameen Khel","Verification_Note":"Village","PS_Male":2,"PS_Female":0,"Map_Accuracy":"قریه"},"geometry":{"x":7753745.6727423,"y":4068413.9009463489}},{"attributes":{"OBJECTID":4860,"ولایت":"ننگرهار","Province":"NANGARHAR","PC_Code":"0621270","ولسوالي":"حصارک","District":"HESARAK","د_مرکز_نوم__نام_مرکز":"جوکان جومات","Polling_Center_Name":"Jokan Mosque","د_مرکز_ځای__موقعیت_مرکز":"جوکان","Polling_Center_Location":"Jokaan","Verification_Note":"Village","PS_Male":0,"PS_Female":2,"Map_Accuracy":"قریه"},"geometry":{"x":7779060.6644851863,"y":4065057.678805396}},{"attributes":{"OBJECTID":4861,"ولایت":"ننگرهار","Province":"NANGARHAR","PC_Code":"0622418","ولسوالي":"در بابا","District":"DUR BABA","د_مرکز_نوم__نام_مرکز":"شولګرښوونځی","Polling_Center_Name":"Sholgar School","د_مرکز_ځای__موقعیت_مرکز":"شولګرښوونځی","Polling_Center_Location":"Sholgar School","Verification_Note":"Building","PS_Male":3,"PS_Female":0,"Map_Accuracy":"تعمیر"},"geometry":{"x":7893788.78035045,"y":4038783.0694115162}},{"attributes":{"OBJECTID":4862,"ولایت":"لغمان","Province":"LAGHMAN","PC_Code":"0701008","ولسوالي":"مهترلام","District":"MEHTARLAM","د_مرکز_نوم__نام_مرکز":"د حېدرخانۍ کلکوټ ښوونځی","Polling_Center_Name":"Haidarkhani Kalkot School","د_مرکز_ځای__موقعیت_مرکز":"حیدرخانی ","Polling_Center_Location":"Haidar Khan","Verification_Note":"Building","PS_Male":2,"PS_Female":1,"Map_Accuracy":"تعمیر"},"geometry":{"x":7816267.341907762,"y":4109608.1914184093}},{"attributes":{"OBJECTID":4863,"ولایت":"لغمان","Province":"LAGHMAN","PC_Code":"0701017","ولسوالي":"مهترلام","District":"MEHTARLAM","د_مرکز_نوم__نام_مرکز":"دشهيد مولوي حبيب رحمان لېسه","Polling_Center_Name":"Shaheed Mawlawi Habib Rahman High School","د_مرکز_ځای__موقعیت_مرکز":"بصرام","Polling_Center_Location":"Basram","Verification_Note":"Building","PS_Male":2,"PS_Female":1,"Map_Accuracy":"تعمیر"},"geometry":{"x":7821572.0473761447,"y":4126842.8392824754}},{"attributes":{"OBJECTID":4864,"ولایت":"لغمان","Province":"LAGHMAN","PC_Code":"0701023","ولسوالي":"مهترلام","District":"MEHTARLAM","د_مرکز_نوم__نام_مرکز":"د ډيوې ښوونځی","Polling_Center_Name":"Diwa School","د_مرکز_ځای__موقعیت_مرکز":"ډیوه","Polling_Center_Location":"Diwa","Verification_Note":"Building","PS_Male":1,"PS_Female":1,"Map_Accuracy":"تعمیر"},"geometry":{"x":7809184.2819704674,"y":4121449.6248329803}},{"attributes":{"OBJECTID":4865,"ولایت":"لغمان","Province":"LAGHMAN","PC_Code":"0702035","ولسوالي":"قرغه یي","District":"QARGHAYEE","د_مرکز_نوم__نام_مرکز":"دچهارباغ هلکانو او انجونوليسه","Polling_Center_Name":"Charbagh Boys & Girls High School","د_مرکز_ځای__موقعیت_مرکز":"چهارباغ","Polling_Center_Location":"Charbagh","Verification_Note":"Building","PS_Male":3,"PS_Female":2,"Map_Accuracy":"تعمیر"},"geometry":{"x":7824440.4623364024,"y":4100481.9296124652}},{"attributes":{"OBJECTID":4866,"ولایت":"لغمان","Province":"LAGHMAN","PC_Code":"0702045","ولسوالي":"قرغه یي","District":"QARGHAYEE","د_مرکز_نوم__نام_مرکز":"دکاکڅ ښوونځی","Polling_Center_Name":"Ka Kass School","د_مرکز_ځای__موقعیت_مرکز":"کا کڅ","Polling_Center_Location":"Ka Kass","Verification_Note":"Building","PS_Male":4,"PS_Female":2,"Map_Accuracy":"تعمیر"},"geometry":{"x":7796203.5243165195,"y":4097093.6385108307}},{"attributes":{"OBJECTID":4867,"ولایت":"لغمان","Province":"LAGHMAN","PC_Code":"0702127","ولسوالي":"قرغه یي","District":"QARGHAYEE","د_مرکز_نوم__نام_مرکز":"زيړاني کلی جامع جومات او کلینیک","Polling_Center_Name":"Zeranai Village Mosque & Clinic","د_مرکز_ځای__موقعیت_مرکز":"زيړاني کلي","Polling_Center_Location":"Zeranai Village","Verification_Note":"Building","PS_Male":2,"PS_Female":1,"Map_Accuracy":"تعمیر"},"geometry":{"x":7807584.505115509,"y":4098657.0386987329}},{"attributes":{"OBJECTID":4868,"ولایت":"لغمان","Province":"LAGHMAN","PC_Code":"0704063","ولسوالي":"علینګار","District":"ALINGAR","د_مرکز_نوم__نام_مرکز":"د تندرود ښوونځی ","Polling_Center_Name":"Tondrod School","د_مرکز_ځای__موقعیت_مرکز":"تندرود","Polling_Center_Location":"Tondrod","Verification_Note":"Village","PS_Male":1,"PS_Female":1,"Map_Accuracy":"قریه"},"geometry":{"x":7832631.0365480147,"y":4146489.43488317}},{"attributes":{"OBJECTID":4869,"ولایت":"لغمان","Province":"LAGHMAN","PC_Code":"0705117","ولسوالي":"دولت شاه","District":"DAWLAT SHAH","د_مرکز_نوم__نام_مرکز":"افغان کالونی ښوونځي","Polling_Center_Name":"Afghan Colony School","د_مرکز_ځای__موقعیت_مرکز":"افغان کالونی","Polling_Center_Location":"Afghan Colony","Verification_Note":"Building","PS_Male":1,"PS_Female":1,"Map_Accuracy":"تعمیر"},"geometry":{"x":7801475.7144748345,"y":4157732.6809204817}},{"attributes":{"OBJECTID":4870,"ولایت":"پنجشیر","Province":"PANJSHIR","PC_Code":"0803047","ولسوالي":"دره","District":"DARAH","د_مرکز_نوم__نام_مرکز":"مسجد ده خواجه ","Polling_Center_Name":"Deh Khwaja Mosque","د_مرکز_ځای__موقعیت_مرکز":"خواجه عبدالله خیل","Polling_Center_Location":"Khwaja Abdullh Khel","Verification_Note":"Building","PS_Male":2,"PS_Female":1,"Map_Accuracy":"تعمیر"},"geometry":{"x":7748120.8291163184,"y":4196019.9976964071}},{"attributes":{"OBJECTID":4871,"ولایت":"پنجشیر","Province":"PANJSHIR","PC_Code":"0803054","ولسوالي":"دره","District":"DARAH","د_مرکز_نوم__نام_مرکز":"مکتب ذکور ملیمه","Polling_Center_Name":"Malima Boys School ","د_مرکز_ځای__موقعیت_مرکز":"ملیمه ","Polling_Center_Location":"Malima","Verification_Note":"Building","PS_Male":2,"PS_Female":1,"Map_Accuracy":"تعمیر"},"geometry":{"x":7752014.8450167924,"y":4206675.0277387127}},{"attributes":{"OBJECTID":4872,"ولایت":"پنجشیر","Province":"PANJSHIR","PC_Code":"0804014","ولسوالي":"حصه اول خنج","District":"HISSA-E-AWAL KHINJ","د_مرکز_نوم__نام_مرکز":"لیسه دشت ریوت","Polling_Center_Name":"Dasht -e-Reut High School","د_مرکز_ځای__موقعیت_مرکز":"دشت ریوت","Polling_Center_Location":"Dasht-e-Reut","Verification_Note":"Building","PS_Male":2,"PS_Female":1,"Map_Accuracy":"تعمیر"},"geometry":{"x":7772362.5306491517,"y":4230586.8791876584}},{"attributes":{"OBJECTID":4873,"ولایت":"پنجشیر","Province":"PANJSHIR","PC_Code":"0805033","ولسوالي":"عنابه","District":"UNABA","د_مرکز_نوم__نام_مرکز":"لیسه نسوان فراج","Polling_Center_Name":"Faraj Girls School","د_مرکز_ځای__موقعیت_مرکز":"فراج","Polling_Center_Location":"Faraj","Verification_Note":"Building","PS_Male":1,"PS_Female":1,"Map_Accuracy":"تعمیر"},"geometry":{"x":7721301.7017721683,"y":4191995.2554259896}},{"attributes":{"OBJECTID":4874,"ولایت":"پنجشیر","Province":"PANJSHIR","PC_Code":"0806085","ولسوالي":"شتل","District":"SHUTUL","د_مرکز_نوم__نام_مرکز":"مسجد سغه وار","Polling_Center_Name":"Sagha War Mosque","د_مرکز_ځای__موقعیت_مرکز":"سغه وار","Polling_Center_Location":"Sagha War","Verification_Note":"Building","PS_Male":1,"PS_Female":1,"Map_Accuracy":"تعمیر"},"geometry":{"x":7712202.0447313674,"y":4191492.8021948859}},{"attributes":{"OBJECTID":4875,"ولایت":"پنجشیر","Province":"PANJSHIR","PC_Code":"0806086","ولسوالي":"شتل","District":"SHUTUL","د_مرکز_نوم__نام_مرکز":"مسجد ماره","Polling_Center_Name":"Mara Mosque","د_مرکز_ځای__موقعیت_مرکز":"ماره","Polling_Center_Location":"Mara","Verification_Note":"Village","PS_Male":1,"PS_Female":1,"Map_Accuracy":"قریه"},"geometry":{"x":7712520.3828527927,"y":4191343.5376306251}},{"attributes":{"OBJECTID":4876,"ولایت":"پنجشیر","Province":"PANJSHIR","PC_Code":"0807070","ولسوالي":"پریان","District":"PARYAN","د_مرکز_نوم__نام_مرکز":"مسجد نو دانگ ","Polling_Center_Name":"Nawdang Mosque","د_مرکز_ځای__موقعیت_مرکز":"نودانگ ","Polling_Center_Location":"Nawdang","Verification_Note":"Building","PS_Male":1,"PS_Female":0,"Map_Accuracy":"تعمیر"},"geometry":{"x":7792851.3783013746,"y":4248994.7569767982}},{"attributes":{"OBJECTID":4877,"ولایت":"پنجشیر","Province":"PANJSHIR","PC_Code":"0807081","ولسوالي":"پریان","District":"PARYAN","د_مرکز_نوم__نام_مرکز":"مسجد چمار بالا","Polling_Center_Name":"Chamar Bala Mosque ","د_مرکز_ځای__موقعیت_مرکز":"چمار بالا","Polling_Center_Location":"Chamar Bala","Verification_Note":"Village","PS_Male":1,"PS_Female":1,"Map_Accuracy":"قریه"},"geometry":{"x":7805796.4346814379,"y":4257315.2138727158}},{"attributes":{"OBJECTID":4878,"ولایت":"پنجشیر","Province":"PANJSHIR","PC_Code":"0808057","ولسوالي":"آبشار","District":"ABSHAR","د_مرکز_نوم__نام_مرکز":"مکتب جر علی ","Polling_Center_Name":"Jar a+J1748li Schoo ","د_مرکز_ځای__موقعیت_مرکز":"جر علی ","Polling_Center_Location":"Jarali","Verification_Note":"Village","PS_Male":1,"PS_Female":1,"Map_Accuracy":"قریه"},"geometry":{"x":7758760.692612987,"y":4197478.441768907}},{"attributes":{"OBJECTID":4879,"ولایت":"بغلان","Province":"BAGHLAN","PC_Code":"0901005","ولسوالي":"پلخمری","District":"PUL-E-KHUMRI","د_مرکز_نوم__نام_مرکز":"مسجد جامع تکیه خانه تپه فرحت","Polling_Center_Name":"Takia Khana Farahd  Mosque","د_مرکز_ځای__موقعیت_مرکز":"ناحیه اول","Polling_Center_Location":"First Nahia","Verification_Note":"Building","PS_Male":2,"PS_Female":1,"Map_Accuracy":"تعمیر"},"geometry":{"x":7648053.8608824313,"y":4293695.0031194612}},{"attributes":{"OBJECTID":4880,"ولایت":"بغلان","Province":"BAGHLAN","PC_Code":"0901016","ولسوالي":"پلخمری","District":"PUL-E-KHUMRI","د_مرکز_نوم__نام_مرکز":"مسجد قریه وزیر آیاد","Polling_Center_Name":"Wazir Abad Village Mosque","د_مرکز_ځای__موقعیت_مرکز":"قریه وزیر آیاد","Polling_Center_Location":"Wazir Abad Village","Verification_Note":"Building","PS_Male":1,"PS_Female":1,"Map_Accuracy":"تعمیر"},"geometry":{"x":7644078.99808858,"y":4297561.628826201}},{"attributes":{"OBJECTID":4881,"ولایت":"بغلان","Province":"BAGHLAN","PC_Code":"0901026","ولسوالي":"پلخمری","District":"PUL-E-KHUMRI","د_مرکز_نوم__نام_مرکز":"لیسه عبدالرزاق شهید","Polling_Center_Name":"Abdul Razaq Shaheed High School","د_مرکز_ځای__موقعیت_مرکز":"وردگ ها","Polling_Center_Location":"Wardak Ha","Verification_Note":"Building","PS_Male":2,"PS_Female":1,"Map_Accuracy":"تعمیر"},"geometry":{"x":7642153.4903847948,"y":4290432.4972021505}},{"attributes":{"OBJECTID":4882,"ولایت":"بغلان","Province":"BAGHLAN","PC_Code":"0901035","ولسوالي":"پلخمری","District":"PUL-E-KHUMRI","د_مرکز_نوم__نام_مرکز":"چپ دریا مقابل باغ قهوه خانه، مکتب کارته اتفاق","Polling_Center_Name":"Karta-e-Etifaq School","د_مرکز_ځای__موقعیت_مرکز":"ناحیه اول","Polling_Center_Location":"First Nahia -House, Opposite to Café Shop left of river","Verification_Note":"Building","PS_Male":2,"PS_Female":1,"Map_Accuracy":"تعمیر"},"geometry":{"x":7649986.2347724177,"y":4290231.5324960724}},{"attributes":{"OBJECTID":4883,"ولایت":"بغلان","Province":"BAGHLAN","PC_Code":"0901230","ولسوالي":"پلخمری","District":"PUL-E-KHUMRI","د_مرکز_نوم__نام_مرکز":"مسجد حاجی عبدالغفار","Polling_Center_Name":"Haji Abdul Ghafar Mosque","د_مرکز_ځای__موقعیت_مرکز":"ناحیه سوم","Polling_Center_Location":"Third Nahia","Verification_Note":"Building","PS_Male":1,"PS_Female":1,"Map_Accuracy":"تعمیر"},"geometry":{"x":7649461.4067879245,"y":4293499.6392867714}},{"attributes":{"OBJECTID":4884,"ولایت":"بغلان","Province":"BAGHLAN","PC_Code":"0902092","ولسوالي":"دهنه غوری","District":"DAHANA-E-GHURI","د_مرکز_نوم__نام_مرکز":"خیمه","Polling_Center_Name":"Tent","د_مرکز_ځای__موقعیت_مرکز":"قریه حاجی بشر","Polling_Center_Location":"Haji Bashar Village","Verification_Note":"Building","PS_Male":1,"PS_Female":1,"Map_Accuracy":"تعمیر"},"geometry":{"x":7623619.8715158664,"y":4293304.9502701387}},{"attributes":{"OBJECTID":4885,"ولایت":"بغلان","Province":"BAGHLAN","PC_Code":"0903101","ولسوالي":"دوشی","District":"DUSHI","د_مرکز_نوم__نام_مرکز":"نزدیک پل بید دره مکتب دوشی","Polling_Center_Name":"Doshi School","د_مرکز_ځای__موقعیت_مرکز":"دوشی","Polling_Center_Location":"Doshi near Bid Dara ","Verification_Note":"Building","PS_Male":2,"PS_Female":1,"Map_Accuracy":"تعمیر"},"geometry":{"x":7656866.900290709,"y":4244427.9189907536}},{"attributes":{"OBJECTID":4886,"ولایت":"بغلان","Province":"BAGHLAN","PC_Code":"0903111","ولسوالي":"دوشی","District":"DUSHI","د_مرکز_نوم__نام_مرکز":"داخل قریه خان محمد ناصری","Polling_Center_Name":"Khan Mohammad Naseri, Open Space","د_مرکز_ځای__موقعیت_مرکز":"قریه خان محمد ناصری","Polling_Center_Location":"Khan Mohammad Naseri Village","Verification_Note":"Building","PS_Male":2,"PS_Female":2,"Map_Accuracy":"تعمیر"},"geometry":{"x":7658712.6665036529,"y":4277173.0183489919}},{"attributes":{"OBJECTID":4887,"ولایت":"بغلان","Province":"BAGHLAN","PC_Code":"0904138","ولسوالي":"نهرین","District":"NAHREEN","د_مرکز_نوم__نام_مرکز":"لیسه گلمیران شهید ","Polling_Center_Name":"Gul Meran Shaheed High School","د_مرکز_ځای__موقعیت_مرکز":"قریه لوگری ها","Polling_Center_Location":"Logari Ha Village","Verification_Note":"Building","PS_Male":1,"PS_Female":1,"Map_Accuracy":"تعمیر"},"geometry":{"x":7694155.82611905,"y":4308803.921128042}},{"attributes":{"OBJECTID":4888,"ولایت":"بغلان","Province":"BAGHLAN","PC_Code":"0904244","ولسوالي":"نهرین","District":"NAHREEN","د_مرکز_نوم__نام_مرکز":"مسجد اگری","Polling_Center_Name":"Agari Mosque","د_مرکز_ځای__موقعیت_مرکز":"اگری","Polling_Center_Location":"Agri","Verification_Note":"Building","PS_Male":1,"PS_Female":1,"Map_Accuracy":"تعمیر"},"geometry":{"x":7689455.7201822586,"y":4312140.77929122}},{"attributes":{"OBJECTID":4889,"ولایت":"بغلان","Province":"BAGHLAN","PC_Code":"0905049","ولسوالي":"بغلان جدید","District":"BAGLAN-E-JADEED","د_مرکز_نوم__نام_مرکز":"مکتب ابوحد جرخشک","Polling_Center_Name":"Abuhad Jarkhoshk School","د_مرکز_ځای__موقعیت_مرکز":"جرخشک","Polling_Center_Location":"Jarkhoshkak","Verification_Note":"Building","PS_Male":1,"PS_Female":1,"Map_Accuracy":"تعمیر"},"geometry":{"x":7659794.2956567854,"y":4339984.0620320067}},{"attributes":{"OBJECTID":4890,"ولایت":"بغلان","Province":"BAGHLAN","PC_Code":"0905059","ولسوالي":"بغلان جدید","District":"BAGLAN-E-JADEED","د_مرکز_نوم__نام_مرکز":"فابریکه قند لیسه ذکور بغلان صنعتی","Polling_Center_Name":"Baghlan  Sanhaty Boys High School","د_مرکز_ځای__موقعیت_مرکز":"شهرفابریکه","Polling_Center_Location":"Shahr Fabrika","Verification_Note":"Building","PS_Male":1,"PS_Female":1,"Map_Accuracy":"تعمیر"},"geometry":{"x":7645930.9848346673,"y":4317491.6779633537}},{"attributes":{"OBJECTID":4891,"ولایت":"بغلان","Province":"BAGHLAN","PC_Code":"0905068","ولسوالي":"بغلان جدید","District":"BAGLAN-E-JADEED","د_مرکز_نوم__نام_مرکز":"قنداری عبدالله جان","Polling_Center_Name":"Qandari Abdullah Jan","د_مرکز_ځای__موقعیت_مرکز":"قریه ظریف قنداری بایسقال","Polling_Center_Location":"Zarif Qandari Baisqal Village ","Verification_Note":"Village","PS_Male":1,"PS_Female":1,"Map_Accuracy":"قریه"},"geometry":{"x":7630401.00972835,"y":4335322.3743435219}},{"attributes":{"OBJECTID":4892,"ولایت":"بغلان","Province":"BAGHLAN","PC_Code":"0905236","ولسوالي":"بغلان جدید","District":"BAGLAN-E-JADEED","د_مرکز_نوم__نام_مرکز":"مسجد همت خیل","Polling_Center_Name":"Hemat Khel Mosque","د_مرکز_ځای__موقعیت_مرکز":"قریه همت خیل","Polling_Center_Location":"Hemat Khel Village","Verification_Note":"Village","PS_Male":1,"PS_Female":1,"Map_Accuracy":"قریه"},"geometry":{"x":7655944.6617240869,"y":4339285.6483111382}},{"attributes":{"OBJECTID":4893,"ولایت":"بغلان","Province":"BAGHLAN","PC_Code":"0907120","ولسوالي":"اندراب","District":"ANDARAB","د_مرکز_نوم__نام_مرکز":"لیسه یوچ ","Polling_Center_Name":"Youch High School","د_مرکز_ځای__موقعیت_مرکز":"قریه یوچ","Polling_Center_Location":"Youch Village","Verification_Note":"Building","PS_Male":2,"PS_Female":1,"Map_Accuracy":"تعمیر"},"geometry":{"x":7686160.8335736021,"y":4245853.6311673447}},{"attributes":{"OBJECTID":4894,"ولایت":"بغلان","Province":"BAGHLAN","PC_Code":"0908184","ولسوالي":"ده صلاح ","District":"DEH SALAH","د_مرکز_نوم__نام_مرکز":"کلینیک کلان شهشان","Polling_Center_Name":"Shahshan Big Clinic","د_مرکز_ځای__موقعیت_مرکز":" شهشان","Polling_Center_Location":"Eilnag Kalan Shahshan","Verification_Note":"Building","PS_Male":2,"PS_Female":1,"Map_Accuracy":"تعمیر"},"geometry":{"x":7717901.1429104805,"y":4270430.301761426}},{"attributes":{"OBJECTID":4895,"ولایت":"بغلان","Province":"BAGHLAN","PC_Code":"0909194","ولسوالي":"جلگه","District":"JALGA","د_مرکز_نوم__نام_مرکز":"لیسه حمید الله شهید ","Polling_Center_Name":"Hamidullah Shaheed High School","د_مرکز_ځای__موقعیت_مرکز":"سیاه ریگ","Polling_Center_Location":"Siah Rieg","Verification_Note":"Building","PS_Male":2,"PS_Female":1,"Map_Accuracy":"تعمیر"},"geometry":{"x":7709237.5421262309,"y":4281444.5453477129}},{"attributes":{"OBJECTID":4896,"ولایت":"بغلان","Province":"BAGHLAN","PC_Code":"0910149","ولسوالي":"برکه","District":"BURKA","د_مرکز_نوم__نام_مرکز":"مدرسه جامع شور قدوق","Polling_Center_Name":"Shor Qudoq Madrassa","د_مرکز_ځای__موقعیت_مرکز":"شور قدوق","Polling_Center_Location":"Shor Qudoq","Verification_Note":"Building","PS_Male":1,"PS_Female":1,"Map_Accuracy":"تعمیر"},"geometry":{"x":7682463.388969548,"y":4355079.8851910606}},{"attributes":{"OBJECTID":4897,"ولایت":"بغلان","Province":"BAGHLAN","PC_Code":"0910161","ولسوالي":"برکه","District":"BURKA","د_مرکز_نوم__نام_مرکز":"مکتب اناث تنگی مرچ ","Polling_Center_Name":"Tangi Murch Girls School","د_مرکز_ځای__موقعیت_مرکز":"تنگی مرچ","Polling_Center_Location":"Tangi Murch","Verification_Note":"Building","PS_Male":1,"PS_Female":1,"Map_Accuracy":"تعمیر"},"geometry":{"x":7701269.4120871089,"y":4339854.1864604652}},{"attributes":{"OBJECTID":4898,"ولایت":"بغلان","Province":"BAGHLAN","PC_Code":"0911169","ولسوالي":"تاله و برفک","District":"TALA WA BARFAK","د_مرکز_نوم__نام_مرکز":"مکتب لیسه وادو ","Polling_Center_Name":"Vado High School","د_مرکز_ځای__موقعیت_مرکز":"وادو","Polling_Center_Location":"Vado","Verification_Note":"Building","PS_Male":1,"PS_Female":1,"Map_Accuracy":"تعمیر"},"geometry":{"x":7602760.2844296247,"y":4229503.6340950131}},{"attributes":{"OBJECTID":4899,"ولایت":"بغلان","Province":"BAGHLAN","PC_Code":"0913210","ولسوالي":"خوست و فرنگ","District":"KHOST WA FIRING","د_مرکز_نوم__نام_مرکز":"مکتب ابتدائی یخه","Polling_Center_Name":"Yakha Primary School","د_مرکز_ځای__موقعیت_مرکز":"یخه","Polling_Center_Location":"Yakha","Verification_Note":"Building","PS_Male":1,"PS_Female":1,"Map_Accuracy":"تعمیر"},"geometry":{"x":7738923.564919591,"y":4315490.3475656137}},{"attributes":{"OBJECTID":4900,"ولایت":"بغلان","Province":"BAGHLAN","PC_Code":"0913255","ولسوالي":"خوست و فرنگ","District":"KHOST WA FIRING","د_مرکز_نوم__نام_مرکز":"مکتب متوسطه سچی","Polling_Center_Name":"Sechi Secondary School","د_مرکز_ځای__موقعیت_مرکز":"سچی","Polling_Center_Location":"Sechi","Verification_Note":"Building","PS_Male":1,"PS_Female":1,"Map_Accuracy":"تعمیر"},"geometry":{"x":7734683.7216626331,"y":4284792.00312449}},{"attributes":{"OBJECTID":4901,"ولایت":"بغلان","Province":"BAGHLAN","PC_Code":"0915223","ولسوالي":"فرنگ و غارو","District":"FIRING WA GHARU","د_مرکز_نوم__نام_مرکز":"مسجد حاجی محمد علم خان","Polling_Center_Name":"Haji Mohammad Alam Khan Mosque","د_مرکز_ځای__موقعیت_مرکز":"هزاره","Polling_Center_Location":"Hazara","Verification_Note":"Building","PS_Male":1,"PS_Female":1,"Map_Accuracy":"تعمیر"},"geometry":{"x":7750033.745472502,"y":4315916.9539654851}},{"attributes":{"OBJECTID":4902,"ولایت":"باميان","Province":"BAMYAN","PC_Code":"1001011","ولسوالي":"بامیان","District":"BAMYAN","د_مرکز_نوم__نام_مرکز":"مکتب دکدان","Polling_Center_Name":"Dakdan School","د_مرکز_ځای__موقعیت_مرکز":"دکدان آهنگران","Polling_Center_Location":"Dakdan-e-Ahangaran","Verification_Note":"Building","PS_Male":1,"PS_Female":1,"Map_Accuracy":"تعمیر"},"geometry":{"x":7559183.5027673021,"y":4124001.143755801}},{"attributes":{"OBJECTID":4903,"ولایت":"باميان","Province":"BAMYAN","PC_Code":"1002022","ولسوالي":"شیبر","District":"SHEBAR","د_مرکز_نوم__نام_مرکز":"مکتب شینیه عراق","Polling_Center_Name":"Shinia Iraq School","د_مرکز_ځای__موقعیت_مرکز":"شینیه عراق","Polling_Center_Location":"Shinia Iraq","Verification_Note":"Building","PS_Male":1,"PS_Female":1,"Map_Accuracy":"تعمیر"},"geometry":{"x":7574904.1937648244,"y":4140484.6959033683}},{"attributes":{"OBJECTID":4904,"ولایت":"باميان","Province":"BAMYAN","PC_Code":"1003033","ولسوالي":"سیغان","District":"SAIGHAN","د_مرکز_نوم__نام_مرکز":"لیسه ذکور مرکز خداداد خیل","Polling_Center_Name":"Khudadad Khell Center Boys High School","د_مرکز_ځای__موقعیت_مرکز":"خداداد خیل","Polling_Center_Location":"Khudadad Khel","Verification_Note":"Building","PS_Male":2,"PS_Female":1,"Map_Accuracy":"تعمیر"},"geometry":{"x":7533018.145887021,"y":4189259.4334702492}},{"attributes":{"OBJECTID":4905,"ولایت":"باميان","Province":"BAMYAN","PC_Code":"1003044","ولسوالي":"سیغان","District":"SAIGHAN","د_مرکز_نوم__نام_مرکز":"مسجد پشته واز","Polling_Center_Name":"Pushtawaz Mosque","د_مرکز_ځای__موقعیت_مرکز":"پشته واز","Polling_Center_Location":"Pushtawaz","Verification_Note":"Building","PS_Male":2,"PS_Female":1,"Map_Accuracy":"تعمیر"},"geometry":{"x":7545061.9385189191,"y":4192755.34367425}},{"attributes":{"OBJECTID":4906,"ولایت":"باميان","Province":"BAMYAN","PC_Code":"1003045","ولسوالي":"سیغان","District":"SAIGHAN","د_مرکز_نوم__نام_مرکز":"مسجد غراب","Polling_Center_Name":"Ghurab Mosque","د_مرکز_ځای__موقعیت_مرکز":"غراب","Polling_Center_Location":"Ghurab","Verification_Note":"Building","PS_Male":1,"PS_Female":1,"Map_Accuracy":"تعمیر"},"geometry":{"x":7538049.3093102537,"y":4166078.7180993482}},{"attributes":{"OBJECTID":4907,"ولایت":"باميان","Province":"BAMYAN","PC_Code":"1004055","ولسوالي":"کهمرد","District":"KAHMARD","د_مرکز_نوم__نام_مرکز":"مکتب بنق","Polling_Center_Name":"Beneq School","د_مرکز_ځای__موقعیت_مرکز":"بنق","Polling_Center_Location":"Beneq","Verification_Note":"Building","PS_Male":1,"PS_Female":1,"Map_Accuracy":"تعمیر"},"geometry":{"x":7524700.5761739239,"y":4207248.547297366}},{"attributes":{"OBJECTID":4908,"ولایت":"باميان","Province":"BAMYAN","PC_Code":"1004056","ولسوالي":"کهمرد","District":"KAHMARD","د_مرکز_نوم__نام_مرکز":"مکتب آجر","Polling_Center_Name":"Aajar School","د_مرکز_ځای__موقعیت_مرکز":"آجر","Polling_Center_Location":"Aajar","Verification_Note":"Building","PS_Male":2,"PS_Female":0,"Map_Accuracy":"تعمیر"},"geometry":{"x":7514817.7542327456,"y":4213309.486269176}},{"attributes":{"OBJECTID":4909,"ولایت":"باميان","Province":"BAMYAN","PC_Code":"1004068","ولسوالي":"کهمرد","District":"KAHMARD","د_مرکز_نوم__نام_مرکز":"مکتب باجگا","Polling_Center_Name":"Bajga School","د_مرکز_ځای__موقعیت_مرکز":"باجگا","Polling_Center_Location":"Bajga","Verification_Note":"Building","PS_Male":1,"PS_Female":1,"Map_Accuracy":"تعمیر"},"geometry":{"x":7551758.130943045,"y":4211495.4899071753}},{"attributes":{"OBJECTID":4910,"ولایت":"باميان","Province":"BAMYAN","PC_Code":"1005069","ولسوالي":"یکاولنگ","District":"YAKAWLANG","د_مرکز_نوم__نام_مرکز":"مدرسه نیک","Polling_Center_Name":"Naik Madrassa","د_مرکز_ځای__موقعیت_مرکز":"نیک","Polling_Center_Location":"Nayak","Verification_Note":"Building","PS_Male":2,"PS_Female":2,"Map_Accuracy":"تعمیر"},"geometry":{"x":7454548.761867702,"y":4128231.046883896}},{"attributes":{"OBJECTID":4911,"ولایت":"باميان","Province":"BAMYAN","PC_Code":"1005079","ولسوالي":"یکاولنگ","District":"YAKAWLANG","د_مرکز_نوم__نام_مرکز":"منبر کلته توپ","Polling_Center_Name":"Munbar-e-Kalta Toop","د_مرکز_ځای__موقعیت_مرکز":"کلته توپ پاس رویه","Polling_Center_Location":"Kalta Toup Paas Roya","Verification_Note":"Building","PS_Male":1,"PS_Female":1,"Map_Accuracy":"تعمیر"},"geometry":{"x":7493042.8235978112,"y":4126999.8963898197}},{"attributes":{"OBJECTID":4912,"ولایت":"باميان","Province":"BAMYAN","PC_Code":"1005080","ولسوالي":"یکاولنگ","District":"YAKAWLANG","د_مرکز_نوم__نام_مرکز":"مدرسه شیردوش","Polling_Center_Name":"Sheerdosh Madrassa","د_مرکز_ځای__موقعیت_مرکز":"شیردوش","Polling_Center_Location":"Sheerdosh","Verification_Note":"Building","PS_Male":1,"PS_Female":1,"Map_Accuracy":"تعمیر"},"geometry":{"x":7483159.2413445041,"y":4119438.1424492821}},{"attributes":{"OBJECTID":4913,"ولایت":"باميان","Province":"BAMYAN","PC_Code":"1005089","ولسوالي":"یکاولنگ","District":"YAKAWLANG","د_مرکز_نوم__نام_مرکز":"خمیه دشت سوخته","Polling_Center_Name":"Khamya Dasht-e-Sokhta","د_مرکز_ځای__موقعیت_مرکز":"جنگل زری دخمه، گهواره سنگ","Polling_Center_Location":"Zeri Dakhma Jungle, Gahwara Sang","Verification_Note":"Building","PS_Male":2,"PS_Female":1,"Map_Accuracy":"تعمیر"},"geometry":{"x":7396432.1441022865,"y":4170305.4630855843}},{"attributes":{"OBJECTID":4914,"ولایت":"باميان","Province":"BAMYAN","PC_Code":"1006096","ولسوالي":"پنجاب","District":"PANJAB","د_مرکز_نوم__نام_مرکز":"مکتب دخترانه پشت تیلگراف","Polling_Center_Name":"Pusht-e-Telegraph Girls School","د_مرکز_ځای__موقعیت_مرکز":"دشت غجور","Polling_Center_Location":"Dasht-e-Ghujoor","Verification_Note":"Building","PS_Male":1,"PS_Female":1,"Map_Accuracy":"تعمیر"},"geometry":{"x":7460846.4115904756,"y":4081557.2100370824}},{"attributes":{"OBJECTID":4915,"ولایت":"باميان","Province":"BAMYAN","PC_Code":"1006107","ولسوالي":"پنجاب","District":"PANJAB","د_مرکز_نوم__نام_مرکز":"مسجد نو دراز کرمان","Polling_Center_Name":"Naw Daraz-e-Kerman Mosque","د_مرکز_ځای__موقعیت_مرکز":"نو دراز","Polling_Center_Location":"Naw Daraz","Verification_Note":"Building","PS_Male":1,"PS_Female":2,"Map_Accuracy":"تعمیر"},"geometry":{"x":7419312.1856237277,"y":4092530.2572747469}},{"attributes":{"OBJECTID":4916,"ولایت":"باميان","Province":"BAMYAN","PC_Code":"1006118","ولسوالي":"پنجاب","District":"PANJAB","د_مرکز_نوم__نام_مرکز":"ممبر پام الترغان کرمان","Polling_Center_Name":"Munbar-e-Altarghaan Kerman","د_مرکز_ځای__موقعیت_مرکز":"قلعه قاسم بیگ","Polling_Center_Location":"Qala-e-Qasim Beg","Verification_Note":"Building","PS_Male":1,"PS_Female":1,"Map_Accuracy":"تعمیر"},"geometry":{"x":7415155.8353244439,"y":4095596.7512483}},{"attributes":{"OBJECTID":4917,"ولایت":"باميان","Province":"BAMYAN","PC_Code":"1007129","ولسوالي":"ورس","District":"WARAS","د_مرکز_نوم__نام_مرکز":"مسجد سبزک","Polling_Center_Name":"Sabzak Mosque","د_مرکز_ځای__موقعیت_مرکز":"دهن سبزک","Polling_Center_Location":"Dahan-e-Sabzak","Verification_Note":"Building","PS_Male":1,"PS_Female":1,"Map_Accuracy":"تعمیر"},"geometry":{"x":7409508.77566769,"y":4052876.4393608347}},{"attributes":{"OBJECTID":4918,"ولایت":"باميان","Province":"BAMYAN","PC_Code":"1007140","ولسوالي":"ورس","District":"WARAS","د_مرکز_نوم__نام_مرکز":"مسجد چوب تمان","Polling_Center_Name":"Chob-e-Taman Mosque","د_مرکز_ځای__موقعیت_مرکز":"چوب تمان","Polling_Center_Location":"Chob Taamaan","Verification_Note":"Building","PS_Male":1,"PS_Female":1,"Map_Accuracy":"تعمیر"},"geometry":{"x":7489611.8299873434,"y":4057631.412309505}},{"attributes":{"OBJECTID":4919,"ولایت":"باميان","Province":"BAMYAN","PC_Code":"1007152","ولسوالي":"ورس","District":"WARAS","د_مرکز_نوم__نام_مرکز":"مکتب اوچه سنگنگ لیگان","Polling_Center_Name":"Awcha Sanginag Legan Mosque","د_مرکز_ځای__موقعیت_مرکز":"اوچه","Polling_Center_Location":"Awcha","Verification_Note":"Building","PS_Male":1,"PS_Female":1,"Map_Accuracy":"تعمیر"},"geometry":{"x":7459392.3813372925,"y":4010194.6167851835}},{"attributes":{"OBJECTID":4920,"ولایت":"غزنى","Province":"GHAZNI","PC_Code":"1101001","ولسوالي":"غزنی","District":"GHAZNI","د_مرکز_نوم__نام_مرکز":"مستوفیت","Polling_Center_Name":"Mastofiat ","د_مرکز_ځای__موقعیت_مرکز":"مرکز شهر","Polling_Center_Location":"Markaz Shahar","Verification_Note":"Building","PS_Male":4,"PS_Female":0,"Map_Accuracy":"تعمیر"},"geometry":{"x":7616584.8427105919,"y":3967947.2212661728}},{"attributes":{"OBJECTID":4921,"ولایت":"غزنى","Province":"GHAZNI","PC_Code":"1101011","ولسوالي":"غزنی","District":"GHAZNI","د_مرکز_نوم__نام_مرکز":"مکتب ولی عصر","Polling_Center_Name":"Wali Asar School","د_مرکز_ځای__موقعیت_مرکز":"قریه خاک غریبان","Polling_Center_Location":"Khak-e-Ghariban Village","Verification_Note":"Village","PS_Male":2,"PS_Female":2,"Map_Accuracy":"قریه"},"geometry":{"x":7614465.4320385717,"y":3969879.1841007248}},{"attributes":{"OBJECTID":4922,"ولایت":"غزنى","Province":"GHAZNI","PC_Code":"1101022","ولسوالي":"غزنی","District":"GHAZNI","د_مرکز_نوم__نام_مرکز":"کلینیک عمومی","Polling_Center_Name":"General Clinic","د_مرکز_ځای__موقعیت_مرکز":"قریه روضه","Polling_Center_Location":"Rawza Village","Verification_Note":"Building","PS_Male":3,"PS_Female":2,"Map_Accuracy":"تعمیر"},"geometry":{"x":7620793.08236412,"y":3973403.0932548046}},{"attributes":{"OBJECTID":4923,"ولایت":"غزنى","Province":"GHAZNI","PC_Code":"1101032","ولسوالي":"غزنی","District":"GHAZNI","د_مرکز_نوم__نام_مرکز":"مسجد سید جعفر","Polling_Center_Name":"Sayed Jafar Mosque","د_مرکز_ځای__موقعیت_مرکز":"قریه قلعه ریس ","Polling_Center_Location":"Qala-e-Rais","Verification_Note":"Village","PS_Male":5,"PS_Female":0,"Map_Accuracy":"قریه"},"geometry":{"x":7615919.4226620048,"y":3970495.2585840151}},{"attributes":{"OBJECTID":4924,"ولایت":"غزنى","Province":"GHAZNI","PC_Code":"1101044","ولسوالي":"غزنی","District":"GHAZNI","د_مرکز_نوم__نام_مرکز":"مسجد ارزو","Polling_Center_Name":"Urzo Mosque","د_مرکز_ځای__موقعیت_مرکز":"قریه ارزو","Polling_Center_Location":"Urzo Village","Verification_Note":"Village","PS_Male":3,"PS_Female":0,"Map_Accuracy":"قریه"},"geometry":{"x":7623579.2088435926,"y":3957793.5133395642}},{"attributes":{"OBJECTID":4925,"ولایت":"غزنى","Province":"GHAZNI","PC_Code":"1102096","ولسوالي":"ولی محمد شهید","District":"WALI MOHAMMAD SHAHID","د_مرکز_نوم__نام_مرکز":"مسجد قریه سید عالم ","Polling_Center_Name":"Sayed Alam Village Mosque","د_مرکز_ځای__موقعیت_مرکز":"قریه سید عالم ","Polling_Center_Location":"Sayed Alam Village","Verification_Note":"Building","PS_Male":3,"PS_Female":1,"Map_Accuracy":"تعمیر"},"geometry":{"x":7607560.3630615026,"y":3972737.0936128423}},{"attributes":{"OBJECTID":4926,"ولایت":"غزنى","Province":"GHAZNI","PC_Code":"1105070","ولسوالي":"ده یک","District":"DEH YAK","د_مرکز_نوم__نام_مرکز":"مکتب ابتدائیه","Polling_Center_Name":"Primary School ","د_مرکز_ځای__موقعیت_مرکز":"سلیمان بیک","Polling_Center_Location":"Sulaiman Beik","Verification_Note":"District","PS_Male":2,"PS_Female":1,"Map_Accuracy":"ولسوالی"},"geometry":{"x":7639149.58067992,"y":3961040.9243095592}},{"attributes":{"OBJECTID":4927,"ولایت":"غزنى","Province":"GHAZNI","PC_Code":"1106112","ولسوالي":"جغتو","District":"JAGHATU","د_مرکز_نوم__نام_مرکز":"مسجد فقیر شاه","Polling_Center_Name":"Faqeer Shah Mosque","د_مرکز_ځای__موقعیت_مرکز":"قریه گیرو فقیر شاه ","Polling_Center_Location":"Gero-e-Faqeer Shah Village","Verification_Note":"Building","PS_Male":2,"PS_Female":0,"Map_Accuracy":"تعمیر"},"geometry":{"x":7572078.7247509249,"y":3972426.3080125377}},{"attributes":{"OBJECTID":4928,"ولایت":"غزنى","Province":"GHAZNI","PC_Code":"1106122","ولسوالي":"جغتو","District":"JAGHATU","د_مرکز_نوم__نام_مرکز":"لیسه شاکي","Polling_Center_Name":"Shaki High School","د_مرکز_ځای__موقعیت_مرکز":"قریه جانه منطقه شاکی","Polling_Center_Location":"Janan Village, Shaki Region","Verification_Note":"Building","PS_Male":1,"PS_Female":2,"Map_Accuracy":"تعمیر"},"geometry":{"x":7572723.1345814466,"y":3955536.3914816752}},{"attributes":{"OBJECTID":4929,"ولایت":"غزنى","Province":"GHAZNI","PC_Code":"1107223","ولسوالي":"اندر","District":"ANDAR","د_مرکز_نوم__نام_مرکز":"مسجد قریه مزو سفلی","Polling_Center_Name":"Mazo Sufla Village Mosque","د_مرکز_ځای__موقعیت_مرکز":"قریه مزو سفلی ","Polling_Center_Location":"Mazo Sufla Village","Verification_Note":"Building","PS_Male":0,"PS_Female":3,"Map_Accuracy":"تعمیر"},"geometry":{"x":7601603.106077686,"y":3934276.0698480904}},{"attributes":{"OBJECTID":4930,"ولایت":"غزنى","Province":"GHAZNI","PC_Code":"1107234","ولسوالي":"اندر","District":"ANDAR","د_مرکز_نوم__نام_مرکز":"کلینیک قریه یعقوب","Polling_Center_Name":"Yaqoob Village Clinic","د_مرکز_ځای__موقعیت_مرکز":"قریه یعقوب ","Polling_Center_Location":"Yaqoob Village","Verification_Note":"Building","PS_Male":0,"PS_Female":3,"Map_Accuracy":"تعمیر"},"geometry":{"x":7613236.5594817847,"y":3946162.9755048975}},{"attributes":{"OBJECTID":4931,"ولایت":"غزنى","Province":"GHAZNI","PC_Code":"1107244","ولسوالي":"اندر","District":"ANDAR","د_مرکز_نوم__نام_مرکز":"مسجد قریه چنګاه سفلی","Polling_Center_Name":"Changah Sufla Village Mosque","د_مرکز_ځای__موقعیت_مرکز":"قریه چنګاه سفلی ","Polling_Center_Location":"Changah Sufla Village","Verification_Note":"Building","PS_Male":0,"PS_Female":2,"Map_Accuracy":"تعمیر"},"geometry":{"x":7631253.2672970854,"y":3940825.5881715119}},{"attributes":{"OBJECTID":4932,"ولایت":"غزنى","Province":"GHAZNI","PC_Code":"1108072","ولسوالي":"زنخان","District":"ZANAKHAN","د_مرکز_نوم__نام_مرکز":"مسجد السوالی","Polling_Center_Name":"District Mosque","د_مرکز_ځای__موقعیت_مرکز":" مر کز ولسوالی","Polling_Center_Location":"District Compound","Verification_Note":"Village","PS_Male":1,"PS_Female":1,"Map_Accuracy":"قریه"},"geometry":{"x":7637569.8925402611,"y":3986058.2695435137}},{"attributes":{"OBJECTID":4933,"ولایت":"غزنى","Province":"GHAZNI","PC_Code":"1109089","ولسوالي":"رشیدان","District":"RASHIDAN","د_مرکز_نوم__نام_مرکز":"مسجد گل جینا","Polling_Center_Name":"Gul Jeena Mosque","د_مرکز_ځای__موقعیت_مرکز":"گل جینا","Polling_Center_Location":"Gul Jeena","Verification_Note":"Village","PS_Male":2,"PS_Female":0,"Map_Accuracy":"قریه"},"geometry":{"x":7595501.0513793975,"y":3986635.34821555}},{"attributes":{"OBJECTID":4934,"ولایت":"غزنى","Province":"GHAZNI","PC_Code":"1110257","ولسوالي":"ناور","District":"NAWUR","د_مرکز_نوم__نام_مرکز":"مسجد کاکا دانا","Polling_Center_Name":"Kaka Dana Mosque","د_مرکز_ځای__موقعیت_مرکز":"قریه شینیه","Polling_Center_Location":"Shenia Village","Verification_Note":"Village","PS_Male":1,"PS_Female":1,"Map_Accuracy":"قریه"},"geometry":{"x":7591557.3947784007,"y":4022725.5091099739}},{"attributes":{"OBJECTID":4935,"ولایت":"غزنى","Province":"GHAZNI","PC_Code":"1110268","ولسوالي":"ناور","District":"NAWUR","د_مرکز_نوم__نام_مرکز":"مسجد جامع پیتاب محمدیار","Polling_Center_Name":"Petab Mohammad Yar Mosque","د_مرکز_ځای__موقعیت_مرکز":"قریه سنګ الماس","Polling_Center_Location":"Sang-e-Almas Village","Verification_Note":"Village","PS_Male":1,"PS_Female":1,"Map_Accuracy":"قریه"},"geometry":{"x":7505026.8510214947,"y":3987940.6485877931}},{"attributes":{"OBJECTID":4936,"ولایت":"غزنى","Province":"GHAZNI","PC_Code":"1110277","ولسوالي":"ناور","District":"NAWUR","د_مرکز_نوم__نام_مرکز":"مسجد قریه دهن نو","Polling_Center_Name":"Danhan-e-Naw Village Mosque","د_مرکز_ځای__موقعیت_مرکز":"قریه دهن نو تلخک ","Polling_Center_Location":"Danhan-e-Naw Talkhak Village","Verification_Note":"Village","PS_Male":1,"PS_Female":1,"Map_Accuracy":"قریه"},"geometry":{"x":7506310.6196719706,"y":4025000.876343675}},{"attributes":{"OBJECTID":4937,"ولایت":"غزنى","Province":"GHAZNI","PC_Code":"1110278","ولسوالي":"ناور","District":"NAWUR","د_مرکز_نوم__نام_مرکز":"مسجد قریه شیبار","Polling_Center_Name":"Shaibar Village Mosque","د_مرکز_ځای__موقعیت_مرکز":"قریه شیبار","Polling_Center_Location":"Shaibar Village","Verification_Note":"Building","PS_Male":3,"PS_Female":1,"Map_Accuracy":"تعمیر"},"geometry":{"x":7505548.740171425,"y":4037427.7136987448}},{"attributes":{"OBJECTID":4938,"ولایت":"غزنى","Province":"GHAZNI","PC_Code":"1111133","ولسوالي":"قره باغ","District":"QARA BAGH","د_مرکز_نوم__نام_مرکز":"مسجد عبد الخالق ","Polling_Center_Name":"Abdullah Khaliq Mosque","د_مرکز_ځای__موقعیت_مرکز":"قریه ګوډول ","Polling_Center_Location":"Godol Village","Verification_Note":"Building","PS_Male":0,"PS_Female":2,"Map_Accuracy":"تعمیر"},"geometry":{"x":7581294.5314352214,"y":3920804.2906631529}},{"attributes":{"OBJECTID":4939,"ولایت":"غزنى","Province":"GHAZNI","PC_Code":"1111144","ولسوالي":"قره باغ","District":"QARA BAGH","د_مرکز_نوم__نام_مرکز":"مسجد قریه نوروز خیل","Polling_Center_Name":"Nawrooz Khel Village Mosque","د_مرکز_ځای__موقعیت_مرکز":"قریه نوروز خیل ","Polling_Center_Location":"Nawrooz Khel Village","Verification_Note":"Building","PS_Male":2,"PS_Female":0,"Map_Accuracy":"تعمیر"},"geometry":{"x":7582170.293001242,"y":3911304.7706464455}},{"attributes":{"OBJECTID":4940,"ولایت":"غزنى","Province":"GHAZNI","PC_Code":"1111155","ولسوالي":"قره باغ","District":"QARA BAGH","د_مرکز_نوم__نام_مرکز":"مسجد پایین قریه خونیان","Polling_Center_Name":"Khonyan Village Lower Mosque","د_مرکز_ځای__موقعیت_مرکز":"قریه خونیان ","Polling_Center_Location":"Khonyan Village","Verification_Note":"Building","PS_Male":0,"PS_Female":2,"Map_Accuracy":"تعمیر"},"geometry":{"x":7574077.9738249965,"y":3915342.1575331837}},{"attributes":{"OBJECTID":4941,"ولایت":"غزنى","Province":"GHAZNI","PC_Code":"1111161","ولسوالي":"قره باغ","District":"QARA BAGH","د_مرکز_نوم__نام_مرکز":"مسجد کهنه بهادرګی","Polling_Center_Name":"Bahadoorgi Old Mosque","د_مرکز_ځای__موقعیت_مرکز":"قریه بهادورګی","Polling_Center_Location":"Bahadoorgi Village","Verification_Note":"Building","PS_Male":0,"PS_Female":2,"Map_Accuracy":"تعمیر"},"geometry":{"x":7575705.38908314,"y":3920205.5758637115}},{"attributes":{"OBJECTID":4942,"ولایت":"غزنى","Province":"GHAZNI","PC_Code":"1111172","ولسوالي":"قره باغ","District":"QARA BAGH","د_مرکز_نوم__نام_مرکز":"مکتب قلوچ","Polling_Center_Name":"Qolooch Mosque","د_مرکز_ځای__موقعیت_مرکز":"قریه سه ده قلوچ","Polling_Center_Location":"3 Deh Qolooch Village","Verification_Note":"Building","PS_Male":2,"PS_Female":0,"Map_Accuracy":"تعمیر"},"geometry":{"x":7564270.71889374,"y":3936657.1422391534}},{"attributes":{"OBJECTID":4943,"ولایت":"غزنى","Province":"GHAZNI","PC_Code":"1111181","ولسوالي":"قره باغ","District":"QARA BAGH","د_مرکز_نوم__نام_مرکز":"مکتب تاق جین","Polling_Center_Name":"Taq Cheen School","د_مرکز_ځای__موقعیت_مرکز":"قریه تاق چین ","Polling_Center_Location":"Taq Cheen Village","Verification_Note":"Village","PS_Male":0,"PS_Female":3,"Map_Accuracy":"قریه"},"geometry":{"x":7543808.2328101173,"y":3911019.9398266897}},{"attributes":{"OBJECTID":4944,"ولایت":"غزنى","Province":"GHAZNI","PC_Code":"1112197","ولسوالي":"گیرو","District":"GIRO","د_مرکز_نوم__نام_مرکز":"مکتب سراج المدارس","Polling_Center_Name":"Seraj-ul-Madaris School","د_مرکز_ځای__موقعیت_مرکز":"قریه پنه  مرکز ولیسوالی","Polling_Center_Location":"Pune Village, District Center","Verification_Note":"Building","PS_Male":0,"PS_Female":3,"Map_Accuracy":"تعمیر"},"geometry":{"x":7605047.4591402374,"y":3909736.5156079456}},{"attributes":{"OBJECTID":4945,"ولایت":"غزنى","Province":"GHAZNI","PC_Code":"1112204","ولسوالي":"گیرو","District":"GIRO","د_مرکز_نوم__نام_مرکز":"مکتب مالک بن قیس قریه ادریس خیل","Polling_Center_Name":"Malak Ibn Qais School","د_مرکز_ځای__موقعیت_مرکز":"قریه ادریس خیل ","Polling_Center_Location":"Idrees Khel Village ","Verification_Note":"Building","PS_Male":2,"PS_Female":0,"Map_Accuracy":"تعمیر"},"geometry":{"x":7601802.6273406073,"y":3900448.1574423537}},{"attributes":{"OBJECTID":4946,"ولایت":"غزنى","Province":"GHAZNI","PC_Code":"1112214","ولسوالي":"گیرو","District":"GIRO","د_مرکز_نوم__نام_مرکز":"مسجد قریه مزار","Polling_Center_Name":"Mazar Village Mosque","د_مرکز_ځای__موقعیت_مرکز":"قریه مزار","Polling_Center_Location":"Mazar Village","Verification_Note":"Building","PS_Male":0,"PS_Female":2,"Map_Accuracy":"تعمیر"},"geometry":{"x":7624580.8104147837,"y":3922782.8712855652}},{"attributes":{"OBJECTID":4947,"ولایت":"غزنى","Province":"GHAZNI","PC_Code":"1113372","ولسوالي":"آب بند","District":"AB BAND","د_مرکز_نوم__نام_مرکز":"مکتب عبیدالله","Polling_Center_Name":"Obaidullah School","د_مرکز_ځای__موقعیت_مرکز":"قطب الدین","Polling_Center_Location":"Qutbuddin","Verification_Note":"Village","PS_Male":2,"PS_Female":1,"Map_Accuracy":"قریه"},"geometry":{"x":7561818.9583159834,"y":3890884.7060440406}},{"attributes":{"OBJECTID":4948,"ولایت":"غزنى","Province":"GHAZNI","PC_Code":"1113383","ولسوالي":"آب بند","District":"AB BAND","د_مرکز_نوم__نام_مرکز":"حویلی  بچه","Polling_Center_Name":"Bacha House","د_مرکز_ځای__موقعیت_مرکز":"بزگی","Polling_Center_Location":"Bazgi","Verification_Note":"Village","PS_Male":0,"PS_Female":2,"Map_Accuracy":"قریه"},"geometry":{"x":7562874.2192213275,"y":3890735.7276207805}},{"attributes":{"OBJECTID":4949,"ولایت":"غزنى","Province":"GHAZNI","PC_Code":"1114329","ولسوالي":"جاغوری","District":"JAGHURI","د_مرکز_نوم__نام_مرکز":"لیسه داود","Polling_Center_Name":"Dawood High School","د_مرکز_ځای__موقعیت_مرکز":"قریه داوود ","Polling_Center_Location":"Dawood Village","Verification_Note":"Building","PS_Male":3,"PS_Female":2,"Map_Accuracy":"تعمیر"},"geometry":{"x":7522065.583714325,"y":3895280.0050623417}},{"attributes":{"OBJECTID":4950,"ولایت":"غزنى","Province":"GHAZNI","PC_Code":"1114340","ولسوالي":"جاغوری","District":"JAGHURI","د_مرکز_نوم__نام_مرکز":"مسجد عمومی قریه هیچه","Polling_Center_Name":"Hecha Village Mosque","د_مرکز_ځای__موقعیت_مرکز":"قریه پشت هیچه ","Polling_Center_Location":"Pusht-e-Hecha Village","Verification_Note":"Building","PS_Male":1,"PS_Female":2,"Map_Accuracy":"تعمیر"},"geometry":{"x":7482172.819299072,"y":3899901.6742466837}},{"attributes":{"OBJECTID":4951,"ولایت":"غزنى","Province":"GHAZNI","PC_Code":"1114349","ولسوالي":"جاغوری","District":"JAGHURI","د_مرکز_نوم__نام_مرکز":"مکتب متوسطه تبرغنک","Polling_Center_Name":"Tabar Ghanak Secondary School","د_مرکز_ځای__موقعیت_مرکز":"قریه تبرغنک","Polling_Center_Location":"Tabar Ghanak Village","Verification_Note":"Building","PS_Male":1,"PS_Female":1,"Map_Accuracy":"تعمیر"},"geometry":{"x":7510862.4402546585,"y":3921687.6538332477}},{"attributes":{"OBJECTID":4952,"ولایت":"غزنى","Province":"GHAZNI","PC_Code":"1115361","ولسوالي":"مقر","District":"MUQUR","د_مرکز_نوم__نام_مرکز":"مکتب قریه عالم خیل","Polling_Center_Name":"Alam Khel Village ","د_مرکز_ځای__موقعیت_مرکز":"قریه عالم خیل","Polling_Center_Location":"Alam Khel Village","Verification_Note":"Building","PS_Male":2,"PS_Female":1,"Map_Accuracy":"تعمیر"},"geometry":{"x":7553623.4493113533,"y":3873999.5130275339}},{"attributes":{"OBJECTID":4953,"ولایت":"غزنى","Province":"GHAZNI","PC_Code":"1116305","ولسوالي":"مالستان","District":"MALISTAN","د_مرکز_نوم__نام_مرکز":"لیسه ذکور کمرک","Polling_Center_Name":"Kamarak Boys High School","د_مرکز_ځای__موقعیت_مرکز":"قریه کمرک ","Polling_Center_Location":"Kamarak Village","Verification_Note":"Building","PS_Male":3,"PS_Female":2,"Map_Accuracy":"تعمیر"},"geometry":{"x":7514666.7248531878,"y":3943671.0709709823}},{"attributes":{"OBJECTID":4954,"ولایت":"غزنى","Province":"GHAZNI","PC_Code":"1116314","ولسوالي":"مالستان","District":"MALISTAN","د_مرکز_نوم__نام_مرکز":"مکتب ابتدائیه قریه قبجای","Polling_Center_Name":"Qabjay Village Primary School","د_مرکز_ځای__موقعیت_مرکز":"قریه قبجای ","Polling_Center_Location":"Qabjay Village ","Verification_Note":"Building","PS_Male":1,"PS_Female":1,"Map_Accuracy":"تعمیر"},"geometry":{"x":7477009.1155505069,"y":3914448.5485877842}},{"attributes":{"OBJECTID":4955,"ولایت":"غزنى","Province":"GHAZNI","PC_Code":"1117389","ولسوالي":"گیلان","District":"GELAN","د_مرکز_نوم__نام_مرکز":"مسجد قریه کوچال","Polling_Center_Name":"Kochal Village Mosque","د_مرکز_ځای__موقعیت_مرکز":"قریه کوچال","Polling_Center_Location":"Kochal Village","Verification_Note":"Building","PS_Male":2,"PS_Female":1,"Map_Accuracy":"تعمیر"},"geometry":{"x":7543686.225535024,"y":3840913.2497406676}},{"attributes":{"OBJECTID":4956,"ولایت":"پکتيکا","Province":"PAKTIKA","PC_Code":"1201026","ولسوالي":"شرن","District":"SHARAN","د_مرکز_نوم__نام_مرکز":"د عبدالله کور","Polling_Center_Name":"Abdullah House","د_مرکز_ځای__موقعیت_مرکز":"تاوه کچه کلی ","Polling_Center_Location":"Tawa Kacha Village","Verification_Note":"Village","PS_Male":2,"PS_Female":2,"Map_Accuracy":"قریه"},"geometry":{"x":7665863.7804984413,"y":3906853.6069532782}},{"attributes":{"OBJECTID":4957,"ولایت":"پکتيکا","Province":"PAKTIKA","PC_Code":"1201281","ولسوالي":"شرن","District":"SHARAN","د_مرکز_نوم__نام_مرکز":"علي بابا ابتداييه ښوونځی","Polling_Center_Name":"Ali Baba Primary School","د_مرکز_ځای__موقعیت_مرکز":"شرنه بازار","Polling_Center_Location":"Sharana Bazaar","Verification_Note":"Village","PS_Male":2,"PS_Female":0,"Map_Accuracy":"قریه"},"geometry":{"x":7663189.1716584563,"y":3913263.8423836753}},{"attributes":{"OBJECTID":4958,"ولایت":"پکتيکا","Province":"PAKTIKA","PC_Code":"1203040","ولسوالي":"یوسف خیل","District":"YOSUF KHEL","د_مرکز_نوم__نام_مرکز":"حاجی پتی میلمستون ","Polling_Center_Name":"Haji Pati Guest House","د_مرکز_ځای__موقعیت_مرکز":"یوسف خیل ","Polling_Center_Location":"Yousuf Khel","Verification_Note":"Village","PS_Male":0,"PS_Female":3,"Map_Accuracy":"قریه"},"geometry":{"x":7642372.9500817209,"y":3901744.7867971584}},{"attributes":{"OBJECTID":4959,"ولایت":"پکتيکا","Province":"PAKTIKA","PC_Code":"1206072","ولسوالي":"اومنه","District":"OMNA","د_مرکز_نوم__نام_مرکز":"د وکیل غمی کلی متوسطه","Polling_Center_Name":"Wakil Ghami Village Secondary School","د_مرکز_ځای__موقعیت_مرکز":" د وکیل غمی کلی","Polling_Center_Location":"Wakil Ghami Village","Verification_Note":"District","PS_Male":1,"PS_Female":1,"Map_Accuracy":"ولسوالی"},"geometry":{"x":7659402.59465133,"y":3885444.193135716}},{"attributes":{"OBJECTID":4960,"ولایت":"پکتيکا","Province":"PAKTIKA","PC_Code":"1207090","ولسوالي":"زرغون شهر ","District":"ZARGHUN SHAHR","د_مرکز_نوم__نام_مرکز":"صاحب جان کور","Polling_Center_Name":"Sahib Jan House","د_مرکز_ځای__موقعیت_مرکز":"پاینده خیل کلی ","Polling_Center_Location":"Payanda Khil Village","Verification_Note":"Village","PS_Male":0,"PS_Female":2,"Map_Accuracy":"قریه"},"geometry":{"x":7628993.3959179744,"y":3877313.6596015617}},{"attributes":{"OBJECTID":4961,"ولایت":"پکتيکا","Province":"PAKTIKA","PC_Code":"1208138","ولسوالي":"گومل","District":"GOMAL","د_مرکز_نوم__نام_مرکز":"گل میر جومات","Polling_Center_Name":"Gul Mir Mosque","د_مرکز_ځای__موقعیت_مرکز":"اﺳﭙینه","Polling_Center_Location":"Apsena","Verification_Note":"District","PS_Male":4,"PS_Female":0,"Map_Accuracy":"ولسوالی"},"geometry":{"x":7712846.73820395,"y":3759831.0377475247}},{"attributes":{"OBJECTID":4962,"ولایت":"پکتيکا","Province":"PAKTIKA","PC_Code":"1208292","ولسوالي":"گومل","District":"GOMAL","د_مرکز_نوم__نام_مرکز":"منځني ښوونځي شكين","Polling_Center_Name":"Shekin Secondary School","د_مرکز_ځای__موقعیت_مرکز":"شكين","Polling_Center_Location":"Shekin","Verification_Note":"Village","PS_Male":0,"PS_Female":2,"Map_Accuracy":"قریه"},"geometry":{"x":7703115.9992812946,"y":3827456.3940793648}},{"attributes":{"OBJECTID":4963,"ولایت":"پکتيکا","Province":"PAKTIKA","PC_Code":"1209120","ولسوالي":"جانی خیل","District":"JANI KHEL","د_مرکز_نوم__نام_مرکز":"جانی خیل ښوونځی","Polling_Center_Name":"Jani Khel School","د_مرکز_ځای__موقعیت_مرکز":"جانی خیل","Polling_Center_Location":"Jani Khel","Verification_Note":"Building","PS_Male":1,"PS_Female":1,"Map_Accuracy":"تعمیر"},"geometry":{"x":7614032.8389313743,"y":3864084.147680901}},{"attributes":{"OBJECTID":4964,"ولایت":"پکتيکا","Province":"PAKTIKA","PC_Code":"1210151","ولسوالي":"سروبی","District":"SURUBI","د_مرکز_نوم__نام_مرکز":"مادو دوکان","Polling_Center_Name":"Mado Shop","د_مرکز_ځای__موقعیت_مرکز":"ربات","Polling_Center_Location":"Robat","Verification_Note":"Building","PS_Male":2,"PS_Female":0,"Map_Accuracy":"تعمیر"},"geometry":{"x":7694581.2547038235,"y":3865681.6247740611}},{"attributes":{"OBJECTID":4965,"ولایت":"پکتيکا","Province":"PAKTIKA","PC_Code":"1211165","ولسوالي":"اورگون","District":"URGOON","د_مرکز_نوم__نام_مرکز":"میرا گل جومات","Polling_Center_Name":"Mera Gul Mosque","د_مرکز_ځای__موقعیت_مرکز":"میرا گل کلی","Polling_Center_Location":"Mera Gul Village","Verification_Note":"Village","PS_Male":2,"PS_Female":0,"Map_Accuracy":"قریه"},"geometry":{"x":7701799.7069717869,"y":3894776.2317666486}},{"attributes":{"OBJECTID":4966,"ولایت":"پکتيکا","Province":"PAKTIKA","PC_Code":"1211182","ولسوالي":"اورگون","District":"URGOON","د_مرکز_نوم__نام_مرکز":"علیم خان میلمستون","Polling_Center_Name":"Alim Khan Guest House","د_مرکز_ځای__موقعیت_مرکز":"گربوزی کلی","Polling_Center_Location":"Garbozi Village","Verification_Note":"Village","PS_Male":0,"PS_Female":3,"Map_Accuracy":"قریه"},"geometry":{"x":7711759.3293428719,"y":3895283.2610033751}},{"attributes":{"OBJECTID":4967,"ولایت":"پکتيکا","Province":"PAKTIKA","PC_Code":"1213203","ولسوالي":"نیکه","District":"NIKA","د_مرکز_نوم__نام_مرکز":"والسوالی مرکز","Polling_Center_Name":"District Center","د_مرکز_ځای__موقعیت_مرکز":"صادق خیل","Polling_Center_Location":"Sadiq Khel","Verification_Note":"Village","PS_Male":3,"PS_Female":0,"Map_Accuracy":"قریه"},"geometry":{"x":7709399.52868326,"y":3920278.3042082489}},{"attributes":{"OBJECTID":4968,"ولایت":"پکتيکا","Province":"PAKTIKA","PC_Code":"1214258","ولسوالي":"برمل","District":"BARMAL","د_مرکز_نوم__نام_مرکز":"مرغه خیمه","Polling_Center_Name":"Margha Tent","د_مرکز_ځای__موقعیت_مرکز":"مرغه کلی ","Polling_Center_Location":"Margha Village","Verification_Note":"Village","PS_Male":2,"PS_Female":3,"Map_Accuracy":"قریه"},"geometry":{"x":7717855.2625823505,"y":3866230.5676081777}},{"attributes":{"OBJECTID":4969,"ولایت":"پکتيکا","Province":"PAKTIKA","PC_Code":"1215272","ولسوالي":"گیان","District":"GIYAN","د_مرکز_نوم__نام_مرکز":"مرکز ولسوالی خیمه ","Polling_Center_Name":"District Compound Tent","د_مرکز_ځای__موقعیت_مرکز":"مرکز ولسوالی","Polling_Center_Location":"District Center","Verification_Note":"Village","PS_Male":4,"PS_Female":1,"Map_Accuracy":"قریه"},"geometry":{"x":7722604.1498331986,"y":3892410.6663594767}},{"attributes":{"OBJECTID":4970,"ولایت":"پکتيکا","Province":"PAKTIKA","PC_Code":"1215280","ولسوالي":"گیان","District":"GIYAN","د_مرکز_نوم__نام_مرکز":"ملاح فضل میلمستون","Polling_Center_Name":"Molla Fazel Guest House","د_مرکز_ځای__موقعیت_مرکز":"گیان ولسوالی مرکز","Polling_Center_Location":"Geyan District Center","Verification_Note":"Village","PS_Male":0,"PS_Female":3,"Map_Accuracy":"قریه"},"geometry":{"x":7722540.5429893509,"y":3892232.5119915605}},{"attributes":{"OBJECTID":4971,"ولایت":"پکتيکا","Province":"PAKTIKA","PC_Code":"1216215","ولسوالي":"دیله و خوش امند","District":"DILA WA KHUSHAMAND","د_مرکز_نوم__نام_مرکز":"اکبرجان دکان","Polling_Center_Name":"Akbar Khan Shop","د_مرکز_ځای__موقعیت_مرکز":"مرکز ولسوالی","Polling_Center_Location":"District Center","Verification_Note":"Village","PS_Male":3,"PS_Female":2,"Map_Accuracy":"قریه"},"geometry":{"x":7574243.0773277581,"y":3842384.634225741}},{"attributes":{"OBJECTID":4972,"ولایت":"پکتيا","Province":"PAKTYA","PC_Code":"1301016","ولسوالي":"گردیز","District":"GARDEZ","د_مرکز_نوم__نام_مرکز":"د محمد اجان خیمه","Polling_Center_Name":"Mohammad Ajan Tent","د_مرکز_ځای__موقعیت_مرکز":"کواښ ورسک","Polling_Center_Location":"Kwash Warsak","Verification_Note":"Village","PS_Male":2,"PS_Female":1,"Map_Accuracy":"قریه"},"geometry":{"x":7703525.2169652134,"y":3969909.7957455814}},{"attributes":{"OBJECTID":4973,"ولایت":"پکتيا","Province":"PAKTYA","PC_Code":"1301204","ولسوالي":"گردیز","District":"GARDEZ","د_مرکز_نوم__نام_مرکز":"دڅپړي مكتب","Polling_Center_Name":"Serraie School","د_مرکز_ځای__موقعیت_مرکز":"څپړي","Polling_Center_Location":"Serraie","Verification_Note":"Building","PS_Male":2,"PS_Female":1,"Map_Accuracy":"تعمیر"},"geometry":{"x":7705117.1895446479,"y":3984108.9284831733}},{"attributes":{"OBJECTID":4974,"ولایت":"پکتيا","Province":"PAKTYA","PC_Code":"1302218","ولسوالي":"احمد آبا","District":"AHMADABA","د_مرکز_نوم__نام_مرکز":"بورګي مكتب","Polling_Center_Name":"Boragay School","د_مرکز_ځای__موقعیت_مرکز":"د بورګيو كلي","Polling_Center_Location":"Boragieo Village","Verification_Note":"District","PS_Male":1,"PS_Female":1,"Map_Accuracy":"ولسوالی"},"geometry":{"x":7723760.620193176,"y":3997836.1793474928}},{"attributes":{"OBJECTID":4975,"ولایت":"پکتيا","Province":"PAKTYA","PC_Code":"1303096","ولسوالي":"زرمت","District":"ZURMAT","د_مرکز_نوم__نام_مرکز":"الوزو مکتب","Polling_Center_Name":"Alozo School","د_مرکز_ځای__موقعیت_مرکز":"الوزو کلا، سورکی","Polling_Center_Location":"Alozo Kala, Sorkai","Verification_Note":"Building","PS_Male":3,"PS_Female":0,"Map_Accuracy":"تعمیر"},"geometry":{"x":7682468.3638376,"y":3946215.2466901615}},{"attributes":{"OBJECTID":4976,"ولایت":"پکتيا","Province":"PAKTYA","PC_Code":"1303104","ولسوالي":"زرمت","District":"ZURMAT","د_مرکز_نوم__نام_مرکز":"د نیک نام مسجد","Polling_Center_Name":"Nek Naam Mosque","د_مرکز_ځای__موقعیت_مرکز":"ارمه نیک نام","Polling_Center_Location":"Arma Nek Naam","Verification_Note":"Village","PS_Male":2,"PS_Female":0,"Map_Accuracy":"قریه"},"geometry":{"x":7694242.8713930026,"y":3955924.8467798457}},{"attributes":{"OBJECTID":4977,"ولایت":"پکتيا","Province":"PAKTYA","PC_Code":"1306034","ولسوالي":"سید کرم","District":"SAYYID KARAM","د_مرکز_نوم__نام_مرکز":"د شیخانو مسجد","Polling_Center_Name":"Shekhano Mosque","د_مرکز_ځای__موقعیت_مرکز":"شیخان","Polling_Center_Location":"Shekhan","Verification_Note":"Building","PS_Male":3,"PS_Female":1,"Map_Accuracy":"تعمیر"},"geometry":{"x":7726193.1135934666,"y":3988414.9148843735}},{"attributes":{"OBJECTID":4978,"ولایت":"پکتيا","Province":"PAKTYA","PC_Code":"1307056","ولسوالي":"ځاځی اریوب","District":"JAJI ARYOB","د_مرکز_نوم__نام_مرکز":"د شاه محمد مسجد","Polling_Center_Name":"Shah Mohammad Mosque ","د_مرکز_ځای__موقعیت_مرکز":"مری خیل","Polling_Center_Location":"Mari Khel","Verification_Note":"Building","PS_Male":0,"PS_Female":4,"Map_Accuracy":"تعمیر"},"geometry":{"x":7757216.52207005,"y":4022358.0320054293}},{"attributes":{"OBJECTID":4979,"ولایت":"پکتيا","Province":"PAKTYA","PC_Code":"1307068","ولسوالي":"ځاځی اریوب","District":"JAJI ARYOB","د_مرکز_نوم__نام_مرکز":"د کڼه خیلو مکتب","Polling_Center_Name":"Kana Khel School","د_مرکز_ځای__موقعیت_مرکز":"کڼه خیل","Polling_Center_Location":"Kana Khel","Verification_Note":"Village","PS_Male":0,"PS_Female":4,"Map_Accuracy":"قریه"},"geometry":{"x":7761261.0853366852,"y":4020751.9185676277}},{"attributes":{"OBJECTID":4980,"ولایت":"پکتيا","Province":"PAKTYA","PC_Code":"1308133","ولسوالي":" لجه احمد خیل","District":"LAJA AHMAD KHEL","د_مرکز_نوم__نام_مرکز":"شوات کلینیک","Polling_Center_Name":"Showat Clinic","د_مرکز_ځای__موقعیت_مرکز":"شوات، احمدخیل","Polling_Center_Location":"Showat, Ahmad Khel ","Verification_Note":"Village","PS_Male":0,"PS_Female":2,"Map_Accuracy":"قریه"},"geometry":{"x":7746850.1371664256,"y":4006687.11691086}},{"attributes":{"OBJECTID":4981,"ولایت":"پکتيا","Province":"PAKTYA","PC_Code":"1309175","ولسوالي":"جانی خیل","District":"JANI KHEL","د_مرکز_نوم__نام_مرکز":"خیمه","Polling_Center_Name":"Tent","د_مرکز_ځای__موقعیت_مرکز":"اورگوړ","Polling_Center_Location":"Orgur","Verification_Note":"Village","PS_Male":0,"PS_Female":2,"Map_Accuracy":"قریه"},"geometry":{"x":7771478.272066392,"y":3967727.099799417}},{"attributes":{"OBJECTID":4982,"ولایت":"پکتيا","Province":"PAKTYA","PC_Code":"1309176","ولسوالي":"جانی خیل","District":"JANI KHEL","د_مرکز_نوم__نام_مرکز":"د منز الګاډی مسجد","Polling_Center_Name":"Manz Algadi Mosque","د_مرکز_ځای__موقعیت_مرکز":"بل خیل","Polling_Center_Location":"Bal Khel","Verification_Note":"Village","PS_Male":0,"PS_Female":2,"Map_Accuracy":"قریه"},"geometry":{"x":7771073.1481567435,"y":3968124.342183508}},{"attributes":{"OBJECTID":4983,"ولایت":"پکتيا","Province":"PAKTYA","PC_Code":"1310161","ولسوالي":"څمکنی","District":"SAMKANI","د_مرکز_نوم__نام_مرکز":"احمد جان دکانونه ","Polling_Center_Name":"Ahmad Jan Shops","د_مرکز_ځای__موقعیت_مرکز":"منګیاړ کلی","Polling_Center_Location":"Mangyaar Village","Verification_Note":"Village","PS_Male":0,"PS_Female":4,"Map_Accuracy":"قریه"},"geometry":{"x":7768690.1418360844,"y":4002249.4298148155}},{"attributes":{"OBJECTID":4984,"ولایت":"پکتيا","Province":"PAKTYA","PC_Code":"1311181","ولسوالي":"ډنډ پټان","District":"DAND PATAN","د_مرکز_نوم__نام_مرکز":"د درنګ متوسط مکتب ","Polling_Center_Name":"Darang Secondary School","د_مرکز_ځای__موقعیت_مرکز":"غونډی ځنګل","Polling_Center_Location":"Ghundai Jangal","Verification_Note":"Village","PS_Male":2,"PS_Female":1,"Map_Accuracy":"قریه"},"geometry":{"x":7781715.6900003552,"y":4012031.3711552694}},{"attributes":{"OBJECTID":4985,"ولایت":"پکتيا","Province":"PAKTYA","PC_Code":"1312151","ولسوالي":"لجه منګل","District":"LAJA MANGAL","د_مرکز_نوم__نام_مرکز":"خیرانی مسجد","Polling_Center_Name":"Khairani Mosque","د_مرکز_ځای__موقعیت_مرکز":"خیرانی، لجه منګل","Polling_Center_Location":"Khairani, Laja Mangal","Verification_Note":"Village","PS_Male":0,"PS_Female":2,"Map_Accuracy":"قریه"},"geometry":{"x":7759592.26256755,"y":3995926.5181597322}},{"attributes":{"OBJECTID":4986,"ولایت":"پکتيا","Province":"PAKTYA","PC_Code":"1313048","ولسوالي":"میرزکه","District":"MEERZAKA","د_مرکز_نوم__نام_مرکز":"د انډوام مدرسه","Polling_Center_Name":"Andwam Madrassa","د_مرکز_ځای__موقعیت_مرکز":"مینځ انډوام، میرزکه","Polling_Center_Location":"Maenz Andwam, Merzaka","Verification_Note":"Village","PS_Male":0,"PS_Female":2,"Map_Accuracy":"قریه"},"geometry":{"x":7741655.1036603712,"y":4002329.4361593574}},{"attributes":{"OBJECTID":4987,"ولایت":"خوست","Province":"KHOST","PC_Code":"1401005","ولسوالي":"خوست","District":"KHOST","د_مرکز_نوم__نام_مرکز":"د ملزيو جومات","Polling_Center_Name":"Malzayo Mosque","د_مرکز_ځای__موقعیت_مرکز":"شمل مليزى","Polling_Center_Location":"Shamal Malyzi","Verification_Note":"Building","PS_Male":1,"PS_Female":1,"Map_Accuracy":"تعمیر"},"geometry":{"x":7795298.06048397,"y":3938983.4636673853}},{"attributes":{"OBJECTID":4988,"ولایت":"خوست","Province":"KHOST","PC_Code":"1401006","ولسوالي":"خوست","District":"KHOST","د_مرکز_نوم__نام_مرکز":"د سيدالله هجره ","Polling_Center_Name":"Sayedullah Hojra","د_مرکز_ځای__موقعیت_مرکز":"شمل مليزى","Polling_Center_Location":"Shamal Malyzi","Verification_Note":"Building","PS_Male":1,"PS_Female":1,"Map_Accuracy":"تعمیر"},"geometry":{"x":7795204.1135129,"y":3938952.1556470096}},{"attributes":{"OBJECTID":4989,"ولایت":"خوست","Province":"KHOST","PC_Code":"1401015","ولسوالي":"خوست","District":"KHOST","د_مرکز_نوم__نام_مرکز":"د يعقوبيو اډې جومات","Polling_Center_Name":"Yaqoobi Adi Mosque","د_مرکز_ځای__موقعیت_مرکز":"خوست ښار متون يعقوبيو جومات","Polling_Center_Location":"Khost City, Maton","Verification_Note":"Building","PS_Male":2,"PS_Female":2,"Map_Accuracy":"تعمیر"},"geometry":{"x":7783801.9252377264,"y":3940576.4111210182}},{"attributes":{"OBJECTID":4990,"ولایت":"خوست","Province":"KHOST","PC_Code":"1401026","ولسوالي":"خوست","District":"KHOST","د_مرکز_نوم__نام_مرکز":"د تورغونډى مکتب\r\n","Polling_Center_Name":"Mosque and Senator Hojra","د_مرکز_ځای__موقعیت_مرکز":"متون ورده خيل","Polling_Center_Location":"Maton, Warda Khel  ","Verification_Note":"Building","PS_Male":1,"PS_Female":1,"Map_Accuracy":"تعمیر"},"geometry":{"x":7780514.84145746,"y":3935214.71758157}},{"attributes":{"OBJECTID":4991,"ولایت":"خوست","Province":"KHOST","PC_Code":"1401037","ولسوالي":"خوست","District":"KHOST","د_مرکز_نوم__نام_مرکز":"جومات مزغوره کلى","Polling_Center_Name":"Mosque","د_مرکز_ځای__موقعیت_مرکز":"مزغوره کلى","Polling_Center_Location":"Mazghora Village","Verification_Note":"Village","PS_Male":2,"PS_Female":1,"Map_Accuracy":"قریه"},"geometry":{"x":7779787.9147185385,"y":3953909.2440135404}},{"attributes":{"OBJECTID":4992,"ولایت":"خوست","Province":"KHOST","PC_Code":"1401162","ولسوالي":"خوست","District":"KHOST","د_مرکز_نوم__نام_مرکز":"خانې خوړ جومات","Polling_Center_Name":"Khani Khwar Mosque","د_مرکز_ځای__موقعیت_مرکز":"ډيري ","Polling_Center_Location":"Deri","Verification_Note":"Village","PS_Male":5,"PS_Female":5,"Map_Accuracy":"قریه"},"geometry":{"x":7782445.4593937881,"y":3946655.5356955826}},{"attributes":{"OBJECTID":4993,"ولایت":"خوست","Province":"KHOST","PC_Code":"1403149","ولسوالي":"گربز","District":"GURBUZ","د_مرکز_نوم__نام_مرکز":"د زکيم شاه جومات","Polling_Center_Name":"Zakim Shah Mosque","د_مرکز_ځای__موقعیت_مرکز":"شيخ امير","Polling_Center_Location":"Sheikh Amir","Verification_Note":"Building","PS_Male":3,"PS_Female":1,"Map_Accuracy":"تعمیر"},"geometry":{"x":7782516.8619415723,"y":3933451.6199781075}},{"attributes":{"OBJECTID":4994,"ولایت":"خوست","Province":"KHOST","PC_Code":"1404136","ولسوالي":"تڼي","District":"TANAY","د_مرکز_نوم__نام_مرکز":"سلام خان کور او هجره ","Polling_Center_Name":"Salam Khan House","د_مرکز_ځای__موقعیت_مرکز":" پيران کلى","Polling_Center_Location":"Peeran Village","Verification_Note":"Village","PS_Male":2,"PS_Female":2,"Map_Accuracy":"قریه"},"geometry":{"x":7777654.3007926941,"y":3932862.7152741104}},{"attributes":{"OBJECTID":4995,"ولایت":"خوست","Province":"KHOST","PC_Code":"1405068","ولسوالي":"موسی خیل","District":"MUSA KHEL","د_مرکز_نوم__نام_مرکز":"د حاجي قاسم هجره","Polling_Center_Name":"Haji Qaseem Hojra","د_مرکز_ځای__موقعیت_مرکز":" پوړيخيل","Polling_Center_Location":"Pori Khel","Verification_Note":"Village","PS_Male":1,"PS_Female":1,"Map_Accuracy":"قریه"},"geometry":{"x":7758553.2131196521,"y":3968594.6449416429}},{"attributes":{"OBJECTID":4996,"ولایت":"خوست","Province":"KHOST","PC_Code":"1405078","ولسوالي":"موسی خیل","District":"MUSA KHEL","د_مرکز_نوم__نام_مرکز":"سردارخان ترکې جومات ","Polling_Center_Name":"Sardar Khan Turky Mosque","د_مرکز_ځای__موقعیت_مرکز":"ترکې کلي","Polling_Center_Location":"Turky Village","Verification_Note":"Village","PS_Male":4,"PS_Female":1,"Map_Accuracy":"قریه"},"geometry":{"x":7761408.3142688163,"y":3968813.1920736656}},{"attributes":{"OBJECTID":4997,"ولایت":"خوست","Province":"KHOST","PC_Code":"1406124","ولسوالي":"نادرشاه کوت","District":"NADIRSHAH KOT","د_مرکز_نوم__نام_مرکز":"د حراسپان کلی ښوونځى","Polling_Center_Name":"Haraspan Village School","د_مرکز_ځای__موقعیت_مرکز":"حراسپان کلي","Polling_Center_Location":"Haraspan Village","Verification_Note":"Building","PS_Male":2,"PS_Female":1,"Map_Accuracy":"تعمیر"},"geometry":{"x":7752431.82222582,"y":3949535.4519254044}},{"attributes":{"OBJECTID":4998,"ولایت":"خوست","Province":"KHOST","PC_Code":"1408052","ولسوالي":"علی شیر","District":"ALI SHER","د_مرکز_نوم__نام_مرکز":"د کابل کلي ستر جومات","Polling_Center_Name":"Kabul Village Big Mosque","د_مرکز_ځای__موقعیت_مرکز":" کابل کلى","Polling_Center_Location":"Kabul Village","Verification_Note":"Building","PS_Male":3,"PS_Female":2,"Map_Accuracy":"تعمیر"},"geometry":{"x":7801183.8748449944,"y":3957168.3333483785}},{"attributes":{"OBJECTID":4999,"ولایت":"خوست","Province":"KHOST","PC_Code":"1408165","ولسوالي":"علی شیر","District":"ALI SHER","د_مرکز_نوم__نام_مرکز":"چرګوتى جومات","Polling_Center_Name":"Chargoti Mosque","د_مرکز_ځای__موقعیت_مرکز":"چرګوټى","Polling_Center_Location":"Chargoti","Verification_Note":"District","PS_Male":3,"PS_Female":3,"Map_Accuracy":"ولسوالی"},"geometry":{"x":7804488.8113772795,"y":3954189.5354026332}}]}