{"objectIdFieldName":"OBJECTID","globalIdFieldName":"","geometryType":"esriGeometryPoint","spatialReference":{"wkid":102100,"latestWkid":3857},"fields":[{"name":"OBJECTID","type":"esriFieldTypeOID","alias":"OBJECTID","sqlType":"sqlTypeOther","domain":null,"defaultValue":null},{"name":"ولایت","type":"esriFieldTypeString","alias":"ولایت","sqlType":"sqlTypeOther","length":255,"domain":null,"defaultValue":null},{"name":"Province","type":"esriFieldTypeString","alias":"Province","sqlType":"sqlTypeOther","length":255,"domain":null,"defaultValue":null},{"name":"PC_Code","type":"esriFieldTypeString","alias":"PC_Code","sqlType":"sqlTypeOther","length":255,"domain":null,"defaultValue":null},{"name":"ولسوالي","type":"esriFieldTypeString","alias":"ولسوالي","sqlType":"sqlTypeOther","length":255,"domain":null,"defaultValue":null},{"name":"District","type":"esriFieldTypeString","alias":"District","sqlType":"sqlTypeOther","length":255,"domain":null,"defaultValue":null},{"name":"د_مرکز_نوم__نام_مرکز","type":"esriFieldTypeString","alias":"د_مرکز_نوم__نام_مرکز","sqlType":"sqlTypeOther","length":255,"domain":null,"defaultValue":null},{"name":"Polling_Center_Name","type":"esriFieldTypeString","alias":"Polling_Center_Name","sqlType":"sqlTypeOther","length":255,"domain":null,"defaultValue":null},{"name":"د_مرکز_ځای__موقعیت_مرکز","type":"esriFieldTypeString","alias":"د_مرکز_ځای__موقعیت_مرکز","sqlType":"sqlTypeOther","length":255,"domain":null,"defaultValue":null},{"name":"Polling_Center_Location","type":"esriFieldTypeString","alias":"Polling_Center_Location","sqlType":"sqlTypeOther","length":255,"domain":null,"defaultValue":null},{"name":"Verification_Note","type":"esriFieldTypeString","alias":"Verification_Note","sqlType":"sqlTypeOther","length":250,"domain":null,"defaultValue":null},{"name":"PS_Male","type":"esriFieldTypeSmallInteger","alias":"PS_Male","sqlType":"sqlTypeOther","domain":null,"defaultValue":null},{"name":"PS_Female","type":"esriFieldTypeSmallInteger","alias":"PS_Female","sqlType":"sqlTypeOther","domain":null,"defaultValue":null},{"name":"Map_Accuracy","type":"esriFieldTypeString","alias":"Map_Accuracy","sqlType":"sqlTypeOther","length":10,"domain":null,"defaultValue":null}],"features":[{"attributes":{"OBJECTID":5600,"ولایت":"بلخ","Province":"BALKH","PC_Code":"2101015","ولسوالي":"مزار شریف","District":"MAZAR-E-SHARIF","د_مرکز_نوم__نام_مرکز":"مکتب قاضی حمید الدین","Polling_Center_Name":"Qazi Hamiduddin School","د_مرکز_ځای__موقعیت_مرکز":"ناحیه چهارم","Polling_Center_Location":"D04 - Nahia 4","Verification_Note":"Building","PS_Male":4,"PS_Female":3,"Map_Accuracy":"تعمیر"},"geometry":{"x":7468454.3607379645,"y":4398237.0520329028}},{"attributes":{"OBJECTID":5601,"ولایت":"بلخ","Province":"BALKH","PC_Code":"2101035","ولسوالي":"مزار شریف","District":"MAZAR-E-SHARIF","د_مرکز_نوم__نام_مرکز":"مکتب هدایت الله نقشبندی ","Polling_Center_Name":"Hidayatullah Naqshbandi School","د_مرکز_ځای__موقعیت_مرکز":"کارته نو بهار ناحیه هشتم ","Polling_Center_Location":"D08 - Nahia 8 Kart-e-Naw","Verification_Note":"Building","PS_Male":3,"PS_Female":2,"Map_Accuracy":"تعمیر"},"geometry":{"x":7470496.26187494,"y":4401718.4882901162}},{"attributes":{"OBJECTID":5602,"ولایت":"بلخ","Province":"BALKH","PC_Code":"2104277","ولسوالي":"چارکنت","District":"CHAR KENT","د_مرکز_نوم__نام_مرکز":"مکتب شور بلاق","Polling_Center_Name":"Shor Balaq School","د_مرکز_ځای__موقعیت_مرکز":"قریه شور بلاق","Polling_Center_Location":"Shor Balaq Village","Verification_Note":"Village","PS_Male":2,"PS_Female":1,"Map_Accuracy":"قریه"},"geometry":{"x":7471331.6066734344,"y":4366098.4587076008}},{"attributes":{"OBJECTID":5603,"ولایت":"بلخ","Province":"BALKH","PC_Code":"2106154","ولسوالي":"بلخ","District":"BALKH","د_مرکز_نوم__نام_مرکز":"مکتب حاجی کوت","Polling_Center_Name":"Haji Kot School","د_مرکز_ځای__موقعیت_مرکز":"قریه حاجی کوت","Polling_Center_Location":"Haji Kot Village","Verification_Note":"Building","PS_Male":2,"PS_Female":1,"Map_Accuracy":"تعمیر"},"geometry":{"x":7449240.3427810967,"y":4403449.20598878}},{"attributes":{"OBJECTID":5604,"ولایت":"بلخ","Province":"BALKH","PC_Code":"2106320","ولسوالي":"بلخ","District":"BALKH","د_مرکز_نوم__نام_مرکز":"مکتب کته خیل","Polling_Center_Name":"Kata Khel School","د_مرکز_ځای__موقعیت_مرکز":"کته خیل","Polling_Center_Location":"Kata Khel","Verification_Note":"Building","PS_Male":2,"PS_Female":2,"Map_Accuracy":"تعمیر"},"geometry":{"x":7441648.9891432934,"y":4408261.9571219534}},{"attributes":{"OBJECTID":5605,"ولایت":"بلخ","Province":"BALKH","PC_Code":"2109121","ولسوالي":"دولت آباد","District":"DAWLAT ABAD","د_مرکز_نوم__نام_مرکز":"لیسه ابو نصر فارابی","Polling_Center_Name":"Abu Nasr Farabi High School","د_مرکز_ځای__موقعیت_مرکز":"مرکز دولت آباد","Polling_Center_Location":"Dawlat Abad Center","Verification_Note":"Building","PS_Male":1,"PS_Female":1,"Map_Accuracy":"تعمیر"},"geometry":{"x":7437307.07815842,"y":4437937.3479695991}},{"attributes":{"OBJECTID":5606,"ولایت":"بلخ","Province":"BALKH","PC_Code":"2109143","ولسوالي":"دولت آباد","District":"DAWLAT ABAD","د_مرکز_نوم__نام_مرکز":"مسجد باغشور","Polling_Center_Name":"Baghshor Mosque","د_مرکز_ځای__موقعیت_مرکز":"قریه باغشور","Polling_Center_Location":"Baghshor Village","Verification_Note":"Building","PS_Male":1,"PS_Female":1,"Map_Accuracy":"تعمیر"},"geometry":{"x":7439618.4348020181,"y":4428883.868575871}},{"attributes":{"OBJECTID":5607,"ولایت":"بلخ","Province":"BALKH","PC_Code":"2110093","ولسوالي":"خلم","District":"KHULM","د_مرکز_نوم__نام_مرکز":"کلینیک حاجی علی","Polling_Center_Name":"Haji Ali Clinic","د_مرکز_ځای__موقعیت_مرکز":"قریه حاجی علی","Polling_Center_Location":"Haji Ali Village","Verification_Note":"Building","PS_Male":1,"PS_Female":1,"Map_Accuracy":"تعمیر"},"geometry":{"x":7546131.619751092,"y":4398548.6692356765}},{"attributes":{"OBJECTID":5608,"ولایت":"بلخ","Province":"BALKH","PC_Code":"2111194","ولسوالي":"چار بولک","District":"CHAR BOLAK","د_مرکز_نوم__نام_مرکز":"مکتب یلمان","Polling_Center_Name":"Yalman School","د_مرکز_ځای__موقعیت_مرکز":"قریه یلمان","Polling_Center_Location":"Yalman Village","Verification_Note":"Building","PS_Male":2,"PS_Female":1,"Map_Accuracy":"تعمیر"},"geometry":{"x":7434642.304395441,"y":4401500.9863308594}},{"attributes":{"OBJECTID":5609,"ولایت":"بلخ","Province":"BALKH","PC_Code":"2112113","ولسوالي":"شور تیپه","District":"SHORTEPA","د_مرکز_نوم__نام_مرکز":"مکتب دالی","Polling_Center_Name":"Dali School","د_مرکز_ځای__موقعیت_مرکز":"قریه دالی","Polling_Center_Location":"Dali Village","Verification_Note":"Building","PS_Male":3,"PS_Female":1,"Map_Accuracy":"تعمیر"},"geometry":{"x":7416134.159990117,"y":4482701.8562594131}},{"attributes":{"OBJECTID":5610,"ولایت":"بلخ","Province":"BALKH","PC_Code":"2114294","ولسوالي":"کشنده","District":"KISHINDEH","د_مرکز_نوم__نام_مرکز":"مکتب یرغان","Polling_Center_Name":"Yarghan School","د_مرکز_ځای__موقعیت_مرکز":"قریه یرغان","Polling_Center_Location":"Yarghan Village","Verification_Note":"Building","PS_Male":2,"PS_Female":1,"Map_Accuracy":"تعمیر"},"geometry":{"x":7445938.5354397,"y":4269138.7050838992}},{"attributes":{"OBJECTID":5611,"ولایت":"بلخ","Province":"BALKH","PC_Code":"2115316","ولسوالي":"زاری","District":"ZARI","د_مرکز_نوم__نام_مرکز":"مسجد کلان بلوچ","Polling_Center_Name":"Baloch Mosque","د_مرکز_ځای__موقعیت_مرکز":"قشلاق کلان بلوچ","Polling_Center_Location":"Qashlaq Kalan Baloch","Verification_Note":"Building","PS_Male":1,"PS_Female":1,"Map_Accuracy":"تعمیر"},"geometry":{"x":7434791.6461715139,"y":4305743.4521933943}},{"attributes":{"OBJECTID":5612,"ولایت":"سرپل","Province":"SAR-E-PUL","PC_Code":"2202050","ولسوالي":"صیاد","District":"SAYAD","د_مرکز_نوم__نام_مرکز":"مسجد قریه قفلاتون","Polling_Center_Name":"Quflatoon Village Mosque","د_مرکز_ځای__موقعیت_مرکز":"قریه قفلاتون","Polling_Center_Location":"Quflatoon Village","Verification_Note":"Building","PS_Male":2,"PS_Female":1,"Map_Accuracy":"تعمیر"},"geometry":{"x":7328492.8592221253,"y":4309446.18107757}},{"attributes":{"OBJECTID":5613,"ولایت":"سرپل","Province":"SAR-E-PUL","PC_Code":"2205112","ولسوالي":"سنگ چارک","District":"SANG CHARAK","د_مرکز_نوم__نام_مرکز":"مدرسه قریه آق پی","Polling_Center_Name":"Aaq Pai Village Madrassa","د_مرکز_ځای__موقعیت_مرکز":"قریه آق پی","Polling_Center_Location":"Aaq Pai Village","Verification_Note":"Building","PS_Male":1,"PS_Female":1,"Map_Accuracy":"تعمیر"},"geometry":{"x":7398551.3788895123,"y":4284740.6822862327}},{"attributes":{"OBJECTID":5614,"ولایت":"سرپل","Province":"SAR-E-PUL","PC_Code":"2206133","ولسوالي":"گوسفندی ","District":"GOSFANDI","د_مرکز_نوم__نام_مرکز":"مسجد حاجی سرور","Polling_Center_Name":"Haji Sarwar Mosque","د_مرکز_ځای__موقعیت_مرکز":"قریه صیاد علیا","Polling_Center_Location":"Sayad Ulya Village","Verification_Note":"Building","PS_Male":2,"PS_Female":1,"Map_Accuracy":"تعمیر"},"geometry":{"x":7413315.7820277661,"y":4287733.0880235508}},{"attributes":{"OBJECTID":5615,"ولایت":"غور","Province":"GHOR","PC_Code":"2301004","ولسوالي":"چغچران","District":"CHIGHCHERAN","د_مرکز_نوم__نام_مرکز":"مسجد جامع شیخ المند","Polling_Center_Name":"Shekh-ul-Mond Mosque","د_مرکز_ځای__موقعیت_مرکز":"شیخ المند","Polling_Center_Location":"Shekh-ul-Mond","Verification_Note":"Building","PS_Male":2,"PS_Female":2,"Map_Accuracy":"تعمیر"},"geometry":{"x":7268954.924217023,"y":4092227.7182814777}},{"attributes":{"OBJECTID":5616,"ولایت":"غور","Province":"GHOR","PC_Code":"2301027","ولسوالي":"چغچران","District":"CHIGHCHERAN","د_مرکز_نوم__نام_مرکز":"مسجد بهاری سفلی","Polling_Center_Name":"Bahari Sufla Mosque","د_مرکز_ځای__موقعیت_مرکز":" بهاری سفلی","Polling_Center_Location":"Bahari Sufla","Verification_Note":"Building","PS_Male":2,"PS_Female":2,"Map_Accuracy":"تعمیر"},"geometry":{"x":7256169.9664154239,"y":4090622.0312838256}},{"attributes":{"OBJECTID":5617,"ولایت":"غور","Province":"GHOR","PC_Code":"2302099","ولسوالي":"دولینه","District":"DULEENA","د_مرکز_نوم__نام_مرکز":"مسجد جامع شهیدان","Polling_Center_Name":"Shaheedan Mosque","د_مرکز_ځای__موقعیت_مرکز":" شهیدان","Polling_Center_Location":"Shaheedan","Verification_Note":"Village","PS_Male":1,"PS_Female":1,"Map_Accuracy":"قریه"},"geometry":{"x":7201426.92478032,"y":4035488.8206218407}},{"attributes":{"OBJECTID":5618,"ولایت":"غور","Province":"GHOR","PC_Code":"2303056","ولسوالي":"دولت یار ","District":"DAWLATYAR","د_مرکز_نوم__نام_مرکز":"بازار ده مرده","Polling_Center_Name":"Deh Morda Bazar","د_مرکز_ځای__موقعیت_مرکز":" ده مرده","Polling_Center_Location":"Deh Morda","Verification_Note":"Building","PS_Male":1,"PS_Female":1,"Map_Accuracy":"تعمیر"},"geometry":{"x":7323055.5377311669,"y":4104076.61035984}},{"attributes":{"OBJECTID":5619,"ولایت":"غور","Province":"GHOR","PC_Code":"2305117","ولسوالي":"پسابند ","District":"PASABAND","د_مرکز_نوم__نام_مرکز":"مکتب اسپی بز","Polling_Center_Name":"Aspi Boz School","د_مرکز_ځای__موقعیت_مرکز":" اسپی بز","Polling_Center_Location":"Aspi Boz","Verification_Note":"Village","PS_Male":1,"PS_Female":1,"Map_Accuracy":"قریه"},"geometry":{"x":7280863.738626752,"y":3980939.0261020064}},{"attributes":{"OBJECTID":5620,"ولایت":"غور","Province":"GHOR","PC_Code":"2306072","ولسوالي":"شهرک ","District":"SHAHRAK","د_مرکز_نوم__نام_مرکز":"لیسه مر کز شهرک","Polling_Center_Name":"Markaz Shahrak High School","د_مرکز_ځای__موقعیت_مرکز":" مرکز شهرک","Polling_Center_Location":"Markaz Shahrak","Verification_Note":"Building","PS_Male":2,"PS_Female":1,"Map_Accuracy":"تعمیر"},"geometry":{"x":7158995.5249435045,"y":4043331.3156243563}},{"attributes":{"OBJECTID":5621,"ولایت":"غور","Province":"GHOR","PC_Code":"2306073","ولسوالي":"شهرک ","District":"SHAHRAK","د_مرکز_نوم__نام_مرکز":"مکتب اوشان","Polling_Center_Name":"Oshan School","د_مرکز_ځای__موقعیت_مرکز":"دهنه دوتایی","Polling_Center_Location":"Dotaye Dahna","Verification_Note":"Building","PS_Male":2,"PS_Female":1,"Map_Accuracy":"تعمیر"},"geometry":{"x":7180450.6925675161,"y":4043187.0146166012}},{"attributes":{"OBJECTID":5622,"ولایت":"غور","Province":"GHOR","PC_Code":"2306097","ولسوالي":"شهرک ","District":"SHAHRAK","د_مرکز_نوم__نام_مرکز":"مکتب ابتدای دهنه مناره ","Polling_Center_Name":"Dahn Manara Primary School","د_مرکز_ځای__موقعیت_مرکز":" سیا خاک ","Polling_Center_Location":"Siya Khak","Verification_Note":"Village","PS_Male":1,"PS_Female":1,"Map_Accuracy":"قریه"},"geometry":{"x":7181304.0722367167,"y":4043433.3801481947}},{"attributes":{"OBJECTID":5623,"ولایت":"غور","Province":"GHOR","PC_Code":"2307157","ولسوالي":"لعل و سرجنگل ","District":"LAL WA SARJANGAL","د_مرکز_نوم__نام_مرکز":"مسجد قلعه شهر","Polling_Center_Name":"Qala Shahr Mosque","د_مرکز_ځای__موقعیت_مرکز":"قلعه شهر علیا","Polling_Center_Location":"Shah-e-Ulya Qala","Verification_Note":"Village","PS_Male":1,"PS_Female":1,"Map_Accuracy":"قریه"},"geometry":{"x":7389483.9176718295,"y":4115689.1705634445}},{"attributes":{"OBJECTID":5624,"ولایت":"غور","Province":"GHOR","PC_Code":"2307176","ولسوالي":"لعل و سرجنگل ","District":"LAL WA SARJANGAL","د_مرکز_نوم__نام_مرکز":"مکتب آب باریک","Polling_Center_Name":"Aab Bareek School","د_مرکز_ځای__موقعیت_مرکز":" قریه آب باریک","Polling_Center_Location":"Aab Bareek Village","Verification_Note":"Building","PS_Male":1,"PS_Female":1,"Map_Accuracy":"تعمیر"},"geometry":{"x":7375215.5742220618,"y":4116341.3408354968}},{"attributes":{"OBJECTID":5625,"ولایت":"کابل","Province":"KABUL","PC_Code":"0101007","ولسوالي":"کابل - ناحیه 01","District":"KABUL-D01","د_مرکز_نوم__نام_مرکز":" مکتب متوسطه مستوری غوری","Polling_Center_Name":"Mastori Ghori Secondary School","د_مرکز_ځای__موقعیت_مرکز":"باباي خودي","Polling_Center_Location":"Babaie Khudi","Verification_Note":"Building","PS_Male":3,"PS_Female":2,"Map_Accuracy":"تعمیر"},"geometry":{"x":7700896.0899295844,"y":4097833.7504175827}},{"attributes":{"OBJECTID":5626,"ولایت":"کابل","Province":"KABUL","PC_Code":"0101046","ولسوالي":"کابل - ناحیه 03","District":"KABUL-D03","د_مرکز_نوم__نام_مرکز":" وزارت تحصيلات عالي","Polling_Center_Name":"Ministry of Higher Education","د_مرکز_ځای__موقعیت_مرکز":"کارته چهار","Polling_Center_Location":"Kart-e-Chahar","Verification_Note":"Building","PS_Male":3,"PS_Female":3,"Map_Accuracy":"تعمیر"},"geometry":{"x":7696370.2123542279,"y":4097789.5011223778}},{"attributes":{"OBJECTID":5627,"ولایت":"کابل","Province":"KABUL","PC_Code":"0101065","ولسوالي":"کابل - ناحیه 04","District":"KABUL-D04","د_مرکز_نوم__نام_مرکز":" ليسه محمد علم فيض زاد","Polling_Center_Name":"Mohammad Alam Faizzad High School","د_مرکز_ځای__موقعیت_مرکز":"شهرارا","Polling_Center_Location":"Shahrara","Verification_Note":"Building","PS_Male":4,"PS_Female":3,"Map_Accuracy":"تعمیر"},"geometry":{"x":7698678.6591063365,"y":4100758.5317351744}},{"attributes":{"OBJECTID":5628,"ولایت":"کابل","Province":"KABUL","PC_Code":"0101144","ولسوالي":"کابل - ناحیه 07","District":"KABUL-D07","د_مرکز_نوم__نام_مرکز":" مسجد جامع ابراهیم خلیل","Polling_Center_Name":"Ibrahim Khalil Mosque","د_مرکز_ځای__موقعیت_مرکز":"دوغ آباد شش درک","Polling_Center_Location":"Dugh Abad Shashdarak","Verification_Note":"Village","PS_Male":3,"PS_Female":1,"Map_Accuracy":"قریه"},"geometry":{"x":7698946.8533631414,"y":4091009.6736230478}},{"attributes":{"OBJECTID":5629,"ولایت":"کابل","Province":"KABUL","PC_Code":"0101266","ولسوالي":"کابل - ناحیه 13","District":"KABUL-D13","د_مرکز_نوم__نام_مرکز":" مسجد امام زمان","Polling_Center_Name":"Imam Zaman Mosque","د_مرکز_ځای__موقعیت_مرکز":"حصه اول دوغ آباد","Polling_Center_Location":"Hesa-e-Awal Dogh Abad","Verification_Note":"Building","PS_Male":2,"PS_Female":1,"Map_Accuracy":"تعمیر"},"geometry":{"x":7689197.01925163,"y":4095259.0750084072}},{"attributes":{"OBJECTID":5630,"ولایت":"کاپيسا","Province":"KAPISA","PC_Code":"0203074","ولسوالي":"کوه بند","District":"KOH BAND","د_مرکز_نوم__نام_مرکز":"لیسه عبدالباقی شهید ","Polling_Center_Name":"Abdul Baqi shaheed High School ","د_مرکز_ځای__موقعیت_مرکز":"شاورق بولغین","Polling_Center_Location":"Shawrq Bolghen","Verification_Note":"Building","PS_Male":2,"PS_Female":1,"Map_Accuracy":"تعمیر"},"geometry":{"x":7731278.5575136207,"y":4179998.6488405392}},{"attributes":{"OBJECTID":5631,"ولایت":"پروان","Province":"PARWAN","PC_Code":"0301034","ولسوالي":"چاریکار","District":"CHARIKAR","د_مرکز_نوم__نام_مرکز":"مکتب برک ","Polling_Center_Name":"Barak School","د_مرکز_ځای__موقعیت_مرکز":"پارچه 13 شهر چهاریکار","Polling_Center_Location":"Parcha 13, Charikar City ","Verification_Note":"Building","PS_Male":3,"PS_Female":1,"Map_Accuracy":"تعمیر"},"geometry":{"x":7700873.226019375,"y":4169300.0553937554}},{"attributes":{"OBJECTID":5632,"ولایت":"پروان","Province":"PARWAN","PC_Code":"0304044","ولسوالي":"سیدخیل ","District":"SAYID KHIAL","د_مرکز_نوم__نام_مرکز":"لیسه نسوان هیبت خیل","Polling_Center_Name":"Haibat Khel Girls High School","د_مرکز_ځای__موقعیت_مرکز":"هیبت خیل","Polling_Center_Location":"Haibat Khel","Verification_Note":"Building","PS_Male":2,"PS_Female":1,"Map_Accuracy":"تعمیر"},"geometry":{"x":7709781.9500959516,"y":4173276.0538685992}},{"attributes":{"OBJECTID":5633,"ولایت":"پروان","Province":"PARWAN","PC_Code":"0305054","ولسوالي":"جبل السراج","District":"JABULUSSARAJ","د_مرکز_نوم__نام_مرکز":"مکتب خالد بن ولید ","Polling_Center_Name":"Khalid Ibne Wlid School ","د_مرکز_ځای__موقعیت_مرکز":"قریه ده میر خان","Polling_Center_Location":"Deh Mir Khan Village ","Verification_Note":"Building","PS_Male":3,"PS_Female":1,"Map_Accuracy":"تعمیر"},"geometry":{"x":7707168.5970321745,"y":4180437.5424453989}},{"attributes":{"OBJECTID":5634,"ولایت":"ننگرهار","Province":"NANGARHAR","PC_Code":"0615381","ولسوالي":"اچین","District":"ACHIN","د_مرکز_نوم__نام_مرکز":"بر اکبر خيل میاجی جومات","Polling_Center_Name":"Bar Akbar Khel Miyaji Mosque","د_مرکز_ځای__موقعیت_مرکز":"برعبدلخيل","Polling_Center_Location":"Bar Abdul Khel","Verification_Note":"Village","PS_Male":0,"PS_Female":2,"Map_Accuracy":"قریه"},"geometry":{"x":7870437.6681398228,"y":4035517.6074236408}},{"attributes":{"OBJECTID":5635,"ولایت":"ننگرهار","Province":"NANGARHAR","PC_Code":"0615382","ولسوالي":"اچین","District":"ACHIN","د_مرکز_نوم__نام_مرکز":"کړوکو خالی میدان","Polling_Center_Name":"Open Space","د_مرکز_ځای__موقعیت_مرکز":"ګړوکو","Polling_Center_Location":"Garoko","Verification_Note":"District","PS_Male":3,"PS_Female":0,"Map_Accuracy":"ولسوالی"},"geometry":{"x":7872148.5262618773,"y":4041136.7815141305}},{"attributes":{"OBJECTID":5636,"ولایت":"پنجشیر","Province":"PANJSHIR","PC_Code":"0802022","ولسوالي":"رخه","District":"RUKHA","د_مرکز_نوم__نام_مرکز":"شفاخانه رخه ","Polling_Center_Name":"Rukha Hospital","د_مرکز_ځای__موقعیت_مرکز":"شصت","Polling_Center_Location":"Shast","Verification_Note":"Building","PS_Male":4,"PS_Female":2,"Map_Accuracy":"تعمیر"},"geometry":{"x":7733242.5060639642,"y":4199951.3856882155}},{"attributes":{"OBJECTID":5637,"ولایت":"پنجشیر","Province":"PANJSHIR","PC_Code":"0802023","ولسوالي":"رخه","District":"RUKHA","د_مرکز_نوم__نام_مرکز":"لیسه نسوان قابضان","Polling_Center_Name":"Qabidan Girls High School","د_مرکز_ځای__موقعیت_مرکز":"قابضان","Polling_Center_Location":"Qabidan","Verification_Note":"Building","PS_Male":2,"PS_Female":1,"Map_Accuracy":"تعمیر"},"geometry":{"x":7732835.3717243113,"y":4198711.4330456033}},{"attributes":{"OBJECTID":5638,"ولایت":"بغلان","Province":"BAGHLAN","PC_Code":"0902083","ولسوالي":"دهنه غوری","District":"DAHANA-E-GHURI","د_مرکز_نوم__نام_مرکز":"مسجد لرخوابی ","Polling_Center_Name":"Larkhwabi Mosque","د_مرکز_ځای__موقعیت_مرکز":"قریه حاجی نعیم","Polling_Center_Location":"Haji Naiem Village","Verification_Note":"Building","PS_Male":1,"PS_Female":1,"Map_Accuracy":"تعمیر"},"geometry":{"x":7636984.5735444725,"y":4289560.716137737}},{"attributes":{"OBJECTID":5639,"ولایت":"غزنى","Province":"GHAZNI","PC_Code":"1104124","ولسوالي":"واغظ","District":"WAGHAZ","د_مرکز_نوم__نام_مرکز":"مکتب شیراحمد ","Polling_Center_Name":"Sher Ahmad School","د_مرکز_ځای__موقعیت_مرکز":"مرکز ولسوالی","Polling_Center_Location":"Distric Compound","Verification_Note":"Building","PS_Male":2,"PS_Female":1,"Map_Accuracy":"تعمیر"},"geometry":{"x":7599484.8297512792,"y":3955539.4811329395}},{"attributes":{"OBJECTID":5640,"ولایت":"غزنى","Province":"GHAZNI","PC_Code":"1116295","ولسوالي":"مالستان","District":"MALISTAN","د_مرکز_نوم__نام_مرکز":"مکتب موسطه  قریه بیلوغو","Polling_Center_Name":"Beelagho Village Secondary School","د_مرکز_ځای__موقعیت_مرکز":"قریه بیلوغو ","Polling_Center_Location":"Beelagho Village ","Verification_Note":"Building","PS_Male":2,"PS_Female":1,"Map_Accuracy":"تعمیر"},"geometry":{"x":7507791.9581547119,"y":3953441.6421129555}},{"attributes":{"OBJECTID":5641,"ولایت":"غزنى","Province":"GHAZNI","PC_Code":"1118291","ولسوالي":"اجرستان","District":"AJRISTAN","د_مرکز_نوم__نام_مرکز":"کلینیک قریه سنګر","Polling_Center_Name":"Sangar Village Clinic","د_مرکز_ځای__موقعیت_مرکز":"قریه سنګر خواجه خیل ","Polling_Center_Location":"Sangar Village, Khwaja Khel","Verification_Note":"Building","PS_Male":1,"PS_Female":3,"Map_Accuracy":"تعمیر"},"geometry":{"x":7480367.9106788337,"y":3964153.8885302916}},{"attributes":{"OBJECTID":5642,"ولایت":"پکتيکا","Province":"PAKTIKA","PC_Code":"1201008","ولسوالي":"شرن","District":"SHARAN","د_مرکز_نوم__نام_مرکز":"لومړنی ښوونځی مسواس","Polling_Center_Name":"Maswas Primary School","د_مرکز_ځای__موقعیت_مرکز":"عثمان","Polling_Center_Location":"Osman","Verification_Note":"Village","PS_Male":0,"PS_Female":2,"Map_Accuracy":"قریه"},"geometry":{"x":7652031.7704907581,"y":3924135.1251742244}},{"attributes":{"OBJECTID":5643,"ولایت":"پکتيکا","Province":"PAKTIKA","PC_Code":"1201016","ولسوالي":"شرن","District":"SHARAN","د_مرکز_نوم__نام_مرکز":"مارکیت جومات","Polling_Center_Name":"Market Mosque","د_مرکز_ځای__موقعیت_مرکز":"کریخیل ","Polling_Center_Location":"Kari Khel","Verification_Note":"District","PS_Male":0,"PS_Female":2,"Map_Accuracy":"ولسوالی"},"geometry":{"x":7663088.4119345583,"y":3913814.9857935682}},{"attributes":{"OBJECTID":5644,"ولایت":"پکتيکا","Province":"PAKTIKA","PC_Code":"1204048","ولسوالي":"یحی خیل","District":"YAHYA KHEL","د_مرکز_نوم__نام_مرکز":"میلمستون عبدالرحمن","Polling_Center_Name":"Abdul Rahman Guest Hlosue","د_مرکز_ځای__موقعیت_مرکز":"یحیا خیل","Polling_Center_Location":"Yahya Khel ","Verification_Note":"Village","PS_Male":0,"PS_Female":2,"Map_Accuracy":"قریه"},"geometry":{"x":7641601.5316140093,"y":3886711.0001450703}},{"attributes":{"OBJECTID":5645,"ولایت":"پکتيکا","Province":"PAKTIKA","PC_Code":"1204051","ولسوالي":"یحی خیل","District":"YAHYA KHEL","د_مرکز_نوم__نام_مرکز":"جومات و میلمستون مردانه و زنانه نیک محمد","Polling_Center_Name":"Nik Mohammad Male & Female Guest House & Mosque","د_مرکز_ځای__موقعیت_مرکز":"غائب خیل","Polling_Center_Location":"Ghayeb Khel ","Verification_Note":"Village","PS_Male":4,"PS_Female":0,"Map_Accuracy":"قریه"},"geometry":{"x":7640472.3567931689,"y":3887996.1595239788}},{"attributes":{"OBJECTID":5646,"ولایت":"پکتيکا","Province":"PAKTIKA","PC_Code":"1208125","ولسوالي":"گومل","District":"GOMAL","د_مرکز_نوم__نام_مرکز":"لومړنی ښوونځی   ","Polling_Center_Name":"Primary School","د_مرکز_ځای__موقعیت_مرکز":"فتح الدین","Polling_Center_Location":"Fatehuddin","Verification_Note":"District","PS_Male":3,"PS_Female":1,"Map_Accuracy":"ولسوالی"},"geometry":{"x":7681003.1510962918,"y":3803780.2531368211}},{"attributes":{"OBJECTID":5647,"ولایت":"پکتيکا","Province":"PAKTIKA","PC_Code":"1208133","ولسوالي":"گومل","District":"GOMAL","د_مرکز_نوم__نام_مرکز":"ملاح دولت مدرسه","Polling_Center_Name":"Molla Dawlat Madrassa","د_مرکز_ځای__موقعیت_مرکز":"زاولو خیل","Polling_Center_Location":"Zavlo Khel","Verification_Note":"Village","PS_Male":4,"PS_Female":0,"Map_Accuracy":"قریه"},"geometry":{"x":7668804.3282623515,"y":3839349.9961899072}},{"attributes":{"OBJECTID":5648,"ولایت":"غور","Province":"GHOR","PC_Code":"2308230","ولسوالي":"تیوره","District":"TAYWARA","د_مرکز_نوم__نام_مرکز":"مکتب متوسطه لعل سرخ","Polling_Center_Name":"Lal Surkh Secondary School","د_مرکز_ځای__موقعیت_مرکز":"لعل سرخ","Polling_Center_Location":"Lal Surkh","Verification_Note":"Building","PS_Male":1,"PS_Female":1,"Map_Accuracy":"تعمیر"},"geometry":{"x":7177814.923097875,"y":3966476.2485694736}},{"attributes":{"OBJECTID":5649,"ولایت":"غور","Province":"GHOR","PC_Code":"2310196","ولسوالي":"ساغر ","District":"SAGHAR","د_مرکز_نوم__نام_مرکز":"مکتب شیخ محمد ساغر","Polling_Center_Name":"Shekh Mohammad Saghar School","د_مرکز_ځای__موقعیت_مرکز":" تیطان","Polling_Center_Location":"Taitan","Verification_Note":"Building","PS_Male":2,"PS_Female":1,"Map_Accuracy":"تعمیر"},"geometry":{"x":7109151.9813775308,"y":3987346.7739083543}},{"attributes":{"OBJECTID":5650,"ولایت":"غور","Province":"GHOR","PC_Code":"2310197","ولسوالي":"ساغر ","District":"SAGHAR","د_مرکز_نوم__نام_مرکز":"لیسه اناث ساغر","Polling_Center_Name":"Saghar Girls High School","د_مرکز_ځای__موقعیت_مرکز":" تیطان","Polling_Center_Location":"Taitan","Verification_Note":"Building","PS_Male":2,"PS_Female":2,"Map_Accuracy":"تعمیر"},"geometry":{"x":7108522.7679933161,"y":3987761.1863537058}},{"attributes":{"OBJECTID":5651,"ولایت":"دایکندی","Province":"DAYKUNDI","PC_Code":"2401011","ولسوالي":"نیلی","District":"NILI","د_مرکز_نوم__نام_مرکز":"مسجد هجدی","Polling_Center_Name":"Hajdi Mosque","د_مرکز_ځای__موقعیت_مرکز":"هجدی","Polling_Center_Location":"Hajdi","Verification_Note":"Building","PS_Male":2,"PS_Female":1,"Map_Accuracy":"تعمیر"},"geometry":{"x":7362892.7693052366,"y":4001682.2061744854}},{"attributes":{"OBJECTID":5652,"ولایت":"دایکندی","Province":"DAYKUNDI","PC_Code":"2402034","ولسوالي":"شهرستان","District":"SHAHRISTAN","د_مرکز_نوم__نام_مرکز":"مسجد ازموک","Polling_Center_Name":"Azmok Mosque","د_مرکز_ځای__موقعیت_مرکز":"ازموک","Polling_Center_Location":"Azmok","Verification_Note":"Building","PS_Male":1,"PS_Female":1,"Map_Accuracy":"تعمیر"},"geometry":{"x":7370417.8989779726,"y":3985862.9992747083}},{"attributes":{"OBJECTID":5653,"ولایت":"دایکندی","Province":"DAYKUNDI","PC_Code":"2403123","ولسوالي":"گیزاب","District":"GIZAB","د_مرکز_نوم__نام_مرکز":"مسجد قریه گال تخل","Polling_Center_Name":"Gaal Takhal Village Mosque","د_مرکز_ځای__موقعیت_مرکز":"گال تخل","Polling_Center_Location":"Gaal Takhal","Verification_Note":"Village","PS_Male":1,"PS_Female":1,"Map_Accuracy":"قریه"},"geometry":{"x":7380466.5201687515,"y":3954695.0778684542}},{"attributes":{"OBJECTID":5654,"ولایت":"دایکندی","Province":"DAYKUNDI","PC_Code":"2405087","ولسوالي":"خدیر","District":"KHEDIR","د_مرکز_نوم__نام_مرکز":"مکتب دهن سرخ قولک","Polling_Center_Name":"Dahn Surkh Qolak School","د_مرکز_ځای__موقعیت_مرکز":"وطمه","Polling_Center_Location":"Watma","Verification_Note":"Building","PS_Male":1,"PS_Female":1,"Map_Accuracy":"تعمیر"},"geometry":{"x":7324610.3693417273,"y":4011619.2584987208}},{"attributes":{"OBJECTID":5655,"ولایت":"دایکندی","Province":"DAYKUNDI","PC_Code":"2406130","ولسوالي":"کیتی","District":"KITI","د_مرکز_نوم__نام_مرکز":"مسجد سنگینک","Polling_Center_Name":"Sanginak Mosque","د_مرکز_ځای__موقعیت_مرکز":"سنگینک","Polling_Center_Location":"Sanginak","Verification_Note":"Building","PS_Male":2,"PS_Female":1,"Map_Accuracy":"تعمیر"},"geometry":{"x":7326747.4664544389,"y":3990113.1946039051}},{"attributes":{"OBJECTID":5656,"ولایت":"دایکندی","Province":"DAYKUNDI","PC_Code":"2406131","ولسوالي":"کیتی","District":"KITI","د_مرکز_نوم__نام_مرکز":"مسجد رویان","Polling_Center_Name":"Royan Mosque","د_مرکز_ځای__موقعیت_مرکز":"رویان","Polling_Center_Location":"Royan","Verification_Note":"Building","PS_Male":2,"PS_Female":1,"Map_Accuracy":"تعمیر"},"geometry":{"x":7322905.7384319939,"y":3954886.8328058943}},{"attributes":{"OBJECTID":5657,"ولایت":"دایکندی","Province":"DAYKUNDI","PC_Code":"2407153","ولسوالي":"میرامور","District":"MIRAMOR","د_مرکز_نوم__نام_مرکز":"لیسه زکور چهار صد خانه","Polling_Center_Name":"Chahar Sad Khana Boys High School","د_مرکز_ځای__موقعیت_مرکز":"پلاس","Polling_Center_Location":"Palaas","Verification_Note":"Building","PS_Male":1,"PS_Female":1,"Map_Accuracy":"تعمیر"},"geometry":{"x":7482877.065359652,"y":4014934.6551776677}},{"attributes":{"OBJECTID":5658,"ولایت":"دایکندی","Province":"DAYKUNDI","PC_Code":"2408078","ولسوالي":"سنگ تخت","District":"SANG-E-TAKHT","د_مرکز_نوم__نام_مرکز":"مسجد دهن سیرک میراسی","Polling_Center_Name":"Dahan Sirak Mirasi Mosque","د_مرکز_ځای__موقعیت_مرکز":"سیرک ","Polling_Center_Location":"Sirak","Verification_Note":"Building","PS_Male":2,"PS_Female":1,"Map_Accuracy":"تعمیر"},"geometry":{"x":7339830.4142877571,"y":4052793.1712850556}},{"attributes":{"OBJECTID":5659,"ولایت":"دایکندی","Province":"DAYKUNDI","PC_Code":"2409069","ولسوالي":"کجران","District":"KEJRAN","د_مرکز_نوم__نام_مرکز":"مسجد دهن خوجو","Polling_Center_Name":"Dahan Khojo Mosque","د_مرکز_ځای__موقعیت_مرکز":"خوجو","Polling_Center_Location":"Khojo","Verification_Note":"Building","PS_Male":1,"PS_Female":1,"Map_Accuracy":"تعمیر"},"geometry":{"x":7316178.0359127969,"y":3926872.1329671666}},{"attributes":{"OBJECTID":5660,"ولایت":"ارزگان","Province":"UROZGAN","PC_Code":"2502039","ولسوالي":"دهراود","District":"DEHRAOUD","د_مرکز_نوم__نام_مرکز":"د ملک خدای دوست د کلی مکتب","Polling_Center_Name":"Malk Khudai Dost Village School","د_مرکز_ځای__موقعیت_مرکز":"انار جوی کلی","Polling_Center_Location":"Anar Joy Village","Verification_Note":"Building","PS_Male":3,"PS_Female":1,"Map_Accuracy":"تعمیر"},"geometry":{"x":7298623.1013828143,"y":3849179.8316694275}},{"attributes":{"OBJECTID":5661,"ولایت":"زابل","Province":"ZABUL","PC_Code":"2602028","ولسوالي":"ترنک و جلدک","District":"TARANK WA JALDAK","د_مرکز_نوم__نام_مرکز":"د جلدک روغتون","Polling_Center_Name":"Jaldak Hospital","د_مرکز_ځای__موقعیت_مرکز":"جلدک","Polling_Center_Location":"Jaldak","Verification_Note":"Building","PS_Male":2,"PS_Female":0,"Map_Accuracy":"تعمیر"},"geometry":{"x":7427563.4790515862,"y":3759922.9774745703}},{"attributes":{"OBJECTID":5662,"ولایت":"کندهار","Province":"کندهار","PC_Code":"2701038","ولسوالي":"کندهار","District":"KANDAHAR","د_مرکز_نوم__نام_مرکز":"ظاهر شاهي مكتب","Polling_Center_Name":"Zahir Shahi School","د_مرکز_ځای__موقعیت_مرکز":"شپږمه ناحيه","Polling_Center_Location":"D06 - Nahia 6","Verification_Note":"Building","PS_Male":5,"PS_Female":4,"Map_Accuracy":"تعمیر"},"geometry":{"x":7313905.5542617738,"y":3713222.6656198129}},{"attributes":{"OBJECTID":5663,"ولایت":"کندهار","Province":"کندهار","PC_Code":"2702106","ولسوالي":"ارغنداب","District":"ARGHANDAB","د_مرکز_نوم__نام_مرکز":"د شاه اشرف مكتب","Polling_Center_Name":"Shah Ashraf School","د_مرکز_ځای__موقعیت_مرکز":"تابين","Polling_Center_Location":"Tabeen","Verification_Note":"Building","PS_Male":2,"PS_Female":1,"Map_Accuracy":"تعمیر"},"geometry":{"x":7307412.5666625276,"y":3720798.3001925126}},{"attributes":{"OBJECTID":5664,"ولایت":"کندهار","Province":"کندهار","PC_Code":"2707116","ولسوالي":"خاک ریز","District":"KHAKREZ","د_مرکز_نوم__نام_مرکز":"د رحمت الله كور","Polling_Center_Name":"Rahmatullah Private House","د_مرکز_ځای__موقعیت_مرکز":"لالك","Polling_Center_Location":"Lalak","Verification_Note":"Village","PS_Male":1,"PS_Female":1,"Map_Accuracy":"قریه"},"geometry":{"x":7271082.2363464981,"y":3733051.437638849}},{"attributes":{"OBJECTID":5665,"ولایت":"کندهار","Province":"کندهار","PC_Code":"2709129","ولسوالي":"غورك","District":"GHORAK","د_مرکز_نوم__نام_مرکز":"مسجد واشتان","Polling_Center_Name":"Washtan Mosque","د_مرکز_ځای__موقعیت_مرکز":"واشتان","Polling_Center_Location":"Washtan","Verification_Note":"Building","PS_Male":2,"PS_Female":0,"Map_Accuracy":"تعمیر"},"geometry":{"x":7235733.7762219161,"y":3769832.4576374963}},{"attributes":{"OBJECTID":5666,"ولایت":"کندهار","Province":"کندهار","PC_Code":"2714269","ولسوالي":"شورابك","District":"SHORABAK","د_مرکز_نوم__نام_مرکز":"د حاجي روزي خان كور","Polling_Center_Name":"Haji Rozi Khan Private House","د_مرکز_ځای__موقعیت_مرکز":"د كاريز كلي","Polling_Center_Location":"Karez Village","Verification_Note":"Village","PS_Male":3,"PS_Female":2,"Map_Accuracy":"قریه"},"geometry":{"x":7366514.3118276857,"y":3525605.1626699641}},{"attributes":{"OBJECTID":5667,"ولایت":"کندهار","Province":"کندهار","PC_Code":"2717065","ولسوالي":"ډند","District":"DAND","د_مرکز_نوم__نام_مرکز":"د رمباسي مكتب","Polling_Center_Name":"Rambasi School","د_مرکز_ځای__موقعیت_مرکز":"رمباسي","Polling_Center_Location":"Rambasi","Verification_Note":"District","PS_Male":2,"PS_Female":1,"Map_Accuracy":"ولسوالی"},"geometry":{"x":7308757.8571427837,"y":3704830.8586840406}},{"attributes":{"OBJECTID":5668,"ولایت":"جوزجان","Province":"JAWZJAN","PC_Code":"2801024","ولسوالي":"شبرغان","District":"SHEBERGHAN","د_مرکز_نوم__نام_مرکز":"مکتب متوسطه قوچین","Polling_Center_Name":"Qochin Secondary School","د_مرکز_ځای__موقعیت_مرکز":"ناحیه اول","Polling_Center_Location":"D01 - Nahia 1","Verification_Note":"Building","PS_Male":1,"PS_Female":3,"Map_Accuracy":"تعمیر"},"geometry":{"x":7328194.65100421,"y":4380596.61619436}},{"attributes":{"OBJECTID":5669,"ولایت":"جوزجان","Province":"JAWZJAN","PC_Code":"2803122","ولسوالي":"خانقاه","District":"KHANAQA","د_مرکز_نوم__نام_مرکز":"مکتب ابتدائیه چوباش ","Polling_Center_Name":"Chobash Primary School","د_مرکز_ځای__موقعیت_مرکز":"چوباش","Polling_Center_Location":"Chobash","Verification_Note":"Building","PS_Male":1,"PS_Female":1,"Map_Accuracy":"تعمیر"},"geometry":{"x":7351420.2849980183,"y":4421404.381421715}},{"attributes":{"OBJECTID":5670,"ولایت":"جوزجان","Province":"JAWZJAN","PC_Code":"2806085","ولسوالي":"خم آب","District":"KHAMYAB","د_مرکز_نوم__نام_مرکز":"مکتب بوز اریغ","Polling_Center_Name":"Boz Areegh School","د_مرکز_ځای__موقعیت_مرکز":"بوز اریغ","Polling_Center_Location":"Boz Areegh","Verification_Note":"Building","PS_Male":2,"PS_Female":1,"Map_Accuracy":"تعمیر"},"geometry":{"x":7321801.7252669744,"y":4509847.8995118961}},{"attributes":{"OBJECTID":5671,"ولایت":"جوزجان","Province":"JAWZJAN","PC_Code":"2808051","ولسوالي":"فیض آباد","District":"FAIZABAD","د_مرکز_نوم__نام_مرکز":"مکتب کوکلداش","Polling_Center_Name":"Kokaldash School","د_مرکز_ځای__موقعیت_مرکز":"قریه کوکلداش","Polling_Center_Location":"Kokaldash Village","Verification_Note":"Building","PS_Male":2,"PS_Female":1,"Map_Accuracy":"تعمیر"},"geometry":{"x":7385014.8609041609,"y":4412293.4664742574}},{"attributes":{"OBJECTID":5672,"ولایت":"جوزجان","Province":"JAWZJAN","PC_Code":"2810083","ولسوالي":"قرقین","District":"QARQIN","د_مرکز_نوم__نام_مرکز":"لیسه دینار","Polling_Center_Name":"Dinar High School","د_مرکز_ځای__موقعیت_مرکز":"دینار","Polling_Center_Location":"Dinar","Verification_Note":"Building","PS_Male":3,"PS_Female":1,"Map_Accuracy":"تعمیر"},"geometry":{"x":7342723.8805862218,"y":4499339.1709612682}},{"attributes":{"OBJECTID":5673,"ولایت":"فارياب","Province":"FARYAB","PC_Code":"2901007","ولسوالي":"میمنه ","District":"MAIMANA","د_مرکز_نوم__نام_مرکز":"لیسه ابوعبید جوزجانی","Polling_Center_Name":"Abu Ubaid Jozjani High School","د_مرکز_ځای__موقعیت_مرکز":"ناحیه دوم","Polling_Center_Location":"D02 - Nahia 2","Verification_Note":"Building","PS_Male":5,"PS_Female":0,"Map_Accuracy":"تعمیر"},"geometry":{"x":7212261.9881172925,"y":4288926.7640649378}},{"attributes":{"OBJECTID":5674,"ولایت":"فارياب","Province":"FARYAB","PC_Code":"2902027","ولسوالي":"پشتون کوت","District":"PASHTUN KOT","د_مرکز_نوم__نام_مرکز":"مکتب قریه یکه توت","Polling_Center_Name":"Yaka Toot Village School","د_مرکز_ځای__موقعیت_مرکز":"قریه یکه توت","Polling_Center_Location":"Yaka Toot Village","Verification_Note":"Village","PS_Male":1,"PS_Female":1,"Map_Accuracy":"قریه"},"geometry":{"x":7217381.6494225152,"y":4249324.0719287992}},{"attributes":{"OBJECTID":5675,"ولایت":"فارياب","Province":"FARYAB","PC_Code":"2902047","ولسوالي":"پشتون کوت","District":"PASHTUN KOT","د_مرکز_نوم__نام_مرکز":" مسجد رهی خواجه مراد","Polling_Center_Name":"Rahi Khwaja Murad Mosque","د_مرکز_ځای__موقعیت_مرکز":"رهی خواجه مراد","Polling_Center_Location":"Rahi Khwaja Murad","Verification_Note":"Village","PS_Male":1,"PS_Female":1,"Map_Accuracy":"قریه"},"geometry":{"x":7198374.5354372077,"y":4257987.7702595815}},{"attributes":{"OBJECTID":5676,"ولایت":"فارياب","Province":"FARYAB","PC_Code":"2904064","ولسوالي":"المار","District":"ALMAR","د_مرکز_نوم__نام_مرکز":"مسجد جامع قره غویلی ","Polling_Center_Name":"Qara-e-Ghoyeli Mosque","د_مرکز_ځای__موقعیت_مرکز":"قریه قره غویلی ","Polling_Center_Location":"Qara-e-Ghoyeli Village","Verification_Note":"Building","PS_Male":1,"PS_Female":1,"Map_Accuracy":"تعمیر"},"geometry":{"x":7180919.6036585867,"y":4274774.1776109934}},{"attributes":{"OBJECTID":5677,"ولایت":"فارياب","Province":"FARYAB","PC_Code":"2905142","ولسوالي":"بل چراغ","District":"BIL CHIRAGH","د_مرکز_نوم__نام_مرکز":"مکتب ذکورتغلمس","Polling_Center_Name":"Taghalmas Boys School","د_مرکز_ځای__موقعیت_مرکز":"تغلمس","Polling_Center_Location":"Taghlamas","Verification_Note":"Village","PS_Male":2,"PS_Female":1,"Map_Accuracy":"قریه"},"geometry":{"x":7268168.9073112868,"y":4280949.4599859118}},{"attributes":{"OBJECTID":5678,"ولایت":"فارياب","Province":"FARYAB","PC_Code":"2907082","ولسوالي":"قیصار ","District":"QAISAR","د_مرکز_نوم__نام_مرکز":"مکتب ابتدای چیچکتو","Polling_Center_Name":"Chechakto Primary School","د_مرکز_ځای__موقعیت_مرکز":"چیچکتو","Polling_Center_Location":"Chechakto","Verification_Note":"Building","PS_Male":1,"PS_Female":1,"Map_Accuracy":"تعمیر"},"geometry":{"x":7135541.4366379157,"y":4263189.892599307}},{"attributes":{"OBJECTID":5679,"ولایت":"فارياب","Province":"FARYAB","PC_Code":"2907083","ولسوالي":"قیصار ","District":"QAISAR","د_مرکز_نوم__نام_مرکز":"مسجد بلند غور ","Polling_Center_Name":"Boland Ghor Mosque","د_مرکز_ځای__موقعیت_مرکز":"بلند غور ","Polling_Center_Location":"Boland Ghor","Verification_Note":"Building","PS_Male":1,"PS_Female":1,"Map_Accuracy":"تعمیر"},"geometry":{"x":7129429.6481633559,"y":4256238.0961126238}},{"attributes":{"OBJECTID":5680,"ولایت":"فارياب","Province":"FARYAB","PC_Code":"2907105","ولسوالي":"قیصار ","District":"QAISAR","د_مرکز_نوم__نام_مرکز":"مکتب زعفران ","Polling_Center_Name":"Zaafran School","د_مرکز_ځای__موقعیت_مرکز":"زعفران ","Polling_Center_Location":"Zaafran","Verification_Note":"Building","PS_Male":2,"PS_Female":1,"Map_Accuracy":"تعمیر"},"geometry":{"x":7152008.9600804187,"y":4247857.20567295}},{"attributes":{"OBJECTID":5681,"ولایت":"فارياب","Province":"FARYAB","PC_Code":"2908206","ولسوالي":"گرزیوان","District":"GURZIWAN","د_مرکز_نوم__نام_مرکز":"مسجد باد گه","Polling_Center_Name":"Badgah Mosque","د_مرکز_ځای__موقعیت_مرکز":"قریه باد گه","Polling_Center_Location":"Badgah Village","Verification_Note":"Building","PS_Male":1,"PS_Female":2,"Map_Accuracy":"تعمیر"},"geometry":{"x":7254120.7170788646,"y":4236609.5106119141}},{"attributes":{"OBJECTID":5682,"ولایت":"فارياب","Province":"FARYAB","PC_Code":"2910120","ولسوالي":"کوهستان","District":"KOHISTAN","د_مرکز_نوم__نام_مرکز":"مکتب متوسطه لولاش","Polling_Center_Name":"Lolash Secondary School","د_مرکز_ځای__موقعیت_مرکز":"دور قلعه ","Polling_Center_Location":"Dor Qala","Verification_Note":"Building","PS_Male":2,"PS_Female":2,"Map_Accuracy":"تعمیر"},"geometry":{"x":7208334.0264512971,"y":4216169.7518846467}},{"attributes":{"OBJECTID":5683,"ولایت":"فارياب","Province":"FARYAB","PC_Code":"2913184","ولسوالي":"اندخوی","District":"ANDKHOY","د_مرکز_نوم__نام_مرکز":"مکتب نسوان الهندی خانه","Polling_Center_Name":"Alhendi Khana Girls School","د_مرکز_ځای__موقعیت_مرکز":"الهندی خانه","Polling_Center_Location":"Alhendi Khana","Verification_Note":"Village","PS_Male":3,"PS_Female":2,"Map_Accuracy":"قریه"},"geometry":{"x":7249102.6782235838,"y":4433968.492856577}},{"attributes":{"OBJECTID":5684,"ولایت":"هلمند","Province":"HELMAND","PC_Code":"3001011","ولسوالي":"لشکرگاه","District":"LASHKARGAH","د_مرکز_نوم__نام_مرکز":"د هندوانو مکتب","Polling_Center_Name":"Hindwano School","د_مرکز_ځای__موقعیت_مرکز":" کارته لگن ناحیه 2","Polling_Center_Location":"Karta-e-Lagan Nahia 2","Verification_Note":"Building","PS_Male":2,"PS_Female":5,"Map_Accuracy":"تعمیر"},"geometry":{"x":7167141.8006769456,"y":3710297.27510833}},{"attributes":{"OBJECTID":5685,"ولایت":"هلمند","Province":"HELMAND","PC_Code":"3001033","ولسوالي":"لشکرگاه","District":"LASHKARGAH","د_مرکز_نوم__نام_مرکز":"مسجد مرکز کوچی","Polling_Center_Name":"Kochi Center Mosque","د_مرکز_ځای__موقعیت_مرکز":"پنجاب کلی","Polling_Center_Location":"Punjab Village","Verification_Note":"Building","PS_Male":2,"PS_Female":2,"Map_Accuracy":"تعمیر"},"geometry":{"x":7169638.1614086889,"y":3722152.450082846}},{"attributes":{"OBJECTID":5686,"ولایت":"هلمند","Province":"HELMAND","PC_Code":"3003096","ولسوالي":"ناوه بارکزایی","District":"NAWA-E-BARAKZAYI","د_مرکز_نوم__نام_مرکز":"د وكيل منان كور","Polling_Center_Name":"Wakil Manan Private House","د_مرکز_ځای__موقعیت_مرکز":"سره کلا","Polling_Center_Location":"Sra Kala","Verification_Note":"District","PS_Male":3,"PS_Female":1,"Map_Accuracy":"ولسوالی"},"geometry":{"x":7155473.2003700063,"y":3679620.9529662877}},{"attributes":{"OBJECTID":5687,"ولایت":"هلمند","Province":"HELMAND","PC_Code":"3004036","ولسوالي":"نهرسراج","District":"NAHR-E-SARAJ","د_مرکز_نوم__نام_مرکز":"مكتب ابازان ","Polling_Center_Name":"Abazan School","د_مرکز_ځای__موقعیت_مرکز":"مکتب ابازان  ","Polling_Center_Location":"Maktab Abazan","Verification_Note":"Building","PS_Male":4,"PS_Female":2,"Map_Accuracy":"تعمیر"},"geometry":{"x":7187624.0838188082,"y":3736302.7754263505}},{"attributes":{"OBJECTID":5688,"ولایت":"بادغيس","Province":"BADGHIS","PC_Code":"3101016","ولسوالي":"قلعه نو","District":"QALA-E-NOW","د_مرکز_نوم__نام_مرکز":"مکتب لامان","Polling_Center_Name":"Laman School","د_مرکز_ځای__موقعیت_مرکز":" لامان","Polling_Center_Location":"Laman","Verification_Note":"Building","PS_Male":3,"PS_Female":2,"Map_Accuracy":"تعمیر"},"geometry":{"x":7024542.8443143591,"y":4131744.7682898343}},{"attributes":{"OBJECTID":5689,"ولایت":"بادغيس","Province":"BADGHIS","PC_Code":"3102047","ولسوالي":"آبکمری","District":"AB KAMARI","د_مرکز_نوم__نام_مرکز":"مکتب لیسه پده دایزنگی","Polling_Center_Name":"Padeh Dehzangi High School","د_مرکز_ځای__موقعیت_مرکز":"پده دهزنگی","Polling_Center_Location":"Padeh Dehzangi  ","Verification_Note":"Building","PS_Male":2,"PS_Female":1,"Map_Accuracy":"تعمیر"},"geometry":{"x":7000145.1496658921,"y":4148284.3973257467}},{"attributes":{"OBJECTID":5690,"ولایت":"بادغيس","Province":"BADGHIS","PC_Code":"3104057","ولسوالي":"قادس","District":"QADIS","د_مرکز_نوم__نام_مرکز":"مکتب ده برنج","Polling_Center_Name":"Deh Berenj School","د_مرکز_ځای__موقعیت_مرکز":"ده برنج","Polling_Center_Location":"Deh Berenj ","Verification_Note":"Building","PS_Male":2,"PS_Female":1,"Map_Accuracy":"تعمیر"},"geometry":{"x":7042404.0588385351,"y":4130943.0586938933}},{"attributes":{"OBJECTID":5691,"ولایت":"بادغيس","Province":"BADGHIS","PC_Code":"3104078","ولسوالي":"قادس","District":"QADIS","د_مرکز_نوم__نام_مرکز":"مسجد برج","Polling_Center_Name":"Burj Mosque","د_مرکز_ځای__موقعیت_مرکز":"قریه برج","Polling_Center_Location":"Burj Village","Verification_Note":"Building","PS_Male":2,"PS_Female":1,"Map_Accuracy":"تعمیر"},"geometry":{"x":7098948.5526236817,"y":4129477.8368451968}},{"attributes":{"OBJECTID":5692,"ولایت":"بادغيس","Province":"BADGHIS","PC_Code":"3106108","ولسوالي":"جوند","District":"JAWAND","د_مرکز_نوم__نام_مرکز":"مسجد قریه اورگو","Polling_Center_Name":"Orgo Village Mosque","د_مرکز_ځای__موقعیت_مرکز":"اورگو","Polling_Center_Location":"Orgo ","Verification_Note":"Village","PS_Male":1,"PS_Female":1,"Map_Accuracy":"قریه"},"geometry":{"x":7182798.1334240623,"y":4174508.4591739625}},{"attributes":{"OBJECTID":5693,"ولایت":"بادغيس","Province":"BADGHIS","PC_Code":"3107128","ولسوالي":"غورماچ","District":"GHORMACH","د_مرکز_نوم__نام_مرکز":"مسجد کاریز محمد خان","Polling_Center_Name":"Kariz-e- Mohammad Khan Mosque ","د_مرکز_ځای__موقعیت_مرکز":" کاریز محمد خان","Polling_Center_Location":"Kariz-e- Mohammad Khan ","Verification_Note":"Village","PS_Male":1,"PS_Female":1,"Map_Accuracy":"قریه"},"geometry":{"x":7104608.3138343357,"y":4256902.5169013813}},{"attributes":{"OBJECTID":5694,"ولایت":"هرات","Province":"HERAT","PC_Code":"3201004","ولسوالي":"هرات","District":"HERAT","د_مرکز_نوم__نام_مرکز":"مسجد جامع بزرگ هرات","Polling_Center_Name":"Hirat city big Mosque","د_مرکز_ځای__موقعیت_مرکز":" ناحیه دوم","Polling_Center_Location":"D02 - Nahia 2","Verification_Note":"Building","PS_Male":8,"PS_Female":0,"Map_Accuracy":"تعمیر"},"geometry":{"x":6923588.6953610927,"y":4074966.8999035656}},{"attributes":{"OBJECTID":5695,"ولایت":"هرات","Province":"HERAT","PC_Code":"3201025","ولسوالي":"هرات","District":"HERAT","د_مرکز_نوم__نام_مرکز":"فخرالمدارس","Polling_Center_Name":"Fakhrul Madares ","د_مرکز_ځای__موقعیت_مرکز":" ناحیه نهم","Polling_Center_Location":"D09 - Nahia 9","Verification_Note":"Building","PS_Male":4,"PS_Female":4,"Map_Accuracy":"تعمیر"},"geometry":{"x":6922399.9557071216,"y":4076684.7170288116}},{"attributes":{"OBJECTID":5696,"ولایت":"هرات","Province":"HERAT","PC_Code":"3202037","ولسوالي":"انجیل","District":"ENJIL","د_مرکز_نوم__نام_مرکز":"لیسه جغرتان","Polling_Center_Name":"Jaghratan High School","د_مرکز_ځای__موقعیت_مرکز":"جغرتان","Polling_Center_Location":"Jaghratan","Verification_Note":"Village","PS_Male":2,"PS_Female":1,"Map_Accuracy":"قریه"},"geometry":{"x":6919280.264826268,"y":4069458.90884988}},{"attributes":{"OBJECTID":5697,"ولایت":"هرات","Province":"HERAT","PC_Code":"3202060","ولسوالي":"انجیل","District":"ENJIL","د_مرکز_نوم__نام_مرکز":"مکتب متوسطه پوران","Polling_Center_Name":"Poran Secondary School ","د_مرکز_ځای__موقعیت_مرکز":"قریه پوران","Polling_Center_Location":"Poran Village ","Verification_Note":"Building","PS_Male":1,"PS_Female":1,"Map_Accuracy":"تعمیر"},"geometry":{"x":6917562.4792923,"y":4073653.5321006477}},{"attributes":{"OBJECTID":5698,"ولایت":"هرات","Province":"HERAT","PC_Code":"3202081","ولسوالي":"انجیل","District":"ENJIL","د_مرکز_نوم__نام_مرکز":"مکتب مسلخ دوم","Polling_Center_Name":"Maslakh Duowm School","د_مرکز_ځای__موقعیت_مرکز":" مسلخ دوم","Polling_Center_Location":"Maslakh Duwom","Verification_Note":"Building","PS_Male":3,"PS_Female":3,"Map_Accuracy":"تعمیر"},"geometry":{"x":6906138.8798262663,"y":4085386.6408176273}},{"attributes":{"OBJECTID":5699,"ولایت":"هرات","Province":"HERAT","PC_Code":"3203098","ولسوالي":"گذره","District":"GUZARA","د_مرکز_نوم__نام_مرکز":"لیسه دادشان","Polling_Center_Name":"Dadshan High School ","د_مرکز_ځای__موقعیت_مرکز":"قریه دادشان ","Polling_Center_Location":"Dadshan Village ","Verification_Note":"Building","PS_Male":2,"PS_Female":1,"Map_Accuracy":"تعمیر"},"geometry":{"x":6950278.2123089246,"y":4061125.5216462761}},{"attributes":{"OBJECTID":5700,"ولایت":"هرات","Province":"HERAT","PC_Code":"3203438","ولسوالي":"گذره","District":"GUZARA","د_مرکز_نوم__نام_مرکز":"مكتب نهستان","Polling_Center_Name":"Nahistan School ","د_مرکز_ځای__موقعیت_مرکز":"نهستان ","Polling_Center_Location":"Nahistan ","Verification_Note":"Village","PS_Male":1,"PS_Female":1,"Map_Accuracy":"قریه"},"geometry":{"x":6915568.2674251944,"y":4021658.4377978444}},{"attributes":{"OBJECTID":5701,"ولایت":"هرات","Province":"HERAT","PC_Code":"3205262","ولسوالي":"زنده جان ","District":"ZENDAJAN","د_مرکز_نوم__نام_مرکز":"مکتب چار دره","Polling_Center_Name":"Chardarah School","د_مرکز_ځای__موقعیت_مرکز":"شکیبان تاجیکی","Polling_Center_Location":"Shikeban Tajeki","Verification_Note":"Building","PS_Male":2,"PS_Female":1,"Map_Accuracy":"تعمیر"},"geometry":{"x":6876760.7856687456,"y":4079064.0627796054}},{"attributes":{"OBJECTID":5702,"ولایت":"هرات","Province":"HERAT","PC_Code":"3207178","ولسوالي":"کشک (رباط سنگی)","District":"KUSHK (RUBAT-E-SANGI)","د_مرکز_نوم__نام_مرکز":"مکتب کاریز نو","Polling_Center_Name":"Kariz Now School ","د_مرکز_ځای__موقعیت_مرکز":" کاریز نو","Polling_Center_Location":"Kariz Now ","Verification_Note":"Building","PS_Male":2,"PS_Female":1,"Map_Accuracy":"تعمیر"},"geometry":{"x":6914415.861339815,"y":4163679.4993225932}},{"attributes":{"OBJECTID":5703,"ولایت":"هرات","Province":"HERAT","PC_Code":"3207445","ولسوالي":"کشک (رباط سنگی)","District":"KUSHK (RUBAT-E-SANGI)","د_مرکز_نوم__نام_مرکز":"مكتب حقابه اسدی","Polling_Center_Name":"Haqaba Asadi School ","د_مرکز_ځای__موقعیت_مرکز":"حقابه اسدی ","Polling_Center_Location":"Huqaba Asadi ","Verification_Note":"Village","PS_Male":2,"PS_Female":1,"Map_Accuracy":"قریه"},"geometry":{"x":6946184.81095529,"y":4138795.715465039}},{"attributes":{"OBJECTID":5704,"ولایت":"هرات","Province":"HERAT","PC_Code":"3209283","ولسوالي":"ادرسکن ","District":"ADRASKAN","د_مرکز_نوم__نام_مرکز":"مکتب سه درخت","Polling_Center_Name":"Sey Darakht School ","د_مرکز_ځای__موقعیت_مرکز":"سه درخت","Polling_Center_Location":"Say Darakht ","Verification_Note":"Building","PS_Male":1,"PS_Female":2,"Map_Accuracy":"تعمیر"},"geometry":{"x":6981093.0637195036,"y":4005232.8069716543}},{"attributes":{"OBJECTID":5705,"ولایت":"هرات","Province":"HERAT","PC_Code":"3210406","ولسوالي":"کشک کهنه ","District":"KUSHK-E-KUHNA","د_مرکز_نوم__نام_مرکز":"مکتب متوسطه پسران ککلم اول","Polling_Center_Name":"Kaklam Awal Scondary School ","د_مرکز_ځای__موقعیت_مرکز":"مرکز ولسوالی","Polling_Center_Location":"District Center","Verification_Note":"Building","PS_Male":3,"PS_Female":0,"Map_Accuracy":"تعمیر"},"geometry":{"x":6964186.8780311644,"y":4143566.6871005222}},{"attributes":{"OBJECTID":5706,"ولایت":"هرات","Province":"HERAT","PC_Code":"3211247","ولسوالي":"غوریان ","District":"GHORYAN","د_مرکز_نوم__نام_مرکز":"مکتب ابتدایی استونان","Polling_Center_Name":"Astanan Primary School ","د_مرکز_ځای__موقعیت_مرکز":"قریه استانان جوارسرک عمومی","Polling_Center_Location":"Astanan Village near main road","Verification_Note":"Building","PS_Male":2,"PS_Female":2,"Map_Accuracy":"تعمیر"},"geometry":{"x":6842877.428079173,"y":4079694.4870502576}},{"attributes":{"OBJECTID":5707,"ولایت":"هرات","Province":"HERAT","PC_Code":"3212385","ولسوالي":"اوبه ","District":"OBE","د_مرکز_نوم__نام_مرکز":"مسجد تگاب ماهی","Polling_Center_Name":"Tagab Mahi Mosque ","د_مرکز_ځای__موقعیت_مرکز":"تکاب ماهی ","Polling_Center_Location":"Takab Mahi ","Verification_Note":"Village","PS_Male":2,"PS_Female":1,"Map_Accuracy":"قریه"},"geometry":{"x":7044156.1619451195,"y":4091441.3469056264}},{"attributes":{"OBJECTID":5708,"ولایت":"هرات","Province":"HERAT","PC_Code":"3213448","ولسوالي":"کهسان ","District":"KOHSAN","د_مرکز_نوم__نام_مرکز":"خيمه بره كوه","Polling_Center_Name":"Barrah Koh Tent ","د_مرکز_ځای__موقعیت_مرکز":"بره کوه ","Polling_Center_Location":"Barra Koh ","Verification_Note":"Village","PS_Male":1,"PS_Female":1,"Map_Accuracy":"قریه"},"geometry":{"x":6825027.353296455,"y":4103591.0227163881}},{"attributes":{"OBJECTID":5709,"ولایت":"هرات","Province":"HERAT","PC_Code":"3214318","ولسوالي":"شیندند","District":"SHINDAND","د_مرکز_نوم__نام_مرکز":"مسجد سرخ","Polling_Center_Name":"Surkh Mosque ","د_مرکز_ځای__موقعیت_مرکز":"سرکرو","Polling_Center_Location":"Sarkaro ","Verification_Note":"Village","PS_Male":2,"PS_Female":3,"Map_Accuracy":"قریه"},"geometry":{"x":6886590.2076502107,"y":3932862.73524829}},{"attributes":{"OBJECTID":5710,"ولایت":"هرات","Province":"HERAT","PC_Code":"3214340","ولسوالي":"شیندند","District":"SHINDAND","د_مرکز_نوم__نام_مرکز":"مسجد علی آباد","Polling_Center_Name":"Ali Abad Mosque ","د_مرکز_ځای__موقعیت_مرکز":"علی آباد ","Polling_Center_Location":"Ali Abad ","Verification_Note":"Village","PS_Male":1,"PS_Female":1,"Map_Accuracy":"قریه"},"geometry":{"x":7013634.6095629036,"y":3919501.4688182771}},{"attributes":{"OBJECTID":5711,"ولایت":"هرات","Province":"HERAT","PC_Code":"3215359","ولسوالي":"فرسی ","District":"FERSI","د_مرکز_نوم__نام_مرکز":"مسجد حاجی آغا","Polling_Center_Name":"Haji Aagha Mosque ","د_مرکز_ځای__موقعیت_مرکز":"چپ رود","Polling_Center_Location":"Chap Rod ","Verification_Note":"Village","PS_Male":2,"PS_Female":1,"Map_Accuracy":"قریه"},"geometry":{"x":7072640.38508185,"y":4012468.6058041975}},{"attributes":{"OBJECTID":5712,"ولایت":"هرات","Province":"HERAT","PC_Code":"3216404","ولسوالي":"چشت شریف","District":"CHISHT-E-SHARIF","د_مرکز_نوم__نام_مرکز":"فضای باز چشوی ","Polling_Center_Name":"Cheshwi open Space","د_مرکز_ځای__موقعیت_مرکز":"چشوی ","Polling_Center_Location":"Cheshwi","Verification_Note":"Village","PS_Male":1,"PS_Female":1,"Map_Accuracy":"قریه"},"geometry":{"x":7113690.5371296853,"y":4085986.1479832679}},{"attributes":{"OBJECTID":5713,"ولایت":" فراه","Province":"FARAH","PC_Code":"3301022","ولسوالي":"فراه","District":"FARAH","د_مرکز_نوم__نام_مرکز":"مکتب ابتدائیه اناث","Polling_Center_Name":"Girls Primary School","د_مرکز_ځای__موقعیت_مرکز":"کوک علیا","Polling_Center_Location":"Kok Ulya","Verification_Note":"Building","PS_Male":3,"PS_Female":1,"Map_Accuracy":"تعمیر"},"geometry":{"x":6902721.3881568387,"y":3800168.4900946841}},{"attributes":{"OBJECTID":5714,"ولایت":" فراه","Province":"FARAH","PC_Code":"3302045","ولسوالي":"پشت رود","District":"PUSHTRUD","د_مرکز_نوم__نام_مرکز":"مسجد نوبهار ","Polling_Center_Name":"Naw Bahar Mosque ","د_مرکز_ځای__موقعیت_مرکز":"نو بهار","Polling_Center_Location":"Naw Bahar ","Verification_Note":"Building","PS_Male":1,"PS_Female":1,"Map_Accuracy":"تعمیر"},"geometry":{"x":6905391.4284449257,"y":3818162.7675642222}},{"attributes":{"OBJECTID":5715,"ولایت":" فراه","Province":"FARAH","PC_Code":"3305092","ولسوالي":"شیب کوه ","District":"SHIB KOH","د_مرکز_نوم__نام_مرکز":"مکتب ابتدائیه محمد آباد ","Polling_Center_Name":"Mohammad Abad Primary School ","د_مرکز_ځای__موقعیت_مرکز":" محمد آباد","Polling_Center_Location":"Mohammad Abad ","Verification_Note":"Building","PS_Male":1,"PS_Female":1,"Map_Accuracy":"تعمیر"},"geometry":{"x":6877026.3060313836,"y":3805076.8315332904}},{"attributes":{"OBJECTID":5716,"ولایت":" فراه","Province":"FARAH","PC_Code":"3306147","ولسوالي":"بالا بلوک ","District":"BALA BULUK","د_مرکز_نوم__نام_مرکز":" مسجد سیاه جنگل","Polling_Center_Name":"Seya Jungal Mosque","د_مرکز_ځای__موقعیت_مرکز":"سیاه جنگل","Polling_Center_Location":"Seya Jungal ","Verification_Note":"Village","PS_Male":1,"PS_Female":1,"Map_Accuracy":"قریه"},"geometry":{"x":6966260.44622368,"y":3849390.9157789871}},{"attributes":{"OBJECTID":5717,"ولایت":" فراه","Province":"FARAH","PC_Code":"3307071","ولسوالي":"انار دره ","District":"ANAR DARA","د_مرکز_نوم__نام_مرکز":"مسجد کلان بوجوک ","Polling_Center_Name":"Bujok Mosque ","د_مرکز_ځای__موقعیت_مرکز":"قریه بوجوک","Polling_Center_Location":"Bujok Village ","Verification_Note":"Building","PS_Male":1,"PS_Female":1,"Map_Accuracy":"تعمیر"},"geometry":{"x":6854861.8707245626,"y":3846414.8762930483}},{"attributes":{"OBJECTID":5718,"ولایت":" فراه","Province":"FARAH","PC_Code":"3309096","ولسوالي":"لاش جوین ","District":"LASH-E-JUWAYN","د_مرکز_نوم__نام_مرکز":"مکتب نسوان لفتان","Polling_Center_Name":"Laftan Girls School","د_مرکز_ځای__موقعیت_مرکز":" لفتان","Polling_Center_Location":"Laftan ","Verification_Note":"Building","PS_Male":1,"PS_Female":1,"Map_Accuracy":"تعمیر"},"geometry":{"x":6857367.0780162364,"y":3724024.9784938022}},{"attributes":{"OBJECTID":5719,"ولایت":" فراه","Province":"FARAH","PC_Code":"3311199","ولسوالي":"پرچمن","District":"PUR CHAMAN","د_مرکز_نوم__نام_مرکز":"مسجد شهریاری","Polling_Center_Name":"Shahr yari Mosque  ","د_مرکز_ځای__موقعیت_مرکز":"شهریاری","Polling_Center_Location":"Shahr yari ","Verification_Note":"Village","PS_Male":1,"PS_Female":1,"Map_Accuracy":"قریه"},"geometry":{"x":7070936.7716322616,"y":3930199.5364144221}},{"attributes":{"OBJECTID":5720,"ولایت":"نيمروز","Province":"NIMROZ","PC_Code":"3401002","ولسوالي":" زرنج","District":"ZARANJ","د_مرکز_نوم__نام_مرکز":"ریاست زراعت","Polling_Center_Name":"Agriculture Department ","د_مرکز_ځای__موقعیت_مرکز":"زرنج ","Polling_Center_Location":"Zaranj ","Verification_Note":"Building","PS_Male":3,"PS_Female":2,"Map_Accuracy":"تعمیر"},"geometry":{"x":6885726.3472509384,"y":3628239.2855127379}},{"attributes":{"OBJECTID":5721,"ولایت":"نيمروز","Province":"NIMROZ","PC_Code":"3404028","ولسوالي":"چهار برجک","District":"CHAR BURJAK","د_مرکز_نوم__نام_مرکز":"مکتب قریه جهانبگ","Polling_Center_Name":"Jahan Big Village School","د_مرکز_ځای__موقعیت_مرکز":"قریه جهانبگ","Polling_Center_Location":"Jahan Big Village","Verification_Note":"District","PS_Male":2,"PS_Female":1,"Map_Accuracy":"ولسوالی"},"geometry":{"x":6925278.2881208248,"y":3530393.1395275891}},{"attributes":{"OBJECTID":5722,"ولایت":"کابل","Province":"KABUL","PC_Code":"0101037","ولسوالي":"کابل - ناحیه 03","District":"KABUL-D03","د_مرکز_نوم__نام_مرکز":"مسجد حنظله ","Polling_Center_Name":"Hanzala Mosque","د_مرکز_ځای__موقعیت_مرکز":"دهمزنگ","Polling_Center_Location":"Dehmazang","Verification_Note":"Village","PS_Male":3,"PS_Female":2,"Map_Accuracy":"قریه"},"geometry":{"x":7698152.5264574289,"y":4098026.0208533555}},{"attributes":{"OBJECTID":5723,"ولایت":"کابل","Province":"KABUL","PC_Code":"0101152","ولسوالي":"کابل - ناحیه 08","District":"KABUL-D08","د_مرکز_نوم__نام_مرکز":"  لیسه عبدالرحمن پژواک ","Polling_Center_Name":"Abdul Rahman Pazhwak High School","د_مرکز_ځای__موقعیت_مرکز":"پروژه رحمن مينه","Polling_Center_Location":"Proja-e-Rahman Mina","Verification_Note":"Building","PS_Male":4,"PS_Female":1,"Map_Accuracy":"تعمیر"},"geometry":{"x":7705995.2606561407,"y":4094236.560129039}},{"attributes":{"OBJECTID":5724,"ولایت":"کابل","Province":"KABUL","PC_Code":"0101188","ولسوالي":"کابل - ناحیه 09","District":"KABUL-D09","د_مرکز_نوم__نام_مرکز":" بلاک اول رياست هوا شناسي","Polling_Center_Name":"1st Block of Reyasat Hawa Shanasi","د_مرکز_ځای__موقعیت_مرکز":"سرک ميدان هوايي","Polling_Center_Location":"Airport Road","Verification_Note":"Building","PS_Male":3,"PS_Female":3,"Map_Accuracy":"تعمیر"},"geometry":{"x":7704804.7788521424,"y":4103555.2931870446}},{"attributes":{"OBJECTID":5725,"ولایت":"کابل","Province":"KABUL","PC_Code":"0101189","ولسوالي":"کابل - ناحیه 09","District":"KABUL-D09","د_مرکز_نوم__نام_مرکز":" مکتب متوسطه پکتيا کوت","Polling_Center_Name":"Paktia Kot Secondary School","د_مرکز_ځای__موقعیت_مرکز":"سرک پلچرخي","Polling_Center_Location":"Pul-e-Charkhi Road","Verification_Note":"Building","PS_Male":4,"PS_Female":2,"Map_Accuracy":"تعمیر"},"geometry":{"x":7713777.9424423613,"y":4101900.7864544839}},{"attributes":{"OBJECTID":5726,"ولایت":"کابل","Province":"KABUL","PC_Code":"0101256","ولسوالي":"کابل - ناحیه 13","District":"KABUL-D13","د_مرکز_نوم__نام_مرکز":"مسجد اتحاد","Polling_Center_Name":"Itehad Mosque","د_مرکز_ځای__موقعیت_مرکز":"عقب تانک تيل برچي","Polling_Center_Location":"Behind Barchi Pump Station","Verification_Note":"Building","PS_Male":2,"PS_Female":1,"Map_Accuracy":"تعمیر"},"geometry":{"x":7689425.5403551087,"y":4096685.4609143287}},{"attributes":{"OBJECTID":5727,"ولایت":"کابل","Province":"KABUL","PC_Code":"0101328","ولسوالي":"کابل - ناحیه 17","District":"KABUL-D17","د_مرکز_نوم__نام_مرکز":" ليسه قاری نيک محمد","Polling_Center_Name":"Qari Naik Mohammad High School","د_مرکز_ځای__موقعیت_مرکز":"تهيه مسکن","Polling_Center_Location":"Tahya-e-Maskan","Verification_Note":"Building","PS_Male":4,"PS_Female":3,"Map_Accuracy":"تعمیر"},"geometry":{"x":7695345.4451970048,"y":4103320.1047780886}},{"attributes":{"OBJECTID":5728,"ولایت":"کاپيسا","Province":"KAPISA","PC_Code":"0202024","ولسوالي":"حصه دوم کوهستان","District":"HISSA-E-DUWUMI KOHISTAN","د_مرکز_نوم__نام_مرکز":"مسجد خم روباه  ","Polling_Center_Name":"Kham Roba Mosque","د_مرکز_ځای__موقعیت_مرکز":"خم روباه ","Polling_Center_Location":"kham Roba","Verification_Note":"Village","PS_Male":3,"PS_Female":1,"Map_Accuracy":"قریه"},"geometry":{"x":7718736.8806667775,"y":4173372.9049808905}},{"attributes":{"OBJECTID":5729,"ولایت":"کاپيسا","Province":"KAPISA","PC_Code":"0204034","ولسوالي":"حصه اول کوهستان ","District":"HISSA-E-AWALI KOHISTAN","د_مرکز_نوم__نام_مرکز":"لیسه نسوان نمازجای","Polling_Center_Name":"Namaz Jay Girls High School ","د_مرکز_ځای__موقعیت_مرکز":"نمازجای ","Polling_Center_Location":"Namaz Jay ","Verification_Note":"Building","PS_Male":3,"PS_Female":2,"Map_Accuracy":"تعمیر"},"geometry":{"x":7713654.088376902,"y":4183936.0799781382}},{"attributes":{"OBJECTID":5730,"ولایت":"وردک","Province":"WARDAK","PC_Code":"0402159","ولسوالي":"نرخ","District":"NERKH","د_مرکز_نوم__نام_مرکز":"خیمه سور بغل","Polling_Center_Name":"Surbaghal Tent ","د_مرکز_ځای__موقعیت_مرکز":"سور بغل","Polling_Center_Location":"Surbaghal","Verification_Note":"Village","PS_Male":1,"PS_Female":1,"Map_Accuracy":"قریه"},"geometry":{"x":7660128.6270494573,"y":4078699.2953509092}},{"attributes":{"OBJECTID":5731,"ولایت":"پکتيکا","Province":"PAKTIKA","PC_Code":"1210159","ولسوالي":"سروبی","District":"SURUBI","د_مرکز_نوم__نام_مرکز":"جومات ناوی خیل","Polling_Center_Name":"Navi Khel Mosque","د_مرکز_ځای__موقعیت_مرکز":"ناوی خیل","Polling_Center_Location":"Navi Khel","Verification_Note":"Village","PS_Male":2,"PS_Female":0,"Map_Accuracy":"قریه"},"geometry":{"x":7691833.5301090889,"y":3867489.9347831383}},{"attributes":{"OBJECTID":5732,"ولایت":"پکتيکا","Province":"PAKTIKA","PC_Code":"1210160","ولسوالي":"سروبی","District":"SURUBI","د_مرکز_نوم__نام_مرکز":"ملاح سمندر میلمستون","Polling_Center_Name":"Molla Samandar Guest House","د_مرکز_ځای__موقعیت_مرکز":"ناوی خیل","Polling_Center_Location":"Navi Khel","Verification_Note":"Village","PS_Male":0,"PS_Female":2,"Map_Accuracy":"قریه"},"geometry":{"x":7691860.8835343681,"y":3867502.6669040918}},{"attributes":{"OBJECTID":5733,"ولایت":"پکتيکا","Province":"PAKTIKA","PC_Code":"1211174","ولسوالي":"اورگون","District":"URGOON","د_مرکز_نوم__نام_مرکز":"حاجی فضل میلمستون","Polling_Center_Name":"Haji Fazel Guest House","د_مرکز_ځای__موقعیت_مرکز":"قلعه جانی","Polling_Center_Location":"Jani Qala","Verification_Note":"Building","PS_Male":0,"PS_Female":2,"Map_Accuracy":"تعمیر"},"geometry":{"x":7698520.6076933108,"y":3878971.3557331637}},{"attributes":{"OBJECTID":5734,"ولایت":"پکتيکا","Province":"PAKTIKA","PC_Code":"1212187","ولسوالي":"زیړوک","District":"ZIRUK","د_مرکز_نوم__نام_مرکز":"زیړوک ښوونځی","Polling_Center_Name":"Ziruk School","د_مرکز_ځای__موقعیت_مرکز":"خودکی","Polling_Center_Location":"Khodeki","Verification_Note":"Building","PS_Male":3,"PS_Female":0,"Map_Accuracy":"تعمیر"},"geometry":{"x":7716948.3104082011,"y":3915835.1050840169}},{"attributes":{"OBJECTID":5735,"ولایت":"پکتيکا","Province":"PAKTIKA","PC_Code":"1212188","ولسوالي":"زیړوک","District":"ZIRUK","د_مرکز_نوم__نام_مرکز":"عالمی کلی مدرسه","Polling_Center_Name":"Alimi Village Madrassa","د_مرکز_ځای__موقعیت_مرکز":"عالمی کلی","Polling_Center_Location":"Alimi Village","Verification_Note":"Building","PS_Male":0,"PS_Female":2,"Map_Accuracy":"تعمیر"},"geometry":{"x":7716345.163595967,"y":3916122.8232408017}},{"attributes":{"OBJECTID":5736,"ولایت":"پکتيکا","Province":"PAKTIKA","PC_Code":"1213199","ولسوالي":"نیکه","District":"NIKA","د_مرکز_نوم__نام_مرکز":"غازی خان جومات","Polling_Center_Name":"Ghazi Khan Mosque","د_مرکز_ځای__موقعیت_مرکز":"جانت خان","Polling_Center_Location":"Janat Khan","Verification_Note":"Village","PS_Male":2,"PS_Female":0,"Map_Accuracy":"قریه"},"geometry":{"x":7711374.9598390795,"y":3920337.6886295676}},{"attributes":{"OBJECTID":5737,"ولایت":"پکتيکا","Province":"PAKTIKA","PC_Code":"1213200","ولسوالي":"نیکه","District":"NIKA","د_مرکز_نوم__نام_مرکز":"حاجی سخی جان میلمستون","Polling_Center_Name":"Haji Sakhi Jan Guest House","د_مرکز_ځای__موقعیت_مرکز":"جانت خان","Polling_Center_Location":"Janat Khan","Verification_Note":"Village","PS_Male":0,"PS_Female":2,"Map_Accuracy":"قریه"},"geometry":{"x":7711323.1261445843,"y":3920464.3730367944}},{"attributes":{"OBJECTID":5738,"ولایت":"پکتيکا","Province":"PAKTIKA","PC_Code":"1214305","ولسوالي":"برمل","District":"BARMAL","د_مرکز_نوم__نام_مرکز":"شیرباز میلمستون ","Polling_Center_Name":" Bahadr Mosque","د_مرکز_ځای__موقعیت_مرکز":"ملک نورالله","Polling_Center_Location":"Malik Noorullah","Verification_Note":"District","PS_Male":3,"PS_Female":0,"Map_Accuracy":"ولسوالی"},"geometry":{"x":7709329.1068601869,"y":3835643.8119963706}},{"attributes":{"OBJECTID":5739,"ولایت":"پکتيکا","Province":"PAKTIKA","PC_Code":"1217229","ولسوالي":"وازه خواه","District":"WAZAKHWAH","د_مرکز_نوم__نام_مرکز":"گلالبی جومات","Polling_Center_Name":"Gulalabi Mosque","د_مرکز_ځای__موقعیت_مرکز":"گلالبی","Polling_Center_Location":"Gulalabi","Verification_Note":"Village","PS_Male":0,"PS_Female":3,"Map_Accuracy":"قریه"},"geometry":{"x":7604247.4582800679,"y":3787211.8656847626}},{"attributes":{"OBJECTID":5740,"ولایت":"پکتيا","Province":"PAKTYA","PC_Code":"1301005","ولسوالي":"گردیز","District":"GARDEZ","د_مرکز_نوم__نام_مرکز":"لیسه عبداله خیل","Polling_Center_Name":"Abdula Khel High School ","د_مرکز_ځای__موقعیت_مرکز":"تیره","Polling_Center_Location":"Tera","Verification_Note":"Building","PS_Male":2,"PS_Female":1,"Map_Accuracy":"تعمیر"},"geometry":{"x":7706532.0992344543,"y":3982618.2298568264}},{"attributes":{"OBJECTID":5741,"ولایت":"پکتيا","Province":"PAKTYA","PC_Code":"1303085","ولسوالي":"زرمت","District":"ZURMAT","د_مرکز_نوم__نام_مرکز":"سهاک لیسه ","Polling_Center_Name":"Sahak High School","د_مرکز_ځای__موقعیت_مرکز":"سهاک","Polling_Center_Location":"Sahak","Verification_Note":"Village","PS_Male":2,"PS_Female":0,"Map_Accuracy":"قریه"},"geometry":{"x":7686141.9604671337,"y":3966538.9937111661}},{"attributes":{"OBJECTID":5742,"ولایت":"پکتيا","Province":"PAKTYA","PC_Code":"1311210","ولسوالي":"ډنډ پټان","District":"DAND PATAN","د_مرکز_نوم__نام_مرکز":"مټورخ مسجد","Polling_Center_Name":"Matorokh Mosque","د_مرکز_ځای__موقعیت_مرکز":"دمټورخ كلي","Polling_Center_Location":"Matorokh Village","Verification_Note":"Building","PS_Male":1,"PS_Female":1,"Map_Accuracy":"تعمیر"},"geometry":{"x":7780350.8963453062,"y":4002041.0545031577}},{"attributes":{"OBJECTID":5743,"ولایت":"خوست","Province":"KHOST","PC_Code":"1402089","ولسوالي":"مندوزی","District":"MANDUZAY","د_مرکز_نوم__نام_مرکز":"عجب خان کلي جومات درنامي","Polling_Center_Name":"Ajab Khan Village Mosque","د_مرکز_ځای__موقعیت_مرکز":"درنامي","Polling_Center_Location":"Darnami","Verification_Note":"Building","PS_Male":1,"PS_Female":1,"Map_Accuracy":"تعمیر"},"geometry":{"x":7764621.9810638018,"y":3937009.6913494244}},{"attributes":{"OBJECTID":5744,"ولایت":"خوست","Province":"KHOST","PC_Code":"1410110","ولسوالي":"قلندر","District":"QALANDAR","د_مرکز_نوم__نام_مرکز":"خیمه په تورشره کلی کی","Polling_Center_Name":"Tor Shara Village Tent","د_مرکز_ځای__موقعیت_مرکز":"تورشره کلی","Polling_Center_Location":"Torshara","Verification_Note":"Building","PS_Male":1,"PS_Female":1,"Map_Accuracy":"تعمیر"},"geometry":{"x":7756340.4844316989,"y":3963763.5159714818}},{"attributes":{"OBJECTID":5745,"ولایت":"بدخشان","Province":"BADAKHSHAN","PC_Code":"1715155","ولسوالي":"کشم","District":"KISHM","د_مرکز_نوم__نام_مرکز":"مکتب نوچی ","Polling_Center_Name":"Nochi School","د_مرکز_ځای__موقعیت_مرکز":"نوچی ","Polling_Center_Location":"Nochi","Verification_Note":"Building","PS_Male":2,"PS_Female":1,"Map_Accuracy":"تعمیر"},"geometry":{"x":7804588.8330529518,"y":4427898.9288596734}},{"attributes":{"OBJECTID":5746,"ولایت":"بدخشان","Province":"BADAKHSHAN","PC_Code":"1715156","ولسوالي":"کشم","District":"KISHM","د_مرکز_نوم__نام_مرکز":"لیسه محزون بلوچ","Polling_Center_Name":"Mahzoon Baloch High School","د_مرکز_ځای__موقعیت_مرکز":"بلوچ","Polling_Center_Location":"Baloch","Verification_Note":"Building","PS_Male":2,"PS_Female":1,"Map_Accuracy":"تعمیر"},"geometry":{"x":7802652.539603699,"y":4417808.8588181436}},{"attributes":{"OBJECTID":5747,"ولایت":"کندز","Province":"KUNDUZ","PC_Code":"1904164","ولسوالي":"خان آباد","District":"KHAN ABAD","د_مرکز_نوم__نام_مرکز":"متوسطه تاقه چنار","Polling_Center_Name":"Taqa Chinar Secondary School","د_مرکز_ځای__موقعیت_مرکز":"قریه تاقه چنار","Polling_Center_Location":"Taqa Chinar Village","Verification_Note":"Building","PS_Male":1,"PS_Female":1,"Map_Accuracy":"تعمیر"},"geometry":{"x":7689172.9230346531,"y":4404307.3165548965}},{"attributes":{"OBJECTID":5748,"ولایت":"کندز","Province":"KUNDUZ","PC_Code":"1904173","ولسوالي":"خان آباد","District":"KHAN ABAD","د_مرکز_نوم__نام_مرکز":"کلینیک حیات الله آباد","Polling_Center_Name":"Hayatullah Abad Clinic","د_مرکز_ځای__موقعیت_مرکز":"قریه حیات الله آباد","Polling_Center_Location":"Hayatullah Abad Village","Verification_Note":"Building","PS_Male":2,"PS_Female":1,"Map_Accuracy":"تعمیر"},"geometry":{"x":7693041.1183792353,"y":4396342.7646372616}},{"attributes":{"OBJECTID":5749,"ولایت":"سمنگان","Province":"SAMANGAN","PC_Code":"2002026","ولسوالي":"حضرت سلطان","District":"HAZRAT-E-SULTAN","د_مرکز_نوم__نام_مرکز":"مسجد قدم علی","Polling_Center_Name":"Qadam Ali Mosque","د_مرکز_ځای__موقعیت_مرکز":"قریه قدم علی","Polling_Center_Location":"Qadam Ali Village","Verification_Note":"Building","PS_Male":1,"PS_Female":2,"Map_Accuracy":"تعمیر"},"geometry":{"x":7519597.01945943,"y":4325735.9228618294}},{"attributes":{"OBJECTID":5750,"ولایت":"سمنگان","Province":"SAMANGAN","PC_Code":"2005066","ولسوالي":"روی دوآب","District":"ROI-DO-AB","د_مرکز_نوم__نام_مرکز":"مکتب ابتدائیه جوپلال","Polling_Center_Name":"JoPlaal Primary School","د_مرکز_ځای__موقعیت_مرکز":"قریه جو پلال","Polling_Center_Location":"JoPlaal Village","Verification_Note":"Building","PS_Male":2,"PS_Female":2,"Map_Accuracy":"تعمیر"},"geometry":{"x":7573522.44281175,"y":4265448.4255137816}},{"attributes":{"OBJECTID":5751,"ولایت":"سمنگان","Province":"SAMANGAN","PC_Code":"2006055","ولسوالي":"دره صوف پائین","District":"DARA-E-SOOF-E-PAYIN","د_مرکز_نوم__نام_مرکز":"مدرسه نماز گاه","Polling_Center_Name":"Namazgah Madrassa","د_مرکز_ځای__موقعیت_مرکز":"قریه نماز گاه","Polling_Center_Location":"Namazgah Village","Verification_Note":"Building","PS_Male":2,"PS_Female":1,"Map_Accuracy":"تعمیر"},"geometry":{"x":7469846.2729341723,"y":4298749.7816187814}},{"attributes":{"OBJECTID":5752,"ولایت":"سرپل","Province":"SAR-E-PUL","PC_Code":"2201011","ولسوالي":"سرپل","District":"SAR-E-PUL","د_مرکز_نوم__نام_مرکز":"مکتب متوسطه آدرنگ","Polling_Center_Name":"Adrang Secondary School ","د_مرکز_ځای__موقعیت_مرکز":"قریه ادرنگ ","Polling_Center_Location":"Adrang Village","Verification_Note":"Building","PS_Male":2,"PS_Female":1,"Map_Accuracy":"تعمیر"},"geometry":{"x":7354768.47360526,"y":4313472.3667011559}},{"attributes":{"OBJECTID":5753,"ولایت":"سرپل","Province":"SAR-E-PUL","PC_Code":"2203066","ولسوالي":"کوهستانات","District":"KOHISTANAT","د_مرکز_نوم__نام_مرکز":"مدرسه امام ابو حنیفه","Polling_Center_Name":"Imam Abu Hanifa Madrassa","د_مرکز_ځای__موقعیت_مرکز":"قریه خوال ","Polling_Center_Location":"Khwal Village","Verification_Note":"Building","PS_Male":2,"PS_Female":1,"Map_Accuracy":"تعمیر"},"geometry":{"x":7316765.2595850676,"y":4268428.1797726974}},{"attributes":{"OBJECTID":5754,"ولایت":"غور","Province":"GHOR","PC_Code":"2303051","ولسوالي":"دولت یار ","District":"DAWLATYAR","د_مرکز_نوم__نام_مرکز":"مسجد سنگ شوره","Polling_Center_Name":"Sang Shora Mosque","د_مرکز_ځای__موقعیت_مرکز":" سنگ شوره","Polling_Center_Location":"Sang Shora","Verification_Note":"Village","PS_Male":2,"PS_Female":2,"Map_Accuracy":"قریه"},"geometry":{"x":7321471.3478312977,"y":4088085.0627292395}},{"attributes":{"OBJECTID":5755,"ولایت":"غور","Province":"GHOR","PC_Code":"2307162","ولسوالي":"لعل و سرجنگل ","District":"LAL WA SARJANGAL","د_مرکز_نوم__نام_مرکز":"مکتب ابتدائیه سیا خاکی کرمان ","Polling_Center_Name":"Siya Khaki Karman Primary School","د_مرکز_ځای__موقعیت_مرکز":"قریه نوغله ","Polling_Center_Location":"Noghala Village","Verification_Note":"Village","PS_Male":1,"PS_Female":1,"Map_Accuracy":"قریه"},"geometry":{"x":7403691.21128647,"y":4098428.2255055979}},{"attributes":{"OBJECTID":5756,"ولایت":"غور","Province":"GHOR","PC_Code":"2309191","ولسوالي":"تولک ","District":"TULAK","د_مرکز_نوم__نام_مرکز":"مکتب ابتدای نو چاره","Polling_Center_Name":"Naw Chara Primary School","د_مرکز_ځای__موقعیت_مرکز":" نو چاره","Polling_Center_Location":"Naw Chara","Verification_Note":"Village","PS_Male":1,"PS_Female":1,"Map_Accuracy":"قریه"},"geometry":{"x":7092007.8380324654,"y":4050532.2462327033}},{"attributes":{"OBJECTID":5757,"ولایت":"دایکندی","Province":"DAYKUNDI","PC_Code":"2408073","ولسوالي":"سنگ تخت","District":"SANG-E-TAKHT","د_مرکز_نوم__نام_مرکز":"مکتب تلخک","Polling_Center_Name":"Talkhak School","د_مرکز_ځای__موقعیت_مرکز":"بید نو سفلی، تلخک","Polling_Center_Location":"Bed Naw Sufla, Talkhak","Verification_Note":"Building","PS_Male":1,"PS_Female":1,"Map_Accuracy":"تعمیر"},"geometry":{"x":7375324.2966291271,"y":4070124.7381608263}},{"attributes":{"OBJECTID":5758,"ولایت":"زابل","Province":"ZABUL","PC_Code":"2601007","ولسوالي":"قلات","District":"QALAT","د_مرکز_نوم__نام_مرکز":"گاگری مسجد","Polling_Center_Name":"Gagari Mosque","د_مرکز_ځای__موقعیت_مرکز":"امكي","Polling_Center_Location":"Amaki","Verification_Note":"Building","PS_Male":3,"PS_Female":2,"Map_Accuracy":"تعمیر"},"geometry":{"x":7443731.5341395438,"y":3784623.0234233141}},{"attributes":{"OBJECTID":5759,"ولایت":"زابل","Province":"ZABUL","PC_Code":"2606013","ولسوالي":"شاه جوی","District":"SHAH JOI","د_مرکز_نوم__نام_مرکز":"جامع مسجد بازار","Polling_Center_Name":"Bazar Mosque","د_مرکز_ځای__موقعیت_مرکز":"بازار شاه جوي","Polling_Center_Location":"Bazar Shah Joy","Verification_Note":"Building","PS_Male":5,"PS_Female":0,"Map_Accuracy":"تعمیر"},"geometry":{"x":7505509.8418017514,"y":3831850.8666536584}},{"attributes":{"OBJECTID":5760,"ولایت":"کندهار","Province":"کندهار","PC_Code":"2703073","ولسوالي":"دامان","District":"DAMAN","د_مرکز_نوم__نام_مرکز":"د حاجي اختر محمد كور","Polling_Center_Name":"Haji Akhtar Mohamamd Private House","د_مرکز_ځای__موقعیت_مرکز":"نوي ده","Polling_Center_Location":"Nawe Ada","Verification_Note":"Village","PS_Male":0,"PS_Female":2,"Map_Accuracy":"قریه"},"geometry":{"x":7331755.91624878,"y":3704319.203740187}},{"attributes":{"OBJECTID":5761,"ولایت":"کندهار","Province":"کندهار","PC_Code":"2704188","ولسوالي":"پنجوایې","District":"PANJWAYEE","د_مرکز_نوم__نام_مرکز":"ناخونی کلی مکتب","Polling_Center_Name":"Nakhoni Village School","د_مرکز_ځای__موقعیت_مرکز":"ناخوني کلی ","Polling_Center_Location":"Nakhoni Village","Verification_Note":"Village","PS_Male":2,"PS_Female":0,"Map_Accuracy":"قریه"},"geometry":{"x":7298312.68698274,"y":3698425.8690073714}},{"attributes":{"OBJECTID":5762,"ولایت":"کندهار","Province":"کندهار","PC_Code":"2711228","ولسوالي":"سپین بولدک","District":"SPIN BOLDAK","د_مرکز_نوم__نام_مرکز":"مدرسه ميرانزو كلي","Polling_Center_Name":"Miranzo Village Madrassa","د_مرکز_ځای__موقعیت_مرکز":"نوي كلي","Polling_Center_Location":"Nawai Village","Verification_Note":"Building","PS_Male":5,"PS_Female":1,"Map_Accuracy":"تعمیر"},"geometry":{"x":7409441.2526041567,"y":3651162.03181231}},{"attributes":{"OBJECTID":5763,"ولایت":"کندهار","Province":"کندهار","PC_Code":"2718243","ولسوالي":"تخته پل","District":"TAKHTA PUL","د_مرکز_نوم__نام_مرکز":"د کلي منځني ښوونځي","Polling_Center_Name":"Village Secondary School","د_مرکز_ځای__موقعیت_مرکز":"شیر اکا کلي ولسوالی شګه","Polling_Center_Location":"Sher Aka Village Shaga District","Verification_Note":"Village","PS_Male":3,"PS_Female":1,"Map_Accuracy":"قریه"},"geometry":{"x":7342172.4483566247,"y":3668804.62659961}},{"attributes":{"OBJECTID":5764,"ولایت":"جوزجان","Province":"JAWZJAN","PC_Code":"2809067","ولسوالي":"مردیان","District":"MARDYAN","د_مرکز_نوم__نام_مرکز":"مسجد چلیک یاز خان","Polling_Center_Name":"Cheleek Yaz Khan Mosque","د_مرکز_ځای__موقعیت_مرکز":"قریه چلیگ یاز خان","Polling_Center_Location":"Cheleek Yaz Khan Village","Verification_Note":"Building","PS_Male":1,"PS_Female":1,"Map_Accuracy":"تعمیر"},"geometry":{"x":7372637.6630577482,"y":4451905.450489521}},{"attributes":{"OBJECTID":5765,"ولایت":"فارياب","Province":"FARYAB","PC_Code":"2902022","ولسوالي":"پشتون کوت","District":"PASHTUN KOT","د_مرکز_نوم__نام_مرکز":"مکتب و بازار غار تپه","Polling_Center_Name":"Ghar Tapa Bazar and Mosque","د_مرکز_ځای__موقعیت_مرکز":"مکتب و بازار غار تپه، خواجه ناموسی","Polling_Center_Location":"Khwaja Namosi","Verification_Note":"Village","PS_Male":1,"PS_Female":1,"Map_Accuracy":"قریه"},"geometry":{"x":7198913.8171443827,"y":4324184.3134313}},{"attributes":{"OBJECTID":5766,"ولایت":"هلمند","Province":"HELMAND","PC_Code":"3004054","ولسوالي":"نهرسراج","District":"NAHR-E-SARAJ","د_مرکز_نوم__نام_مرکز":"تعمیر مصطفی ","Polling_Center_Name":"Mustafa Building","د_مرکز_ځای__موقعیت_مرکز":"سربند","Polling_Center_Location":"Sarband","Verification_Note":"Village","PS_Male":3,"PS_Female":1,"Map_Accuracy":"قریه"},"geometry":{"x":7195053.7035948336,"y":3742042.33611352}},{"attributes":{"OBJECTID":5767,"ولایت":"هلمند","Province":"HELMAND","PC_Code":"3006116","ولسوالي":"گرم سیر","District":"GARM SER","د_مرکز_نوم__نام_مرکز":"مكتب لكي","Polling_Center_Name":"Lakee School","د_مرکز_ځای__موقعیت_مرکز":"امر شاه ولی خان کلی","Polling_Center_Location":"Amer Shah Wali Khan Village","Verification_Note":"Building","PS_Male":4,"PS_Female":0,"Map_Accuracy":"تعمیر"},"geometry":{"x":7138163.1798517257,"y":3608275.1378117353}},{"attributes":{"OBJECTID":5768,"ولایت":"هرات","Province":"HERAT","PC_Code":"3202076","ولسوالي":"انجیل","District":"ENJIL","د_مرکز_نوم__نام_مرکز":"مسجد جامع مرغز","Polling_Center_Name":"Marghaz Mosque ","د_مرکز_ځای__موقعیت_مرکز":"قریه مرغز","Polling_Center_Location":"Marghaz Village ","Verification_Note":"Building","PS_Male":2,"PS_Female":1,"Map_Accuracy":"تعمیر"},"geometry":{"x":6921644.5282842629,"y":4069284.49430196}},{"attributes":{"OBJECTID":5769,"ولایت":"هرات","Province":"HERAT","PC_Code":"3203083","ولسوالي":"گذره","District":"GUZARA","د_مرکز_نوم__نام_مرکز":"مکتب متوسطه ده نو","Polling_Center_Name":"Deh Now Secondary School","د_مرکز_ځای__موقعیت_مرکز":" ده نو","Polling_Center_Location":"New Deh","Verification_Note":"Building","PS_Male":1,"PS_Female":1,"Map_Accuracy":"تعمیر"},"geometry":{"x":6904322.2693011537,"y":4062688.1124996319}},{"attributes":{"OBJECTID":5770,"ولایت":"هرات","Province":"HERAT","PC_Code":"3204162","ولسوالي":"کرخ ","District":"KARRUKH","د_مرکز_نوم__نام_مرکز":"مکتب درخت توت","Polling_Center_Name":"Darakht-e-Toot School ","د_مرکز_ځای__موقعیت_مرکز":"قریه درخت توت ","Polling_Center_Location":"Darakht-e- Toot Village ","Verification_Note":"Village","PS_Male":1,"PS_Female":1,"Map_Accuracy":"قریه"},"geometry":{"x":6978216.1517425105,"y":4091585.8537699953}},{"attributes":{"OBJECTID":5771,"ولایت":"هرات","Province":"HERAT","PC_Code":"3211455","ولسوالي":"غوریان ","District":"GHORYAN","د_مرکز_نوم__نام_مرکز":"مسجدجامع عبدالله خان","Polling_Center_Name":"Abdullah Khan Mosque ","د_مرکز_ځای__موقعیت_مرکز":"یخدان ","Polling_Center_Location":"Yakhdan ","Verification_Note":"Building","PS_Male":1,"PS_Female":1,"Map_Accuracy":"تعمیر"},"geometry":{"x":6847847.1904542819,"y":4074332.9672988281}},{"attributes":{"OBJECTID":5772,"ولایت":" فراه","Province":"FARAH","PC_Code":"3301017","ولسوالي":"فراه","District":"FARAH","د_مرکز_نوم__نام_مرکز":"مکتب خرمالق ","Polling_Center_Name":"Khormaloq School","د_مرکز_ځای__موقعیت_مرکز":"خورمالق","Polling_Center_Location":"Khormaloq","Verification_Note":"Building","PS_Male":2,"PS_Female":2,"Map_Accuracy":"تعمیر"},"geometry":{"x":6953340.0860726424,"y":3800589.4231801033}},{"attributes":{"OBJECTID":5773,"ولایت":"نيمروز","Province":"NIMROZ","PC_Code":"3404023","ولسوالي":"چهار برجک","District":"CHAR BURJAK","د_مرکز_نوم__نام_مرکز":"مسجد کرکتی","Polling_Center_Name":"Karkati Mosque ","د_مرکز_ځای__موقعیت_مرکز":"بندر","Polling_Center_Location":"Bandar ","Verification_Note":"Village","PS_Male":2,"PS_Female":1,"Map_Accuracy":"قریه"},"geometry":{"x":6895471.3667944781,"y":3539330.6256013513}},{"attributes":{"OBJECTID":5774,"ولایت":"پنجشیر","Province":"PANJSHIR","PC_Code":"0803055","ولسوالي":"دره","District":"DARAH","د_مرکز_نوم__نام_مرکز":"مسجد جامع ملیمه","Polling_Center_Name":"Malima Mosque ","د_مرکز_ځای__موقعیت_مرکز":"ملیمه ","Polling_Center_Location":"Malima","Verification_Note":"Building","PS_Male":2,"PS_Female":2,"Map_Accuracy":"تعمیر"},"geometry":{"x":7751705.0584586412,"y":4207420.5421274155}},{"attributes":{"OBJECTID":5775,"ولایت":"بغلان","Province":"BAGHLAN","PC_Code":"0901017","ولسوالي":"پلخمری","District":"PUL-E-KHUMRI","د_مرکز_نوم__نام_مرکز":"قریه سفید خان غروشاخ","Polling_Center_Name":"Safid Khan Ghoroshakh Village ","د_مرکز_ځای__موقعیت_مرکز":" قریه سفید خان","Polling_Center_Location":"Safid Khan Village","Verification_Note":"Building","PS_Male":1,"PS_Female":1,"Map_Accuracy":"تعمیر"},"geometry":{"x":7638318.6452464573,"y":4299114.5809054449}},{"attributes":{"OBJECTID":5776,"ولایت":"بغلان","Province":"BAGHLAN","PC_Code":"0901036","ولسوالي":"پلخمری","District":"PUL-E-KHUMRI","د_مرکز_نوم__نام_مرکز":"مکتب نمبر 2 ","Polling_Center_Name":"Number 2 School","د_مرکز_ځای__موقعیت_مرکز":"بالا دوری بابه نظر","Polling_Center_Location":"Bala Dori Baba Nazar","Verification_Note":"Building","PS_Male":2,"PS_Female":1,"Map_Accuracy":"تعمیر"},"geometry":{"x":7644946.5131067224,"y":4309005.5398708582}},{"attributes":{"OBJECTID":5777,"ولایت":"بغلان","Province":"BAGHLAN","PC_Code":"0905069","ولسوالي":"بغلان جدید","District":"BAGLAN-E-JADEED","د_مرکز_نوم__نام_مرکز":"مسجد مولوی علا داد","Polling_Center_Name":"Mowlawe Allahdad Mosque","د_مرکز_ځای__موقعیت_مرکز":"قریه الله داد دشت کبر","Polling_Center_Location":"Allah Dad Dasht-e-Kbr Village","Verification_Note":"District","PS_Male":2,"PS_Female":0,"Map_Accuracy":"ولسوالی"},"geometry":{"x":7651803.1736900248,"y":4318689.6288622543}},{"attributes":{"OBJECTID":5778,"ولایت":"باميان","Province":"BAMYAN","PC_Code":"1005090","ولسوالي":"یکاولنگ","District":"YAKAWLANG","د_مرکز_نوم__نام_مرکز":"لیسه سچک","Polling_Center_Name":"Sachak High School","د_مرکز_ځای__موقعیت_مرکز":"سچک","Polling_Center_Location":"Sachak","Verification_Note":"Building","PS_Male":1,"PS_Female":1,"Map_Accuracy":"تعمیر"},"geometry":{"x":7418510.8411373049,"y":4142509.1216379181}},{"attributes":{"OBJECTID":5779,"ولایت":"غزنى","Province":"GHAZNI","PC_Code":"1102098","ولسوالي":"ولی محمد شهید","District":"WALI MOHAMMAD SHAHID","د_مرکز_نوم__نام_مرکز":"مسجد ده عیسی","Polling_Center_Name":"Deh Esa Mosque","د_مرکز_ځای__موقعیت_مرکز":"ده عیسي","Polling_Center_Location":"Deh Esa","Verification_Note":"Building","PS_Male":3,"PS_Female":1,"Map_Accuracy":"تعمیر"},"geometry":{"x":7593773.0088675506,"y":3970539.8806556836}},{"attributes":{"OBJECTID":5780,"ولایت":"پکتيکا","Province":"PAKTIKA","PC_Code":"1201282","ولسوالي":"شرن","District":"SHARAN","د_مرکز_نوم__نام_مرکز":"غروال ميلمستون","Polling_Center_Name":"Gharwal Guest House","د_مرکز_ځای__موقعیت_مرکز":"شرنه بازار","Polling_Center_Location":"Sharana Bazaar","Verification_Note":"Village","PS_Male":1,"PS_Female":1,"Map_Accuracy":"قریه"},"geometry":{"x":7663277.9066509567,"y":3912920.3239985183}},{"attributes":{"OBJECTID":5781,"ولایت":"پکتيکا","Province":"PAKTIKA","PC_Code":"1202027","ولسوالي":"مټا خان","District":"MATA KHAN","د_مرکز_نوم__نام_مرکز":"جومات مرکز ولسوالی","Polling_Center_Name":"District Centeral Mosque","د_مرکز_ځای__موقعیت_مرکز":"بازارمتاخان ","Polling_Center_Location":"Mata Khan Bazaar ","Verification_Note":"Village","PS_Male":3,"PS_Female":0,"Map_Accuracy":"قریه"},"geometry":{"x":7665425.2952505983,"y":3931208.71817524}},{"attributes":{"OBJECTID":5782,"ولایت":"کنړ ","Province":"KUNAR","PC_Code":"1513073","ولسوالي":"چپه دره","District":"CHAPA DARA","د_مرکز_نوم__نام_مرکز":"مسجد قریه","Polling_Center_Name":"Gul Salak Village Mosque","د_مرکز_ځای__موقعیت_مرکز":"گل سالک","Polling_Center_Location":"Gul Salak","Verification_Note":"Village","PS_Male":2,"PS_Female":2,"Map_Accuracy":"قریه"},"geometry":{"x":7874063.7079696953,"y":4161945.3679469451}},{"attributes":{"OBJECTID":5783,"ولایت":"کندز","Province":"KUNDUZ","PC_Code":"1905098","ولسوالي":"حضرت امام صاحب","District":"HAZRAT-E-IMAM SAHIB","د_مرکز_نوم__نام_مرکز":"مکتب متوسطه بته کشان","Polling_Center_Name":"Bota Kashan Secondary School","د_مرکز_ځای__موقعیت_مرکز":"بته کشان","Polling_Center_Location":"Bota Kashan","Verification_Note":"Building","PS_Male":2,"PS_Female":2,"Map_Accuracy":"تعمیر"},"geometry":{"x":7659842.1875281073,"y":4469161.3199109137}},{"attributes":{"OBJECTID":5784,"ولایت":"سمنگان","Province":"SAMANGAN","PC_Code":"2003083","ولسوالي":"خرم و سارباغ","District":"KHURAM WA SARBAGH","د_مرکز_نوم__نام_مرکز":"مدرسه تاتارچل ","Polling_Center_Name":"Tatarchal Madrassa","د_مرکز_ځای__موقعیت_مرکز":"قریه تاتار چل","Polling_Center_Location":"Tatarchal Village","Verification_Note":"Building","PS_Male":1,"PS_Female":1,"Map_Accuracy":"تعمیر"},"geometry":{"x":7603780.0700396337,"y":4311160.9363584667}},{"attributes":{"OBJECTID":5785,"ولایت":"سمنگان","Province":"SAMANGAN","PC_Code":"2006092","ولسوالي":"دره صوف پائین","District":"DARA-E-SOOF-E-PAYIN","د_مرکز_نوم__نام_مرکز":"مسجد جامع گوله حصار ","Polling_Center_Name":"Gola Hesar Jaame Mosque","د_مرکز_ځای__موقعیت_مرکز":"قریه گوله حصار","Polling_Center_Location":"Gola Hesar Village","Verification_Note":"Building","PS_Male":2,"PS_Female":2,"Map_Accuracy":"تعمیر"},"geometry":{"x":7460137.4147479869,"y":4264133.99759791}},{"attributes":{"OBJECTID":5786,"ولایت":"بلخ","Province":"BALKH","PC_Code":"2108323","ولسوالي":"چمتال","District":"CHIMTAL","د_مرکز_نوم__نام_مرکز":"منزل محمد داود","Polling_Center_Name":"Mohammad Dawood Private House","د_مرکز_ځای__موقعیت_مرکز":"قریه کلتاش","Polling_Center_Location":"Kaltash Village","Verification_Note":"Village","PS_Male":1,"PS_Female":1,"Map_Accuracy":"قریه"},"geometry":{"x":7400969.839354787,"y":4367134.9833307937}},{"attributes":{"OBJECTID":5787,"ولایت":"سرپل","Province":"SAR-E-PUL","PC_Code":"2205118","ولسوالي":"سنگ چارک","District":"SANG CHARAK","د_مرکز_نوم__نام_مرکز":"مکتب ابتدائیه قریه عرب بای","Polling_Center_Name":"Arab Bay Village Primary School","د_مرکز_ځای__موقعیت_مرکز":"قریه عرب بای","Polling_Center_Location":"Arab Bai Village","Verification_Note":"Building","PS_Male":1,"PS_Female":1,"Map_Accuracy":"تعمیر"},"geometry":{"x":7389574.7955645323,"y":4308834.77062504}},{"attributes":{"OBJECTID":5788,"ولایت":"غور","Province":"GHOR","PC_Code":"2302106","ولسوالي":"دولینه","District":"DULEENA","د_مرکز_نوم__نام_مرکز":"بازار سیا چوب","Polling_Center_Name":"Siya Chob Bazar","د_مرکز_ځای__موقعیت_مرکز":" سیا چوب","Polling_Center_Location":"Siya Chob","Verification_Note":"Village","PS_Male":2,"PS_Female":1,"Map_Accuracy":"قریه"},"geometry":{"x":7288412.7485566512,"y":4029131.799611479}},{"attributes":{"OBJECTID":5789,"ولایت":"دایکندی","Province":"DAYKUNDI","PC_Code":"2406138","ولسوالي":"کیتی","District":"KITI","د_مرکز_نوم__نام_مرکز":"مسجد سرتغان","Polling_Center_Name":"Sartaghan Mosque","د_مرکز_ځای__موقعیت_مرکز":"سرتغان","Polling_Center_Location":"Sartaghan","Verification_Note":"Building","PS_Male":2,"PS_Female":1,"Map_Accuracy":"تعمیر"},"geometry":{"x":7311196.7458478212,"y":3963730.7883610353}},{"attributes":{"OBJECTID":5790,"ولایت":"فارياب","Province":"FARYAB","PC_Code":"2901013","ولسوالي":"میمنه ","District":"MAIMANA","د_مرکز_نوم__نام_مرکز":"مکتب ذکور همت آباد","Polling_Center_Name":"Himmat Abad Boys School","د_مرکز_ځای__موقعیت_مرکز":"ناحیه پنجم","Polling_Center_Location":"D05 - Nahia 5","Verification_Note":"Building","PS_Male":2,"PS_Female":2,"Map_Accuracy":"تعمیر"},"geometry":{"x":7212979.5079139546,"y":4289303.42590604}},{"attributes":{"OBJECTID":5791,"ولایت":"فارياب","Province":"FARYAB","PC_Code":"2902200","ولسوالي":"پشتون کوت","District":"PASHTUN KOT","د_مرکز_نوم__نام_مرکز":"مسجد دهندره گلیم باف","Polling_Center_Name":"Dahendara Gleem Baft Mosque","د_مرکز_ځای__موقعیت_مرکز":"دهندره گلیم باف","Polling_Center_Location":"Dahendra Gleem Baft","Verification_Note":"Village","PS_Male":1,"PS_Female":1,"Map_Accuracy":"قریه"},"geometry":{"x":7232992.5471194685,"y":4256059.6851494238}},{"attributes":{"OBJECTID":5792,"ولایت":"فارياب","Province":"FARYAB","PC_Code":"2914175","ولسوالي":"خان چار باغ","District":"KHANI CHARBAGH","د_مرکز_نوم__نام_مرکز":"لیسه ذکور خان چهارباغ","Polling_Center_Name":"Khan Chahar Bagh Boys High School","د_مرکز_ځای__موقعیت_مرکز":"خان چهارباغ","Polling_Center_Location":"Khan Chaharbagh","Verification_Note":"Building","PS_Male":3,"PS_Female":2,"Map_Accuracy":"تعمیر"},"geometry":{"x":7260345.3968754187,"y":4439405.3112398461}},{"attributes":{"OBJECTID":5793,"ولایت":"بادغيس","Province":"BADGHIS","PC_Code":"3106092","ولسوالي":"جوند","District":"JAWAND","د_مرکز_نوم__نام_مرکز":"مسجدگاشک","Polling_Center_Name":"Gashk Mosque","د_مرکز_ځای__موقعیت_مرکز":" گاشک","Polling_Center_Location":"Gashk","Verification_Note":"Village","PS_Male":1,"PS_Female":1,"Map_Accuracy":"قریه"},"geometry":{"x":7113477.822280705,"y":4139167.6056884155}},{"attributes":{"OBJECTID":5794,"ولایت":"هرات","Province":"HERAT","PC_Code":"3210412","ولسوالي":"کشک کهنه ","District":"KUSHK-E-KUHNA","د_مرکز_نوم__نام_مرکز":"مکتب متوسطه جوی سلطانی","Polling_Center_Name":"Joy-e-Sultani Secondary School","د_مرکز_ځای__موقعیت_مرکز":"قریه جوی سلطانی","Polling_Center_Location":"Joy-e- Sultani Village","Verification_Note":"Building","PS_Male":2,"PS_Female":1,"Map_Accuracy":"تعمیر"},"geometry":{"x":6961213.5477904156,"y":4136006.8831164315}},{"attributes":{"OBJECTID":5795,"ولایت":" فراه","Province":"FARAH","PC_Code":"3301006","ولسوالي":"فراه","District":"FARAH","د_مرکز_نوم__نام_مرکز":"مسجد عسکر آباد","Polling_Center_Name":"Askar Abad Mosque","د_مرکز_ځای__موقعیت_مرکز":"عسکر آباد","Polling_Center_Location":"Askar Abad","Verification_Note":"Building","PS_Male":3,"PS_Female":1,"Map_Accuracy":"تعمیر"},"geometry":{"x":6915383.2221488431,"y":3813771.5535949841}},{"attributes":{"OBJECTID":5796,"ولایت":"غزنى","Province":"GHAZNI","PC_Code":"1111156","ولسوالي":"قره باغ","District":"QARA BAGH","د_مرکز_نوم__نام_مرکز":"مسجد قریه میر واعظ","Polling_Center_Name":"Mir Wahez Village Mosque","د_مرکز_ځای__موقعیت_مرکز":"قریه  میر واعظ","Polling_Center_Location":"Mir Wahez Village","Verification_Note":"Village","PS_Male":5,"PS_Female":0,"Map_Accuracy":"قریه"},"geometry":{"x":7583094.4640742242,"y":3926898.8713222966}},{"attributes":{"OBJECTID":5797,"ولایت":"کابل","Province":"KABUL","PC_Code":"0101135","ولسوالي":"کابل - ناحیه 07","District":"KABUL-D07","د_مرکز_نوم__نام_مرکز":"ليسه نسوان چهلستون","Polling_Center_Name":"Chehal Suton Girls High School","د_مرکز_ځای__موقعیت_مرکز":"نه برجه چهلستون","Polling_Center_Location":"Noh Burje Chehel Seton","Verification_Note":"Building","PS_Male":2,"PS_Female":3,"Map_Accuracy":"تعمیر"},"geometry":{"x":7697937.7566506378,"y":4091137.9554889351}},{"attributes":{"OBJECTID":5798,"ولایت":"کاپيسا","Province":"KAPISA","PC_Code":"0201014","ولسوالي":"محمود راقی ","District":"MAHMUDI RAQI","د_مرکز_نوم__نام_مرکز":"لیسه الله محمد شوخی (کوچی)","Polling_Center_Name":"Allah Mohammad Shukhi High School (Kuchi)","د_مرکز_ځای__موقعیت_مرکز":"شوخی ","Polling_Center_Location":"Shukhi","Verification_Note":"Building","PS_Male":2,"PS_Female":2,"Map_Accuracy":"تعمیر"},"geometry":{"x":7728979.2656764276,"y":4156553.1549373791}},{"attributes":{"OBJECTID":5799,"ولایت":"لغمان","Province":"LAGHMAN","PC_Code":"0704069","ولسوالي":"علینګار","District":"ALINGAR","د_مرکز_نوم__نام_مرکز":"دالاجيګرپه کلي کې چاردېواري","Polling_Center_Name":"Ala Jegar Village Chardewali","د_مرکز_ځای__موقعیت_مرکز":"الاجیګر","Polling_Center_Location":"Ala Jegar","Verification_Note":"District","PS_Male":2,"PS_Female":1,"Map_Accuracy":"ولسوالی"},"geometry":{"x":7832219.365271192,"y":4141269.6385601684}}]}