{"objectIdFieldName":"OBJECTID","globalIdFieldName":"","geometryType":"esriGeometryPoint","spatialReference":{"wkid":102100,"latestWkid":3857},"fields":[{"name":"OBJECTID","type":"esriFieldTypeOID","alias":"OBJECTID","sqlType":"sqlTypeOther","domain":null,"defaultValue":null},{"name":"ولایت","type":"esriFieldTypeString","alias":"ولایت","sqlType":"sqlTypeOther","length":255,"domain":null,"defaultValue":null},{"name":"Province","type":"esriFieldTypeString","alias":"Province","sqlType":"sqlTypeOther","length":255,"domain":null,"defaultValue":null},{"name":"PC_Code","type":"esriFieldTypeString","alias":"PC_Code","sqlType":"sqlTypeOther","length":255,"domain":null,"defaultValue":null},{"name":"ولسوالي","type":"esriFieldTypeString","alias":"ولسوالي","sqlType":"sqlTypeOther","length":255,"domain":null,"defaultValue":null},{"name":"District","type":"esriFieldTypeString","alias":"District","sqlType":"sqlTypeOther","length":255,"domain":null,"defaultValue":null},{"name":"د_مرکز_نوم__نام_مرکز","type":"esriFieldTypeString","alias":"د_مرکز_نوم__نام_مرکز","sqlType":"sqlTypeOther","length":255,"domain":null,"defaultValue":null},{"name":"Polling_Center_Name","type":"esriFieldTypeString","alias":"Polling_Center_Name","sqlType":"sqlTypeOther","length":255,"domain":null,"defaultValue":null},{"name":"د_مرکز_ځای__موقعیت_مرکز","type":"esriFieldTypeString","alias":"د_مرکز_ځای__موقعیت_مرکز","sqlType":"sqlTypeOther","length":255,"domain":null,"defaultValue":null},{"name":"Polling_Center_Location","type":"esriFieldTypeString","alias":"Polling_Center_Location","sqlType":"sqlTypeOther","length":255,"domain":null,"defaultValue":null},{"name":"Verification_Note","type":"esriFieldTypeString","alias":"Verification_Note","sqlType":"sqlTypeOther","length":250,"domain":null,"defaultValue":null},{"name":"PS_Male","type":"esriFieldTypeSmallInteger","alias":"PS_Male","sqlType":"sqlTypeOther","domain":null,"defaultValue":null},{"name":"PS_Female","type":"esriFieldTypeSmallInteger","alias":"PS_Female","sqlType":"sqlTypeOther","domain":null,"defaultValue":null},{"name":"Map_Accuracy","type":"esriFieldTypeString","alias":"Map_Accuracy","sqlType":"sqlTypeOther","length":10,"domain":null,"defaultValue":null}],"features":[{"attributes":{"OBJECTID":6000,"ولایت":"کندهار","Province":"کندهار","PC_Code":"2704183","ولسوالي":"پنجوایې","District":"PANJWAYEE","د_مرکز_نوم__نام_مرکز":"سلطان محمد خان مكتب","Polling_Center_Name":"Sultan Mohammad Khan School","د_مرکز_ځای__موقعیت_مرکز":"زنګي آباد","Polling_Center_Location":"Zangi Abad","Verification_Note":"Village","PS_Male":2,"PS_Female":0,"Map_Accuracy":"قریه"},"geometry":{"x":7278382.8279271275,"y":3695986.2374790609}},{"attributes":{"OBJECTID":6001,"ولایت":"هرات","Province":"HERAT","PC_Code":"3208227","ولسوالي":"گلران ","District":"GULRAN","د_مرکز_نوم__نام_مرکز":"مسجد چاه گلگل","Polling_Center_Name":"Chah galgal Mosque","د_مرکز_ځای__موقعیت_مرکز":"قریه چاه گلگل","Polling_Center_Location":"Chah Galgal Village","Verification_Note":"Village","PS_Male":1,"PS_Female":1,"Map_Accuracy":"قریه"},"geometry":{"x":6833448.6282471679,"y":4231020.0616569743}},{"attributes":{"OBJECTID":6002,"ولایت":"هرات","Province":"HERAT","PC_Code":"3209294","ولسوالي":"ادرسکن ","District":"ADRASKAN","د_مرکز_نوم__نام_مرکز":"مسجد چاه سرخک","Polling_Center_Name":"Chahe Surkhak Mosque ","د_مرکز_ځای__موقعیت_مرکز":"چاه سرخک ","Polling_Center_Location":"Chahe Surkhak ","Verification_Note":"Building","PS_Male":1,"PS_Female":1,"Map_Accuracy":"تعمیر"},"geometry":{"x":6904783.536082793,"y":3979928.5741809011}},{"attributes":{"OBJECTID":6003,"ولایت":"هرات","Province":"HERAT","PC_Code":"3213235","ولسوالي":"کهسان ","District":"KOHSAN","د_مرکز_نوم__نام_مرکز":"مکتب ابتدایی بای محمد","Polling_Center_Name":"Bay Mohammad Primary School ","د_مرکز_ځای__موقعیت_مرکز":" بای محمد","Polling_Center_Location":"Bay Mohammad  ","Verification_Note":"Building","PS_Male":1,"PS_Female":2,"Map_Accuracy":"تعمیر"},"geometry":{"x":6825148.7438615747,"y":4137419.3628918678}},{"attributes":{"OBJECTID":6004,"ولایت":"هرات","Province":"HERAT","PC_Code":"3214307","ولسوالي":"شیندند","District":"SHINDAND","د_مرکز_نوم__نام_مرکز":"مسجد حاجی ابراهیم","Polling_Center_Name":"Haji Ibrahim Mosque ","د_مرکز_ځای__موقعیت_مرکز":"قریه خواجه نوح","Polling_Center_Location":"Khwaja Nowh Village","Verification_Note":"Building","PS_Male":1,"PS_Female":1,"Map_Accuracy":"تعمیر"},"geometry":{"x":6920976.3597574532,"y":3935943.386373207}},{"attributes":{"OBJECTID":6005,"ولایت":"هرات","Province":"HERAT","PC_Code":"3216393","ولسوالي":"چشت شریف","District":"CHISHT-E-SHARIF","د_مرکز_نوم__نام_مرکز":"مسجد ده زبر ","Polling_Center_Name":"Deh Zabr Mosque","د_مرکز_ځای__موقعیت_مرکز":"ده زبر ","Polling_Center_Location":"Deh Zabr","Verification_Note":"Building","PS_Male":1,"PS_Female":1,"Map_Accuracy":"تعمیر"},"geometry":{"x":7099460.7502987385,"y":4073903.197238721}},{"attributes":{"OBJECTID":6006,"ولایت":" فراه","Province":"FARAH","PC_Code":"3301033","ولسوالي":"فراه","District":"FARAH","د_مرکز_نوم__نام_مرکز":" لیسه توفیق میرزایی","Polling_Center_Name":"Tawfiq Merzaye High School","د_مرکز_ځای__موقعیت_مرکز":"ناحیه سوم ","Polling_Center_Location":"Nahia 3","Verification_Note":"Building","PS_Male":2,"PS_Female":2,"Map_Accuracy":"تعمیر"},"geometry":{"x":6914561.3614802659,"y":3812392.9927865639}},{"attributes":{"OBJECTID":6007,"ولایت":" فراه","Province":"FARAH","PC_Code":"3309106","ولسوالي":"لاش جوین ","District":"LASH-E-JUWAYN","د_مرکز_نوم__نام_مرکز":"مکتب ابتدائیه پیر کندر","Polling_Center_Name":"Peer Kandar Primary School ","د_مرکز_ځای__موقعیت_مرکز":" پیر کندر","Polling_Center_Location":"Peer Kandar ","Verification_Note":"Building","PS_Male":1,"PS_Female":1,"Map_Accuracy":"تعمیر"},"geometry":{"x":6859872.7840192318,"y":3754326.9240918756}},{"attributes":{"OBJECTID":6008,"ولایت":"نيمروز","Province":"NIMROZ","PC_Code":"3406048","ولسوالي":"دلارام","District":"DELARAM","د_مرکز_نوم__نام_مرکز":"مکتب ابتدایی ذکور","Polling_Center_Name":"Boys Primary School","د_مرکز_ځای__موقعیت_مرکز":"مرکز ولسوالی","Polling_Center_Location":"District Capital","Verification_Note":"Building","PS_Male":2,"PS_Female":1,"Map_Accuracy":"تعمیر"},"geometry":{"x":7060849.7006893679,"y":3784711.1173604578}},{"attributes":{"OBJECTID":6009,"ولایت":"ننگرهار","Province":"NANGARHAR","PC_Code":"0605158","ولسوالي":"کامه","District":"KAMA","د_مرکز_نوم__نام_مرکز":"سنګرسراي کلنيک","Polling_Center_Name":"Sangar Sray Clinic","د_مرکز_ځای__موقعیت_مرکز":"سنګرسراي","Polling_Center_Location":"Sangar Sray","Verification_Note":"Building","PS_Male":1,"PS_Female":2,"Map_Accuracy":"تعمیر"},"geometry":{"x":7863633.4768853076,"y":4084072.6034698486}},{"attributes":{"OBJECTID":6010,"ولایت":"ننگرهار","Province":"NANGARHAR","PC_Code":"0605159","ولسوالي":"کامه","District":"KAMA","د_مرکز_نوم__نام_مرکز":"میرزاخیل مکتب","Polling_Center_Name":"Mirza Khel School","د_مرکز_ځای__موقعیت_مرکز":"میرزاخیل","Polling_Center_Location":"MerzaKhel","Verification_Note":"Building","PS_Male":1,"PS_Female":1,"Map_Accuracy":"تعمیر"},"geometry":{"x":7867620.6683127657,"y":4084216.3642240018}},{"attributes":{"OBJECTID":6011,"ولایت":"پکتيکا","Province":"PAKTIKA","PC_Code":"1205074","ولسوالي":"سروضه ","District":"SAR RAWZA","د_مرکز_نوم__نام_مرکز":"سروضه لومړنی ښوونځی ","Polling_Center_Name":"Sar Rawza Primary School","د_مرکز_ځای__موقعیت_مرکز":"بازار سروضه ","Polling_Center_Location":"Sar Rawza Bazar","Verification_Note":"Building","PS_Male":4,"PS_Female":0,"Map_Accuracy":"تعمیر"},"geometry":{"x":7680938.5145471618,"y":3910670.2886550203}},{"attributes":{"OBJECTID":6012,"ولایت":"پکتيکا","Province":"PAKTIKA","PC_Code":"1205075","ولسوالي":"سروضه ","District":"SAR RAWZA","د_مرکز_نوم__نام_مرکز":"مارزک هلکانو ښوونځی ","Polling_Center_Name":"Marzak Boys School","د_مرکز_ځای__موقعیت_مرکز":"مارزک ","Polling_Center_Location":"Marzak","Verification_Note":"Village","PS_Male":3,"PS_Female":0,"Map_Accuracy":"قریه"},"geometry":{"x":7690469.9097614773,"y":3914926.1098871455}},{"attributes":{"OBJECTID":6013,"ولایت":"پکتيا","Province":"PAKTYA","PC_Code":"1305116","ولسوالي":"وزه ځدراڼ","District":"WUZA ZADRAN","د_مرکز_نوم__نام_مرکز":"لوټه مسجد","Polling_Center_Name":"Lota Mosque","د_مرکز_ځای__موقعیت_مرکز":"لوټه کلی","Polling_Center_Location":"Lotta Village","Verification_Note":"Building","PS_Male":2,"PS_Female":0,"Map_Accuracy":"تعمیر"},"geometry":{"x":7731431.536097452,"y":3944465.4652597159}},{"attributes":{"OBJECTID":6014,"ولایت":"ارزگان","Province":"UROZGAN","PC_Code":"2505025","ولسوالي":"خاص ارزگان","District":"KHAS UROZGAN","د_مرکز_نوم__نام_مرکز":"لیسه بازار گنداب","Polling_Center_Name":"Bazar Gandab High School","د_مرکز_ځای__موقعیت_مرکز":"بازار ګنداب","Polling_Center_Location":"Gandab Bazar","Verification_Note":"Building","PS_Male":4,"PS_Female":3,"Map_Accuracy":"تعمیر"},"geometry":{"x":7441736.6521290988,"y":3910763.7538000047}},{"attributes":{"OBJECTID":6015,"ولایت":"ارزگان","Province":"UROZGAN","PC_Code":"2505026","ولسوالي":"خاص ارزگان","District":"KHAS UROZGAN","د_مرکز_نوم__نام_مرکز":"لیسه بازار حسینی","Polling_Center_Name":"Hussaini Bazar High School","د_مرکز_ځای__موقعیت_مرکز":"بازار حسینی","Polling_Center_Location":"Hussaini Bazar","Verification_Note":"Building","PS_Male":3,"PS_Female":2,"Map_Accuracy":"تعمیر"},"geometry":{"x":7438366.1573222876,"y":3904340.890505448}},{"attributes":{"OBJECTID":6016,"ولایت":"زابل","Province":"ZABUL","PC_Code":"2608035","ولسوالي":"اتغر","District":"ATGHAR","د_مرکز_نوم__نام_مرکز":"كلينیك ولسوالي","Polling_Center_Name":"District Clinic","د_مرکز_ځای__موقعیت_مرکز":"بازار اطغر","Polling_Center_Location":"Atghar Bazar","Verification_Note":"Building","PS_Male":1,"PS_Female":1,"Map_Accuracy":"تعمیر"},"geometry":{"x":7498334.4557051957,"y":3728701.6242193207}},{"attributes":{"OBJECTID":6017,"ولایت":"کندهار","Province":"کندهار","PC_Code":"2703082","ولسوالي":"دامان","District":"DAMAN","د_مرکز_نوم__نام_مرکز":"مكتب ښوراندام","Polling_Center_Name":"Shorandam School","د_مرکز_ځای__موقعیت_مرکز":"ښوراندام","Polling_Center_Location":"Shorandam","Verification_Note":"Building","PS_Male":2,"PS_Female":0,"Map_Accuracy":"تعمیر"},"geometry":{"x":7327535.25779286,"y":3708684.4635086283}},{"attributes":{"OBJECTID":6018,"ولایت":"هلمند","Province":"HELMAND","PC_Code":"3014082","ولسوالي":"مارجه","District":"MARJA","د_مرکز_نوم__نام_مرکز":"امر بلند مارجه شخصي كور","Polling_Center_Name":"Amr Boland Marja Private House","د_مرکز_ځای__موقعیت_مرکز":"زا بر آباد دوراهی","Polling_Center_Location":"Zabar Abad Dorahi","Verification_Note":"Village","PS_Male":2,"PS_Female":1,"Map_Accuracy":"قریه"},"geometry":{"x":7150253.3671078011,"y":3706048.8683516905}},{"attributes":{"OBJECTID":6019,"ولایت":"هرات","Province":"HERAT","PC_Code":"3206147","ولسوالي":"پشتون زرغون","District":"PASHTUN ZARGHUN","د_مرکز_نوم__نام_مرکز":"کلینیک و مسجد","Polling_Center_Name":"Clinic and Mosque ","د_مرکز_ځای__موقعیت_مرکز":"قریه  آب گرمی","Polling_Center_Location":"Aabgarmi Village ","Verification_Note":"Village","PS_Male":1,"PS_Female":1,"Map_Accuracy":"قریه"},"geometry":{"x":6969187.1157866642,"y":4026317.7031834573}},{"attributes":{"OBJECTID":6020,"ولایت":"نيمروز","Province":"NIMROZ","PC_Code":"3403031","ولسوالي":"اصل چغانسور","District":"ASL-E-CHAKHANSUR","د_مرکز_نوم__نام_مرکز":"مکتب صاحبداد","Polling_Center_Name":"Sahib Dad School","د_مرکز_ځای__موقعیت_مرکز":"مکتب صاحبداد","Polling_Center_Location":"Sahib Dad","Verification_Note":"Building","PS_Male":1,"PS_Female":1,"Map_Accuracy":"تعمیر"},"geometry":{"x":6923118.23470271,"y":3660917.1740343347}},{"attributes":{"OBJECTID":6021,"ولایت":"نيمروز","Province":"NIMROZ","PC_Code":"3403032","ولسوالي":"اصل چغانسور","District":"ASL-E-CHAKHANSUR","د_مرکز_نوم__نام_مرکز":"مکتب قریه شاقیس","Polling_Center_Name":"Shah Qais School ","د_مرکز_ځای__موقعیت_مرکز":"قریه شاقیس","Polling_Center_Location":"Shah Qais Village","Verification_Note":"Building","PS_Male":1,"PS_Female":1,"Map_Accuracy":"تعمیر"},"geometry":{"x":6910355.5964590162,"y":3660892.3397452682}},{"attributes":{"OBJECTID":6022,"ولایت":"کابل","Province":"KABUL","PC_Code":"0101018","ولسوالي":"کابل - ناحیه 01","District":"KABUL-D01","د_مرکز_نوم__نام_مرکز":"مسجد بالا قلعه","Polling_Center_Name":"Bala Qala Mosque","د_مرکز_ځای__موقعیت_مرکز":"مسجد بالا قلعه عاشقان وعارفان","Polling_Center_Location":"Bala Qala Ashuqan-o-Arifan","Verification_Note":"Building","PS_Male":2,"PS_Female":1,"Map_Accuracy":"تعمیر"},"geometry":{"x":7700594.793708995,"y":4097157.5579197034}},{"attributes":{"OBJECTID":6023,"ولایت":"کابل","Province":"KABUL","PC_Code":"0101029","ولسوالي":"کابل - ناحیه 02","District":"KABUL-D02","د_مرکز_نوم__نام_مرکز":"لیسه شاه دو شمشیره","Polling_Center_Name":"Shah-e- Du Shamshera High School","د_مرکز_ځای__موقعیت_مرکز":"شاه دو شمشیره","Polling_Center_Location":"Shah-e-Du Shamshera","Verification_Note":"Building","PS_Male":3,"PS_Female":2,"Map_Accuracy":"تعمیر"},"geometry":{"x":7700180.0662668794,"y":4098415.6717184335}},{"attributes":{"OBJECTID":6024,"ولایت":"کابل","Province":"KABUL","PC_Code":"0101030","ولسوالي":"کابل - ناحیه 02","District":"KABUL-D02","د_مرکز_نوم__نام_مرکز":"مسجد نایب سالار","Polling_Center_Name":"Naieb Salar Mosque","د_مرکز_ځای__موقعیت_مرکز":"قول آب چکان","Polling_Center_Location":"Qul-e-Aab Chakan","Verification_Note":"Building","PS_Male":2,"PS_Female":1,"Map_Accuracy":"تعمیر"},"geometry":{"x":7699029.4880475476,"y":4099641.8558963984}},{"attributes":{"OBJECTID":6025,"ولایت":"کابل","Province":"KABUL","PC_Code":"0101077","ولسوالي":"کابل - ناحیه 05","District":"KABUL-D05","د_مرکز_نوم__نام_مرکز":" مسجد پولي تخنيک","Polling_Center_Name":"Poly Technique Mosque","د_مرکز_ځای__موقعیت_مرکز":"پولي تخنيک","Polling_Center_Location":"Poly Technique","Verification_Note":"Building","PS_Male":3,"PS_Female":3,"Map_Accuracy":"تعمیر"},"geometry":{"x":7694010.3359973691,"y":4100510.6821657568}},{"attributes":{"OBJECTID":6026,"ولایت":"کابل","Province":"KABUL","PC_Code":"0101078","ولسوالي":"کابل - ناحیه 05","District":"KABUL-D05","د_مرکز_نوم__نام_مرکز":" مسجد حضرت بلال ","Polling_Center_Name":"Hazrat Bilal Mosque","د_مرکز_ځای__موقعیت_مرکز":"قلعه کاشف","Polling_Center_Location":"Qala-e-Kashif","Verification_Note":"Building","PS_Male":3,"PS_Female":3,"Map_Accuracy":"تعمیر"},"geometry":{"x":7686114.0381992571,"y":4099571.4232500419}},{"attributes":{"OBJECTID":6027,"ولایت":"کابل","Province":"KABUL","PC_Code":"0101096","ولسوالي":"کابل - ناحیه 06","District":"KABUL-D06","د_مرکز_نوم__نام_مرکز":" مسجد امام حسن مجتبي","Polling_Center_Name":"Imam-e-Hussain Mujtaba Mosque","د_مرکز_ځای__موقعیت_مرکز":"مرکز تلگراف","Polling_Center_Location":"Telegraph Center","Verification_Note":"Building","PS_Male":3,"PS_Female":2,"Map_Accuracy":"تعمیر"},"geometry":{"x":7693311.5957987979,"y":4096856.2886865363}},{"attributes":{"OBJECTID":6028,"ولایت":"کابل","Province":"KABUL","PC_Code":"0101097","ولسوالي":"کابل - ناحیه 06","District":"KABUL-D06","د_مرکز_نوم__نام_مرکز":" مدرسه خاتم الانبيا","Polling_Center_Name":"Khatamul Anbia Madrassa","د_مرکز_ځای__موقعیت_مرکز":"قلعه ناظر","Polling_Center_Location":"Qala-e-Nazer","Verification_Note":"Building","PS_Male":4,"PS_Female":4,"Map_Accuracy":"تعمیر"},"geometry":{"x":7692677.4364896193,"y":4096701.3547135144}},{"attributes":{"OBJECTID":6029,"ولایت":"کابل","Province":"KABUL","PC_Code":"0101115","ولسوالي":"کابل - ناحیه 06","District":"KABUL-D06","د_مرکز_نوم__نام_مرکز":" مدرسه جامعۀ الاسلام","Polling_Center_Name":"Jamia Islam Madrassa","د_مرکز_ځای__موقعیت_مرکز":"پل سوخته","Polling_Center_Location":"Pul-e-Sukhta","Verification_Note":"Building","PS_Male":3,"PS_Female":2,"Map_Accuracy":"تعمیر"},"geometry":{"x":7694156.7355992906,"y":4096731.2147462294}},{"attributes":{"OBJECTID":6030,"ولایت":"کابل","Province":"KABUL","PC_Code":"0101203","ولسوالي":"کابل - ناحیه 10","District":"KABUL-D10","د_مرکز_نوم__نام_مرکز":" مسجد يادگار","Polling_Center_Name":"Yadgar Mosque","د_مرکز_ځای__موقعیت_مرکز":"چهار قلعه","Polling_Center_Location":"Chahar Qala","Verification_Note":"Building","PS_Male":2,"PS_Female":1,"Map_Accuracy":"تعمیر"},"geometry":{"x":7700753.5108125843,"y":4102743.2264962494}},{"attributes":{"OBJECTID":6031,"ولایت":"کابل","Province":"KABUL","PC_Code":"0101223","ولسوالي":"کابل - ناحیه 10","District":"KABUL-D10","د_مرکز_نوم__نام_مرکز":" ليسه احمد شاه مسعود","Polling_Center_Name":"Ahmad Shah Masood High School","د_مرکز_ځای__موقعیت_مرکز":"شهر نو","Polling_Center_Location":"Shahr-e-Naw","Verification_Note":"Building","PS_Male":3,"PS_Female":2,"Map_Accuracy":"تعمیر"},"geometry":{"x":7699244.820017755,"y":4102595.8543675542}},{"attributes":{"OBJECTID":6032,"ولایت":"کابل","Province":"KABUL","PC_Code":"0101242","ولسوالي":"کابل - ناحیه 11","District":"KABUL-D11","د_مرکز_نوم__نام_مرکز":" لیسه پروژه ","Polling_Center_Name":"Proja High School","د_مرکز_ځای__موقعیت_مرکز":"پروژه پنج خيرخانه","Polling_Center_Location":"Proja 5 Khair Khana","Verification_Note":"Building","PS_Male":4,"PS_Female":3,"Map_Accuracy":"تعمیر"},"geometry":{"x":7694698.508636672,"y":4108703.9734259471}},{"attributes":{"OBJECTID":6033,"ولایت":"کابل","Province":"KABUL","PC_Code":"0101243","ولسوالي":"کابل - ناحیه 11","District":"KABUL-D11","د_مرکز_نوم__نام_مرکز":" مسجد حضرت علی ","Polling_Center_Name":"Public helthe Workshop","د_مرکز_ځای__موقعیت_مرکز":"قلعه نجارها","Polling_Center_Location":"Qala-e-Najarha","Verification_Note":"Building","PS_Male":3,"PS_Female":2,"Map_Accuracy":"تعمیر"},"geometry":{"x":7695664.8723570071,"y":4106272.6934459955}},{"attributes":{"OBJECTID":6034,"ولایت":"کابل","Province":"KABUL","PC_Code":"0101249","ولسوالي":"کابل - ناحیه 12","District":"KABUL-D12","د_مرکز_نوم__نام_مرکز":"مکتب متوسطه استاد ابراهیم خواخوږی","Polling_Center_Name":"Ustad Ibrahim Khwakhwagi Secondary School","د_مرکز_ځای__موقعیت_مرکز":"احمد شاه بابا مينه","Polling_Center_Location":"Ahmad Shah Baba Mina","Verification_Note":"Building","PS_Male":4,"PS_Female":3,"Map_Accuracy":"تعمیر"},"geometry":{"x":7718474.00636844,"y":4099619.4533839077}},{"attributes":{"OBJECTID":6035,"ولایت":"کابل","Province":"KABUL","PC_Code":"0101250","ولسوالي":"کابل - ناحیه 12","District":"KABUL-D12","د_مرکز_نوم__نام_مرکز":" ليسه حضرت  ابراهيم خليل الله","Polling_Center_Name":"Hazrat Ibrahim Khalilullah High School","د_مرکز_ځای__موقعیت_مرکز":"احمد شاه بابا مينه","Polling_Center_Location":"Ahmad Shah Baba Mina","Verification_Note":"Building","PS_Male":5,"PS_Female":4,"Map_Accuracy":"تعمیر"},"geometry":{"x":7715823.0929952636,"y":4098080.6075041443}},{"attributes":{"OBJECTID":6036,"ولایت":"کابل","Province":"KABUL","PC_Code":"0101277","ولسوالي":"کابل - ناحیه 13","District":"KABUL-D13","د_مرکز_نوم__نام_مرکز":" مسجد مالک اشتر","Polling_Center_Name":"Malik Ashtar Mosque","د_مرکز_ځای__موقعیت_مرکز":"قلعه محب","Polling_Center_Location":"Qala-e-Muhib","Verification_Note":"Building","PS_Male":2,"PS_Female":2,"Map_Accuracy":"تعمیر"},"geometry":{"x":7686206.3209439293,"y":4096774.9181976691}},{"attributes":{"OBJECTID":6037,"ولایت":"کابل","Province":"KABUL","PC_Code":"0101500","ولسوالي":"کابل - ناحیه 13","District":"KABUL-D13","د_مرکز_نوم__نام_مرکز":"مسجد قران و عترت","Polling_Center_Name":"Quran o Utrat Mosque","د_مرکز_ځای__موقعیت_مرکز":"اونچی، ایستگاه شفاخانه","Polling_Center_Location":"Onchi, Hospital Bus Stop","Verification_Note":"Building","PS_Male":2,"PS_Female":1,"Map_Accuracy":"تعمیر"},"geometry":{"x":7691102.587408226,"y":4096498.9758867994}},{"attributes":{"OBJECTID":6038,"ولایت":"کابل","Province":"KABUL","PC_Code":"0103428","ولسوالي":"چهار آسیاب","District":"CHAHAR ASYAB","د_مرکز_نوم__نام_مرکز":"مسجد کاریز چارسوق","Polling_Center_Name":"CharSawq Karez Mosque","د_مرکز_ځای__موقعیت_مرکز":"کاریز چارسوق","Polling_Center_Location":"Karez Charsoq","Verification_Note":"Village","PS_Male":1,"PS_Female":1,"Map_Accuracy":"قریه"},"geometry":{"x":7699498.2243670151,"y":4084110.8066291213}},{"attributes":{"OBJECTID":6039,"ولایت":"کابل","Province":"KABUL","PC_Code":"0104456","ولسوالي":"بگرامی","District":"BAGRAMI","د_مرکز_نوم__نام_مرکز":" لیسه عبدالشکور رشاد","Polling_Center_Name":"Abdul Shakur Reshad High School","د_مرکز_ځای__موقعیت_مرکز":"بگرامي","Polling_Center_Location":"Bagrami","Verification_Note":"Building","PS_Male":3,"PS_Female":2,"Map_Accuracy":"تعمیر"},"geometry":{"x":7714034.9713542387,"y":4095521.6745903715}},{"attributes":{"OBJECTID":6040,"ولایت":"کابل","Province":"KABUL","PC_Code":"0105467","ولسوالي":"ده سبز","District":"DEHSABZ","د_مرکز_نوم__نام_مرکز":"مکتب متوسطه شیخو","Polling_Center_Name":"Shekho Secondary School","د_مرکز_ځای__موقعیت_مرکز":"بندي خانه","Polling_Center_Location":"Bandi Khana","Verification_Note":"Building","PS_Male":3,"PS_Female":2,"Map_Accuracy":"تعمیر"},"geometry":{"x":7708112.4070897177,"y":4127108.6247311905}},{"attributes":{"OBJECTID":6041,"ولایت":"کابل","Province":"KABUL","PC_Code":"0106388","ولسوالي":"شکردره","District":"SHAKAR DARA","د_مرکز_نوم__نام_مرکز":" ليسه بويه زار","Polling_Center_Name":"Boya Zar High School","د_مرکز_ځای__موقعیت_مرکز":"ده بويه زار","Polling_Center_Location":"Deh Boya Zar","Verification_Note":"Building","PS_Male":3,"PS_Female":3,"Map_Accuracy":"تعمیر"},"geometry":{"x":7687910.489877779,"y":4123174.6278044879}},{"attributes":{"OBJECTID":6042,"ولایت":"کابل","Province":"KABUL","PC_Code":"0107432","ولسوالي":"موسهی","District":"MUSAHI","د_مرکز_نوم__نام_مرکز":" مسجد قريه شينکي","Polling_Center_Name":"Shenkai Village Mosque","د_مرکز_ځای__موقعیت_مرکز":"دشتک","Polling_Center_Location":"Dashtak","Verification_Note":"Village","PS_Male":1,"PS_Female":2,"Map_Accuracy":"قریه"},"geometry":{"x":7707015.4982232861,"y":4078572.8392774314}},{"attributes":{"OBJECTID":6043,"ولایت":"کابل","Province":"KABUL","PC_Code":"0107433","ولسوالي":"موسهی","District":"MUSAHI","د_مرکز_نوم__نام_مرکز":" ليسه موسهي عليا","Polling_Center_Name":"Musahi Ulya High School","د_مرکز_ځای__موقعیت_مرکز":"ده کلان","Polling_Center_Location":"Deh Kalan","Verification_Note":"Village","PS_Male":2,"PS_Female":2,"Map_Accuracy":"قریه"},"geometry":{"x":7700546.3040520065,"y":4073033.4791411236}},{"attributes":{"OBJECTID":6044,"ولایت":"کابل","Province":"KABUL","PC_Code":"0108336","ولسوالي":"میر بچه کوت","District":"MIR BACHA KOT","د_مرکز_نوم__نام_مرکز":" مکتب متوسطه شیخان ","Polling_Center_Name":"Shaikan Secondary School","د_مرکز_ځای__موقعیت_مرکز":" شیخان","Polling_Center_Location":"Shaikhan","Verification_Note":"Building","PS_Male":2,"PS_Female":2,"Map_Accuracy":"تعمیر"},"geometry":{"x":7694518.2759245448,"y":4127333.0519381464}},{"attributes":{"OBJECTID":6045,"ولایت":"کابل","Province":"KABUL","PC_Code":"0109442","ولسوالي":"خاک جبار","District":"KHAK-E-JABAR","د_مرکز_نوم__نام_مرکز":" منزل شاه رسول","Polling_Center_Name":"Shah Rasool House","د_مرکز_ځای__موقعیت_مرکز":"ملنگ","Polling_Center_Location":"Malang","Verification_Note":"Village","PS_Male":2,"PS_Female":1,"Map_Accuracy":"قریه"},"geometry":{"x":7725020.4751906432,"y":4077932.1771380082}},{"attributes":{"OBJECTID":6046,"ولایت":"کابل","Province":"KABUL","PC_Code":"0110357","ولسوالي":"کلکان","District":"KALAKAN","د_مرکز_نوم__نام_مرکز":" مکتب متوسطه زمه","Polling_Center_Name":"Zama Secondary School","د_مرکز_ځای__موقعیت_مرکز":"قریه زمه نو","Polling_Center_Location":"Zama Naw Village","Verification_Note":"Building","PS_Male":2,"PS_Female":1,"Map_Accuracy":"تعمیر"},"geometry":{"x":7702260.0865370855,"y":4127131.8731989413}},{"attributes":{"OBJECTID":6047,"ولایت":"کابل","Province":"KABUL","PC_Code":"0112350","ولسوالي":"فرزه","District":"FARZA","د_مرکز_نوم__نام_مرکز":"مسجد زرکران","Polling_Center_Name":"Zargaran Mosque","د_مرکز_ځای__موقعیت_مرکز":"زرگران","Polling_Center_Location":"Zargaran","Verification_Note":"Building","PS_Male":1,"PS_Female":1,"Map_Accuracy":"تعمیر"},"geometry":{"x":7687516.6014443338,"y":4135197.5077121034}},{"attributes":{"OBJECTID":6048,"ولایت":"کابل","Province":"KABUL","PC_Code":"0114360","ولسوالي":"قره باغ","District":"QARA BAGH","د_مرکز_نوم__نام_مرکز":" مکتب متوسطه اکا خيل","Polling_Center_Name":"Aka Khel Secondary School","د_مرکز_ځای__موقعیت_مرکز":"اکا خيل","Polling_Center_Location":"Aka Khel ","Verification_Note":"Building","PS_Male":3,"PS_Female":3,"Map_Accuracy":"تعمیر"},"geometry":{"x":7700420.3182182945,"y":4146237.4603892118}},{"attributes":{"OBJECTID":6049,"ولایت":"کابل","Province":"KABUL","PC_Code":"0114371","ولسوالي":"قره باغ","District":"QARA BAGH","د_مرکز_نوم__نام_مرکز":"لیسه لنگر","Polling_Center_Name":"Langar High School","د_مرکز_ځای__موقعیت_مرکز":"لنگر","Polling_Center_Location":"Langar","Verification_Note":"Building","PS_Male":3,"PS_Female":3,"Map_Accuracy":"تعمیر"},"geometry":{"x":7703266.3041935936,"y":4139571.5317921191}},{"attributes":{"OBJECTID":6050,"ولایت":"کابل","Province":"KABUL","PC_Code":"0115484","ولسوالي":"سروبی","District":"SURUBI","د_مرکز_نوم__نام_مرکز":"مکتب ابتدائيه شهرک","Polling_Center_Name":"Shahrak Primary School","د_مرکز_ځای__موقعیت_مرکز":"شهرک","Polling_Center_Location":"Shahrak","Verification_Note":"Building","PS_Male":3,"PS_Female":1,"Map_Accuracy":"تعمیر"},"geometry":{"x":7765064.8645447306,"y":4108349.9431598559}},{"attributes":{"OBJECTID":6051,"ولایت":"کابل","Province":"KABUL","PC_Code":"0115485","ولسوالي":"سروبی","District":"SURUBI","د_مرکز_نوم__نام_مرکز":"مکتب متوسطه نسوان هوتخیل ","Polling_Center_Name":"HudKhel Girls Secondary School","د_مرکز_ځای__موقعیت_مرکز":"هوتخيل","Polling_Center_Location":"HudKhel ","Verification_Note":"Building","PS_Male":2,"PS_Female":1,"Map_Accuracy":"تعمیر"},"geometry":{"x":7762761.8323726431,"y":4107776.4291218743}},{"attributes":{"OBJECTID":6052,"ولایت":"کابل","Province":"KABUL","PC_Code":"0115486","ولسوالي":"سروبی","District":"SURUBI","د_مرکز_نوم__نام_مرکز":"مسجد بام دړي","Polling_Center_Name":"Bam Dare Mosque","د_مرکز_ځای__موقعیت_مرکز":" بام دړي","Polling_Center_Location":"Bam Darai","Verification_Note":"Village","PS_Male":2,"PS_Female":2,"Map_Accuracy":"قریه"},"geometry":{"x":7781117.3165678866,"y":4136309.1270275563}},{"attributes":{"OBJECTID":6053,"ولایت":"کاپيسا","Province":"KAPISA","PC_Code":"0201004","ولسوالي":"محمود راقی ","District":"MAHMUDI RAQI","د_مرکز_نوم__نام_مرکز":"لیسه الله محمد شوخی","Polling_Center_Name":"Allah Mohammad Shukhi High School","د_مرکز_ځای__موقعیت_مرکز":"شوخی ","Polling_Center_Location":"Shukhi","Verification_Note":"Building","PS_Male":2,"PS_Female":2,"Map_Accuracy":"تعمیر"},"geometry":{"x":7728987.407583978,"y":4156572.3484922722}},{"attributes":{"OBJECTID":6054,"ولایت":"کاپيسا","Province":"KAPISA","PC_Code":"0205048","ولسوالي":"نجراب ","District":"NIJRAB","د_مرکز_نوم__نام_مرکز":"مکتب غلام جیلانی شهید","Polling_Center_Name":"Ghulam Jelani Shaheed School ","د_مرکز_ځای__موقعیت_مرکز":"چنارقاضی ","Polling_Center_Location":"Chinar-e-Qazi","Verification_Note":"Building","PS_Male":2,"PS_Female":1,"Map_Accuracy":"تعمیر"},"geometry":{"x":7750875.7237994522,"y":4170099.7884718627}},{"attributes":{"OBJECTID":6055,"ولایت":"کاپيسا","Province":"KAPISA","PC_Code":"0205059","ولسوالي":"نجراب ","District":"NIJRAB","د_مرکز_نوم__نام_مرکز":"مکتب څارنوال حبیب الرحمن شهید","Polling_Center_Name":"Saranwal Habib Rahman Shaheed School ","د_مرکز_ځای__موقعیت_مرکز":"لقمان دره غوث ","Polling_Center_Location":"Loqman Dara-e-Ghous ","Verification_Note":"Building","PS_Male":1,"PS_Female":1,"Map_Accuracy":"تعمیر"},"geometry":{"x":7754276.6221855842,"y":4178049.4807555974}},{"attributes":{"OBJECTID":6056,"ولایت":"پروان","Province":"PARWAN","PC_Code":"0301003","ولسوالي":"چاریکار","District":"CHARIKAR","د_مرکز_نوم__نام_مرکز":"لیسه عالی تجربوی  محمد عثمان ","Polling_Center_Name":"Mohammad Usman Experimental High School","د_مرکز_ځای__موقعیت_مرکز":"چاریکار","Polling_Center_Location":"Charikar","Verification_Note":"Building","PS_Male":3,"PS_Female":2,"Map_Accuracy":"تعمیر"},"geometry":{"x":7699855.87607982,"y":4165716.1416015029}},{"attributes":{"OBJECTID":6057,"ولایت":"پروان","Province":"PARWAN","PC_Code":"0301013","ولسوالي":"چاریکار","District":"CHARIKAR","د_مرکز_نوم__نام_مرکز":"مکتب خواجه سیاران پایان","Polling_Center_Name":"Khwaja Sayaran Payan School","د_مرکز_ځای__موقعیت_مرکز":"خواجه سیاران پایان","Polling_Center_Location":"Khwaja Sayaran Payan","Verification_Note":"Building","PS_Male":2,"PS_Female":1,"Map_Accuracy":"تعمیر"},"geometry":{"x":7699244.1142521873,"y":4162557.9245632812}},{"attributes":{"OBJECTID":6058,"ولایت":"پروان","Province":"PARWAN","PC_Code":"0301024","ولسوالي":"چاریکار","District":"CHARIKAR","د_مرکز_نوم__نام_مرکز":"لیسه لغمانی","Polling_Center_Name":"Laghmani High School","د_مرکز_ځای__موقعیت_مرکز":"لغمانی","Polling_Center_Location":"Laghmani","Verification_Note":"Building","PS_Male":2,"PS_Female":1,"Map_Accuracy":"تعمیر"},"geometry":{"x":7698474.7874777019,"y":4159594.7161238194}},{"attributes":{"OBJECTID":6059,"ولایت":"پروان","Province":"PARWAN","PC_Code":"0302108","ولسوالي":"بگرام ","District":"BAGRAM","د_مرکز_نوم__نام_مرکز":"مکتب عزیز رحما ن شاه ","Polling_Center_Name":"Aziz Rahman Shah School","د_مرکز_ځای__موقعیت_مرکز":"قلعه خواجه ","Polling_Center_Location":"Qala-e-Khwaja","Verification_Note":"Building","PS_Male":2,"PS_Female":2,"Map_Accuracy":"تعمیر"},"geometry":{"x":7703382.8282045461,"y":4155676.93709331}},{"attributes":{"OBJECTID":6060,"ولایت":"پروان","Province":"PARWAN","PC_Code":"0307085","ولسوالي":"سیاه گرد غوربند","District":"SYAHGIRDI GHORBAND","د_مرکز_نوم__نام_مرکز":"لیسه چهارده","Polling_Center_Name":"Chahar Deh High School","د_مرکز_ځای__موقعیت_مرکز":"چهارده","Polling_Center_Location":"Chahar Deh","Verification_Note":"Building","PS_Male":2,"PS_Female":1,"Map_Accuracy":"تعمیر"},"geometry":{"x":7653920.3724437654,"y":4163682.0649929419}},{"attributes":{"OBJECTID":6061,"ولایت":"پروان","Province":"PARWAN","PC_Code":"0310130","ولسوالي":"شیخ علی ","District":"SHAYKH ALI","د_مرکز_نوم__نام_مرکز":"خیمه پای کوتل","Polling_Center_Name":"Pay-e-Kotal Tent","د_مرکز_ځای__موقعیت_مرکز":"قریه زیر شیبر ","Polling_Center_Location":"Zeer Shebar Village","Verification_Note":"Village","PS_Male":1,"PS_Female":1,"Map_Accuracy":"قریه"},"geometry":{"x":7600562.28331029,"y":4151440.8983559757}},{"attributes":{"OBJECTID":6062,"ولایت":"وردک","Province":"WARDAK","PC_Code":"0403023","ولسوالي":"جلریز","District":"JALREZ","د_مرکز_نوم__نام_مرکز":"متوسطه داولان","Polling_Center_Name":"Dawalan Secondary School","د_مرکز_ځای__موقعیت_مرکز":"قریه احمد زی","Polling_Center_Location":"Ahmad Zai Village","Verification_Note":"Village","PS_Male":2,"PS_Female":1,"Map_Accuracy":"قریه"},"geometry":{"x":7636158.8790326342,"y":4094157.0938919261}},{"attributes":{"OBJECTID":6063,"ولایت":"وردک","Province":"WARDAK","PC_Code":"0404102","ولسوالي":"چک وردک","District":"CHAKI WARDAK","د_مرکز_نوم__نام_مرکز":"مکتب ابتدائیه عمرفاروق  ","Polling_Center_Name":"Omer-e-Farooq Primary School","د_مرکز_ځای__موقعیت_مرکز":"سرپوش","Polling_Center_Location":"Sarpush","Verification_Note":"Village","PS_Male":1,"PS_Female":1,"Map_Accuracy":"قریه"},"geometry":{"x":7619780.7429148406,"y":4047619.7305282205}},{"attributes":{"OBJECTID":6064,"ولایت":"وردک","Province":"WARDAK","PC_Code":"0405112","ولسوالي":"سید آباد","District":"SAYYD ABAD","د_مرکز_نوم__نام_مرکز":"مکتب قریه حیدرخیل ","Polling_Center_Name":"Haider Khel Village School","د_مرکز_ځای__موقعیت_مرکز":"حیدر خیل","Polling_Center_Location":"Haider Khel","Verification_Note":"Village","PS_Male":2,"PS_Female":1,"Map_Accuracy":"قریه"},"geometry":{"x":7647529.5817030333,"y":4023157.6074951291}},{"attributes":{"OBJECTID":6065,"ولایت":"وردک","Province":"WARDAK","PC_Code":"0405124","ولسوالي":"سید آباد","District":"SAYYD ABAD","د_مرکز_نوم__نام_مرکز":"مکتب ابتدائیه حکیم خیل ","Polling_Center_Name":"School and Tent","د_مرکز_ځای__موقعیت_مرکز":"حکیم خیل","Polling_Center_Location":"Hakim Khel","Verification_Note":"Village","PS_Male":1,"PS_Female":1,"Map_Accuracy":"قریه"},"geometry":{"x":7644237.990151301,"y":4030803.5320994705}},{"attributes":{"OBJECTID":6066,"ولایت":"وردک","Province":"WARDAK","PC_Code":"0405135","ولسوالي":"سید آباد","District":"SAYYD ABAD","د_مرکز_نوم__نام_مرکز":"مکتب ابتدائیه جوی زرین","Polling_Center_Name":"Joy Zarin High School","د_مرکز_ځای__موقعیت_مرکز":"جوی زرین","Polling_Center_Location":"Joy Zarin","Verification_Note":"Village","PS_Male":1,"PS_Female":1,"Map_Accuracy":"قریه"},"geometry":{"x":7656991.7117037848,"y":4031600.265393883}},{"attributes":{"OBJECTID":6067,"ولایت":"وردک","Province":"WARDAK","PC_Code":"0406068","ولسوالي":"دایمیرداد","District":"DAYMIRDAD","د_مرکز_نوم__نام_مرکز":"مکتب بلاک حسینی","Polling_Center_Name":"Block Hussaini School","د_مرکز_ځای__موقعیت_مرکز":"قریه بلاک حسینی","Polling_Center_Location":"Block Hussaini Village","Verification_Note":"Building","PS_Male":1,"PS_Female":1,"Map_Accuracy":"تعمیر"},"geometry":{"x":7603446.1995096505,"y":4080553.3656226248}},{"attributes":{"OBJECTID":6068,"ولایت":"وردک","Province":"WARDAK","PC_Code":"0406069","ولسوالي":"دایمیرداد","District":"DAYMIRDAD","د_مرکز_نوم__نام_مرکز":"منزل ملک اسدالله","Polling_Center_Name":"Malik Asadullah House","د_مرکز_ځای__موقعیت_مرکز":"قریه نقشین","Polling_Center_Location":"Naqshen Village","Verification_Note":"Village","PS_Male":1,"PS_Female":1,"Map_Accuracy":"قریه"},"geometry":{"x":7603846.2049491145,"y":4068327.9639336169}},{"attributes":{"OBJECTID":6069,"ولایت":"وردک","Province":"WARDAK","PC_Code":"0408080","ولسوالي":"جغتو","District":"JAGHATU","د_مرکز_نوم__نام_مرکز":"مکتب نور خیل","Polling_Center_Name":"Noor Khel Mosque","د_مرکز_ځای__موقعیت_مرکز":"نور خیل","Polling_Center_Location":"Noor Khel","Verification_Note":"Village","PS_Male":1,"PS_Female":1,"Map_Accuracy":"قریه"},"geometry":{"x":7602262.6807397977,"y":3992371.8531997353}},{"attributes":{"OBJECTID":6070,"ولایت":"وردک","Province":"WARDAK","PC_Code":"0409052","ولسوالي":"مرکز بهسود","District":"MARKAZ-E-BEHSUD","د_مرکز_نوم__نام_مرکز":"مکتب بره خانه","Polling_Center_Name":"Bara Khana School","د_مرکز_ځای__موقعیت_مرکز":"سبزا","Polling_Center_Location":"Sabza","Verification_Note":"Building","PS_Male":1,"PS_Female":1,"Map_Accuracy":"تعمیر"},"geometry":{"x":7498066.3326928616,"y":4092515.2038598359}},{"attributes":{"OBJECTID":6071,"ولایت":"وردک","Province":"WARDAK","PC_Code":"0409062","ولسوالي":"مرکز بهسود","District":"MARKAZ-E-BEHSUD","د_مرکز_نوم__نام_مرکز":"مسجد کمرک","Polling_Center_Name":"Kamarak Mosque","د_مرکز_ځای__موقعیت_مرکز":"کمرک","Polling_Center_Location":"Kamarak","Verification_Note":"Village","PS_Male":1,"PS_Female":1,"Map_Accuracy":"قریه"},"geometry":{"x":7522094.9219661206,"y":4050077.2312429175}},{"attributes":{"OBJECTID":6072,"ولایت":"لوگر","Province":"LOGAR","PC_Code":"0501011","ولسوالي":"پل علم","District":"PULI ALAM","د_مرکز_نوم__نام_مرکز":"مکتب پس کاریز","Polling_Center_Name":"Pas Kariz School","د_مرکز_ځای__موقعیت_مرکز":"پس کاریز","Polling_Center_Location":"Pas Kariz","Verification_Note":"Building","PS_Male":2,"PS_Female":1,"Map_Accuracy":"تعمیر"},"geometry":{"x":7688742.2691129893,"y":4022716.8489231095}},{"attributes":{"OBJECTID":6073,"ولایت":"لوگر","Province":"LOGAR","PC_Code":"0502022","ولسوالي":"برکی برک","District":"BARAKI BARAK","د_مرکز_نوم__نام_مرکز":"ليسه غازى امان الله","Polling_Center_Name":"Ghazi Amanullah High School","د_مرکز_ځای__موقعیت_مرکز":"برکى برک","Polling_Center_Location":"Baraki Barak","Verification_Note":"Building","PS_Male":6,"PS_Female":1,"Map_Accuracy":"تعمیر"},"geometry":{"x":7674484.3952613212,"y":4024452.3927659616}},{"attributes":{"OBJECTID":6074,"ولایت":"لوگر","Province":"LOGAR","PC_Code":"0502033","ولسوالي":"برکی برک","District":"BARAKI BARAK","د_مرکز_نوم__نام_مرکز":"مکتب قلعه جابر","Polling_Center_Name":"Qala-e-Jabir School","د_مرکز_ځای__موقعیت_مرکز":"قلعه جابر","Polling_Center_Location":"Qala-e-Jabir","Verification_Note":"Building","PS_Male":1,"PS_Female":1,"Map_Accuracy":"تعمیر"},"geometry":{"x":7665787.0958408192,"y":4020944.0873680562}},{"attributes":{"OBJECTID":6075,"ولایت":"لوگر","Province":"LOGAR","PC_Code":"0505055","ولسوالي":"محمد آغه","District":"MOHAMMAD AGHA","د_مرکز_نوم__نام_مرکز":"مکتب آبازک","Polling_Center_Name":"Abazak School","د_مرکز_ځای__موقعیت_مرکز":"آبازک","Polling_Center_Location":"Abazak","Verification_Note":"Building","PS_Male":2,"PS_Female":1,"Map_Accuracy":"تعمیر"},"geometry":{"x":7687588.4548360594,"y":4065444.0773307085}},{"attributes":{"OBJECTID":6076,"ولایت":"لوگر","Province":"LOGAR","PC_Code":"0507077","ولسوالي":"اذره","District":"AZRA","د_مرکز_نوم__نام_مرکز":"مکتب سنگ باران","Polling_Center_Name":"Sang Baran School","د_مرکز_ځای__موقعیت_مرکز":"قریه سنگ باران","Polling_Center_Location":"Sang Baran Village","Verification_Note":"Village","PS_Male":3,"PS_Female":2,"Map_Accuracy":"قریه"},"geometry":{"x":7752984.5446483158,"y":4052028.7514668033}},{"attributes":{"OBJECTID":6077,"ولایت":"ننگرهار","Province":"NANGARHAR","PC_Code":"0601006","ولسوالي":"جلال آباد","District":"JALALABAD","د_مرکز_نوم__نام_مرکز":"عبدالوکيل لیسه","Polling_Center_Name":"Abdul Wakel High School","د_مرکز_ځای__موقعیت_مرکز":"اوله ناحیه","Polling_Center_Location":"D01-Nahia 1","Verification_Note":"Building","PS_Male":5,"PS_Female":0,"Map_Accuracy":"تعمیر"},"geometry":{"x":7844499.8048841208,"y":4087112.0782043561}},{"attributes":{"OBJECTID":6078,"ولایت":"ننگرهار","Province":"NANGARHAR","PC_Code":"0601018","ولسوالي":"جلال آباد","District":"JALALABAD","د_مرکز_نوم__نام_مرکز":"شهيد عارف ليسه","Polling_Center_Name":"Shaheed Arif High School","د_مرکز_ځای__موقعیت_مرکز":"پنځمه ناحیه","Polling_Center_Location":"D05-Nahia 5","Verification_Note":"Building","PS_Male":0,"PS_Female":6,"Map_Accuracy":"تعمیر"},"geometry":{"x":7840658.2126714475,"y":4085751.8389418349}},{"attributes":{"OBJECTID":6079,"ولایت":"ننگرهار","Province":"NANGARHAR","PC_Code":"0601027","ولسوالي":"جلال آباد","District":"JALALABAD","د_مرکز_نوم__نام_مرکز":"سراج العمارات باغ","Polling_Center_Name":"Sirajul Amarat Bagh","د_مرکز_ځای__موقعیت_مرکز":"اوله ناحیه","Polling_Center_Location":"D01-Nahia 1","Verification_Note":"Building","PS_Male":5,"PS_Female":0,"Map_Accuracy":"تعمیر"},"geometry":{"x":7842674.9912257269,"y":4087338.9975270629}},{"attributes":{"OBJECTID":6080,"ولایت":"ننگرهار","Province":"NANGARHAR","PC_Code":"0601039","ولسوالي":"جلال آباد","District":"JALALABAD","د_مرکز_نوم__نام_مرکز":"مجبور آباد جامع جومات","Polling_Center_Name":"Majboor Abad Jame Mosque","د_مرکز_ځای__موقعیت_مرکز":"څلورمه ناحیه","Polling_Center_Location":"D04-Nahia 4","Verification_Note":"Building","PS_Male":4,"PS_Female":0,"Map_Accuracy":"تعمیر"},"geometry":{"x":7844712.1273318976,"y":4084449.3851317316}},{"attributes":{"OBJECTID":6081,"ولایت":"ننگرهار","Province":"NANGARHAR","PC_Code":"0603075","ولسوالي":"سرخرود","District":"SURKH RUD","د_مرکز_نوم__نام_مرکز":"حاجی سردارباغ","Polling_Center_Name":"Haji Sardar Bagh ","د_مرکز_ځای__موقعیت_مرکز":"سلطان پور","Polling_Center_Location":"Sultanpoor ","Verification_Note":"Village","PS_Male":0,"PS_Female":2,"Map_Accuracy":"قریه"},"geometry":{"x":7826173.0121744312,"y":4083638.7078809515}},{"attributes":{"OBJECTID":6082,"ولایت":"ننگرهار","Province":"NANGARHAR","PC_Code":"0603087","ولسوالي":"سرخرود","District":"SURKH RUD","د_مرکز_نوم__نام_مرکز":"امرخيل مکتب","Polling_Center_Name":"AmarKhil School","د_مرکز_ځای__موقعیت_مرکز":"امر خيل","Polling_Center_Location":"AmarKhel","Verification_Note":"Village","PS_Male":4,"PS_Female":0,"Map_Accuracy":"قریه"},"geometry":{"x":7832842.059340734,"y":4090361.499410972}},{"attributes":{"OBJECTID":6083,"ولایت":"ننگرهار","Province":"NANGARHAR","PC_Code":"0603098","ولسوالي":"سرخرود","District":"SURKH RUD","د_مرکز_نوم__نام_مرکز":"جومات ګنده چشمه","Polling_Center_Name":"Ganda Chashma Mosque","د_مرکز_ځای__موقعیت_مرکز":"ګنده چشمه","Polling_Center_Location":"Ganda Chashma","Verification_Note":"Village","PS_Male":1,"PS_Female":1,"Map_Accuracy":"قریه"},"geometry":{"x":7840014.4765464738,"y":4083481.7696815729}},{"attributes":{"OBJECTID":6084,"ولایت":"ننگرهار","Province":"NANGARHAR","PC_Code":"0604110","ولسوالي":"چپرهار","District":"CHAPARHAR","د_مرکز_نوم__نام_مرکز":"ماڼو لیسه","Polling_Center_Name":"Maano High School","د_مرکز_ځای__موقعیت_مرکز":"ماڼوکلي","Polling_Center_Location":"Maano Village","Verification_Note":"Village","PS_Male":2,"PS_Female":1,"Map_Accuracy":"قریه"},"geometry":{"x":7827636.3335975856,"y":4062250.1048764288}},{"attributes":{"OBJECTID":6085,"ولایت":"ننگرهار","Province":"NANGARHAR","PC_Code":"0605168","ولسوالي":"کامه","District":"KAMA","د_مرکز_نوم__نام_مرکز":"کوزلنده بوچ جومات","Polling_Center_Name":"Koz Landabooch Mosque","د_مرکز_ځای__موقعیت_مرکز":"کوزلنده بوچ","Polling_Center_Location":"Koz landabooch","Verification_Note":"Village","PS_Male":2,"PS_Female":0,"Map_Accuracy":"قریه"},"geometry":{"x":7861234.8902887143,"y":4086831.0763834417}},{"attributes":{"OBJECTID":6086,"ولایت":"ننگرهار","Province":"NANGARHAR","PC_Code":"0605180","ولسوالي":"کامه","District":"KAMA","د_مرکز_نوم__نام_مرکز":"حضرت عمر فاروق جومات","Polling_Center_Name":"Hasrat Omar Faroq Mosque","د_مرکز_ځای__موقعیت_مرکز":"کوز میدان ","Polling_Center_Location":"Koz Maidan","Verification_Note":"Village","PS_Male":2,"PS_Female":0,"Map_Accuracy":"قریه"},"geometry":{"x":7860601.9143057317,"y":4086778.49037534}},{"attributes":{"OBJECTID":6087,"ولایت":"ننگرهار","Province":"NANGARHAR","PC_Code":"0606192","ولسوالي":"کوز کنړ","District":"KUZ KUNAR","د_مرکز_نوم__نام_مرکز":"مرکزي جومات","Polling_Center_Name":"Central Mosque","د_مرکز_ځای__موقعیت_مرکز":"قله ټک","Polling_Center_Location":"Qala Tak","Verification_Note":"Building","PS_Male":3,"PS_Female":0,"Map_Accuracy":"تعمیر"},"geometry":{"x":7856152.2171107009,"y":4106090.0925747827}},{"attributes":{"OBJECTID":6088,"ولایت":"ننگرهار","Province":"NANGARHAR","PC_Code":"0607128","ولسوالي":"رودات","District":"RODAT","د_مرکز_نوم__نام_مرکز":"حصارشاهي جومات","Polling_Center_Name":"Hesar-e-Shahee Mosque","د_مرکز_ځای__موقعیت_مرکز":"حصارشاهي","Polling_Center_Location":"Hesar-e-Shahee","Verification_Note":"Building","PS_Male":3,"PS_Female":0,"Map_Accuracy":"تعمیر"},"geometry":{"x":7856529.5022420883,"y":4063410.8467391059}},{"attributes":{"OBJECTID":6089,"ولایت":"ننگرهار","Province":"NANGARHAR","PC_Code":"0607140","ولسوالي":"رودات","District":"RODAT","د_مرکز_نوم__نام_مرکز":"بړو د جینکو مکتب","Polling_Center_Name":"Barogaray Girls School","د_مرکز_ځای__موقعیت_مرکز":"بړو ګري","Polling_Center_Location":"Barogaray","Verification_Note":"Building","PS_Male":0,"PS_Female":2,"Map_Accuracy":"تعمیر"},"geometry":{"x":7863098.9102264866,"y":4063509.4991989881}},{"attributes":{"OBJECTID":6090,"ولایت":"ننگرهار","Province":"NANGARHAR","PC_Code":"0608279","ولسوالي":"خوګیاڼي","District":"KHUGYANI","د_مرکز_نوم__نام_مرکز":"ابکو مدرسه","Polling_Center_Name":"Abko Madrassa","د_مرکز_ځای__موقعیت_مرکز":"پيره خيل","Polling_Center_Location":"Peera Khel","Verification_Note":"Building","PS_Male":1,"PS_Female":1,"Map_Accuracy":"تعمیر"},"geometry":{"x":7812233.955118008,"y":4055659.0008713603}},{"attributes":{"OBJECTID":6091,"ولایت":"ننگرهار","Province":"NANGARHAR","PC_Code":"0608290","ولسوالي":"خوګیاڼي","District":"KHUGYANI","د_مرکز_نوم__نام_مرکز":"خدر خيل ابتدائيه","Polling_Center_Name":"Khadar Khel Primary School","د_مرکز_ځای__موقعیت_مرکز":"خدر خيل","Polling_Center_Location":"Khadar Khel","Verification_Note":"Village","PS_Male":2,"PS_Female":1,"Map_Accuracy":"قریه"},"geometry":{"x":7804236.0638130233,"y":4052713.5826353058}},{"attributes":{"OBJECTID":6092,"ولایت":"ننگرهار","Province":"NANGARHAR","PC_Code":"0608301","ولسوالي":"خوګیاڼي","District":"KHUGYANI","د_مرکز_نوم__نام_مرکز":"دو ابه مکتب","Polling_Center_Name":"Du Aaaba School","د_مرکز_ځای__موقعیت_مرکز":"دو ابه","Polling_Center_Location":"Do Aaba","Verification_Note":"Village","PS_Male":1,"PS_Female":1,"Map_Accuracy":"قریه"},"geometry":{"x":7800136.3994021975,"y":4076981.2687008902}},{"attributes":{"OBJECTID":6093,"ولایت":"ننگرهار","Province":"NANGARHAR","PC_Code":"0610330","ولسوالي":"ده بالا","District":"DEH BALA","د_مرکز_نوم__نام_مرکز":"شپوله هلکانو لیسه ","Polling_Center_Name":"Shpola Boys High School","د_مرکز_ځای__موقعیت_مرکز":"شپوله","Polling_Center_Location":"Shpola","Verification_Note":"Building","PS_Male":2,"PS_Female":1,"Map_Accuracy":"تعمیر"},"geometry":{"x":7845417.6329725161,"y":4054407.4417787492}},{"attributes":{"OBJECTID":6094,"ولایت":"ننگرهار","Province":"NANGARHAR","PC_Code":"0611317","ولسوالي":"پچیر و اګام","District":"PACHIR WAGAM","د_مرکز_نوم__نام_مرکز":"جامع جومات زمرخیل","Polling_Center_Name":"Jaame Mosque","د_مرکز_ځای__موقعیت_مرکز":"زمرخیل","Polling_Center_Location":"ZmarKhel","Verification_Note":"Village","PS_Male":2,"PS_Female":1,"Map_Accuracy":"قریه"},"geometry":{"x":7823293.31387059,"y":4054978.473661311}},{"attributes":{"OBJECTID":6095,"ولایت":"ننگرهار","Province":"NANGARHAR","PC_Code":"0612235","ولسوالي":"دره نور","District":"DARAH-E-NOOR","د_مرکز_نوم__نام_مرکز":"سوتن جومات","Polling_Center_Name":"Sotan Mosque","د_مرکز_ځای__موقعیت_مرکز":"سوتن","Polling_Center_Location":"Sotan","Verification_Note":"Building","PS_Male":3,"PS_Female":0,"Map_Accuracy":"تعمیر"},"geometry":{"x":7861508.24086434,"y":4125239.9100311249}},{"attributes":{"OBJECTID":6096,"ولایت":"ننگرهار","Province":"NANGARHAR","PC_Code":"0614491","ولسوالي":"ګوشته","District":"GOSHTA","د_مرکز_نوم__نام_مرکز":"ورسک جومات","Polling_Center_Name":"Warsak Mosque","د_مرکز_ځای__موقعیت_مرکز":"ورسک","Polling_Center_Location":"Warsak","Verification_Note":"Village","PS_Male":0,"PS_Female":2,"Map_Accuracy":"قریه"},"geometry":{"x":7882838.0671944991,"y":4074920.0693840235}},{"attributes":{"OBJECTID":6097,"ولایت":"ننگرهار","Province":"NANGARHAR","PC_Code":"0615357","ولسوالي":"اچین","District":"ACHIN","د_مرکز_نوم__نام_مرکز":"خادي راغه خوږه خیل مسجد","Polling_Center_Name":"Khadi Ragha Khawga Khel Mosque","د_مرکز_ځای__موقعیت_مرکز":"خادي راغه","Polling_Center_Location":"Khadi Ragha","Verification_Note":"Village","PS_Male":1,"PS_Female":1,"Map_Accuracy":"قریه"},"geometry":{"x":7874422.0565425009,"y":4045991.6666166857}},{"attributes":{"OBJECTID":6098,"ولایت":"ننگرهار","Province":"NANGARHAR","PC_Code":"0615368","ولسوالي":"اچین","District":"ACHIN","د_مرکز_نوم__نام_مرکز":"ګاوي کلي جومات","Polling_Center_Name":"Gaawi Village Mosque","د_مرکز_ځای__موقعیت_مرکز":"ګاوي کلي","Polling_Center_Location":"Gaawi Village","Verification_Note":"Village","PS_Male":0,"PS_Female":3,"Map_Accuracy":"قریه"},"geometry":{"x":7864180.0722830221,"y":4036469.6805905625}},{"attributes":{"OBJECTID":6099,"ولایت":"ننگرهار","Province":"NANGARHAR","PC_Code":"0616420","ولسوالي":"شینوار","District":"SHINWAR","د_مرکز_نوم__نام_مرکز":"د ۲۶ ویالی لیسه","Polling_Center_Name":"26 Viyalai High School","د_مرکز_ځای__موقعیت_مرکز":"۲۶ ویاله","Polling_Center_Location":"26 Viyala","Verification_Note":"Village","PS_Male":3,"PS_Female":0,"Map_Accuracy":"قریه"},"geometry":{"x":7880742.2161795162,"y":4058690.7846167311}},{"attributes":{"OBJECTID":6100,"ولایت":"ننگرهار","Province":"NANGARHAR","PC_Code":"0616433","ولسوالي":"شینوار","District":"SHINWAR","د_مرکز_نوم__نام_مرکز":"ګولایی لیسه ","Polling_Center_Name":"Golayee School","د_مرکز_ځای__موقعیت_مرکز":"ګولايي کلي","Polling_Center_Location":"Golayee Village","Verification_Note":"Building","PS_Male":4,"PS_Female":0,"Map_Accuracy":"تعمیر"},"geometry":{"x":7877452.5437758043,"y":4057515.4301635176}},{"attributes":{"OBJECTID":6101,"ولایت":"ننگرهار","Province":"NANGARHAR","PC_Code":"0617481","ولسوالي":"مهمند دره","District":"MUHMAND DARA","د_مرکز_نوم__نام_مرکز":"بيلی لیسه","Polling_Center_Name":"Belay High School","د_مرکز_ځای__موقعیت_مرکز":"بيله کلي","Polling_Center_Location":"Belay Village","Verification_Note":"Building","PS_Male":1,"PS_Female":1,"Map_Accuracy":"تعمیر"},"geometry":{"x":7888731.6761462763,"y":4064850.2303016558}},{"attributes":{"OBJECTID":6102,"ولایت":"ننگرهار","Province":"NANGARHAR","PC_Code":"0619250","ولسوالي":"شیرزاد","District":"SHER ZAD","د_مرکز_نوم__نام_مرکز":"مرکي خيل کلینيک","Polling_Center_Name":"Marky Khel Clinic","د_مرکز_ځای__موقعیت_مرکز":"مرکي خيل","Polling_Center_Location":"Marky Khel","Verification_Note":"Village","PS_Male":3,"PS_Female":0,"Map_Accuracy":"قریه"},"geometry":{"x":7781911.9952431992,"y":4070628.9451517835}},{"attributes":{"OBJECTID":6103,"ولایت":"ننگرهار","Province":"NANGARHAR","PC_Code":"0620408","ولسوالي":"نازیان","District":"NAZYAN","د_مرکز_نوم__نام_مرکز":"سپين جومات ميدان","Polling_Center_Name":"Speen Mosque Maidan","د_مرکز_ځای__موقعیت_مرکز":"سروبي منځ","Polling_Center_Location":"Sarobay Menz","Verification_Note":"Village","PS_Male":2,"PS_Female":1,"Map_Accuracy":"قریه"},"geometry":{"x":7881950.0237490647,"y":4044329.3471026421}},{"attributes":{"OBJECTID":6104,"ولایت":"ننگرهار","Province":"NANGARHAR","PC_Code":"0621258","ولسوالي":"حصارک","District":"HESARAK","د_مرکز_نوم__نام_مرکز":"ګلاب خيل","Polling_Center_Name":"Gulab Khel","د_مرکز_ځای__موقعیت_مرکز":"لاهور خيل","Polling_Center_Location":"Lahor Khel","Verification_Note":"Village","PS_Male":0,"PS_Female":2,"Map_Accuracy":"قریه"},"geometry":{"x":7753573.9869180359,"y":4067752.3450576663}},{"attributes":{"OBJECTID":6105,"ولایت":"ننگرهار","Province":"NANGARHAR","PC_Code":"0621271","ولسوالي":"حصارک","District":"HESARAK","د_مرکز_نوم__نام_مرکز":"علي شير جومات","Polling_Center_Name":"Ali Sher Mosque","د_مرکز_ځای__موقعیت_مرکز":"علي شير","Polling_Center_Location":"Ali Sher","Verification_Note":"Village","PS_Male":2,"PS_Female":0,"Map_Accuracy":"قریه"},"geometry":{"x":7760653.2675586157,"y":4066528.8127460778}},{"attributes":{"OBJECTID":6106,"ولایت":"لغمان","Province":"LAGHMAN","PC_Code":"0701009","ولسوالي":"مهترلام","District":"MEHTARLAM","د_مرکز_نوم__نام_مرکز":"د شمنګل جومات","Polling_Center_Name":"Shamangal Mosque","د_مرکز_ځای__موقعیت_مرکز":"شمنګل","Polling_Center_Location":"Shamangal","Verification_Note":"Building","PS_Male":2,"PS_Female":1,"Map_Accuracy":"تعمیر"},"geometry":{"x":7818980.1544837989,"y":4114241.0839126334}},{"attributes":{"OBJECTID":6107,"ولایت":"لغمان","Province":"LAGHMAN","PC_Code":"0701018","ولسوالي":"مهترلام","District":"MEHTARLAM","د_مرکز_نوم__نام_مرکز":"دبديع آباد دکلي حجره","Polling_Center_Name":"Bady Abad Village Hujra","د_مرکز_ځای__موقعیت_مرکز":"کلالان","Polling_Center_Location":"Kolalan","Verification_Note":"Village","PS_Male":2,"PS_Female":1,"Map_Accuracy":"قریه"},"geometry":{"x":7823254.0782028548,"y":4128574.9899713323}},{"attributes":{"OBJECTID":6108,"ولایت":"لغمان","Province":"LAGHMAN","PC_Code":"0701024","ولسوالي":"مهترلام","District":"MEHTARLAM","د_مرکز_نوم__نام_مرکز":"د خېرآباد دکلي جومات","Polling_Center_Name":"Khair Abad Village Mosque","د_مرکز_ځای__موقعیت_مرکز":"خیر آباد","Polling_Center_Location":"Khair Abad","Verification_Note":"Village","PS_Male":2,"PS_Female":1,"Map_Accuracy":"قریه"},"geometry":{"x":7810701.0400887989,"y":4119697.0154582784}},{"attributes":{"OBJECTID":6109,"ولایت":"لغمان","Province":"LAGHMAN","PC_Code":"0702036","ولسوالي":"قرغه یي","District":"QARGHAYEE","د_مرکز_نوم__نام_مرکز":" دنهرکريم ښوونځی اودکلي حجره","Polling_Center_Name":"Nahr Karim School and De kaley Hojra","د_مرکز_ځای__موقعیت_مرکز":"نهر کریم","Polling_Center_Location":"Nahr Karim","Verification_Note":"Building","PS_Male":3,"PS_Female":1,"Map_Accuracy":"تعمیر"},"geometry":{"x":7828787.1923420392,"y":4100283.0649769753}},{"attributes":{"OBJECTID":6110,"ولایت":"لغمان","Province":"LAGHMAN","PC_Code":"0702046","ولسوالي":"قرغه یي","District":"QARGHAYEE","د_مرکز_نوم__نام_مرکز":"د سرکنډو بابا هوټل ","Polling_Center_Name":"Sarkando Baba Hotel Hujra","د_مرکز_ځای__موقعیت_مرکز":"سرکنډو بابا","Polling_Center_Location":"Sarkando Baba","Verification_Note":"Building","PS_Male":2,"PS_Female":1,"Map_Accuracy":"تعمیر"},"geometry":{"x":7793159.9937784858,"y":4097492.0259233117}},{"attributes":{"OBJECTID":6111,"ولایت":"لغمان","Province":"LAGHMAN","PC_Code":"0703086","ولسوالي":"علیشنګ","District":"ALISHING","د_مرکز_نوم__نام_مرکز":"دشکرمان ښوونځی","Polling_Center_Name":"Shakarman School","د_مرکز_ځای__موقعیت_مرکز":"شکرمان","Polling_Center_Location":"Shakarman","Verification_Note":"Village","PS_Male":1,"PS_Female":1,"Map_Accuracy":"قریه"},"geometry":{"x":7808932.255756516,"y":4126171.0381673351}},{"attributes":{"OBJECTID":6112,"ولایت":"لغمان","Province":"LAGHMAN","PC_Code":"0703097","ولسوالي":"علیشنګ","District":"ALISHING","د_مرکز_نوم__نام_مرکز":"داسلام آباد دهلکانو او نجونو ښوونځي","Polling_Center_Name":"Islam Abad Boys & Girls School","د_مرکز_ځای__موقعیت_مرکز":"اسلام آباد","Polling_Center_Location":"Islam Abad","Verification_Note":"Building","PS_Male":3,"PS_Female":1,"Map_Accuracy":"تعمیر"},"geometry":{"x":7803096.9982554242,"y":4130244.0712089241}},{"attributes":{"OBJECTID":6113,"ولایت":"لغمان","Province":"LAGHMAN","PC_Code":"0703107","ولسوالي":"علیشنګ","District":"ALISHING","د_مرکز_نوم__نام_مرکز":"عبدالله ابن مسعود لیسه","Polling_Center_Name":"Abdullah Ibn Masood High school","د_مرکز_ځای__موقعیت_مرکز":"سلاب سفلی","Polling_Center_Location":"Salab Sufla","Verification_Note":"Village","PS_Male":2,"PS_Female":1,"Map_Accuracy":"قریه"},"geometry":{"x":7796344.3089633286,"y":4135211.0068298504}},{"attributes":{"OBJECTID":6114,"ولایت":"لغمان","Province":"LAGHMAN","PC_Code":"0704064","ولسوالي":"علینګار","District":"ALINGAR","د_مرکز_نوم__نام_مرکز":"د ورناټا دکلي جومات ","Polling_Center_Name":"Waronta Village Mosque","د_مرکز_ځای__موقعیت_مرکز":"ورناټا","Polling_Center_Location":"Waronta","Verification_Note":"Building","PS_Male":2,"PS_Female":1,"Map_Accuracy":"تعمیر"},"geometry":{"x":7833714.2275135852,"y":4147825.9002616256}},{"attributes":{"OBJECTID":6115,"ولایت":"لغمان","Province":"LAGHMAN","PC_Code":"0704085","ولسوالي":"علینګار","District":"ALINGAR","د_مرکز_نوم__نام_مرکز":"ادهار کلی دیره","Polling_Center_Name":"Adhar Village Dera","د_مرکز_ځای__موقعیت_مرکز":"ادهار","Polling_Center_Location":"Adhar","Verification_Note":"Village","PS_Male":1,"PS_Female":1,"Map_Accuracy":"قریه"},"geometry":{"x":7833744.96505139,"y":4149168.3901216537}},{"attributes":{"OBJECTID":6116,"ولایت":"لغمان","Province":"LAGHMAN","PC_Code":"0705118","ولسوالي":"دولت شاه","District":"DAWLAT SHAH","د_مرکز_نوم__نام_مرکز":"د دړه باغ دکلي جومات ","Polling_Center_Name":"Dara Bagh Village Mosque","د_مرکز_ځای__موقعیت_مرکز":"دړه باغ","Polling_Center_Location":"Dara Bagh","Verification_Note":"Building","PS_Male":1,"PS_Female":2,"Map_Accuracy":"تعمیر"},"geometry":{"x":7803341.6940809153,"y":4159880.4804994762}},{"attributes":{"OBJECTID":6117,"ولایت":"پنجشیر","Province":"PANJSHIR","PC_Code":"0801001","ولسوالي":" بازارک","District":"BAZARAK","د_مرکز_نوم__نام_مرکز":"لیسه بازارک","Polling_Center_Name":"Bazarak High School","د_مرکز_ځای__موقعیت_مرکز":"بازارک ","Polling_Center_Location":"Bazarak","Verification_Note":"Building","PS_Male":2,"PS_Female":1,"Map_Accuracy":"تعمیر"},"geometry":{"x":7738351.83024127,"y":4206305.7899056524}},{"attributes":{"OBJECTID":6118,"ولایت":"پنجشیر","Province":"PANJSHIR","PC_Code":"0805034","ولسوالي":"عنابه","District":"UNABA","د_مرکز_نوم__نام_مرکز":"باغچه کلان بازار تاواخ","Polling_Center_Name":"Baghcha Kalan Bazar Tawakh","د_مرکز_ځای__موقعیت_مرکز":"تاواخ","Polling_Center_Location":"Tawaakh","Verification_Note":"Building","PS_Male":1,"PS_Female":1,"Map_Accuracy":"تعمیر"},"geometry":{"x":7725756.08551776,"y":4196445.5675196126}},{"attributes":{"OBJECTID":6119,"ولایت":"پنجشیر","Province":"PANJSHIR","PC_Code":"0807071","ولسوالي":"پریان","District":"PARYAN","د_مرکز_نوم__نام_مرکز":"سرشخ نودانگ ","Polling_Center_Name":"Sarshakh Nawdang","د_مرکز_ځای__موقعیت_مرکز":"سرشخ نودانگ ","Polling_Center_Location":"Sarshakh Nawdang","Verification_Note":"Village","PS_Male":1,"PS_Female":1,"Map_Accuracy":"قریه"},"geometry":{"x":7792747.7832700573,"y":4248810.7999737188}},{"attributes":{"OBJECTID":6120,"ولایت":"پنجشیر","Province":"PANJSHIR","PC_Code":"0807082","ولسوالي":"پریان","District":"PARYAN","د_مرکز_نوم__نام_مرکز":"مسجد شانیز ","Polling_Center_Name":"Shaniz Mosque ","د_مرکز_ځای__موقعیت_مرکز":"قریه شانیز","Polling_Center_Location":"Shaniz Village ","Verification_Note":"Village","PS_Male":1,"PS_Female":1,"Map_Accuracy":"قریه"},"geometry":{"x":7789366.768771369,"y":4246574.0825268924}},{"attributes":{"OBJECTID":6121,"ولایت":"پنجشیر","Province":"PANJSHIR","PC_Code":"0808058","ولسوالي":"آبشار","District":"ABSHAR","د_مرکز_نوم__نام_مرکز":"مسجد اهل شفیع ","Polling_Center_Name":"Ahlee Shafi Mosque ","د_مرکز_ځای__موقعیت_مرکز":"اهل شفیع ","Polling_Center_Location":"Ahlee Shafi","Verification_Note":"Village","PS_Male":1,"PS_Female":1,"Map_Accuracy":"قریه"},"geometry":{"x":7778653.2028662376,"y":4200229.9856627285}},{"attributes":{"OBJECTID":6122,"ولایت":"بغلان","Province":"BAGHLAN","PC_Code":"0901006","ولسوالي":"پلخمری","District":"PUL-E-KHUMRI","د_مرکز_نوم__نام_مرکز":"سیلو پلخمری","Polling_Center_Name":"Pol-e-Khomri Selo","د_مرکز_ځای__موقعیت_مرکز":"ناحیه دوم","Polling_Center_Location":"Second Nahia","Verification_Note":"Building","PS_Male":1,"PS_Female":1,"Map_Accuracy":"تعمیر"},"geometry":{"x":7650312.570086062,"y":4290403.3372251913}},{"attributes":{"OBJECTID":6123,"ولایت":"بغلان","Province":"BAGHLAN","PC_Code":"0901231","ولسوالي":"پلخمری","District":"PUL-E-KHUMRI","د_مرکز_نوم__نام_مرکز":"مکتب عبدالقدیر آخند زاده شاه بدالین","Polling_Center_Name":"Abdul Qadeer Okhonzada School","د_مرکز_ځای__موقعیت_مرکز":"ناحیه سوم","Polling_Center_Location":"Third Nahia","Verification_Note":"Building","PS_Male":2,"PS_Female":1,"Map_Accuracy":"تعمیر"},"geometry":{"x":7642249.5067851916,"y":4303253.7255688757}},{"attributes":{"OBJECTID":6124,"ولایت":"بغلان","Province":"BAGHLAN","PC_Code":"0902238","ولسوالي":"دهنه غوری","District":"DAHANA-E-GHURI","د_مرکز_نوم__نام_مرکز":"مسجد سرخک","Polling_Center_Name":"Sorkhak Mosque","د_مرکز_ځای__موقعیت_مرکز":"سرخک","Polling_Center_Location":"Sorkhak","Verification_Note":"Building","PS_Male":1,"PS_Female":1,"Map_Accuracy":"تعمیر"},"geometry":{"x":7634651.3437341265,"y":4258781.1158150285}},{"attributes":{"OBJECTID":6125,"ولایت":"بغلان","Province":"BAGHLAN","PC_Code":"0903102","ولسوالي":"دوشی","District":"DUSHI","د_مرکز_نوم__نام_مرکز":"مکتب  قریه ظهرابی","Polling_Center_Name":"Zahrabi Village School","د_مرکز_ځای__موقعیت_مرکز":"قریه ظهرابی","Polling_Center_Location":"Zahrabi Village","Verification_Note":"Village","PS_Male":1,"PS_Female":1,"Map_Accuracy":"قریه"},"geometry":{"x":7654551.2956953347,"y":4271824.9384986535}},{"attributes":{"OBJECTID":6126,"ولایت":"بغلان","Province":"BAGHLAN","PC_Code":"0903240","ولسوالي":"دوشی","District":"DUSHI","د_مرکز_نوم__نام_مرکز":"مسجد قریه زارغه","Polling_Center_Name":"Zargha Village Mosque","د_مرکز_ځای__موقعیت_مرکز":"قریه زارغه","Polling_Center_Location":"Zargha Village","Verification_Note":"Village","PS_Male":2,"PS_Female":1,"Map_Accuracy":"قریه"},"geometry":{"x":7634643.6515573151,"y":4240470.2252783179}},{"attributes":{"OBJECTID":6127,"ولایت":"بغلان","Province":"BAGHLAN","PC_Code":"0904139","ولسوالي":"نهرین","District":"NAHREEN","د_مرکز_نوم__نام_مرکز":"لیسه نسوان بی بی آمنه ","Polling_Center_Name":"Bibi Ameena Girls School","د_مرکز_ځای__موقعیت_مرکز":"شهر جدید","Polling_Center_Location":"Shahr-e-Jadid ","Verification_Note":"Building","PS_Male":1,"PS_Female":1,"Map_Accuracy":"تعمیر"},"geometry":{"x":7692716.5953469016,"y":4309615.0925766826}},{"attributes":{"OBJECTID":6128,"ولایت":"بغلان","Province":"BAGHLAN","PC_Code":"0904245","ولسوالي":"نهرین","District":"NAHREEN","د_مرکز_نوم__نام_مرکز":"مسجد حافظ بچه ","Polling_Center_Name":"Hafiz Bacha Mosque","د_مرکز_ځای__موقعیت_مرکز":"حافظ بچه","Polling_Center_Location":"Hafiz Bacha","Verification_Note":"Building","PS_Male":1,"PS_Female":1,"Map_Accuracy":"تعمیر"},"geometry":{"x":7689666.6672777273,"y":4308716.90048977}},{"attributes":{"OBJECTID":6129,"ولایت":"بغلان","Province":"BAGHLAN","PC_Code":"0907121","ولسوالي":"اندراب","District":"ANDARAB","د_مرکز_نوم__نام_مرکز":"خیمه در قریه سرپل ","Polling_Center_Name":"Sari Pul Village Tent","د_مرکز_ځای__موقعیت_مرکز":"قریه سرپل","Polling_Center_Location":"Saripul Village","Verification_Note":"Building","PS_Male":2,"PS_Female":1,"Map_Accuracy":"تعمیر"},"geometry":{"x":7712141.1685546264,"y":4249127.7825198472}},{"attributes":{"OBJECTID":6130,"ولایت":"بغلان","Province":"BAGHLAN","PC_Code":"0910150","ولسوالي":"برکه","District":"BURKA","د_مرکز_نوم__نام_مرکز":"مکتب متوسطه سای هزاره ","Polling_Center_Name":"Sai Hezada Secondary School","د_مرکز_ځای__موقعیت_مرکز":"قریه حاجی حضرت شاه","Polling_Center_Location":"Haji Hazrat Shah","Verification_Note":"Building","PS_Male":1,"PS_Female":1,"Map_Accuracy":"تعمیر"},"geometry":{"x":7717008.8310304843,"y":4324702.5530427173}},{"attributes":{"OBJECTID":6131,"ولایت":"بغلان","Province":"BAGHLAN","PC_Code":"0910162","ولسوالي":"برکه","District":"BURKA","د_مرکز_نوم__نام_مرکز":"مکتب متوسطه بابه عایب","Polling_Center_Name":"Baba Aayeb Secondary School","د_مرکز_ځای__موقعیت_مرکز":"شش گل","Polling_Center_Location":"Shash Gul","Verification_Note":"Building","PS_Male":1,"PS_Female":1,"Map_Accuracy":"تعمیر"},"geometry":{"x":7694506.0205391608,"y":4331916.7109416053}},{"attributes":{"OBJECTID":6132,"ولایت":"بغلان","Province":"BAGHLAN","PC_Code":"0911170","ولسوالي":"تاله و برفک","District":"TALA WA BARFAK","د_مرکز_نوم__نام_مرکز":"مکتب متوسطه برفک","Polling_Center_Name":"Barfak Secondary School","د_مرکز_ځای__موقعیت_مرکز":"سرخجوی","Polling_Center_Location":"Surkhjoy","Verification_Note":"Building","PS_Male":1,"PS_Female":1,"Map_Accuracy":"تعمیر"},"geometry":{"x":7585580.9941817373,"y":4212523.4510427341}},{"attributes":{"OBJECTID":6133,"ولایت":"بغلان","Province":"BAGHLAN","PC_Code":"0913256","ولسوالي":"خوست و فرنگ","District":"KHOST WA FIRING","د_مرکز_نوم__نام_مرکز":"مکتب ابتدائیه قلعه میر ","Polling_Center_Name":"Qala-e-Mir Primary School","د_مرکز_ځای__موقعیت_مرکز":"قلعه میر","Polling_Center_Location":"Qala-e-Mir","Verification_Note":"Building","PS_Male":1,"PS_Female":1,"Map_Accuracy":"تعمیر"},"geometry":{"x":7753188.1335254386,"y":4294379.4966114461}},{"attributes":{"OBJECTID":6134,"ولایت":"بغلان","Province":"BAGHLAN","PC_Code":"0915257","ولسوالي":"فرنگ و غارو","District":"FIRING WA GHARU","د_مرکز_نوم__نام_مرکز":"مسجد دشت شهان ","Polling_Center_Name":"Dasht-e-Shehan Mosque","د_مرکز_ځای__موقعیت_مرکز":"ارباب ملا مراد شهر","Polling_Center_Location":"Arbab Mulla Murad Shahr","Verification_Note":"Building","PS_Male":1,"PS_Female":1,"Map_Accuracy":"تعمیر"},"geometry":{"x":7754379.9467105493,"y":4318633.6556268632}},{"attributes":{"OBJECTID":6135,"ولایت":"باميان","Province":"BAMYAN","PC_Code":"1001012","ولسوالي":"بامیان","District":"BAMYAN","د_مرکز_نوم__نام_مرکز":"مسجد توپچی","Polling_Center_Name":"Topchi Mosque","د_مرکز_ځای__موقعیت_مرکز":"توپچی","Polling_Center_Location":"Topchi","Verification_Note":"Building","PS_Male":1,"PS_Female":1,"Map_Accuracy":"تعمیر"},"geometry":{"x":7563933.0145205,"y":4138912.3550800309}},{"attributes":{"OBJECTID":6136,"ولایت":"باميان","Province":"BAMYAN","PC_Code":"1002023","ولسوالي":"شیبر","District":"SHEBAR","د_مرکز_نوم__نام_مرکز":"مکتب ذکور شنبل","Polling_Center_Name":"Shanbol Boys School","د_مرکز_ځای__موقعیت_مرکز":"خاک بابه ","Polling_Center_Location":"Khak Baba","Verification_Note":"Building","PS_Male":1,"PS_Female":1,"Map_Accuracy":"تعمیر"},"geometry":{"x":7589893.1917681322,"y":4148844.5276037008}},{"attributes":{"OBJECTID":6137,"ولایت":"باميان","Province":"BAMYAN","PC_Code":"1003034","ولسوالي":"سیغان","District":"SAIGHAN","د_مرکز_نوم__نام_مرکز":"مسجد مردانه قرونه","Polling_Center_Name":"Qarona Male Mosque","د_مرکز_ځای__موقعیت_مرکز":"قرونه سفلی","Polling_Center_Location":"Qaron-e-Sufla","Verification_Note":"Building","PS_Male":2,"PS_Female":0,"Map_Accuracy":"تعمیر"},"geometry":{"x":7531299.0734997429,"y":4187335.8968793675}},{"attributes":{"OBJECTID":6138,"ولایت":"باميان","Province":"BAMYAN","PC_Code":"1004057","ولسوالي":"کهمرد","District":"KAHMARD","د_مرکز_نوم__نام_مرکز":"مسجد یلگاه","Polling_Center_Name":"Yalgah Mosque","د_مرکز_ځای__موقعیت_مرکز":"یلگاه","Polling_Center_Location":"Yalgah","Verification_Note":"Building","PS_Male":1,"PS_Female":1,"Map_Accuracy":"تعمیر"},"geometry":{"x":7514684.6127821654,"y":4213244.02589722}},{"attributes":{"OBJECTID":6139,"ولایت":"باميان","Province":"BAMYAN","PC_Code":"1006097","ولسوالي":"پنجاب","District":"PANJAB","د_مرکز_نوم__نام_مرکز":"منبر دهن بلدرغوتو","Polling_Center_Name":"Munbar-e-Dahan Beldar Ghotu","د_مرکز_ځای__موقعیت_مرکز":"بلدرغوتو، دهن سیاه دره","Polling_Center_Location":"Beldar Ghotu, Dahan-e-Syah Dara","Verification_Note":"Building","PS_Male":2,"PS_Female":1,"Map_Accuracy":"تعمیر"},"geometry":{"x":7458308.3171816319,"y":4074549.1949685961}},{"attributes":{"OBJECTID":6140,"ولایت":"باميان","Province":"BAMYAN","PC_Code":"1006108","ولسوالي":"پنجاب","District":"PANJAB","د_مرکز_نوم__نام_مرکز":"مسجد دهن قلعچه","Polling_Center_Name":"Dahan-e-Qalach Mosque","د_مرکز_ځای__موقعیت_مرکز":"دهن قلعچه","Polling_Center_Location":"Dahan-e-Qalacha","Verification_Note":"Building","PS_Male":1,"PS_Female":1,"Map_Accuracy":"تعمیر"},"geometry":{"x":7434499.74308956,"y":4083451.1473217756}},{"attributes":{"OBJECTID":6141,"ولایت":"باميان","Province":"BAMYAN","PC_Code":"1007119","ولسوالي":"ورس","District":"WARAS","د_مرکز_نوم__نام_مرکز":"مسجد مرکزی ورس","Polling_Center_Name":"Waras Central Mosque","د_مرکز_ځای__موقعیت_مرکز":"مرکز ورس","Polling_Center_Location":"Waras Center","Verification_Note":"Building","PS_Male":1,"PS_Female":1,"Map_Accuracy":"تعمیر"},"geometry":{"x":7444433.1608525068,"y":4056295.437351495}},{"attributes":{"OBJECTID":6142,"ولایت":"باميان","Province":"BAMYAN","PC_Code":"1007130","ولسوالي":"ورس","District":"WARAS","د_مرکز_نوم__نام_مرکز":"مسجد دهن ناوه گگ","Polling_Center_Name":"Dahan-e-Nawagag Mosque","د_مرکز_ځای__موقعیت_مرکز":"ناوگگ","Polling_Center_Location":"Nawgag","Verification_Note":"Building","PS_Male":1,"PS_Female":1,"Map_Accuracy":"تعمیر"},"geometry":{"x":7411229.8529189974,"y":4039690.0461801812}},{"attributes":{"OBJECTID":6143,"ولایت":"باميان","Province":"BAMYAN","PC_Code":"1007141","ولسوالي":"ورس","District":"WARAS","د_مرکز_نوم__نام_مرکز":"مسجد پیتاب کندوک","Polling_Center_Name":"Petaab-e-Kandook Mosque","د_مرکز_ځای__موقعیت_مرکز":"پیتاب","Polling_Center_Location":"Petaab","Verification_Note":"Building","PS_Male":1,"PS_Female":1,"Map_Accuracy":"تعمیر"},"geometry":{"x":7484418.3671993054,"y":4026714.2925329655}},{"attributes":{"OBJECTID":6144,"ولایت":"غزنى","Province":"GHAZNI","PC_Code":"1101002","ولسوالي":"غزنی","District":"GHAZNI","د_مرکز_نوم__نام_مرکز":"ریاست شاروالی غزنی","Polling_Center_Name":"Municipality Department","د_مرکز_ځای__موقعیت_مرکز":"ریاست شاروالی مرکز شهر","Polling_Center_Location":"Department of Municipality","Verification_Note":"Building","PS_Male":5,"PS_Female":0,"Map_Accuracy":"تعمیر"},"geometry":{"x":7617159.2635282315,"y":3967723.8221708611}},{"attributes":{"OBJECTID":6145,"ولایت":"غزنى","Province":"GHAZNI","PC_Code":"1101012","ولسوالي":"غزنی","District":"GHAZNI","د_مرکز_نوم__نام_مرکز":"مسجد خان کلان","Polling_Center_Name":"Khan Kalan Mosque","د_مرکز_ځای__موقعیت_مرکز":"قلعه امیر محمد خان","Polling_Center_Location":"Qala-e-Amir Mohammad Khan","Verification_Note":"Building","PS_Male":2,"PS_Female":1,"Map_Accuracy":"تعمیر"},"geometry":{"x":7615148.0977026746,"y":3964655.5299353451}},{"attributes":{"OBJECTID":6146,"ولایت":"غزنى","Province":"GHAZNI","PC_Code":"1101023","ولسوالي":"غزنی","District":"GHAZNI","د_مرکز_نوم__نام_مرکز":"لیسه امام قایم قریه بکاول","Polling_Center_Name":"Emam Qeyam High School","د_مرکز_ځای__موقعیت_مرکز":"قریه بکاول","Polling_Center_Location":"Bakawol Village","Verification_Note":"Building","PS_Male":3,"PS_Female":1,"Map_Accuracy":"تعمیر"},"geometry":{"x":7612144.151262369,"y":3975335.2819749191}},{"attributes":{"OBJECTID":6147,"ولایت":"غزنى","Province":"GHAZNI","PC_Code":"1101033","ولسوالي":"غزنی","District":"GHAZNI","د_مرکز_نوم__نام_مرکز":"مسجد حکیم","Polling_Center_Name":"Hakim Mosque","د_مرکز_ځای__موقعیت_مرکز":"قریه خواجه حکیم ","Polling_Center_Location":"Khwaja Hakim Village","Verification_Note":"Building","PS_Male":0,"PS_Female":3,"Map_Accuracy":"تعمیر"},"geometry":{"x":7615968.384313643,"y":3969941.8715999052}},{"attributes":{"OBJECTID":6148,"ولایت":"غزنى","Province":"GHAZNI","PC_Code":"1101045","ولسوالي":"غزنی","District":"GHAZNI","د_مرکز_نوم__نام_مرکز":"کلینیک ارزو","Polling_Center_Name":"Urzo Clinic","د_مرکز_ځای__موقعیت_مرکز":"قریه ارزو ","Polling_Center_Location":"Urzo Village","Verification_Note":"Building","PS_Male":0,"PS_Female":3,"Map_Accuracy":"تعمیر"},"geometry":{"x":7624627.0959458612,"y":3956009.2933082581}},{"attributes":{"OBJECTID":6149,"ولایت":"غزنى","Province":"GHAZNI","PC_Code":"1106104","ولسوالي":"جغتو","District":"JAGHATU","د_مرکز_نوم__نام_مرکز":"مسجد قریه بلاغ","Polling_Center_Name":"Balagh Village Mosque","د_مرکز_ځای__موقعیت_مرکز":"قریه بلاغ ","Polling_Center_Location":"Balagh Village","Verification_Note":"Village","PS_Male":2,"PS_Female":1,"Map_Accuracy":"قریه"},"geometry":{"x":7580442.783932399,"y":3965744.8536478356}},{"attributes":{"OBJECTID":6150,"ولایت":"غزنى","Province":"GHAZNI","PC_Code":"1106105","ولسوالي":"جغتو","District":"JAGHATU","د_مرکز_نوم__نام_مرکز":"لیسه سنایی قلعه یوسف","Polling_Center_Name":"Senayee Qala-e-Yousuf High School ","د_مرکز_ځای__موقعیت_مرکز":"قریه گودول خان محمد","Polling_Center_Location":"Godol Khan Mohammad Village","Verification_Note":"Building","PS_Male":2,"PS_Female":1,"Map_Accuracy":"تعمیر"},"geometry":{"x":7580097.7812306993,"y":3981249.9785601795}},{"attributes":{"OBJECTID":6151,"ولایت":"غزنى","Province":"GHAZNI","PC_Code":"1106123","ولسوالي":"جغتو","District":"JAGHATU","د_مرکز_نوم__نام_مرکز":"مکتب گلبوری","Polling_Center_Name":"Gulburi School","د_مرکز_ځای__موقعیت_مرکز":"ده نوری","Polling_Center_Location":"Dah Noori","Verification_Note":"Building","PS_Male":1,"PS_Female":1,"Map_Accuracy":"تعمیر"},"geometry":{"x":7590952.7351342775,"y":3971827.543788448}},{"attributes":{"OBJECTID":6152,"ولایت":"غزنى","Province":"GHAZNI","PC_Code":"1107224","ولسوالي":"اندر","District":"ANDAR","د_مرکز_نوم__نام_مرکز":"مکتب قاری صاحب جان قریه نانی","Polling_Center_Name":"Qari Sahib Jan School","د_مرکز_ځای__موقعیت_مرکز":"قریه نانی","Polling_Center_Location":"Nani Village","Verification_Note":"Village","PS_Male":3,"PS_Female":1,"Map_Accuracy":"قریه"},"geometry":{"x":7609131.15243239,"y":3948165.60378547}},{"attributes":{"OBJECTID":6153,"ولایت":"غزنى","Province":"GHAZNI","PC_Code":"1107235","ولسوالي":"اندر","District":"ANDAR","د_مرکز_نوم__نام_مرکز":"مسجد قریه خانی قلعه","Polling_Center_Name":"Khani Qala Mosque","د_مرکز_ځای__موقعیت_مرکز":"قریه خانی قلعه ","Polling_Center_Location":"Khani Qala","Verification_Note":"Village","PS_Male":3,"PS_Female":0,"Map_Accuracy":"قریه"},"geometry":{"x":7626563.4906958491,"y":3938728.6213133708}},{"attributes":{"OBJECTID":6154,"ولایت":"غزنى","Province":"GHAZNI","PC_Code":"1107245","ولسوالي":"اندر","District":"ANDAR","د_مرکز_نوم__نام_مرکز":"مسجد قریه سرده","Polling_Center_Name":"Sardah Village Mosque","د_مرکز_ځای__موقعیت_مرکز":"قریه سرده ","Polling_Center_Location":"Sardah Village ","Verification_Note":"Village","PS_Male":3,"PS_Female":0,"Map_Accuracy":"قریه"},"geometry":{"x":7634571.650110662,"y":3931923.5946653485}},{"attributes":{"OBJECTID":6155,"ولایت":"غزنى","Province":"GHAZNI","PC_Code":"1108073","ولسوالي":"زنخان","District":"ZANAKHAN","د_مرکز_نوم__نام_مرکز":"مسجد قریه زاهدخیل","Polling_Center_Name":"Zahid Khel Village Mosque","د_مرکز_ځای__موقعیت_مرکز":"قریه زاهدخیل","Polling_Center_Location":"Zahid Khel Village","Verification_Note":"Village","PS_Male":2,"PS_Female":0,"Map_Accuracy":"قریه"},"geometry":{"x":7647076.7674103305,"y":3986435.3684640527}},{"attributes":{"OBJECTID":6156,"ولایت":"غزنى","Province":"GHAZNI","PC_Code":"1110258","ولسوالي":"ناور","District":"NAWUR","د_مرکز_نوم__نام_مرکز":"لیسه شهید مراد علی ","Polling_Center_Name":"Shaheed Murad Ali High School","د_مرکز_ځای__موقعیت_مرکز":"قریه قلعه لنګر ","Polling_Center_Location":"Qala-e-Langar ","Verification_Note":"Building","PS_Male":1,"PS_Female":1,"Map_Accuracy":"تعمیر"},"geometry":{"x":7587864.7235541157,"y":4007884.2159969583}},{"attributes":{"OBJECTID":6157,"ولایت":"غزنى","Province":"GHAZNI","PC_Code":"1110269","ولسوالي":"ناور","District":"NAWUR","د_مرکز_نوم__نام_مرکز":"مسجد قریه تاربولاق","Polling_Center_Name":"Tarbolaq Village Mosque","د_مرکز_ځای__موقعیت_مرکز":"قریه تاربولاق ","Polling_Center_Location":"Tarbolaq Village","Verification_Note":"Village","PS_Male":1,"PS_Female":1,"Map_Accuracy":"قریه"},"geometry":{"x":7545087.1601759456,"y":4043575.2009927109}},{"attributes":{"OBJECTID":6158,"ولایت":"غزنى","Province":"GHAZNI","PC_Code":"1111134","ولسوالي":"قره باغ","District":"QARA BAGH","د_مرکز_نوم__نام_مرکز":"مکتب شیر خان","Polling_Center_Name":"Sheer Khan School","د_مرکز_ځای__موقعیت_مرکز":"قریه پناګیر","Polling_Center_Location":"Pangeer Village","Verification_Note":"Building","PS_Male":2,"PS_Female":0,"Map_Accuracy":"تعمیر"},"geometry":{"x":7577142.6328023784,"y":3921138.0563867241}},{"attributes":{"OBJECTID":6159,"ولایت":"غزنى","Province":"GHAZNI","PC_Code":"1111145","ولسوالي":"قره باغ","District":"QARA BAGH","د_مرکز_نوم__نام_مرکز":"مسجد بښی","Polling_Center_Name":"Bashi Mosque","د_مرکز_ځای__موقعیت_مرکز":"قریه بښی ","Polling_Center_Location":"Bashi Village","Verification_Note":"Village","PS_Male":0,"PS_Female":2,"Map_Accuracy":"قریه"},"geometry":{"x":7566985.0743579119,"y":3937591.3156078607}},{"attributes":{"OBJECTID":6160,"ولایت":"غزنى","Province":"GHAZNI","PC_Code":"1111162","ولسوالي":"قره باغ","District":"QARA BAGH","د_مرکز_نوم__نام_مرکز":"مسجد شهید عبدالسلام","Polling_Center_Name":"Shaheed Abdul Salam Mosque","د_مرکز_ځای__موقعیت_مرکز":"قریه موشکی","Polling_Center_Location":"Moshaki Village","Verification_Note":"Building","PS_Male":2,"PS_Female":0,"Map_Accuracy":"تعمیر"},"geometry":{"x":7590496.6012943648,"y":3925486.809536919}},{"attributes":{"OBJECTID":6161,"ولایت":"غزنى","Province":"GHAZNI","PC_Code":"1111173","ولسوالي":"قره باغ","District":"QARA BAGH","د_مرکز_نوم__نام_مرکز":"مسجد تورمی قلوچ بالا","Polling_Center_Name":"Toormi Qolooch Bala Mosque","د_مرکز_ځای__موقعیت_مرکز":"قریه قلوچ بالا","Polling_Center_Location":"Qolooch Bala Village","Verification_Note":"Village","PS_Male":0,"PS_Female":2,"Map_Accuracy":"قریه"},"geometry":{"x":7541075.4072160311,"y":3913529.708175756}},{"attributes":{"OBJECTID":6162,"ولایت":"غزنى","Province":"GHAZNI","PC_Code":"1112198","ولسوالي":"گیرو","District":"GIRO","د_مرکز_نوم__نام_مرکز":"لیسه شهید عبد المتین","Polling_Center_Name":"Shaheed Abdul Matin High School","د_مرکز_ځای__موقعیت_مرکز":"قریه موسی خیل ","Polling_Center_Location":"Musa Khel Village","Verification_Note":"Building","PS_Male":3,"PS_Female":0,"Map_Accuracy":"تعمیر"},"geometry":{"x":7608785.3049270734,"y":3912785.6485678628}},{"attributes":{"OBJECTID":6163,"ولایت":"غزنى","Province":"GHAZNI","PC_Code":"1112205","ولسوالي":"گیرو","District":"GIRO","د_مرکز_نوم__نام_مرکز":"مسجد قریه ناخیل","Polling_Center_Name":"NaKhel Village Mosque","د_مرکز_ځای__موقعیت_مرکز":"قریه ناخیل ","Polling_Center_Location":"NaKhel Village","Verification_Note":"District","PS_Male":0,"PS_Female":2,"Map_Accuracy":"ولسوالی"},"geometry":{"x":7602552.3752430528,"y":3899283.1243200675}},{"attributes":{"OBJECTID":6164,"ولایت":"غزنى","Province":"GHAZNI","PC_Code":"1114321","ولسوالي":"جاغوری","District":"JAGHURI","د_مرکز_نوم__نام_مرکز":"مدرسه شابیتک","Polling_Center_Name":"Shabetak Madrassa","د_مرکز_ځای__موقعیت_مرکز":"قریه علی سید","Polling_Center_Location":"Ali Sayed Village ","Verification_Note":"Building","PS_Male":2,"PS_Female":1,"Map_Accuracy":"تعمیر"},"geometry":{"x":7513550.9785025306,"y":3927062.7605480403}},{"attributes":{"OBJECTID":6165,"ولایت":"غزنى","Province":"GHAZNI","PC_Code":"1114330","ولسوالي":"جاغوری","District":"JAGHURI","د_مرکز_نوم__نام_مرکز":"لیسه نسوان مزار بی بی ","Polling_Center_Name":"Mazar Bi Bi Girls High School","د_مرکز_ځای__موقعیت_مرکز":"قریه مزار بی بی","Polling_Center_Location":"Mazar Bi Bi Village","Verification_Note":"Building","PS_Male":2,"PS_Female":1,"Map_Accuracy":"تعمیر"},"geometry":{"x":7507154.179848887,"y":3903434.4525813162}},{"attributes":{"OBJECTID":6166,"ولایت":"غزنى","Province":"GHAZNI","PC_Code":"1114341","ولسوالي":"جاغوری","District":"JAGHURI","د_مرکز_نوم__نام_مرکز":"لیسه غفور سلطانی","Polling_Center_Name":"Ghafor Sultani High School","د_مرکز_ځای__موقعیت_مرکز":"بازار سنګ ماشه","Polling_Center_Location":"Sang-e-Masha Bazar","Verification_Note":"Building","PS_Male":9,"PS_Female":2,"Map_Accuracy":"تعمیر"},"geometry":{"x":7507584.1524952725,"y":3913824.0791423246}},{"attributes":{"OBJECTID":6167,"ولایت":"غزنى","Province":"GHAZNI","PC_Code":"1114350","ولسوالي":"جاغوری","District":"JAGHURI","د_مرکز_نوم__نام_مرکز":"مکتب متوسطه  جاکه","Polling_Center_Name":"Jaka Secondary School","د_مرکز_ځای__موقعیت_مرکز":"قریه تایلم","Polling_Center_Location":"Tylum Village","Verification_Note":"Building","PS_Male":1,"PS_Female":1,"Map_Accuracy":"تعمیر"},"geometry":{"x":7494877.9231771454,"y":3894105.1406508833}},{"attributes":{"OBJECTID":6168,"ولایت":"غزنى","Province":"GHAZNI","PC_Code":"1115362","ولسوالي":"مقر","District":"MUQUR","د_مرکز_نوم__نام_مرکز":"مکتب قلعه یاربیگ","Polling_Center_Name":"Qala-e-Yarbiq School","د_مرکز_ځای__موقعیت_مرکز":" قلعه یار بیگ","Polling_Center_Location":"Qal-e-Yarbig","Verification_Note":"Village","PS_Male":2,"PS_Female":1,"Map_Accuracy":"قریه"},"geometry":{"x":7551568.5972648226,"y":3873520.1117778867}},{"attributes":{"OBJECTID":6169,"ولایت":"غزنى","Province":"GHAZNI","PC_Code":"1116306","ولسوالي":"مالستان","District":"MALISTAN","د_مرکز_نوم__نام_مرکز":"مسجد خیرو","Polling_Center_Name":"Khairo Mosque","د_مرکز_ځای__موقعیت_مرکز":"قریه خیرو ","Polling_Center_Location":"Khairo Village","Verification_Note":"Building","PS_Male":2,"PS_Female":1,"Map_Accuracy":"تعمیر"},"geometry":{"x":7464537.66683083,"y":3894665.5377269015}},{"attributes":{"OBJECTID":6170,"ولایت":"غزنى","Province":"GHAZNI","PC_Code":"1116315","ولسوالي":"مالستان","District":"MALISTAN","د_مرکز_نوم__نام_مرکز":"مسجد قریه پیتو قچنغتو","Polling_Center_Name":"Petaw Qochanghato Village Mosque","د_مرکز_ځای__موقعیت_مرکز":"قریه قچنغتو ","Polling_Center_Location":"Qochanghato Village","Verification_Note":"Village","PS_Male":1,"PS_Female":1,"Map_Accuracy":"قریه"},"geometry":{"x":7501141.2519877106,"y":3957464.396722503}},{"attributes":{"OBJECTID":6171,"ولایت":"غزنى","Province":"GHAZNI","PC_Code":"1117390","ولسوالي":"گیلان","District":"GELAN","د_مرکز_نوم__نام_مرکز":"مسجد قریه داناخیل","Polling_Center_Name":"Dana Khel Village Mosque","د_مرکز_ځای__موقعیت_مرکز":"قریه داناخیل","Polling_Center_Location":"Dana Khel Village","Verification_Note":"Building","PS_Male":2,"PS_Female":1,"Map_Accuracy":"تعمیر"},"geometry":{"x":7542560.93353802,"y":3855676.3461780176}},{"attributes":{"OBJECTID":6172,"ولایت":"پکتيکا","Province":"PAKTIKA","PC_Code":"1206284","ولسوالي":"اومنه","District":"OMNA","د_مرکز_نوم__نام_مرکز":"مركز ولسوالي كلينیك سپنه","Polling_Center_Name":"Speena Clinic","د_مرکز_ځای__موقعیت_مرکز":"مركز ولسوالي","Polling_Center_Location":"District Center","Verification_Note":"Village","PS_Male":2,"PS_Female":0,"Map_Accuracy":"قریه"},"geometry":{"x":7658568.1248240359,"y":3882173.7857489139}},{"attributes":{"OBJECTID":6173,"ولایت":"پکتيکا","Province":"PAKTIKA","PC_Code":"1207085","ولسوالي":"زرغون شهر ","District":"ZARGHUN SHAHR","د_مرکز_نوم__نام_مرکز":"نعیم دوکان","Polling_Center_Name":"Naiem Shop","د_مرکز_ځای__موقعیت_مرکز":"خیر کوث","Polling_Center_Location":"Khair Kot","Verification_Note":"Village","PS_Male":3,"PS_Female":0,"Map_Accuracy":"قریه"},"geometry":{"x":7620328.85559722,"y":3875649.3543562889}},{"attributes":{"OBJECTID":6174,"ولایت":"پکتيکا","Province":"PAKTIKA","PC_Code":"1207092","ولسوالي":"زرغون شهر ","District":"ZARGHUN SHAHR","د_مرکز_نوم__نام_مرکز":"مرکز ولسوالی خیمه ","Polling_Center_Name":"District Compound (Tent)","د_مرکز_ځای__موقعیت_مرکز":"زرغون شهر ","Polling_Center_Location":"Zarghon Shahr","Verification_Note":"Village","PS_Male":2,"PS_Female":2,"Map_Accuracy":"قریه"},"geometry":{"x":7619540.8460725993,"y":3875705.3218917176}},{"attributes":{"OBJECTID":6175,"ولایت":"پکتيکا","Province":"PAKTIKA","PC_Code":"1207093","ولسوالي":"زرغون شهر ","District":"ZARGHUN SHAHR","د_مرکز_نوم__نام_مرکز":"ملی زی جومات ","Polling_Center_Name":"Meli Zai Mosque","د_مرکز_ځای__موقعیت_مرکز":"ملی زی ","Polling_Center_Location":"Meli Zai","Verification_Note":"Village","PS_Male":2,"PS_Female":0,"Map_Accuracy":"قریه"},"geometry":{"x":7624727.5328432322,"y":3868617.93625813}},{"attributes":{"OBJECTID":6176,"ولایت":"پکتيکا","Province":"PAKTIKA","PC_Code":"1209122","ولسوالي":"جانی خیل","District":"JANI KHEL","د_مرکز_نوم__نام_مرکز":"ښوونځی شاه خیل آباد ","Polling_Center_Name":"Shah Khel Abad Village School","د_مرکز_ځای__موقعیت_مرکز":"شاه خیل ﺁباد کلی","Polling_Center_Location":"Shah Khel Abad Village","Verification_Note":"Village","PS_Male":3,"PS_Female":1,"Map_Accuracy":"قریه"},"geometry":{"x":7612619.6936554983,"y":3856631.0011943355}},{"attributes":{"OBJECTID":6177,"ولایت":"پکتيکا","Province":"PAKTIKA","PC_Code":"1209123","ولسوالي":"جانی خیل","District":"JANI KHEL","د_مرکز_نوم__نام_مرکز":"د اکبر کور","Polling_Center_Name":"Akbar House","د_مرکز_ځای__موقعیت_مرکز":"شهنشاه حاجی حریم خان کلی","Polling_Center_Location":"Shahen Shah Haji Hareem Khan Village","Verification_Note":"Village","PS_Male":3,"PS_Female":0,"Map_Accuracy":"قریه"},"geometry":{"x":7628424.467604015,"y":3834129.6058874875}},{"attributes":{"OBJECTID":6178,"ولایت":"پکتيکا","Province":"PAKTIKA","PC_Code":"1211166","ولسوالي":"اورگون","District":"URGOON","د_مرکز_نوم__نام_مرکز":"ملک موین میلمستون","Polling_Center_Name":"Malik Moyen Guest House","د_مرکز_ځای__موقعیت_مرکز":"میرا گل کلی","Polling_Center_Location":"Mera Gul Village","Verification_Note":"Village","PS_Male":0,"PS_Female":2,"Map_Accuracy":"قریه"},"geometry":{"x":7701800.694375664,"y":3894778.58634907}},{"attributes":{"OBJECTID":6179,"ولایت":"پکتيکا","Province":"PAKTIKA","PC_Code":"1211167","ولسوالي":"اورگون","District":"URGOON","د_مرکز_نوم__نام_مرکز":"چیناخوا مدرسه","Polling_Center_Name":"Chena Khwa Madrassa","د_مرکز_ځای__موقعیت_مرکز":"امبرون کلی","Polling_Center_Location":"Ambron Village","Verification_Note":"Building","PS_Male":2,"PS_Female":0,"Map_Accuracy":"تعمیر"},"geometry":{"x":7704953.3269202411,"y":3900962.5185135081}},{"attributes":{"OBJECTID":6180,"ولایت":"پکتيکا","Province":"PAKTIKA","PC_Code":"1211168","ولسوالي":"اورگون","District":"URGOON","د_مرکز_نوم__نام_مرکز":"امیران میلمستون","Polling_Center_Name":"Amiran Guest House","د_مرکز_ځای__موقعیت_مرکز":"امبرون کلی","Polling_Center_Location":"Ambron Village","Verification_Note":"Village","PS_Male":0,"PS_Female":2,"Map_Accuracy":"قریه"},"geometry":{"x":7705658.74517506,"y":3900431.6647343189}},{"attributes":{"OBJECTID":6181,"ولایت":"پکتيکا","Province":"PAKTIKA","PC_Code":"1216206","ولسوالي":"دیله و خوش امند","District":"DILA WA KHUSHAMAND","د_مرکز_نوم__نام_مرکز":"جندر میلمستون","Polling_Center_Name":"Gender Guest House","د_مرکز_ځای__موقعیت_مرکز":"جندر","Polling_Center_Location":"Gender","Verification_Note":"District","PS_Male":3,"PS_Female":1,"Map_Accuracy":"ولسوالی"},"geometry":{"x":7592650.4508772455,"y":3835463.7390438765}},{"attributes":{"OBJECTID":6182,"ولایت":"پکتيکا","Province":"PAKTIKA","PC_Code":"1216208","ولسوالي":"دیله و خوش امند","District":"DILA WA KHUSHAMAND","د_مرکز_نوم__نام_مرکز":"مرکز ولسوالی خیمه ","Polling_Center_Name":"District Compound Tent","د_مرکز_ځای__موقعیت_مرکز":"مرکز ولسوالی","Polling_Center_Location":"District Center","Verification_Note":"Village","PS_Male":2,"PS_Female":2,"Map_Accuracy":"قریه"},"geometry":{"x":7574669.9530659132,"y":3841947.6618158}},{"attributes":{"OBJECTID":6183,"ولایت":"پکتيکا","Province":"PAKTIKA","PC_Code":"1216216","ولسوالي":"دیله و خوش امند","District":"DILA WA KHUSHAMAND","د_مرکز_نوم__نام_مرکز":"میاری دکلی ښوونځی","Polling_Center_Name":"Moonari Village School","د_مرکز_ځای__موقعیت_مرکز":"مناری","Polling_Center_Location":"Manari","Verification_Note":"Village","PS_Male":3,"PS_Female":2,"Map_Accuracy":"قریه"},"geometry":{"x":7592710.45876196,"y":3832613.320882231}},{"attributes":{"OBJECTID":6184,"ولایت":"پکتيکا","Province":"PAKTIKA","PC_Code":"1216217","ولسوالي":"دیله و خوش امند","District":"DILA WA KHUSHAMAND","د_مرکز_نوم__نام_مرکز":"چوری کلی جومات","Polling_Center_Name":"Chori Village Mosque","د_مرکز_ځای__موقعیت_مرکز":"ﮀوری","Polling_Center_Location":"Chori","Verification_Note":"Building","PS_Male":3,"PS_Female":0,"Map_Accuracy":"تعمیر"},"geometry":{"x":7590282.5773281679,"y":3847462.0317862853}},{"attributes":{"OBJECTID":6185,"ولایت":"پکتيا","Province":"PAKTYA","PC_Code":"1301017","ولسوالي":"گردیز","District":"GARDEZ","د_مرکز_نوم__نام_مرکز":"د خان دوران خیمه ","Polling_Center_Name":"Khan Dawran Tent","د_مرکز_ځای__موقعیت_مرکز":"نستی کوټ، ګلوخیل","Polling_Center_Location":"Nasti Kot, Golo Khel","Verification_Note":"Village","PS_Male":1,"PS_Female":1,"Map_Accuracy":"قریه"},"geometry":{"x":7709536.7700306773,"y":3982183.71011433}},{"attributes":{"OBJECTID":6186,"ولایت":"پکتيا","Province":"PAKTYA","PC_Code":"1302190","ولسوالي":"احمد آبا","District":"AHMADABA","د_مرکز_نوم__نام_مرکز":"د رود لیسه","Polling_Center_Name":"Rod High School","د_مرکز_ځای__موقعیت_مرکز":"رود شالی خیل","Polling_Center_Location":"Rod-e-Shali Khel","Verification_Note":"Building","PS_Male":4,"PS_Female":1,"Map_Accuracy":"تعمیر"},"geometry":{"x":7714948.2843240872,"y":3982354.2148866951}},{"attributes":{"OBJECTID":6187,"ولایت":"پکتيا","Province":"PAKTYA","PC_Code":"1303078","ولسوالي":"زرمت","District":"ZURMAT","د_مرکز_نوم__نام_مرکز":"حبیب الله لیسه","Polling_Center_Name":"Habibullah High School ","د_مرکز_ځای__موقعیت_مرکز":"تعمیر","Polling_Center_Location":"Tameer","Verification_Note":"Building","PS_Male":3,"PS_Female":1,"Map_Accuracy":"تعمیر"},"geometry":{"x":7684725.6203218773,"y":3953303.2494467571}},{"attributes":{"OBJECTID":6188,"ولایت":"پکتيا","Province":"PAKTYA","PC_Code":"1303105","ولسوالي":"زرمت","District":"ZURMAT","د_مرکز_نوم__نام_مرکز":"دفضل الرحمن هجره","Polling_Center_Name":"Fazel Rahman Hojra","د_مرکز_ځای__موقعیت_مرکز":"ارمه نیک نام","Polling_Center_Location":"Arma Nek Naam","Verification_Note":"Village","PS_Male":0,"PS_Female":2,"Map_Accuracy":"قریه"},"geometry":{"x":7691561.5632347427,"y":3930265.7385458574}},{"attributes":{"OBJECTID":6189,"ولایت":"پکتيا","Province":"PAKTYA","PC_Code":"1307057","ولسوالي":"ځاځی اریوب","District":"JAJI ARYOB","د_مرکز_نوم__نام_مرکز":"د روکیانو مدرسه","Polling_Center_Name":"Rokiano Madrassa ","د_مرکز_ځای__موقعیت_مرکز":" روکیان","Polling_Center_Location":"Rokian","Verification_Note":"Village","PS_Male":3,"PS_Female":1,"Map_Accuracy":"قریه"},"geometry":{"x":7753829.4751681648,"y":4027037.758785896}},{"attributes":{"OBJECTID":6190,"ولایت":"پکتيا","Province":"PAKTYA","PC_Code":"1307070","ولسوالي":"ځاځی اریوب","District":"JAJI ARYOB","د_مرکز_نوم__نام_مرکز":"د فقیر بابا مکتب","Polling_Center_Name":"Faqir Baba School","د_مرکز_ځای__موقعیت_مرکز":"لر لیونی یا شریف کلی","Polling_Center_Location":"Lar Lewani/Sharif Village","Verification_Note":"Building","PS_Male":2,"PS_Female":2,"Map_Accuracy":"تعمیر"},"geometry":{"x":7769743.7362886444,"y":4024127.0106286034}},{"attributes":{"OBJECTID":6191,"ولایت":"پکتيا","Province":"PAKTYA","PC_Code":"1311182","ولسوالي":"ډنډ پټان","District":"DAND PATAN","د_مرکز_نوم__نام_مرکز":"د میرحسن جامع جومات","Polling_Center_Name":"Mir Hassan Mosque","د_مرکز_ځای__موقعیت_مرکز":"میرحسن کلی ","Polling_Center_Location":"Mir Hassan Village","Verification_Note":"Village","PS_Male":2,"PS_Female":1,"Map_Accuracy":"قریه"},"geometry":{"x":7779954.5065629,"y":4011821.2665532157}},{"attributes":{"OBJECTID":6192,"ولایت":"خوست","Province":"KHOST","PC_Code":"1401016","ولسوالي":"خوست","District":"KHOST","د_مرکز_نوم__نام_مرکز":"د شهيد محمد داود ښوونځی","Polling_Center_Name":"Shaheed Mohammad Dawood School","د_مرکز_ځای__موقعیت_مرکز":"خوست ښار شهيد محمد داود ليسه","Polling_Center_Location":"Khost City","Verification_Note":"Building","PS_Male":2,"PS_Female":2,"Map_Accuracy":"تعمیر"},"geometry":{"x":7782661.9724637941,"y":3940230.558542639}},{"attributes":{"OBJECTID":6193,"ولایت":"خوست","Province":"KHOST","PC_Code":"1401027","ولسوالي":"خوست","District":"KHOST","د_مرکز_نوم__نام_مرکز":"د لنډۍ کلی مدرسه","Polling_Center_Name":"Landy Village Madrassa","د_مرکز_ځای__موقعیت_مرکز":"لنډۍ کلى متون","Polling_Center_Location":"Maton, Landi Village","Verification_Note":"Building","PS_Male":2,"PS_Female":2,"Map_Accuracy":"تعمیر"},"geometry":{"x":7787061.89203532,"y":3938933.86436256}},{"attributes":{"OBJECTID":6194,"ولایت":"خوست","Province":"KHOST","PC_Code":"1402079","ولسوالي":"مندوزی","District":"MANDUZAY","د_مرکز_نوم__نام_مرکز":"ب کلى ښوونځی  ","Polling_Center_Name":"Bay Village School ","د_مرکز_ځای__موقعیت_مرکز":"ب کلى","Polling_Center_Location":"Bay Village","Verification_Note":"Building","PS_Male":1,"PS_Female":1,"Map_Accuracy":"تعمیر"},"geometry":{"x":7771360.7878135182,"y":3936951.309000589}},{"attributes":{"OBJECTID":6195,"ولایت":"خوست","Province":"KHOST","PC_Code":"1403150","ولسوالي":"گربز","District":"GURBUZ","د_مرکز_نوم__نام_مرکز":"د جانباز جومات","Polling_Center_Name":"Jan Baz Mosque ","د_مرکز_ځای__موقعیت_مرکز":"وړه کلى","Polling_Center_Location":"Wara Village","Verification_Note":"Village","PS_Male":3,"PS_Female":0,"Map_Accuracy":"قریه"},"geometry":{"x":7784377.4547974914,"y":3934998.5694685951}},{"attributes":{"OBJECTID":6196,"ولایت":"خوست","Province":"KHOST","PC_Code":"1404137","ولسوالي":"تڼي","District":"TANAY","د_مرکز_نوم__نام_مرکز":"اول جان ښوونځی ","Polling_Center_Name":"Awal Jan School","د_مرکز_ځای__موقعیت_مرکز":"سیناکي کلی","Polling_Center_Location":"Sanaki Village","Verification_Note":"Village","PS_Male":3,"PS_Female":1,"Map_Accuracy":"قریه"},"geometry":{"x":7767233.2646982558,"y":3918755.0743328482}},{"attributes":{"OBJECTID":6197,"ولایت":"خوست","Province":"KHOST","PC_Code":"1405069","ولسوالي":"موسی خیل","District":"MUSA KHEL","د_مرکز_نوم__نام_مرکز":"د مامور هجره ","Polling_Center_Name":"Mamor Hojra","د_مرکز_ځای__موقعیت_مرکز":"خوشمند کلى","Polling_Center_Location":"Khoshmand Village","Verification_Note":"Village","PS_Male":1,"PS_Female":2,"Map_Accuracy":"قریه"},"geometry":{"x":7763059.735575147,"y":3973636.1222400293}},{"attributes":{"OBJECTID":6198,"ولایت":"خوست","Province":"KHOST","PC_Code":"1406113","ولسوالي":"نادرشاه کوت","District":"NADIRSHAH KOT","د_مرکز_نوم__نام_مرکز":"جومات مصلات قلعه","Polling_Center_Name":"Maslat Qala Mosque","د_مرکز_ځای__موقعیت_مرکز":" مصلات قلعه","Polling_Center_Location":"Maslat Qala","Verification_Note":"Village","PS_Male":1,"PS_Female":1,"Map_Accuracy":"قریه"},"geometry":{"x":7763289.5568902865,"y":3944375.6491518542}},{"attributes":{"OBJECTID":6199,"ولایت":"خوست","Province":"KHOST","PC_Code":"1406125","ولسوالي":"نادرشاه کوت","District":"NADIRSHAH KOT","د_مرکز_نوم__نام_مرکز":"د شمبوات ښوونځی","Polling_Center_Name":"Shambowat Village School","د_مرکز_ځای__موقعیت_مرکز":" شمبوات","Polling_Center_Location":"Shambwat","Verification_Note":"Village","PS_Male":2,"PS_Female":1,"Map_Accuracy":"قریه"},"geometry":{"x":7763569.9406313263,"y":3944723.5688111335}}]}