{"objectIdFieldName":"OBJECTID","globalIdFieldName":"","geometryType":"esriGeometryPoint","spatialReference":{"wkid":102100,"latestWkid":3857},"fields":[{"name":"OBJECTID","type":"esriFieldTypeOID","alias":"OBJECTID","sqlType":"sqlTypeOther","domain":null,"defaultValue":null},{"name":"ولایت","type":"esriFieldTypeString","alias":"ولایت","sqlType":"sqlTypeOther","length":255,"domain":null,"defaultValue":null},{"name":"Province","type":"esriFieldTypeString","alias":"Province","sqlType":"sqlTypeOther","length":255,"domain":null,"defaultValue":null},{"name":"PC_Code","type":"esriFieldTypeString","alias":"PC_Code","sqlType":"sqlTypeOther","length":255,"domain":null,"defaultValue":null},{"name":"ولسوالي","type":"esriFieldTypeString","alias":"ولسوالي","sqlType":"sqlTypeOther","length":255,"domain":null,"defaultValue":null},{"name":"District","type":"esriFieldTypeString","alias":"District","sqlType":"sqlTypeOther","length":255,"domain":null,"defaultValue":null},{"name":"د_مرکز_نوم__نام_مرکز","type":"esriFieldTypeString","alias":"د_مرکز_نوم__نام_مرکز","sqlType":"sqlTypeOther","length":255,"domain":null,"defaultValue":null},{"name":"Polling_Center_Name","type":"esriFieldTypeString","alias":"Polling_Center_Name","sqlType":"sqlTypeOther","length":255,"domain":null,"defaultValue":null},{"name":"د_مرکز_ځای__موقعیت_مرکز","type":"esriFieldTypeString","alias":"د_مرکز_ځای__موقعیت_مرکز","sqlType":"sqlTypeOther","length":255,"domain":null,"defaultValue":null},{"name":"Polling_Center_Location","type":"esriFieldTypeString","alias":"Polling_Center_Location","sqlType":"sqlTypeOther","length":255,"domain":null,"defaultValue":null},{"name":"Verification_Note","type":"esriFieldTypeString","alias":"Verification_Note","sqlType":"sqlTypeOther","length":250,"domain":null,"defaultValue":null},{"name":"PS_Male","type":"esriFieldTypeSmallInteger","alias":"PS_Male","sqlType":"sqlTypeOther","domain":null,"defaultValue":null},{"name":"PS_Female","type":"esriFieldTypeSmallInteger","alias":"PS_Female","sqlType":"sqlTypeOther","domain":null,"defaultValue":null},{"name":"Map_Accuracy","type":"esriFieldTypeString","alias":"Map_Accuracy","sqlType":"sqlTypeOther","length":10,"domain":null,"defaultValue":null}],"features":[{"attributes":{"OBJECTID":1200,"ولایت":"بغلان","Province":"BAGHLAN","PC_Code":"0903103","ولسوالي":"دوشی","District":"DUSHI","د_مرکز_نوم__نام_مرکز":"لیسه  کیله گی","Polling_Center_Name":"Kela Gai","د_مرکز_ځای__موقعیت_مرکز":"قریه کیله گی","Polling_Center_Location":"Kela Gai Village","Verification_Note":"Building","PS_Male":2,"PS_Female":2,"Map_Accuracy":"تعمیر"},"geometry":{"x":7659112.6786222905,"y":4272398.5960215852}},{"attributes":{"OBJECTID":1201,"ولایت":"بغلان","Province":"BAGHLAN","PC_Code":"0903104","ولسوالي":"دوشی","District":"DUSHI","د_مرکز_نوم__نام_مرکز":"لیسه کنده سنگ","Polling_Center_Name":"Poshta Konda Sang High School","د_مرکز_ځای__موقعیت_مرکز":"پشته کنده سنگ","Polling_Center_Location":"Poshta Konda Sang","Verification_Note":"Building","PS_Male":2,"PS_Female":1,"Map_Accuracy":"تعمیر"},"geometry":{"x":7636393.3791059665,"y":4244998.1172597557}},{"attributes":{"OBJECTID":1202,"ولایت":"بغلان","Province":"BAGHLAN","PC_Code":"0903107","ولسوالي":"دوشی","District":"DUSHI","د_مرکز_نوم__نام_مرکز":"مکتب لرخواب ","Polling_Center_Name":"Lar Khawb School","د_مرکز_ځای__موقعیت_مرکز":"دره لرخواب","Polling_Center_Location":"Dara-e-Lar Khawb","Verification_Note":"Building","PS_Male":2,"PS_Female":1,"Map_Accuracy":"تعمیر"},"geometry":{"x":7663210.78767718,"y":4268270.2304158956}},{"attributes":{"OBJECTID":1203,"ولایت":"بغلان","Province":"BAGHLAN","PC_Code":"0903108","ولسوالي":"دوشی","District":"DUSHI","د_مرکز_نوم__نام_مرکز":"مدرسه جامع خواجه زید ","Polling_Center_Name":"Khwaja Zaid Madrassa","د_مرکز_ځای__موقعیت_مرکز":"خواجه زید","Polling_Center_Location":"Khwaja Zaid","Verification_Note":"Building","PS_Male":2,"PS_Female":1,"Map_Accuracy":"تعمیر"},"geometry":{"x":7647894.2543361224,"y":4241914.4750054255}},{"attributes":{"OBJECTID":1204,"ولایت":"بغلان","Province":"BAGHLAN","PC_Code":"0904128","ولسوالي":"نهرین","District":"NAHREEN","د_مرکز_نوم__نام_مرکز":"مکتب حضرت عثمان ","Polling_Center_Name":"Hazrat Osman High School","د_مرکز_ځای__موقعیت_مرکز":"ترکصیاد","Polling_Center_Location":"Turksayad","Verification_Note":"Building","PS_Male":1,"PS_Female":1,"Map_Accuracy":"تعمیر"},"geometry":{"x":7686023.68239497,"y":4309973.94460877}},{"attributes":{"OBJECTID":1205,"ولایت":"بغلان","Province":"BAGHLAN","PC_Code":"0904129","ولسوالي":"نهرین","District":"NAHREEN","د_مرکز_نوم__نام_مرکز":"مسجد سالنگی ","Polling_Center_Name":"Salangi Mosque","د_مرکز_ځای__موقعیت_مرکز":"بادام دره سالنگی","Polling_Center_Location":"Badam Dara Salengi","Verification_Note":"Building","PS_Male":1,"PS_Female":1,"Map_Accuracy":"تعمیر"},"geometry":{"x":7680237.523468487,"y":4292910.5672226325}},{"attributes":{"OBJECTID":1206,"ولایت":"بغلان","Province":"BAGHLAN","PC_Code":"0904140","ولسوالي":"نهرین","District":"NAHREEN","د_مرکز_نوم__نام_مرکز":"مکتب نسوان شهر قدیم ","Polling_Center_Name":"Shahr-e-Qadim Grils School","د_مرکز_ځای__موقعیت_مرکز":"شهر قدیم نهرین ","Polling_Center_Location":"Shahri Qadim Nahreen","Verification_Note":"Building","PS_Male":1,"PS_Female":1,"Map_Accuracy":"تعمیر"},"geometry":{"x":7695823.75833226,"y":4310005.8082845733}},{"attributes":{"OBJECTID":1207,"ولایت":"بغلان","Province":"BAGHLAN","PC_Code":"0904141","ولسوالي":"نهرین","District":"NAHREEN","د_مرکز_نوم__نام_مرکز":"مکتب تلی ها","Polling_Center_Name":"Taliha School","د_مرکز_ځای__موقعیت_مرکز":"تلی ها","Polling_Center_Location":"Tali Ha","Verification_Note":"Building","PS_Male":1,"PS_Female":1,"Map_Accuracy":"تعمیر"},"geometry":{"x":7678867.7471530363,"y":4316408.400425896}},{"attributes":{"OBJECTID":1208,"ولایت":"بغلان","Province":"BAGHLAN","PC_Code":"0904144","ولسوالي":"نهرین","District":"NAHREEN","د_مرکز_نوم__نام_مرکز":"مکتب الحاقیه خواجه خضر","Polling_Center_Name":"Alhaqia Khawaja Khezr School","د_مرکز_ځای__موقعیت_مرکز":"بزدره","Polling_Center_Location":"Boz Dara","Verification_Note":"Building","PS_Male":1,"PS_Female":1,"Map_Accuracy":"تعمیر"},"geometry":{"x":7690906.65397248,"y":4296290.67383299}},{"attributes":{"OBJECTID":1209,"ولایت":"بغلان","Province":"BAGHLAN","PC_Code":"0904145","ولسوالي":"نهرین","District":"NAHREEN","د_مرکز_نوم__نام_مرکز":"مسجد جامع قریه وتر چی","Polling_Center_Name":"Woterchi Village Jamae Mosque","د_مرکز_ځای__موقعیت_مرکز":"وتر چی","Polling_Center_Location":"Wetr Chi","Verification_Note":"Building","PS_Male":1,"PS_Female":1,"Map_Accuracy":"تعمیر"},"geometry":{"x":7676521.3315489963,"y":4289211.1650218666}},{"attributes":{"OBJECTID":1210,"ولایت":"بغلان","Province":"BAGHLAN","PC_Code":"0904246","ولسوالي":"نهرین","District":"NAHREEN","د_مرکز_نوم__نام_مرکز":" مدرسه لوزک","Polling_Center_Name":"Lozok Madressa","د_مرکز_ځای__موقعیت_مرکز":"مدرسه لوزک ","Polling_Center_Location":"Madrassa Lozok","Verification_Note":"Building","PS_Male":1,"PS_Female":1,"Map_Accuracy":"تعمیر"},"geometry":{"x":7681159.6295649111,"y":4306500.62211971}},{"attributes":{"OBJECTID":1211,"ولایت":"بغلان","Province":"BAGHLAN","PC_Code":"0905042","ولسوالي":"بغلان جدید","District":"BAGLAN-E-JADEED","د_مرکز_نوم__نام_مرکز":"کلپ ورزشی بغلان جدید","Polling_Center_Name":"Baghlan-e- Jadeed Sport Club","د_مرکز_ځای__موقعیت_مرکز":"شهربغلان","Polling_Center_Location":"Baghlan City","Verification_Note":"Building","PS_Male":3,"PS_Female":1,"Map_Accuracy":"تعمیر"},"geometry":{"x":7653093.7940551564,"y":4324694.40121711}},{"attributes":{"OBJECTID":1212,"ولایت":"بغلان","Province":"BAGHLAN","PC_Code":"0905057","ولسوالي":"بغلان جدید","District":"BAGLAN-E-JADEED","د_مرکز_نوم__نام_مرکز":"کلوپ شاروالی بغلان جدید","Polling_Center_Name":"Baghlan Jadeed Municipality Clop","د_مرکز_ځای__موقعیت_مرکز":"شهربغلان جدید","Polling_Center_Location":"Shahr-e-Baghlan Jadeed","Verification_Note":"Building","PS_Male":1,"PS_Female":1,"Map_Accuracy":"تعمیر"},"geometry":{"x":7652461.4080654681,"y":4324760.5212059617}},{"attributes":{"OBJECTID":1213,"ولایت":"بغلان","Province":"BAGHLAN","PC_Code":"0905058","ولسوالي":"بغلان جدید","District":"BAGLAN-E-JADEED","د_مرکز_نوم__نام_مرکز":"مسجد جامع شهر بغلان قدیم","Polling_Center_Name":"Shahr-e-Baghlan Qadim Mosque","د_مرکز_ځای__موقعیت_مرکز":"شهربغلان جدید","Polling_Center_Location":"Shahr-e-Baghlan Jadeed ","Verification_Note":"Building","PS_Male":1,"PS_Female":1,"Map_Accuracy":"تعمیر"},"geometry":{"x":7655383.2686264627,"y":4331354.6888040379}},{"attributes":{"OBJECTID":1214,"ولایت":"بغلان","Province":"BAGHLAN","PC_Code":"0905234","ولسوالي":"بغلان جدید","District":"BAGLAN-E-JADEED","د_مرکز_نوم__نام_مرکز":"مسجد سفید مکتب ابتدائی","Polling_Center_Name":"Safid Mosque Primary School","د_مرکز_ځای__موقعیت_مرکز":"مسجدسفید قریه ازبک ها","Polling_Center_Location":"Masjid Safid Uzbek ha Village","Verification_Note":"Building","PS_Male":1,"PS_Female":1,"Map_Accuracy":"تعمیر"},"geometry":{"x":7668913.6428891122,"y":4350830.9252929837}},{"attributes":{"OBJECTID":1215,"ولایت":"بغلان","Province":"BAGHLAN","PC_Code":"0905235","ولسوالي":"بغلان جدید","District":"BAGLAN-E-JADEED","د_مرکز_نوم__نام_مرکز":"مسجد قریه حاجی دلاور","Polling_Center_Name":"Haji Delawar Village Mosque","د_مرکز_ځای__موقعیت_مرکز":"قریه حاجی دلاور","Polling_Center_Location":"Haji Delawar Village","Verification_Note":"Building","PS_Male":1,"PS_Female":1,"Map_Accuracy":"تعمیر"},"geometry":{"x":7666076.518724516,"y":4350095.8332986683}},{"attributes":{"OBJECTID":1216,"ولایت":"بغلان","Province":"BAGHLAN","PC_Code":"0907122","ولسوالي":"اندراب","District":"ANDARAB","د_مرکز_نوم__نام_مرکز":"مسجد جامع کشن آباد ","Polling_Center_Name":"Keshan Abad Village Mosque","د_مرکز_ځای__موقعیت_مرکز":"مرکز کشن آباد","Polling_Center_Location":"Keshan Abad Village","Verification_Note":"Building","PS_Male":3,"PS_Female":1,"Map_Accuracy":"تعمیر"},"geometry":{"x":7704755.0390772671,"y":4248187.7079072073}},{"attributes":{"OBJECTID":1217,"ولایت":"بغلان","Province":"BAGHLAN","PC_Code":"0907123","ولسوالي":"اندراب","District":"ANDARAB","د_مرکز_نوم__نام_مرکز":"لیسه زکور بنو ","Polling_Center_Name":"Beno Boys School","د_مرکز_ځای__موقعیت_مرکز":"شهر بنو","Polling_Center_Location":"Center of Bano City","Verification_Note":"Building","PS_Male":2,"PS_Female":1,"Map_Accuracy":"تعمیر"},"geometry":{"x":7709703.7459272854,"y":4250365.8555705175}},{"attributes":{"OBJECTID":1218,"ولایت":"بغلان","Province":"BAGHLAN","PC_Code":"0910247","ولسوالي":"برکه","District":"BURKA","د_مرکز_نوم__نام_مرکز":"مکتب نو آباد دشت فلول ","Polling_Center_Name":"Naw Abad School","د_مرکز_ځای__موقعیت_مرکز":"دشت فلول","Polling_Center_Location":"Folol Dasht","Verification_Note":"Building","PS_Male":1,"PS_Female":1,"Map_Accuracy":"تعمیر"},"geometry":{"x":7703783.4959949739,"y":4333809.4472448677}},{"attributes":{"OBJECTID":1219,"ولایت":"بغلان","Province":"BAGHLAN","PC_Code":"0910248","ولسوالي":"برکه","District":"BURKA","د_مرکز_نوم__نام_مرکز":"مکتب تاش  چشمه ","Polling_Center_Name":"Tash Cheshma","د_مرکز_ځای__موقعیت_مرکز":"قرچه و تاش چشمه","Polling_Center_Location":"Qarcha and Tash Cheshma","Verification_Note":"Building","PS_Male":2,"PS_Female":1,"Map_Accuracy":"تعمیر"},"geometry":{"x":7693843.56826821,"y":4348116.5594530478}},{"attributes":{"OBJECTID":1220,"ولایت":"بغلان","Province":"BAGHLAN","PC_Code":"0911165","ولسوالي":"تاله و برفک","District":"TALA WA BARFAK","د_مرکز_نوم__نام_مرکز":"مدرسه  پشته قره","Polling_Center_Name":"Poshta Qara Madrassa","د_مرکز_ځای__موقعیت_مرکز":"پشته قره","Polling_Center_Location":"Poshta Qara","Verification_Note":"Building","PS_Male":1,"PS_Female":1,"Map_Accuracy":"تعمیر"},"geometry":{"x":7587179.52759799,"y":4212197.4225691557}},{"attributes":{"OBJECTID":1221,"ولایت":"بغلان","Province":"BAGHLAN","PC_Code":"0911166","ولسوالي":"تاله و برفک","District":"TALA WA BARFAK","د_مرکز_نوم__نام_مرکز":"مکتب انگار ","Polling_Center_Name":"Angar School","د_مرکز_ځای__موقعیت_مرکز":"انگار","Polling_Center_Location":"Angar","Verification_Note":"Building","PS_Male":1,"PS_Female":1,"Map_Accuracy":"تعمیر"},"geometry":{"x":7607766.882980831,"y":4218064.7581494078}},{"attributes":{"OBJECTID":1222,"ولایت":"بغلان","Province":"BAGHLAN","PC_Code":"0911171","ولسوالي":"تاله و برفک","District":"TALA WA BARFAK","د_مرکز_نوم__نام_مرکز":"مسجد امیر نازیه","Polling_Center_Name":"Amir Nazia Mosque","د_مرکز_ځای__موقعیت_مرکز":"دهنه رشقآب","Polling_Center_Location":"Dahana Rashqab","Verification_Note":"Building","PS_Male":1,"PS_Female":1,"Map_Accuracy":"تعمیر"},"geometry":{"x":7575147.9734309092,"y":4176720.8920906559}},{"attributes":{"OBJECTID":1223,"ولایت":"بغلان","Province":"BAGHLAN","PC_Code":"0911172","ولسوالي":"تاله و برفک","District":"TALA WA BARFAK","د_مرکز_نوم__نام_مرکز":"مسجد جامع ترمش","Polling_Center_Name":"Tarmesh Mosque","د_مرکز_ځای__موقعیت_مرکز":"ترمش","Polling_Center_Location":"Termesh","Verification_Note":"Building","PS_Male":1,"PS_Female":1,"Map_Accuracy":"تعمیر"},"geometry":{"x":7602035.1125311628,"y":4236473.9475564435}},{"attributes":{"OBJECTID":1224,"ولایت":"بغلان","Province":"BAGHLAN","PC_Code":"0913205","ولسوالي":"خوست و فرنگ","District":"KHOST WA FIRING","د_مرکز_نوم__نام_مرکز":"مکتب متوسطه کنجک","Polling_Center_Name":"Konjak Secondary School","د_مرکز_ځای__موقعیت_مرکز":"کنجک","Polling_Center_Location":"Konjak","Verification_Note":"Building","PS_Male":1,"PS_Female":1,"Map_Accuracy":"تعمیر"},"geometry":{"x":7752199.1511317231,"y":4296747.608700633}},{"attributes":{"OBJECTID":1225,"ولایت":"بغلان","Province":"BAGHLAN","PC_Code":"0913206","ولسوالي":"خوست و فرنگ","District":"KHOST WA FIRING","د_مرکز_نوم__نام_مرکز":"مکتب زکورخوشدره","Polling_Center_Name":"Zakor Khoshdara School","د_مرکز_ځای__موقعیت_مرکز":"میانه ده ","Polling_Center_Location":"Meyan Deh","Verification_Note":"Building","PS_Male":1,"PS_Female":1,"Map_Accuracy":"تعمیر"},"geometry":{"x":7754947.3176648319,"y":4300488.4541240558}},{"attributes":{"OBJECTID":1226,"ولایت":"بغلان","Province":"BAGHLAN","PC_Code":"0914224","ولسوالي":"گذرگاه نور","District":"GOZARGAH-E-NOOR","د_مرکز_نوم__نام_مرکز":"لیسه زکور غارو","Polling_Center_Name":"Gharo Boys High School","د_مرکز_ځای__موقعیت_مرکز":"غارو","Polling_Center_Location":"Gharo","Verification_Note":"Building","PS_Male":2,"PS_Female":2,"Map_Accuracy":"تعمیر"},"geometry":{"x":7745326.104319375,"y":4329238.0711260438}},{"attributes":{"OBJECTID":1254,"ولایت":"بغلان","Province":"BAGHLAN","PC_Code":"0911167","ولسوالي":"تاله و برفک","District":"TALA WA BARFAK","د_مرکز_نوم__نام_مرکز":"مدرسه  بلندی اشرف","Polling_Center_Name":"Bolandi Ashraf Madrassa","د_مرکز_ځای__موقعیت_مرکز":"قریه بلندی اشرف","Polling_Center_Location":"Bolandi Ashraf Village","Verification_Note":"Building","PS_Male":1,"PS_Female":1,"Map_Accuracy":"تعمیر"},"geometry":{"x":7601132.3526490442,"y":4218811.0611319318}},{"attributes":{"OBJECTID":1255,"ولایت":"بغلان","Province":"BAGHLAN","PC_Code":"0911168","ولسوالي":"تاله و برفک","District":"TALA WA BARFAK","د_مرکز_نوم__نام_مرکز":"خیمه در دهنه استمه ","Polling_Center_Name":"Dahana Astma Tent","د_مرکز_ځای__موقعیت_مرکز":"دهنه استمه","Polling_Center_Location":"Dahana Astma","Verification_Note":"Building","PS_Male":1,"PS_Female":1,"Map_Accuracy":"تعمیر"},"geometry":{"x":7597522.6389356926,"y":4220848.2002368271}},{"attributes":{"OBJECTID":1256,"ولایت":"بغلان","Province":"BAGHLAN","PC_Code":"0912180","ولسوالي":"پل حصار","District":"PUL-E-HISAR","د_مرکز_نوم__نام_مرکز":"خیمه در پل حصار","Polling_Center_Name":"Pul-e-Hesar Tent","د_مرکز_ځای__موقعیت_مرکز":"مرکز ولسوالی پل حصار","Polling_Center_Location":"Pul-e-Hesar District Center","Verification_Note":"Building","PS_Male":1,"PS_Female":1,"Map_Accuracy":"تعمیر"},"geometry":{"x":7732753.5752756707,"y":4248429.3955627829}},{"attributes":{"OBJECTID":1257,"ولایت":"بغلان","Province":"BAGHLAN","PC_Code":"0912250","ولسوالي":"پل حصار","District":"PUL-E-HISAR","د_مرکز_نوم__نام_مرکز":"مکتب اصحاب کهف","Polling_Center_Name":"As-hab-e-Kahf School","د_مرکز_ځای__موقعیت_مرکز":"اصحاب کهف","Polling_Center_Location":"As-hab-e-Kahf","Verification_Note":"Building","PS_Male":1,"PS_Female":1,"Map_Accuracy":"تعمیر"},"geometry":{"x":7722008.6528963707,"y":4253217.7040029392}},{"attributes":{"OBJECTID":1258,"ولایت":"بغلان","Province":"BAGHLAN","PC_Code":"0913201","ولسوالي":"خوست و فرنگ","District":"KHOST WA FIRING","د_مرکز_نوم__نام_مرکز":"مکتب نسوان دو ابی","Polling_Center_Name":"Du Aabi Girls High School","د_مرکز_ځای__موقعیت_مرکز":"قرغن","Polling_Center_Location":"Qarghan","Verification_Note":"Building","PS_Male":1,"PS_Female":1,"Map_Accuracy":"تعمیر"},"geometry":{"x":7748414.4164621644,"y":4302925.364344351}},{"attributes":{"OBJECTID":1259,"ولایت":"بغلان","Province":"BAGHLAN","PC_Code":"0913202","ولسوالي":"خوست و فرنگ","District":"KHOST WA FIRING","د_مرکز_نوم__نام_مرکز":"مکتب لیسه سبزمحمد خان","Polling_Center_Name":"Sabz Mohammad Khan High School","د_مرکز_ځای__موقعیت_مرکز":"فرغانبل","Polling_Center_Location":"Far Ghanbal","Verification_Note":"Building","PS_Male":1,"PS_Female":1,"Map_Accuracy":"تعمیر"},"geometry":{"x":7754591.3346311972,"y":4304278.4499767125}},{"attributes":{"OBJECTID":1260,"ولایت":"بغلان","Province":"BAGHLAN","PC_Code":"0913214","ولسوالي":"خوست و فرنگ","District":"KHOST WA FIRING","د_مرکز_نوم__نام_مرکز":"مکتب ابتدائیه خاهوش","Polling_Center_Name":"Khahosh Primary School","د_مرکز_ځای__موقعیت_مرکز":"شیخان","Polling_Center_Location":"Shekhan","Verification_Note":"Building","PS_Male":2,"PS_Female":1,"Map_Accuracy":"تعمیر"},"geometry":{"x":7742067.6225237884,"y":4277611.5822763816}},{"attributes":{"OBJECTID":1261,"ولایت":"باميان","Province":"BAMYAN","PC_Code":"1001001","ولسوالي":"بامیان","District":"BAMYAN","د_مرکز_نوم__نام_مرکز":"لیسه ذکور مرکز بامیان","Polling_Center_Name":"Bamyan Center Boys High School","د_مرکز_ځای__موقعیت_مرکز":"مرکز بامیان","Polling_Center_Location":"Bamyan Center","Verification_Note":"Building","PS_Male":3,"PS_Female":1,"Map_Accuracy":"تعمیر"},"geometry":{"x":7552353.6980111562,"y":4139948.8215792403}},{"attributes":{"OBJECTID":1262,"ولایت":"باميان","Province":"BAMYAN","PC_Code":"1001002","ولسوالي":"بامیان","District":"BAMYAN","د_مرکز_نوم__نام_مرکز":"مکتب دخترانه سید آباد","Polling_Center_Name":"Sayed Abad Girls School","د_مرکز_ځای__موقعیت_مرکز":"سید آباد","Polling_Center_Location":"Sayed Abad","Verification_Note":"Building","PS_Male":0,"PS_Female":4,"Map_Accuracy":"تعمیر"},"geometry":{"x":7551380.2992329523,"y":4138234.4201959372}},{"attributes":{"OBJECTID":1263,"ولایت":"بغلان","Province":"BAGHLAN","PC_Code":"0904267","ولسوالي":"نهرین","District":"NAHREEN","د_مرکز_نوم__نام_مرکز":"مکتب ","Polling_Center_Name":"School","د_مرکز_ځای__موقعیت_مرکز":"قره غاج ساکه","Polling_Center_Location":"Qara ghaj saka","Verification_Note":"Building","PS_Male":2,"PS_Female":1,"Map_Accuracy":"تعمیر"},"geometry":{"x":7676699.6986577772,"y":4315729.2257044911}},{"attributes":{"OBJECTID":1264,"ولایت":"بغلان","Province":"BAGHLAN","PC_Code":"0905268","ولسوالي":"بغلان جدید","District":"BAGLAN-E-JADEED","د_مرکز_نوم__نام_مرکز":"مسجد","Polling_Center_Name":"Mosque","د_مرکز_ځای__موقعیت_مرکز":"ارباب یحیی","Polling_Center_Location":"Arbab yahya","Verification_Note":"Building","PS_Male":2,"PS_Female":1,"Map_Accuracy":"تعمیر"},"geometry":{"x":7655930.0466994643,"y":4326506.8504312262}},{"attributes":{"OBJECTID":1265,"ولایت":"بغلان","Province":"BAGHLAN","PC_Code":"0902258","ولسوالي":"دهنۀ غوری","District":"DAHANA-E-GHURI","د_مرکز_نوم__نام_مرکز":"فضای آزاد","Polling_Center_Name":"Open Field","د_مرکز_ځای__موقعیت_مرکز":"زیر کو.تل اومکی","Polling_Center_Location":"Zir kotal omaki","Verification_Note":"Village","PS_Male":2,"PS_Female":1,"Map_Accuracy":"قریه"},"geometry":{"x":7628043.7903450951,"y":4273310.2638798505}},{"attributes":{"OBJECTID":1266,"ولایت":"بغلان","Province":"BAGHLAN","PC_Code":"0902259","ولسوالي":"دهنۀ غوری","District":"DAHANA-E-GHURI","د_مرکز_نوم__نام_مرکز":"مدرسه لرخواب","Polling_Center_Name":"Larkhwab Madrasa","د_مرکز_ځای__موقعیت_مرکز":"لرخوابی","Polling_Center_Location":"Lar khwabi","Verification_Note":"Building","PS_Male":2,"PS_Female":1,"Map_Accuracy":"تعمیر"},"geometry":{"x":7638360.2087160535,"y":4291047.2717035785}},{"attributes":{"OBJECTID":1267,"ولایت":"بغلان","Province":"BAGHLAN","PC_Code":"0905270","ولسوالي":"بغلان جدید","District":"BAGLAN-E-JADEED","د_مرکز_نوم__نام_مرکز":"مکتب غروشاخ ","Polling_Center_Name":"Gharo shakh School","د_مرکز_ځای__موقعیت_مرکز":"غرو شاخ تاجک ها","Polling_Center_Location":"Gharo Shakh tajik ha","Verification_Note":"Building","PS_Male":2,"PS_Female":1,"Map_Accuracy":"تعمیر"},"geometry":{"x":7651384.2215619124,"y":4327315.8411273807}},{"attributes":{"OBJECTID":1268,"ولایت":"بغلان","Province":"BAGHLAN","PC_Code":"0905271","ولسوالي":"بغلان جدید","District":"BAGLAN-E-JADEED","د_مرکز_نوم__نام_مرکز":"مکتب متوسطه","Polling_Center_Name":"Secondary School","د_مرکز_ځای__موقعیت_مرکز":"لقها","Polling_Center_Location":"Laqha","Verification_Note":"Building","PS_Male":2,"PS_Female":1,"Map_Accuracy":"تعمیر"},"geometry":{"x":7655203.6181152686,"y":4324152.2729725242}},{"attributes":{"OBJECTID":1269,"ولایت":"باميان","Province":"BAMYAN","PC_Code":"1001004","ولسوالي":"بامیان","District":"BAMYAN","د_مرکز_نوم__نام_مرکز":"مکتب دوکانی","Polling_Center_Name":"Dokani School","د_مرکز_ځای__موقعیت_مرکز":"دوکانی","Polling_Center_Location":"Dokani","Verification_Note":"Building","PS_Male":1,"PS_Female":1,"Map_Accuracy":"تعمیر"},"geometry":{"x":7552959.3862473629,"y":4127529.62804427}},{"attributes":{"OBJECTID":1270,"ولایت":"باميان","Province":"BAMYAN","PC_Code":"1001005","ولسوالي":"بامیان","District":"BAMYAN","د_مرکز_نوم__نام_مرکز":"مسجد لالاخیل","Polling_Center_Name":"Lala Khel School","د_مرکز_ځای__موقعیت_مرکز":"لالاخیل","Polling_Center_Location":"Lala Khel","Verification_Note":"Building","PS_Male":1,"PS_Female":1,"Map_Accuracy":"تعمیر"},"geometry":{"x":7555410.4366067648,"y":4138381.1945574954}},{"attributes":{"OBJECTID":1271,"ولایت":"باميان","Province":"BAMYAN","PC_Code":"1001007","ولسوالي":"بامیان","District":"BAMYAN","د_مرکز_نوم__نام_مرکز":"مسجد ذکریا","Polling_Center_Name":"Zekria Mosque","د_مرکز_ځای__موقعیت_مرکز":"ذکریا","Polling_Center_Location":"Zekria","Verification_Note":"Building","PS_Male":2,"PS_Female":1,"Map_Accuracy":"تعمیر"},"geometry":{"x":7537761.9436107539,"y":4129903.6278232187}},{"attributes":{"OBJECTID":1272,"ولایت":"باميان","Province":"BAMYAN","PC_Code":"1001008","ولسوالي":"بامیان","District":"BAMYAN","د_مرکز_نوم__نام_مرکز":"مکتب دخترانه شینیه","Polling_Center_Name":"Shinia Girls School","د_مرکز_ځای__موقعیت_مرکز":"شینیه","Polling_Center_Location":"Shinia","Verification_Note":"Building","PS_Male":0,"PS_Female":2,"Map_Accuracy":"تعمیر"},"geometry":{"x":7540950.3564660475,"y":4133620.3485135362}},{"attributes":{"OBJECTID":1273,"ولایت":"باميان","Province":"BAMYAN","PC_Code":"1001018","ولسوالي":"بامیان","District":"BAMYAN","د_مرکز_نوم__نام_مرکز":"مکتب بام سرای","Polling_Center_Name":"Bam Sarai School","د_مرکز_ځای__موقعیت_مرکز":"بام سرای","Polling_Center_Location":"Bam Sarai","Verification_Note":"Building","PS_Male":2,"PS_Female":1,"Map_Accuracy":"تعمیر"},"geometry":{"x":7543769.2019702643,"y":4130895.6110566482}},{"attributes":{"OBJECTID":1274,"ولایت":"باميان","Province":"BAMYAN","PC_Code":"1001019","ولسوالي":"بامیان","District":"BAMYAN","د_مرکز_نوم__نام_مرکز":"مسجد چپ دره","Polling_Center_Name":"Chap Dara Mosque","د_مرکز_ځای__موقعیت_مرکز":"چپ دره","Polling_Center_Location":"Chap Dara","Verification_Note":"Building","PS_Male":1,"PS_Female":1,"Map_Accuracy":"تعمیر"},"geometry":{"x":7546342.6514493749,"y":4129141.8250753954}},{"attributes":{"OBJECTID":1275,"ولایت":"باميان","Province":"BAMYAN","PC_Code":"1002029","ولسوالي":"شیبر","District":"SHEBAR","د_مرکز_نوم__نام_مرکز":"مکتب کنگور","Polling_Center_Name":"Kangor School","د_مرکز_ځای__موقعیت_مرکز":"دهن کنگور","Polling_Center_Location":"Dahan-e-Kangor","Verification_Note":"Building","PS_Male":1,"PS_Female":1,"Map_Accuracy":"تعمیر"},"geometry":{"x":7558961.0463496782,"y":4161707.1781066135}},{"attributes":{"OBJECTID":1276,"ولایت":"باميان","Province":"BAMYAN","PC_Code":"1002030","ولسوالي":"شیبر","District":"SHEBAR","د_مرکز_نوم__نام_مرکز":"مکتب ذکور دهن غندک","Polling_Center_Name":"Dahan-e-Ghundak Boys School","د_مرکز_ځای__موقعیت_مرکز":"دهن غندک بازار","Polling_Center_Location":"Dahan-e-Ghundak Bazar","Verification_Note":"Building","PS_Male":3,"PS_Female":0,"Map_Accuracy":"تعمیر"},"geometry":{"x":7571622.2157643251,"y":4162465.123097755}},{"attributes":{"OBJECTID":1277,"ولایت":"باميان","Province":"BAMYAN","PC_Code":"1003042","ولسوالي":"سیغان","District":"SAIGHAN","د_مرکز_نوم__نام_مرکز":"مسجد پیشنگ","Polling_Center_Name":"Pasheng Mosque","د_مرکز_ځای__موقعیت_مرکز":"پیشنگ","Polling_Center_Location":"Pasheng","Verification_Note":"Building","PS_Male":2,"PS_Female":0,"Map_Accuracy":"تعمیر"},"geometry":{"x":7563583.5637145787,"y":4194879.71662236}},{"attributes":{"OBJECTID":1278,"ولایت":"باميان","Province":"BAMYAN","PC_Code":"1003043","ولسوالي":"سیغان","District":"SAIGHAN","د_مرکز_نوم__نام_مرکز":"مکتب پیشنگ","Polling_Center_Name":"Pasheng School","د_مرکز_ځای__موقعیت_مرکز":"پیشنگ","Polling_Center_Location":"Pasheng","Verification_Note":"Building","PS_Male":0,"PS_Female":2,"Map_Accuracy":"تعمیر"},"geometry":{"x":7563684.1987606511,"y":4194973.9712633789}},{"attributes":{"OBJECTID":1279,"ولایت":"باميان","Province":"BAMYAN","PC_Code":"1004050","ولسوالي":"کهمرد","District":"KAHMARD","د_مرکز_نوم__نام_مرکز":"مکتب روی سنگ","Polling_Center_Name":"Roy Sang School","د_مرکز_ځای__موقعیت_مرکز":"روی سنگ","Polling_Center_Location":"Roy Sang","Verification_Note":"Building","PS_Male":1,"PS_Female":1,"Map_Accuracy":"تعمیر"},"geometry":{"x":7527472.8533955477,"y":4206770.7991613746}},{"attributes":{"OBJECTID":1280,"ولایت":"باميان","Province":"BAMYAN","PC_Code":"1004051","ولسوالي":"کهمرد","District":"KAHMARD","د_مرکز_نوم__نام_مرکز":"مسجد پایان باغ","Polling_Center_Name":"Payan Baagh Mosque","د_مرکز_ځای__موقعیت_مرکز":"پایان باغ","Polling_Center_Location":"Payan Baagh","Verification_Note":"Building","PS_Male":1,"PS_Female":1,"Map_Accuracy":"تعمیر"},"geometry":{"x":7534417.0945882387,"y":4208759.3811075762}},{"attributes":{"OBJECTID":1281,"ولایت":"باميان","Province":"BAMYAN","PC_Code":"1005075","ولسوالي":"یکاولنگ","District":"YAKAWLANG","د_مرکز_نوم__نام_مرکز":"مکتب تنگی سفیدک","Polling_Center_Name":"Tangi Safidak School","د_مرکز_ځای__موقعیت_مرکز":"تنگی سفیدک","Polling_Center_Location":"Tangi Safidak","Verification_Note":"Building","PS_Male":1,"PS_Female":1,"Map_Accuracy":"تعمیر"},"geometry":{"x":7433499.77680169,"y":4129632.9922188893}},{"attributes":{"OBJECTID":1282,"ولایت":"باميان","Province":"BAMYAN","PC_Code":"1005076","ولسوالي":"یکاولنگ","District":"YAKAWLANG","د_مرکز_نوم__نام_مرکز":"مکتب قلعه جعفر","Polling_Center_Name":"Qala-e-Jafar School","د_مرکز_ځای__موقعیت_مرکز":"قلعه جعفر","Polling_Center_Location":"Qala-e-Jafar","Verification_Note":"Building","PS_Male":1,"PS_Female":1,"Map_Accuracy":"تعمیر"},"geometry":{"x":7478197.6036224291,"y":4139402.8980388194}},{"attributes":{"OBJECTID":1283,"ولایت":"باميان","Province":"BAMYAN","PC_Code":"1005085","ولسوالي":"یکاولنگ","District":"YAKAWLANG","د_مرکز_نوم__نام_مرکز":"مکتب دزدان چشمه","Polling_Center_Name":"Duzdan Cheshma School","د_مرکز_ځای__موقعیت_مرکز":"دزدان چشمه","Polling_Center_Location":"Duzdan Cheshma","Verification_Note":"Building","PS_Male":1,"PS_Female":1,"Map_Accuracy":"تعمیر"},"geometry":{"x":7463346.4347334616,"y":4206791.1371557713}},{"attributes":{"OBJECTID":1284,"ولایت":"باميان","Province":"BAMYAN","PC_Code":"1005086","ولسوالي":"یکاولنگ","District":"YAKAWLANG","د_مرکز_نوم__نام_مرکز":"مکتب دره چاشت","Polling_Center_Name":"Dara-e-Chasht School","د_مرکز_ځای__موقعیت_مرکز":"دهن دره چاشت","Polling_Center_Location":"Dahane Dara-e-Chasht","Verification_Note":"Building","PS_Male":1,"PS_Female":1,"Map_Accuracy":"تعمیر"},"geometry":{"x":7408450.7340014689,"y":4158058.6436979324}},{"attributes":{"OBJECTID":1285,"ولایت":"باميان","Province":"BAMYAN","PC_Code":"1005088","ولسوالي":"یکاولنگ","District":"YAKAWLANG","د_مرکز_نوم__نام_مرکز":"مدرسه دره مزار","Polling_Center_Name":"Dara-e-Mazar Madrassa","د_مرکز_ځای__موقعیت_مرکز":"سپی دارک","Polling_Center_Location":"Sapey Daarak","Verification_Note":"Building","PS_Male":1,"PS_Female":1,"Map_Accuracy":"تعمیر"},"geometry":{"x":7393449.0099539831,"y":4175821.6604542285}},{"attributes":{"OBJECTID":1253,"ولایت":"بغلان","Province":"BAGHLAN","PC_Code":"0907242","ولسوالي":"اندراب","District":"ANDARAB","د_مرکز_نوم__نام_مرکز":"مسجد لغک","Polling_Center_Name":"Laghak Mosque","د_مرکز_ځای__موقعیت_مرکز":"لغک","Polling_Center_Location":"Laghak","Verification_Note":"Building","PS_Male":1,"PS_Female":2,"Map_Accuracy":"تعمیر"},"geometry":{"x":7711416.9517773986,"y":4240305.0392932519}},{"attributes":{"OBJECTID":1252,"ولایت":"بغلان","Province":"BAGHLAN","PC_Code":"0907127","ولسوالي":"اندراب","District":"ANDARAB","د_مرکز_نوم__نام_مرکز":"مسجد سپیچ ","Polling_Center_Name":"Speech Mosque","د_مرکز_ځای__موقعیت_مرکز":"قریه سپیچ","Polling_Center_Location":"Speech Village","Verification_Note":"Village","PS_Male":1,"PS_Female":1,"Map_Accuracy":"قریه"},"geometry":{"x":7681912.2328122966,"y":4260873.9522661418}},{"attributes":{"OBJECTID":1251,"ولایت":"بغلان","Province":"BAGHLAN","PC_Code":"0905233","ولسوالي":"بغلان جدید","District":"BAGLAN-E-JADEED","د_مرکز_نوم__نام_مرکز":"مکتب ریس پاینده جان","Polling_Center_Name":"Raes Payanda Jan School","د_مرکز_ځای__موقعیت_مرکز":"قشلاق غوربندی","Polling_Center_Location":"Ghurbandi","Verification_Note":"Building","PS_Male":1,"PS_Female":1,"Map_Accuracy":"تعمیر"},"geometry":{"x":7643534.6795084029,"y":4314934.4020334035}},{"attributes":{"OBJECTID":1250,"ولایت":"بغلان","Province":"BAGHLAN","PC_Code":"0905067","ولسوالي":"بغلان جدید","District":"BAGLAN-E-JADEED","د_مرکز_نوم__نام_مرکز":"مکتب ناز کمیر شهید","Polling_Center_Name":"Naz Kamir Shaheed School","د_مرکز_ځای__موقعیت_مرکز":"سرک هشتم","Polling_Center_Location":"Eighth Street","Verification_Note":"Building","PS_Male":2,"PS_Female":2,"Map_Accuracy":"تعمیر"},"geometry":{"x":7648452.3445844576,"y":4320684.8529524952}},{"attributes":{"OBJECTID":1249,"ولایت":"بغلان","Province":"BAGHLAN","PC_Code":"0905066","ولسوالي":"بغلان جدید","District":"BAGLAN-E-JADEED","د_مرکز_نوم__نام_مرکز":"مکتب قره برق آبقل","Polling_Center_Name":"Qara Barq Aabqul School","د_مرکز_ځای__موقعیت_مرکز":"قره برق آبقل","Polling_Center_Location":"Qora Barq Aabqul","Verification_Note":"Building","PS_Male":1,"PS_Female":1,"Map_Accuracy":"تعمیر"},"geometry":{"x":7650586.6141821072,"y":4342401.8743200079}},{"attributes":{"OBJECTID":1248,"ولایت":"بغلان","Province":"BAGHLAN","PC_Code":"0905048","ولسوالي":"بغلان جدید","District":"BAGLAN-E-JADEED","د_مرکز_نوم__نام_مرکز":"مکتب لیسه قیصرخیل","Polling_Center_Name":"Qaisir Khel High School","د_مرکز_ځای__موقعیت_مرکز":"قیصرخیل","Polling_Center_Location":"Qaisar Khel","Verification_Note":"Building","PS_Male":1,"PS_Female":1,"Map_Accuracy":"تعمیر"},"geometry":{"x":7646037.4652672,"y":4323437.1337879375}},{"attributes":{"OBJECTID":1247,"ولایت":"بغلان","Province":"BAGHLAN","PC_Code":"0905047","ولسوالي":"بغلان جدید","District":"BAGLAN-E-JADEED","د_مرکز_نوم__نام_مرکز":" سرک دوم فابریکه کلینیک بغلان صنعتی","Polling_Center_Name":"Baghlan Sanhaty Clinic","د_مرکز_ځای__موقعیت_مرکز":" کوتی های شرکت قند","Polling_Center_Location":"Kotehai Sherkat Qand","Verification_Note":"Building","PS_Male":3,"PS_Female":1,"Map_Accuracy":"تعمیر"},"geometry":{"x":7646042.5191720761,"y":4317591.7581283078}},{"attributes":{"OBJECTID":1246,"ولایت":"بغلان","Province":"BAGHLAN","PC_Code":"0904243","ولسوالي":"نهرین","District":"NAHREEN","د_مرکز_نوم__نام_مرکز":"مکتب جوی کلان حاجی فاضل ","Polling_Center_Name":"Joy Kalan Haji Fazel School ","د_مرکز_ځای__موقعیت_مرکز":"جوی کلان","Polling_Center_Location":"Joy Kalan","Verification_Note":"Building","PS_Male":1,"PS_Female":1,"Map_Accuracy":"تعمیر"},"geometry":{"x":7692731.1603890769,"y":4306122.8414120749}},{"attributes":{"OBJECTID":1245,"ولایت":"بغلان","Province":"BAGHLAN","PC_Code":"0904146","ولسوالي":"نهرین","District":"NAHREEN","د_مرکز_نوم__نام_مرکز":"مسجد حاجی عمر لکن خیل","Polling_Center_Name":"Haji Omar Lakan Khel Mosque","د_مرکز_ځای__موقعیت_مرکز":"قریه لکن خیل","Polling_Center_Location":"Lakan Khel Village","Verification_Note":"Building","PS_Male":1,"PS_Female":2,"Map_Accuracy":"تعمیر"},"geometry":{"x":7682645.7959739752,"y":4313804.8128172234}},{"attributes":{"OBJECTID":1244,"ولایت":"بغلان","Province":"BAGHLAN","PC_Code":"0903093","ولسوالي":"دوشی","District":"DUSHI","د_مرکز_نوم__نام_مرکز":"لیسه رونق نادری","Polling_Center_Name":"Rawnaq Naderi High School","د_مرکز_ځای__موقعیت_مرکز":"رباط","Polling_Center_Location":"Rubat","Verification_Note":"Building","PS_Male":2,"PS_Female":1,"Map_Accuracy":"تعمیر"},"geometry":{"x":7628711.0139920674,"y":4244779.461293757}},{"attributes":{"OBJECTID":1243,"ولایت":"بغلان","Province":"BAGHLAN","PC_Code":"0902239","ولسوالي":"دهنه غوری","District":"DAHANA-E-GHURI","د_مرکز_نوم__نام_مرکز":"خواجه جاروب","Polling_Center_Name":"Khwaja Jaroob","د_مرکز_ځای__موقعیت_مرکز":"خواجه جاروب","Polling_Center_Location":"Khwaja Jaroob","Verification_Note":"Building","PS_Male":1,"PS_Female":1,"Map_Accuracy":"تعمیر"},"geometry":{"x":7613856.22610645,"y":4273101.2616239935}},{"attributes":{"OBJECTID":1242,"ولایت":"بغلان","Province":"BAGHLAN","PC_Code":"0902082","ولسوالي":"دهنه غوری","District":"DAHANA-E-GHURI","د_مرکز_نوم__نام_مرکز":"مسجد تپه سنگک","Polling_Center_Name":"Tapa-e-Sangak Mosque","د_مرکز_ځای__موقعیت_مرکز":"تپه قل سنگک","Polling_Center_Location":"Tapa-e-Qul Sangak","Verification_Note":"Building","PS_Male":1,"PS_Female":1,"Map_Accuracy":"تعمیر"},"geometry":{"x":7626667.5521558374,"y":4287931.7896839827}},{"attributes":{"OBJECTID":1241,"ولایت":"بغلان","Province":"BAGHLAN","PC_Code":"0902077","ولسوالي":"دهنه غوری","District":"DAHANA-E-GHURI","د_مرکز_نوم__نام_مرکز":"مکتب نسوان ملکه ثریا قریه بیخ","Polling_Center_Name":"Malaka Soria Girls School","د_مرکز_ځای__موقعیت_مرکز":"قریه بیخ","Polling_Center_Location":"Bekh Village","Verification_Note":"Building","PS_Male":1,"PS_Female":1,"Map_Accuracy":"تعمیر"},"geometry":{"x":7632813.0058708042,"y":4283869.13746991}},{"attributes":{"OBJECTID":1240,"ولایت":"بغلان","Province":"BAGHLAN","PC_Code":"0901013","ولسوالي":"پلخمری","District":"PUL-E-KHUMRI","د_مرکز_نوم__نام_مرکز":"مسجد حاجی باز گل","Polling_Center_Name":"Haji Baz Gul Mosque","د_مرکز_ځای__موقعیت_مرکز":"تپه قرغان","Polling_Center_Location":"Qarghan Village","Verification_Note":"Building","PS_Male":1,"PS_Female":1,"Map_Accuracy":"تعمیر"},"geometry":{"x":7639773.7379328571,"y":4297966.5322734863}},{"attributes":{"OBJECTID":1239,"ولایت":"بغلان","Province":"BAGHLAN","PC_Code":"0901004","ولسوالي":"پلخمری","District":"PUL-E-KHUMRI","د_مرکز_نوم__نام_مرکز":"لیسه فاطمه الزهرا","Polling_Center_Name":"Fatema Alzahra High School","د_مرکز_ځای__موقعیت_مرکز":"ناحیه دوم","Polling_Center_Location":"SecondaNahia","Verification_Note":"Building","PS_Male":2,"PS_Female":1,"Map_Accuracy":"تعمیر"},"geometry":{"x":7649566.122806523,"y":4291706.5175917223}},{"attributes":{"OBJECTID":1238,"ولایت":"بغلان","Province":"BAGHLAN","PC_Code":"0901003","ولسوالي":"پلخمری","District":"PUL-E-KHUMRI","د_مرکز_نوم__نام_مرکز":"ریاست تصدی 5 ","Polling_Center_Name":"Tasady # 5 Department","د_مرکز_ځای__موقعیت_مرکز":" ریاست میکانیزه زراعتی","Polling_Center_Location":"Second Nahia","Verification_Note":"Building","PS_Male":2,"PS_Female":2,"Map_Accuracy":"تعمیر"},"geometry":{"x":7651393.2853061669,"y":4289833.10438478}},{"attributes":{"OBJECTID":1237,"ولایت":"بغلان","Province":"BAGHLAN","PC_Code":"0905274","ولسوالي":"بغلان جدید","District":"BAGLAN-E-JADEED","د_مرکز_نوم__نام_مرکز":" مسجدحاجی نبی","Polling_Center_Name":"Haji nabei Mosque","د_مرکز_ځای__موقعیت_مرکز":"حاجی نبی","Polling_Center_Location":"Haji nabi","Verification_Note":"Building","PS_Male":2,"PS_Female":1,"Map_Accuracy":"تعمیر"},"geometry":{"x":7656570.4007156566,"y":4331379.6936836764}},{"attributes":{"OBJECTID":1236,"ولایت":"بغلان","Province":"BAGHLAN","PC_Code":"0905273","ولسوالي":"بغلان جدید","District":"BAGLAN-E-JADEED","د_مرکز_نوم__نام_مرکز":"مدرسه چیابی","Polling_Center_Name":"Chiabi Mdrasa","د_مرکز_ځای__موقعیت_مرکز":"چیابی ها","Polling_Center_Location":"Chihbi ha","Verification_Note":"Building","PS_Male":2,"PS_Female":1,"Map_Accuracy":"تعمیر"},"geometry":{"x":7654737.4902341142,"y":4327785.1559967324}},{"attributes":{"OBJECTID":1235,"ولایت":"باميان","Province":"BAMYAN","PC_Code":"1001167","ولسوالي":"بامیان","District":"BAMYAN","د_مرکز_نوم__نام_مرکز":"مکتب","Polling_Center_Name":"School","د_مرکز_ځای__موقعیت_مرکز":"تی بوتی","Polling_Center_Location":"Tiboti","Verification_Note":"Building","PS_Male":2,"PS_Female":1,"Map_Accuracy":"تعمیر"},"geometry":{"x":7548621.4719661623,"y":4140132.90794944}},{"attributes":{"OBJECTID":1234,"ولایت":"بغلان","Province":"BAGHLAN","PC_Code":"0915281","ولسوالي":"فرنگ وغارو","District":"FIRING WA GHARU","د_مرکز_نوم__نام_مرکز":"مسجد","Polling_Center_Name":"Mosque","د_مرکز_ځای__موقعیت_مرکز":"سوق","Polling_Center_Location":"Saoq","Verification_Note":"Village","PS_Male":2,"PS_Female":1,"Map_Accuracy":"قریه"},"geometry":{"x":7753535.4508933127,"y":4317333.0649257377}},{"attributes":{"OBJECTID":1233,"ولایت":"بغلان","Province":"BAGHLAN","PC_Code":"0914280","ولسوالي":"گذرگاه نور","District":"FIRING WA GHARU","د_مرکز_نوم__نام_مرکز":"مکتب نسوان محمد حنیف","Polling_Center_Name":"Muhammad hanif Femal school","د_مرکز_ځای__موقعیت_مرکز":"جریان غارو","Polling_Center_Location":"Jryan gharo","Verification_Note":"Village","PS_Male":2,"PS_Female":1,"Map_Accuracy":"قریه"},"geometry":{"x":7750216.667329561,"y":4331371.8167981207}},{"attributes":{"OBJECTID":1232,"ولایت":"بغلان","Province":"BAGHLAN","PC_Code":"0909278","ولسوالي":"بورکه ","District":"JALGA","د_مرکز_نوم__نام_مرکز":"مسجد یرم علیا","Polling_Center_Name":"Yarm ulia Mosque","د_مرکز_ځای__موقعیت_مرکز":"یرم علیا","Polling_Center_Location":"Yarm hulya","Verification_Note":"Building","PS_Male":2,"PS_Female":1,"Map_Accuracy":"تعمیر"},"geometry":{"x":7712430.7787890285,"y":4291909.1984750628}},{"attributes":{"OBJECTID":1231,"ولایت":"بغلان","Province":"BAGHLAN","PC_Code":"0909277","ولسوالي":"بورکه ","District":"JALGA","د_مرکز_نوم__نام_مرکز":"مسجد ماسان","Polling_Center_Name":"Masan Mosque","د_مرکز_ځای__موقعیت_مرکز":"ماسان","Polling_Center_Location":"Masan","Verification_Note":"Building","PS_Male":2,"PS_Female":1,"Map_Accuracy":"تعمیر"},"geometry":{"x":7709334.4418467842,"y":4277199.1720865294}},{"attributes":{"OBJECTID":1230,"ولایت":"بغلان","Province":"BAGHLAN","PC_Code":"0908276","ولسوالي":"ده صلاح","District":"DEH SALAH","د_مرکز_نوم__نام_مرکز":"لیسه شهشان ","Polling_Center_Name":"Shahshan High school","د_مرکز_ځای__موقعیت_مرکز":"ده نو","Polling_Center_Location":"Deh now","Verification_Note":"Building","PS_Male":2,"PS_Female":1,"Map_Accuracy":"تعمیر"},"geometry":{"x":7717901.9260430932,"y":4270428.6891855}},{"attributes":{"OBJECTID":1229,"ولایت":"بغلان","Province":"BAGHLAN","PC_Code":"0915220","ولسوالي":"فرنگ و غارو","District":"FIRING WA GHARU","د_مرکز_نوم__نام_مرکز":"لیسه مرکزی سوق","Polling_Center_Name":"Sawq Centeral High School","د_مرکز_ځای__موقعیت_مرکز":"سوق","Polling_Center_Location":"Sawq","Verification_Note":"Building","PS_Male":1,"PS_Female":1,"Map_Accuracy":"تعمیر"},"geometry":{"x":7752536.3924158849,"y":4316649.760940969}},{"attributes":{"OBJECTID":1228,"ولایت":"بغلان","Province":"BAGHLAN","PC_Code":"0915219","ولسوالي":"فرنگ و غارو","District":"FIRING WA GHARU","د_مرکز_نوم__نام_مرکز":"مسجد ده میر","Polling_Center_Name":"Deh Mir Mosque","د_مرکز_ځای__موقعیت_مرکز":"چهار قریه ","Polling_Center_Location":"Char Qarya","Verification_Note":"Building","PS_Male":1,"PS_Female":1,"Map_Accuracy":"تعمیر"},"geometry":{"x":7748683.59812285,"y":4316841.6714170724}},{"attributes":{"OBJECTID":1227,"ولایت":"بغلان","Province":"BAGHLAN","PC_Code":"0914225","ولسوالي":"گذرگاه نور","District":"GOZARGAH-E-NOOR","د_مرکز_نوم__نام_مرکز":"مکتب متوسطه جرآب","Polling_Center_Name":"Jerab Secondary School","د_مرکز_ځای__موقعیت_مرکز":"قریه جرآب","Polling_Center_Location":"Jar Aab Village","Verification_Note":"Building","PS_Male":2,"PS_Female":1,"Map_Accuracy":"تعمیر"},"geometry":{"x":7740537.3535588793,"y":4328868.9899087623}},{"attributes":{"OBJECTID":1286,"ولایت":"باميان","Province":"BAMYAN","PC_Code":"1005091","ولسوالي":"یکاولنگ","District":"YAKAWLANG","د_مرکز_نوم__نام_مرکز":"منبر خمیه سیاه خاک","Polling_Center_Name":"Munbar-e-Khamya Syah Khaak ","د_مرکز_ځای__موقعیت_مرکز":"سیاه خاک چهل برج","Polling_Center_Location":"Syah Khaak Chehel Burj","Verification_Note":"Building","PS_Male":1,"PS_Female":1,"Map_Accuracy":"تعمیر"},"geometry":{"x":7413839.8675112538,"y":4147065.8583369255}},{"attributes":{"OBJECTID":1287,"ولایت":"باميان","Province":"BAMYAN","PC_Code":"1005092","ولسوالي":"یکاولنگ","District":"YAKAWLANG","د_مرکز_نوم__نام_مرکز":"مکتب غرغرک سرذولیج","Polling_Center_Name":"Ghur Ghurake Sare Zulech School","د_مرکز_ځای__موقعیت_مرکز":"غرغرک سر ذولیج","Polling_Center_Location":"Ghur Ghurake Sare Zurich","Verification_Note":"Building","PS_Male":1,"PS_Female":1,"Map_Accuracy":"تعمیر"},"geometry":{"x":7406329.0223555714,"y":4147572.434117727}},{"attributes":{"OBJECTID":1288,"ولایت":"باميان","Province":"BAMYAN","PC_Code":"1005095","ولسوالي":"یکاولنگ","District":"YAKAWLANG","د_مرکز_نوم__نام_مرکز":"مکتب دشت سفلی نیطاق (لیسه زکور)","Polling_Center_Name":"Dasht-e-Sufla Naitaaq Boys School","د_مرکز_ځای__موقعیت_مرکز":"دشت سفلی نیطاق","Polling_Center_Location":"Dasht-e-Sufla Naitaaq","Verification_Note":"Building","PS_Male":1,"PS_Female":1,"Map_Accuracy":"تعمیر"},"geometry":{"x":7428504.2300495245,"y":4131050.2752693221}},{"attributes":{"OBJECTID":1289,"ولایت":"باميان","Province":"BAMYAN","PC_Code":"1005164","ولسوالي":"یکاولنگ","District":"YAKAWLANG","د_مرکز_نوم__نام_مرکز":"منبر نوشوره","Polling_Center_Name":"Munbar-e-Naw Shora ","د_مرکز_ځای__موقعیت_مرکز":"زردگیاه","Polling_Center_Location":"Zard Giyah","Verification_Note":"Building","PS_Male":1,"PS_Female":1,"Map_Accuracy":"تعمیر"},"geometry":{"x":7476751.5511918813,"y":4163454.4333579764}},{"attributes":{"OBJECTID":1290,"ولایت":"باميان","Province":"BAMYAN","PC_Code":"1006103","ولسوالي":"پنجاب","District":"PANJAB","د_مرکز_نوم__نام_مرکز":"مدرسه امام کاظم","Polling_Center_Name":"Imam-e-Kazim Madrassa","د_مرکز_ځای__موقعیت_مرکز":"ترغای","Polling_Center_Location":"Targhaay","Verification_Note":"Building","PS_Male":1,"PS_Female":1,"Map_Accuracy":"تعمیر"},"geometry":{"x":7489766.8323595151,"y":4101695.7801864818}},{"attributes":{"OBJECTID":1291,"ولایت":"باميان","Province":"BAMYAN","PC_Code":"1006104","ولسوالي":"پنجاب","District":"PANJAB","د_مرکز_نوم__نام_مرکز":"منبر شینیه تراپس","Polling_Center_Name":"Munbar-e-Shenia Turaps","د_مرکز_ځای__موقعیت_مرکز":"شینیه تراپس","Polling_Center_Location":"Shenia Turaps","Verification_Note":"Building","PS_Male":2,"PS_Female":1,"Map_Accuracy":"تعمیر"},"geometry":{"x":7473257.8847080991,"y":4091510.7633293197}},{"attributes":{"OBJECTID":1292,"ولایت":"باميان","Province":"BAMYAN","PC_Code":"1006114","ولسوالي":"پنجاب","District":"PANJAB","د_مرکز_نوم__نام_مرکز":"مکتب نسوان دهن غوچ نو","Polling_Center_Name":"Dahan-e-Ghawch Naw Girls School","د_مرکز_ځای__موقعیت_مرکز":"دهن غوچ نو","Polling_Center_Location":"Dahan-e-Ghawch Naw","Verification_Note":"Building","PS_Male":1,"PS_Female":1,"Map_Accuracy":"تعمیر"},"geometry":{"x":7451046.9568159394,"y":4099767.6526424736}},{"attributes":{"OBJECTID":1293,"ولایت":"باميان","Province":"BAMYAN","PC_Code":"1006115","ولسوالي":"پنجاب","District":"PANJAB","د_مرکز_نوم__نام_مرکز":"مسجد شینیه گنداب","Polling_Center_Name":"Shenia Gandab Mosque","د_مرکز_ځای__موقعیت_مرکز":"شینیه","Polling_Center_Location":"Shenia","Verification_Note":"Building","PS_Male":1,"PS_Female":1,"Map_Accuracy":"تعمیر"},"geometry":{"x":7439166.630177103,"y":4088445.9788064733}},{"attributes":{"OBJECTID":1294,"ولایت":"باميان","Province":"BAMYAN","PC_Code":"1007120","ولسوالي":"ورس","District":"WARAS","د_مرکز_نوم__نام_مرکز":"مکتب شهرنو","Polling_Center_Name":"Shahr-e-Naw School","د_مرکز_ځای__موقعیت_مرکز":"پشته دهن ورس","Polling_Center_Location":"Pusht-e-Dahane Waras","Verification_Note":"Building","PS_Male":1,"PS_Female":1,"Map_Accuracy":"تعمیر"},"geometry":{"x":7448577.578815572,"y":4059333.4148634523}},{"attributes":{"OBJECTID":1295,"ولایت":"باميان","Province":"BAMYAN","PC_Code":"1007121","ولسوالي":"ورس","District":"WARAS","د_مرکز_نوم__نام_مرکز":"لیسه دهن پدگگ","Polling_Center_Name":"Dahan-e-Padgag High School","د_مرکز_ځای__موقعیت_مرکز":"دهن پدگگ سلطان رباط","Polling_Center_Location":"Dahan-e-Padgag Sultan Rubat","Verification_Note":"Building","PS_Male":1,"PS_Female":1,"Map_Accuracy":"تعمیر"},"geometry":{"x":7458827.1383663975,"y":4053323.1521593779}},{"attributes":{"OBJECTID":1296,"ولایت":"باميان","Province":"BAMYAN","PC_Code":"1007125","ولسوالي":"ورس","District":"WARAS","د_مرکز_نوم__نام_مرکز":"لیسه عالی چیجین","Polling_Center_Name":"Chijin High School","د_مرکز_ځای__موقعیت_مرکز":"شکور داد","Polling_Center_Location":"Shokoor Daad","Verification_Note":"Building","PS_Male":2,"PS_Female":1,"Map_Accuracy":"تعمیر"},"geometry":{"x":7436156.8316711709,"y":4055984.8509958163}},{"attributes":{"OBJECTID":1297,"ولایت":"باميان","Province":"BAMYAN","PC_Code":"1007126","ولسوالي":"ورس","District":"WARAS","د_مرکز_نوم__نام_مرکز":"مسجد شینیه قوم برفی","Polling_Center_Name":"Shenia Qawm-e-Barfi Mosque","د_مرکز_ځای__موقعیت_مرکز":"شینیه قوم برفی","Polling_Center_Location":"Shenia Qawm-e-Barfi","Verification_Note":"Building","PS_Male":2,"PS_Female":1,"Map_Accuracy":"تعمیر"},"geometry":{"x":7439910.5249007158,"y":4051733.2676004097}},{"attributes":{"OBJECTID":1298,"ولایت":"باميان","Province":"BAMYAN","PC_Code":"1007161","ولسوالي":"ورس","District":"WARAS","د_مرکز_نوم__نام_مرکز":"مسجد توبک زیر کوه پجندور","Polling_Center_Name":"Tubak Zer Kohe Pajankwar Mosque","د_مرکز_ځای__موقعیت_مرکز":"توبک","Polling_Center_Location":"Turbak","Verification_Note":"Building","PS_Male":1,"PS_Female":1,"Map_Accuracy":"تعمیر"},"geometry":{"x":7471895.3920269236,"y":4018416.3937831521}},{"attributes":{"OBJECTID":1299,"ولایت":"باميان","Province":"BAMYAN","PC_Code":"1007162","ولسوالي":"ورس","District":"WARAS","د_مرکز_نوم__نام_مرکز":"مسجد ایلجم (امام جعفر صادق)","Polling_Center_Name":"Eljem Mosque","د_مرکز_ځای__موقعیت_مرکز":"ایلجم","Polling_Center_Location":"Eljem","Verification_Note":"Building","PS_Male":1,"PS_Female":1,"Map_Accuracy":"تعمیر"},"geometry":{"x":7407025.7009171732,"y":4040189.5882078782}},{"attributes":{"OBJECTID":1300,"ولایت":"بدخشان","Province":"BADAKHSHAN","PC_Code":"1707062","ولسوالي":"درایم","District":"DARAYIM","د_مرکز_نوم__نام_مرکز":"مدرسه النعمان","Polling_Center_Name":"Zamanuddin & Haji Habibullah House","د_مرکز_ځای__موقعیت_مرکز":"مرکز شهر صفا","Polling_Center_Location":"Deh Bazar","Verification_Note":"Building","PS_Male":3,"PS_Female":1,"Map_Accuracy":"تعمیر"},"geometry":{"x":7833421.7402269468,"y":4426691.4740354493}},{"attributes":{"OBJECTID":1301,"ولایت":"باميان","Province":"BAMYAN","PC_Code":"1001013","ولسوالي":"بامیان","District":"BAMYAN","د_مرکز_نوم__نام_مرکز":"مکتب شهیدان","Polling_Center_Name":"Shaheedan School","د_مرکز_ځای__موقعیت_مرکز":"بازار شهیدان","Polling_Center_Location":"Bazar-e-Shaheedan","Verification_Note":"Building","PS_Male":2,"PS_Female":1,"Map_Accuracy":"تعمیر"},"geometry":{"x":7523920.7653297968,"y":4137548.6956099272}},{"attributes":{"OBJECTID":1302,"ولایت":"باميان","Province":"BAMYAN","PC_Code":"1001014","ولسوالي":"بامیان","District":"BAMYAN","د_مرکز_نوم__نام_مرکز":"مسجد نعل شیره","Polling_Center_Name":"Naul Shera Mosque","د_مرکز_ځای__موقعیت_مرکز":"نعل شیره سفلی","Polling_Center_Location":"Naul Shera Sufla","Verification_Note":"Building","PS_Male":1,"PS_Female":1,"Map_Accuracy":"تعمیر"},"geometry":{"x":7522817.0169938542,"y":4131660.0752799734}},{"attributes":{"OBJECTID":1303,"ولایت":"باميان","Province":"BAMYAN","PC_Code":"1002024","ولسوالي":"شیبر","District":"SHEBAR","د_مرکز_نوم__نام_مرکز":"مکتب نسوان برگلیج","Polling_Center_Name":"Berglej Girls School","د_مرکز_ځای__موقعیت_مرکز":"زی سلطان","Polling_Center_Location":"Zee Sultan","Verification_Note":"Building","PS_Male":2,"PS_Female":1,"Map_Accuracy":"تعمیر"},"geometry":{"x":7588434.46895314,"y":4151649.7916834578}},{"attributes":{"OBJECTID":1304,"ولایت":"باميان","Province":"BAMYAN","PC_Code":"1002025","ولسوالي":"شیبر","District":"SHEBAR","د_مرکز_نوم__نام_مرکز":"کلینیک شنبل","Polling_Center_Name":"Shanbol Girls High School","د_مرکز_ځای__موقعیت_مرکز":"دهن شنبل","Polling_Center_Location":"Dahan-e-Shanbol","Verification_Note":"Building","PS_Male":1,"PS_Female":1,"Map_Accuracy":"تعمیر"},"geometry":{"x":7587178.5123642385,"y":4146796.6805339679}},{"attributes":{"OBJECTID":1305,"ولایت":"باميان","Province":"BAMYAN","PC_Code":"1003035","ولسوالي":"سیغان","District":"SAIGHAN","د_مرکز_نوم__نام_مرکز":"مسجد زنانه قرونه","Polling_Center_Name":"Qarona Female Mosque","د_مرکز_ځای__موقعیت_مرکز":"قرونه علیا","Polling_Center_Location":"Qaron-e-Ulya","Verification_Note":"Building","PS_Male":0,"PS_Female":3,"Map_Accuracy":"تعمیر"},"geometry":{"x":7530237.5063452423,"y":4186551.9853047505}},{"attributes":{"OBJECTID":1306,"ولایت":"باميان","Province":"BAMYAN","PC_Code":"1003036","ولسوالي":"سیغان","District":"SAIGHAN","د_مرکز_نوم__نام_مرکز":"مسجد بغندی قرغان","Polling_Center_Name":"Boghundi Qarghan Mosque","د_مرکز_ځای__موقعیت_مرکز":"قرغان","Polling_Center_Location":"Qarghan","Verification_Note":"Building","PS_Male":1,"PS_Female":1,"Map_Accuracy":"تعمیر"},"geometry":{"x":7539321.1545300744,"y":4189258.3833125755}},{"attributes":{"OBJECTID":1307,"ولایت":"باميان","Province":"BAMYAN","PC_Code":"1004053","ولسوالي":"کهمرد","District":"KAHMARD","د_مرکز_نوم__نام_مرکز":"مکتب ذکور دورو","Polling_Center_Name":"Duro Boys School","د_مرکز_ځای__موقعیت_مرکز":"دورو","Polling_Center_Location":"Doro","Verification_Note":"Building","PS_Male":2,"PS_Female":1,"Map_Accuracy":"تعمیر"},"geometry":{"x":7542968.9717919342,"y":4213918.8931471035}},{"attributes":{"OBJECTID":1308,"ولایت":"باميان","Province":"BAMYAN","PC_Code":"1004054","ولسوالي":"کهمرد","District":"KAHMARD","د_مرکز_نوم__نام_مرکز":"مسجد مدر","Polling_Center_Name":"Madar Mosque","د_مرکز_ځای__موقعیت_مرکز":"مدر","Polling_Center_Location":"Madar","Verification_Note":"Building","PS_Male":1,"PS_Female":1,"Map_Accuracy":"تعمیر"},"geometry":{"x":7548831.8476586863,"y":4218281.8191287145}},{"attributes":{"OBJECTID":1309,"ولایت":"باميان","Province":"BAMYAN","PC_Code":"1004058","ولسوالي":"کهمرد","District":"KAHMARD","د_مرکز_نوم__نام_مرکز":"مسجد دربند","Polling_Center_Name":"Darband Mosque","د_مرکز_ځای__موقعیت_مرکز":"دربند","Polling_Center_Location":"Darband","Verification_Note":"Building","PS_Male":1,"PS_Female":1,"Map_Accuracy":"تعمیر"},"geometry":{"x":7562901.7518709786,"y":4202263.5429719239}},{"attributes":{"OBJECTID":1310,"ولایت":"باميان","Province":"BAMYAN","PC_Code":"1004059","ولسوالي":"کهمرد","District":"KAHMARD","د_مرکز_نوم__نام_مرکز":"مسجد کلچ","Polling_Center_Name":"Kalach Mosque","د_مرکز_ځای__موقعیت_مرکز":"کلچ","Polling_Center_Location":"Kalach","Verification_Note":"Building","PS_Male":1,"PS_Female":1,"Map_Accuracy":"تعمیر"},"geometry":{"x":7566562.649172999,"y":4201094.9445532709}},{"attributes":{"OBJECTID":1311,"ولایت":"باميان","Province":"BAMYAN","PC_Code":"1004063","ولسوالي":"کهمرد","District":"KAHMARD","د_مرکز_نوم__نام_مرکز":"مکتب دشت سفید","Polling_Center_Name":"Dasht-e-Safid School","د_مرکز_ځای__موقعیت_مرکز":"دشت سفید","Polling_Center_Location":"Dasht-e-Safid","Verification_Note":"Building","PS_Male":2,"PS_Female":1,"Map_Accuracy":"تعمیر"},"geometry":{"x":7560206.1448354535,"y":4206429.4625973254}},{"attributes":{"OBJECTID":1312,"ولایت":"باميان","Province":"BAMYAN","PC_Code":"1004064","ولسوالي":"کهمرد","District":"KAHMARD","د_مرکز_نوم__نام_مرکز":"مکتب اشپشته","Polling_Center_Name":"Eshpeshta School","د_مرکز_ځای__موقعیت_مرکز":"اشپشته","Polling_Center_Location":"Eshpeshta","Verification_Note":"Building","PS_Male":1,"PS_Female":1,"Map_Accuracy":"تعمیر"},"geometry":{"x":7578778.4627008326,"y":4206832.9892318249}},{"attributes":{"OBJECTID":1313,"ولایت":"باميان","Province":"BAMYAN","PC_Code":"1004066","ولسوالي":"کهمرد","District":"KAHMARD","د_مرکز_نوم__نام_مرکز":"مسجد لغکی","Polling_Center_Name":"Laghaki Mosque","د_مرکز_ځای__موقعیت_مرکز":"لغکی","Polling_Center_Location":"Laghaki","Verification_Note":"Building","PS_Male":1,"PS_Female":1,"Map_Accuracy":"تعمیر"},"geometry":{"x":7527480.50995012,"y":4204793.9580297321}},{"attributes":{"OBJECTID":1314,"ولایت":"باميان","Province":"BAMYAN","PC_Code":"1004067","ولسوالي":"کهمرد","District":"KAHMARD","د_مرکز_نوم__نام_مرکز":"مکتب سرگلی","Polling_Center_Name":"Sargali School","د_مرکز_ځای__موقعیت_مرکز":"سر گلی","Polling_Center_Location":"Sargali","Verification_Note":"Building","PS_Male":1,"PS_Female":1,"Map_Accuracy":"تعمیر"},"geometry":{"x":7579767.6643939428,"y":4215567.4962928817}},{"attributes":{"OBJECTID":1315,"ولایت":"باميان","Province":"BAMYAN","PC_Code":"1006098","ولسوالي":"پنجاب","District":"PANJAB","د_مرکز_نوم__نام_مرکز":"مکتب شینیه اخضرات","Polling_Center_Name":"Shenia Akhzarat School","د_مرکز_ځای__موقعیت_مرکز":"شینیه","Polling_Center_Location":"Shenia","Verification_Note":"Building","PS_Male":1,"PS_Female":1,"Map_Accuracy":"تعمیر"},"geometry":{"x":7428740.4600277431,"y":4075753.1692771837}},{"attributes":{"OBJECTID":1316,"ولایت":"باميان","Province":"BAMYAN","PC_Code":"1006099","ولسوالي":"پنجاب","District":"PANJAB","د_مرکز_نوم__نام_مرکز":"منبر نو الترغان علیا","Polling_Center_Name":"Munbar-e-Naw Altarghaan Ulya","د_مرکز_ځای__موقعیت_مرکز":"نو الترغان علیا","Polling_Center_Location":"Naw Altarghaan Ulya","Verification_Note":"Building","PS_Male":2,"PS_Female":1,"Map_Accuracy":"تعمیر"},"geometry":{"x":7421092.2165641673,"y":4084990.9278324246}},{"attributes":{"OBJECTID":1317,"ولایت":"باميان","Province":"BAMYAN","PC_Code":"1006109","ولسوالي":"پنجاب","District":"PANJAB","د_مرکز_نوم__نام_مرکز":"مکتب بارغو سنگ","Polling_Center_Name":"Baarghosang School","د_مرکز_ځای__موقعیت_مرکز":"بارغو سنگ","Polling_Center_Location":"Baargho Sang","Verification_Note":"Building","PS_Male":1,"PS_Female":1,"Map_Accuracy":"تعمیر"},"geometry":{"x":7437873.94038263,"y":4090906.470515497}},{"attributes":{"OBJECTID":1318,"ولایت":"باميان","Province":"BAMYAN","PC_Code":"1006110","ولسوالي":"پنجاب","District":"PANJAB","د_مرکز_نوم__نام_مرکز":"لیسه ذکور غرغری","Polling_Center_Name":"Ghur Ghuri Boys High School","د_مرکز_ځای__موقعیت_مرکز":"غرغری","Polling_Center_Location":"Ghur Ghuri","Verification_Note":"Building","PS_Male":1,"PS_Female":1,"Map_Accuracy":"تعمیر"},"geometry":{"x":7450963.4671978466,"y":4094846.282712087}},{"attributes":{"OBJECTID":1319,"ولایت":"باميان","Province":"BAMYAN","PC_Code":"1006116","ولسوالي":"پنجاب","District":"PANJAB","د_مرکز_نوم__نام_مرکز":"مکتب متوسطه پیازان","Polling_Center_Name":"Pyazan Secondary School","د_مرکز_ځای__موقعیت_مرکز":"شینیه پیازان","Polling_Center_Location":"Shenia Pyazan","Verification_Note":"Building","PS_Male":1,"PS_Female":1,"Map_Accuracy":"تعمیر"},"geometry":{"x":7408701.9609414823,"y":4059069.0348740965}},{"attributes":{"OBJECTID":1320,"ولایت":"باميان","Province":"BAMYAN","PC_Code":"1006117","ولسوالي":"پنجاب","District":"PANJAB","د_مرکز_نوم__نام_مرکز":"مکتب نسوان لشکر راه اخضراب","Polling_Center_Name":"Lashkar Rah-e-Akhzarab Girls School","د_مرکز_ځای__موقعیت_مرکز":"میانه ده","Polling_Center_Location":"Miana Deh","Verification_Note":"Building","PS_Male":2,"PS_Female":1,"Map_Accuracy":"تعمیر"},"geometry":{"x":7427396.416325774,"y":4087263.112051107}},{"attributes":{"OBJECTID":1321,"ولایت":"باميان","Province":"BAMYAN","PC_Code":"1007131","ولسوالي":"ورس","District":"WARAS","د_مرکز_نوم__نام_مرکز":"لیسه ذکور بند کوسه","Polling_Center_Name":"Band-e-Kosa Boys High School","د_مرکز_ځای__موقعیت_مرکز":"بند کوسه","Polling_Center_Location":"Band-e-Kosa","Verification_Note":"Building","PS_Male":1,"PS_Female":1,"Map_Accuracy":"تعمیر"},"geometry":{"x":7428628.6139957607,"y":4043036.2997950837}},{"attributes":{"OBJECTID":1322,"ولایت":"باميان","Province":"BAMYAN","PC_Code":"1007132","ولسوالي":"ورس","District":"WARAS","د_مرکز_نوم__نام_مرکز":"مسجد ریگجوی قوناق","Polling_Center_Name":"Regjoy-e-Qonaaq Mosque","د_مرکز_ځای__موقعیت_مرکز":"ریگجوی قوناق","Polling_Center_Location":"Regjoy-e-Qonaaq","Verification_Note":"Building","PS_Male":2,"PS_Female":1,"Map_Accuracy":"تعمیر"},"geometry":{"x":7422795.4170184433,"y":4032037.6521751881}},{"attributes":{"OBJECTID":1323,"ولایت":"باميان","Province":"BAMYAN","PC_Code":"1007135","ولسوالي":"ورس","District":"WARAS","د_مرکز_نوم__نام_مرکز":"مسجد دهن دیوالک","Polling_Center_Name":"Dahan-e-Dewalak Mosque","د_مرکز_ځای__موقعیت_مرکز":"دهن دیوالک","Polling_Center_Location":"Dahan-e-Dewalak ","Verification_Note":"Building","PS_Male":1,"PS_Female":1,"Map_Accuracy":"تعمیر"},"geometry":{"x":7432346.6738563105,"y":4053858.1153923869}},{"attributes":{"OBJECTID":1324,"ولایت":"باميان","Province":"BAMYAN","PC_Code":"1007136","ولسوالي":"ورس","District":"WARAS","د_مرکز_نوم__نام_مرکز":"مسجید سیب جوی","Polling_Center_Name":"Seab Joy Mosque","د_مرکز_ځای__موقعیت_مرکز":"سیب جوی","Polling_Center_Location":"Seab Joy","Verification_Note":"Building","PS_Male":2,"PS_Female":1,"Map_Accuracy":"تعمیر"},"geometry":{"x":7459120.2314537093,"y":4062639.2870281339}},{"attributes":{"OBJECTID":1325,"ولایت":"باميان","Province":"BAMYAN","PC_Code":"1007147","ولسوالي":"ورس","District":"WARAS","د_مرکز_نوم__نام_مرکز":"مسجد ورزنگ","Polling_Center_Name":"Warzang Mosque","د_مرکز_ځای__موقعیت_مرکز":"ورزنگ","Polling_Center_Location":"Warzang","Verification_Note":"Building","PS_Male":1,"PS_Female":1,"Map_Accuracy":"تعمیر"},"geometry":{"x":7483030.9647783078,"y":4033648.5853648782}},{"attributes":{"OBJECTID":1326,"ولایت":"باميان","Province":"BAMYAN","PC_Code":"1007148","ولسوالي":"ورس","District":"WARAS","د_مرکز_نوم__نام_مرکز":"مسجد نو میلک شینیه پچندور ","Polling_Center_Name":"New Melik Shenia Pachandoor Mosque","د_مرکز_ځای__موقعیت_مرکز":"نو میلک","Polling_Center_Location":"Naw Melik","Verification_Note":"Building","PS_Male":1,"PS_Female":1,"Map_Accuracy":"تعمیر"},"geometry":{"x":7472844.6355888136,"y":4027174.3611808792}},{"attributes":{"OBJECTID":1327,"ولایت":"باميان","Province":"BAMYAN","PC_Code":"1002170","ولسوالي":"شیبر","District":"SHEBAR","د_مرکز_نوم__نام_مرکز":"مکتب نسوان سرکالو","Polling_Center_Name":"Sar kalo Female school","د_مرکز_ځای__موقعیت_مرکز":"غرغره سرکالو","Polling_Center_Location":"Ghar gharae sar kalo","Verification_Note":"Building","PS_Male":2,"PS_Female":1,"Map_Accuracy":"تعمیر"},"geometry":{"x":7574869.9808325358,"y":4117378.7911324352}},{"attributes":{"OBJECTID":1328,"ولایت":"باميان","Province":"BAMYAN","PC_Code":"1002171","ولسوالي":"شیبر","District":"SHEBAR","د_مرکز_نوم__نام_مرکز":"مسجد باغک","Polling_Center_Name":"Baghak Mosque","د_مرکز_ځای__موقعیت_مرکز":"باغک","Polling_Center_Location":"Baghak","Verification_Note":"Building","PS_Male":2,"PS_Female":1,"Map_Accuracy":"تعمیر"},"geometry":{"x":7566566.7269172668,"y":4188436.7360172272}},{"attributes":{"OBJECTID":1329,"ولایت":"باميان","Province":"BAMYAN","PC_Code":"1002032","ولسوالي":"شیبر","District":"SHEBAR","د_مرکز_نوم__نام_مرکز":"مدرسه سری قندی باغک","Polling_Center_Name":"Sare Qandi Baghak Madrassa","د_مرکز_ځای__موقعیت_مرکز":"ایمنداب، سری قندی باغک","Polling_Center_Location":"Aymandab, Sar-e-Qandi Baghak","Verification_Note":"Building","PS_Male":2,"PS_Female":1,"Map_Accuracy":"تعمیر"},"geometry":{"x":7563079.5101734661,"y":4182185.8367035016}},{"attributes":{"OBJECTID":1330,"ولایت":"باميان","Province":"BAMYAN","PC_Code":"1003039","ولسوالي":"سیغان","District":"SAIGHAN","د_مرکز_نوم__نام_مرکز":"مسجد جامع بیانقلی","Polling_Center_Name":"Bianqali Mosque","د_مرکز_ځای__موقعیت_مرکز":"بیانقلی","Polling_Center_Location":"Bianqali","Verification_Note":"Building","PS_Male":1,"PS_Female":1,"Map_Accuracy":"تعمیر"},"geometry":{"x":7545911.859491542,"y":4190369.6270953119}},{"attributes":{"OBJECTID":1331,"ولایت":"باميان","Province":"BAMYAN","PC_Code":"1003040","ولسوالي":"سیغان","District":"SAIGHAN","د_مرکز_نوم__نام_مرکز":"مسجد قلعچه","Polling_Center_Name":"Qalacha Mosque","د_مرکز_ځای__موقعیت_مرکز":"قلعچه","Polling_Center_Location":"Qalacha","Verification_Note":"Building","PS_Male":1,"PS_Female":1,"Map_Accuracy":"تعمیر"},"geometry":{"x":7512066.3516420312,"y":4180642.4097762853}},{"attributes":{"OBJECTID":1332,"ولایت":"باميان","Province":"BAMYAN","PC_Code":"1005071","ولسوالي":"یکاولنگ","District":"YAKAWLANG","د_مرکز_نوم__نام_مرکز":"لیسه ذکور زارین","Polling_Center_Name":"Zaarin Boys High School","د_مرکز_ځای__موقعیت_مرکز":"زارین","Polling_Center_Location":"Zaarin","Verification_Note":"Building","PS_Male":2,"PS_Female":1,"Map_Accuracy":"تعمیر"},"geometry":{"x":7445349.79815631,"y":4119391.4376308918}},{"attributes":{"OBJECTID":1333,"ولایت":"باميان","Province":"BAMYAN","PC_Code":"1005081","ولسوالي":"یکاولنگ","District":"YAKAWLANG","د_مرکز_نوم__نام_مرکز":"مدرسه سیاه دره","Polling_Center_Name":"Syah Dara Madrassa","د_مرکز_ځای__موقعیت_مرکز":"شهرنو سیاه دره","Polling_Center_Location":"Shahre Naw Syah Dara","Verification_Note":"Building","PS_Male":2,"PS_Female":1,"Map_Accuracy":"تعمیر"},"geometry":{"x":7434470.5339683667,"y":4102001.4874638915}},{"attributes":{"OBJECTID":1334,"ولایت":"باميان","Province":"BAMYAN","PC_Code":"1005082","ولسوالي":"یکاولنگ","District":"YAKAWLANG","د_مرکز_نوم__نام_مرکز":"مکتب دخترانه بغلک رستم","Polling_Center_Name":"Baghalak-e-Rustam Girls School","د_مرکز_ځای__موقعیت_مرکز":"بغلک رستم","Polling_Center_Location":"Baghalake Rustam","Verification_Note":"Building","PS_Male":1,"PS_Female":1,"Map_Accuracy":"تعمیر"},"geometry":{"x":7446187.6717996821,"y":4110704.6706761792}},{"attributes":{"OBJECTID":1335,"ولایت":"باميان","Province":"BAMYAN","PC_Code":"1006100","ولسوالي":"پنجاب","District":"PANJAB","د_مرکز_نوم__نام_مرکز":"لیسه ذکور سرای زرد سنگ","Polling_Center_Name":"Saray-e-Zard Sang Boys School","د_مرکز_ځای__موقعیت_مرکز":"دهن قوریغک مرکه علیا","Polling_Center_Location":"Dahan-e-Qoorighak Marka Ulya","Verification_Note":"Building","PS_Male":1,"PS_Female":1,"Map_Accuracy":"تعمیر"},"geometry":{"x":7477373.4353008047,"y":4080286.0196785182}},{"attributes":{"OBJECTID":1336,"ولایت":"باميان","Province":"BAMYAN","PC_Code":"1006101","ولسوالي":"پنجاب","District":"PANJAB","د_مرکز_نوم__نام_مرکز":"مدرسه علمیه کاظمیه","Polling_Center_Name":"Elmia Kazimia Madrassa","د_مرکز_ځای__موقعیت_مرکز":"غرغره دراز قول","Polling_Center_Location":"Ghar Ghar-e-Daraz Qol","Verification_Note":"Building","PS_Male":1,"PS_Female":1,"Map_Accuracy":"تعمیر"},"geometry":{"x":7498306.35421294,"y":4080812.5150900483}},{"attributes":{"OBJECTID":1337,"ولایت":"باميان","Province":"BAMYAN","PC_Code":"1007142","ولسوالي":"ورس","District":"WARAS","د_مرکز_نوم__نام_مرکز":"مسجد شینیه بستوک","Polling_Center_Name":"Shenia Bastook Mosque","د_مرکز_ځای__موقعیت_مرکز":"شینیه بستوک","Polling_Center_Location":"Shenia Bastook","Verification_Note":"Building","PS_Male":1,"PS_Female":1,"Map_Accuracy":"تعمیر"},"geometry":{"x":7466209.3148886412,"y":4045692.773432754}},{"attributes":{"OBJECTID":1338,"ولایت":"باميان","Province":"BAMYAN","PC_Code":"1007143","ولسوالي":"ورس","District":"WARAS","د_مرکز_نوم__نام_مرکز":"مسجد رزک","Polling_Center_Name":"Razak Mosque","د_مرکز_ځای__موقعیت_مرکز":"رزک","Polling_Center_Location":"Razak","Verification_Note":"Building","PS_Male":1,"PS_Female":1,"Map_Accuracy":"تعمیر"},"geometry":{"x":7468106.6220258176,"y":4041046.622999005}},{"attributes":{"OBJECTID":1339,"ولایت":"باميان","Province":"BAMYAN","PC_Code":"1007158","ولسوالي":"ورس","District":"WARAS","د_مرکز_نوم__نام_مرکز":"مکتب وار زاغ ","Polling_Center_Name":"Warzagh School","د_مرکز_ځای__موقعیت_مرکز":"وارزاغ","Polling_Center_Location":"Warzagh","Verification_Note":"Building","PS_Male":1,"PS_Female":1,"Map_Accuracy":"تعمیر"},"geometry":{"x":7468142.1293811649,"y":4037104.8373263329}},{"attributes":{"OBJECTID":1340,"ولایت":"باميان","Province":"BAMYAN","PC_Code":"1005176","ولسوالي":"یکاولنگ","District":"Yakawlang","د_مرکز_نوم__نام_مرکز":"مکتب سر ترنوک","Polling_Center_Name":"Sar tarnok School","د_مرکز_ځای__موقعیت_مرکز":"سرترنوگ","Polling_Center_Location":"Sar tarnok","Verification_Note":"Building","PS_Male":2,"PS_Female":1,"Map_Accuracy":"تعمیر"},"geometry":{"x":7433496.8489877582,"y":4129629.9543643072}},{"attributes":{"OBJECTID":1341,"ولایت":"باميان","Province":"BAMYAN","PC_Code":"1005177","ولسوالي":"یکاولنگ","District":"Yakawlang","د_مرکز_نوم__نام_مرکز":"منبر بغلک سفلی","Polling_Center_Name":"Baghalak sufla Mosque","د_مرکز_ځای__موقعیت_مرکز":"بغلک سفلا","Polling_Center_Location":"Baghalak sufla","Verification_Note":"Building","PS_Male":2,"PS_Female":1,"Map_Accuracy":"تعمیر"},"geometry":{"x":7443383.9313484952,"y":4135312.0160985813}},{"attributes":{"OBJECTID":1342,"ولایت":"باميان","Province":"BAMYAN","PC_Code":"1005179","ولسوالي":"یکاولنگ","District":"Yakawlang","د_مرکز_نوم__نام_مرکز":"مکتب کشکک نقشی","Polling_Center_Name":"Kushkak naqshi School","د_مرکز_ځای__موقعیت_مرکز":"کشکک سوخته","Polling_Center_Location":"Kushkak sukhta","Verification_Note":"Building","PS_Male":2,"PS_Female":1,"Map_Accuracy":"تعمیر"},"geometry":{"x":7464043.8202851452,"y":4157754.9788005203}},{"attributes":{"OBJECTID":1343,"ولایت":"باميان","Province":"BAMYAN","PC_Code":"1006180","ولسوالي":"پنجاب","District":"PANJAB","د_مرکز_نوم__نام_مرکز":"مدرسه دهن طاهر","Polling_Center_Name":"Dahan taher Madrasa","د_مرکز_ځای__موقعیت_مرکز":"دهن طاهر","Polling_Center_Location":"Dahan zaher","Verification_Note":"Building","PS_Male":2,"PS_Female":1,"Map_Accuracy":"تعمیر"},"geometry":{"x":7416756.3375372142,"y":4071107.9697479755}},{"attributes":{"OBJECTID":1344,"ولایت":"باميان","Province":"BAMYAN","PC_Code":"1007187","ولسوالي":"ورس","District":"WARAS","د_مرکز_نوم__نام_مرکز":"مکتب متوسطه نیک پای","Polling_Center_Name":"Nik pai Secondary school","د_مرکز_ځای__موقعیت_مرکز":"نیک پای قوم یاری","Polling_Center_Location":"Nik pai qawm yari","Verification_Note":"District","PS_Male":2,"PS_Female":1,"Map_Accuracy":"ولسوالی"},"geometry":{"x":7481967.9975585826,"y":4061875.9790264368}},{"attributes":{"OBJECTID":1345,"ولایت":"باميان","Province":"BAMYAN","PC_Code":"1006184","ولسوالي":"پنجاب","District":"PANJAB","د_مرکز_نوم__نام_مرکز":"مکتب متوسطه زیره گک","Polling_Center_Name":"Zira gak Secondary School","د_مرکز_ځای__موقعیت_مرکز":"زیره گگ مرکه سفلا","Polling_Center_Location":"Ziragak marka sufla","Verification_Note":"Building","PS_Male":2,"PS_Female":1,"Map_Accuracy":"تعمیر"},"geometry":{"x":7466174.5364533328,"y":4076089.0368498415}},{"attributes":{"OBJECTID":1346,"ولایت":"باميان","Province":"BAMYAN","PC_Code":"1007185","ولسوالي":"ورس","District":"WARAS","د_مرکز_نوم__نام_مرکز":"مکتب سنگ سوراخ","Polling_Center_Name":"Sang sorakh School","د_مرکز_ځای__موقعیت_مرکز":"سنگ سوراخ","Polling_Center_Location":"Sang surakh","Verification_Note":"Building","PS_Male":2,"PS_Female":1,"Map_Accuracy":"تعمیر"},"geometry":{"x":7454876.3110090755,"y":4044638.6496174261}},{"attributes":{"OBJECTID":1347,"ولایت":"غزنى","Province":"GHAZNI","PC_Code":"1101018","ولسوالي":"غزنی","District":"GHAZNI","د_مرکز_نوم__نام_مرکز":"لیسه قلعه نو خواجه روشنائی","Polling_Center_Name":"Qala-e-Naw Khwaja Roshnayee High School","د_مرکز_ځای__موقعیت_مرکز":"قلعه نو خواجه روشنائی ","Polling_Center_Location":"Qala-e-Naw Khwaja Roshnayee","Verification_Note":"Village","PS_Male":3,"PS_Female":1,"Map_Accuracy":"قریه"},"geometry":{"x":7616923.7148252986,"y":3965962.8257505968}},{"attributes":{"OBJECTID":1348,"ولایت":"غزنى","Province":"GHAZNI","PC_Code":"1101019","ولسوالي":"غزنی","District":"GHAZNI","د_مرکز_نوم__نام_مرکز":"مسجد احمدی","Polling_Center_Name":"Ahmadi Mosque","د_مرکز_ځای__موقعیت_مرکز":" شهر کهنه","Polling_Center_Location":"Shahr-e-Kohna","Verification_Note":"Village","PS_Male":4,"PS_Female":0,"Map_Accuracy":"قریه"},"geometry":{"x":7618222.0796874091,"y":3970483.2310541719}},{"attributes":{"OBJECTID":1349,"ولایت":"غزنى","Province":"GHAZNI","PC_Code":"1101039","ولسوالي":"غزنی","District":"GHAZNI","د_مرکز_نوم__نام_مرکز":"مسجد کلاغچ","Polling_Center_Name":"Kalaghach Mosque","د_مرکز_ځای__موقعیت_مرکز":"قریه کلاغچ ","Polling_Center_Location":"Kalaghach Village","Verification_Note":"Village","PS_Male":3,"PS_Female":0,"Map_Accuracy":"قریه"},"geometry":{"x":7624763.2574942186,"y":3952727.2165038139}},{"attributes":{"OBJECTID":1350,"ولایت":"غزنى","Province":"GHAZNI","PC_Code":"1101040","ولسوالي":"غزنی","District":"GHAZNI","د_مرکز_نوم__نام_مرکز":"خانه فاروق","Polling_Center_Name":"Farooq House","د_مرکز_ځای__موقعیت_مرکز":"قریه کلاغچ ","Polling_Center_Location":"Kalaghach Village","Verification_Note":"Building","PS_Male":0,"PS_Female":3,"Map_Accuracy":"تعمیر"},"geometry":{"x":7623824.3621921949,"y":3952376.6261459291}},{"attributes":{"OBJECTID":1351,"ولایت":"غزنى","Province":"GHAZNI","PC_Code":"1101042","ولسوالي":"غزنی","District":"GHAZNI","د_مرکز_نوم__نام_مرکز":"مسجد بالا بهلول","Polling_Center_Name":"Bala Bahlool Mosque","د_مرکز_ځای__موقعیت_مرکز":"قریه بهلول صاحب ","Polling_Center_Location":"Bahlool Sahib Village","Verification_Note":"Building","PS_Male":3,"PS_Female":0,"Map_Accuracy":"تعمیر"},"geometry":{"x":7617379.0727683567,"y":3970294.5649315268}},{"attributes":{"OBJECTID":1352,"ولایت":"غزنى","Province":"GHAZNI","PC_Code":"1101043","ولسوالي":"غزنی","District":"GHAZNI","د_مرکز_نوم__نام_مرکز":"مسجد پائین","Polling_Center_Name":"Paeen Mosque","د_مرکز_ځای__موقعیت_مرکز":"قریه بهلول صاحب ","Polling_Center_Location":"Bahlool Saheb","Verification_Note":"Village","PS_Male":0,"PS_Female":3,"Map_Accuracy":"قریه"},"geometry":{"x":7617344.10508991,"y":3969970.124234803}},{"attributes":{"OBJECTID":1353,"ولایت":"غزنى","Province":"GHAZNI","PC_Code":"1101050","ولسوالي":"غزنی","District":"GHAZNI","د_مرکز_نوم__نام_مرکز":"لیسه سید قاضی منگور","Polling_Center_Name":"Sayed Qazi Mangoor School","د_مرکز_ځای__موقعیت_مرکز":"قریه منگور ","Polling_Center_Location":"Mangoor Village","Verification_Note":"Building","PS_Male":0,"PS_Female":3,"Map_Accuracy":"تعمیر"},"geometry":{"x":7619740.0456222,"y":3954020.2706409097}},{"attributes":{"OBJECTID":1354,"ولایت":"غزنى","Province":"GHAZNI","PC_Code":"1101051","ولسوالي":"غزنی","District":"GHAZNI","د_مرکز_نوم__نام_مرکز":"مکتب منگور","Polling_Center_Name":"Mangoor School","د_مرکز_ځای__موقعیت_مرکز":" منگور","Polling_Center_Location":"Mangoor Village","Verification_Note":"Village","PS_Male":3,"PS_Female":1,"Map_Accuracy":"قریه"},"geometry":{"x":7619369.6244506165,"y":3952881.7359495461}},{"attributes":{"OBJECTID":1355,"ولایت":"غزنى","Province":"GHAZNI","PC_Code":"1102099","ولسوالي":"ولی محمد شهید","District":"WALI MOHAMMAD SHAHID","د_مرکز_نوم__نام_مرکز":"مسجد مدو خیل","Polling_Center_Name":"Mado Khel Mosque","د_مرکز_ځای__موقعیت_مرکز":"قریه مدوخیل ","Polling_Center_Location":"Mado Khel Village","Verification_Note":"Village","PS_Male":2,"PS_Female":0,"Map_Accuracy":"قریه"},"geometry":{"x":7604604.3196244836,"y":3967758.3975928128}},{"attributes":{"OBJECTID":1356,"ولایت":"غزنى","Province":"GHAZNI","PC_Code":"1102100","ولسوالي":"ولی محمد شهید","District":"WALI MOHAMMAD SHAHID","د_مرکز_نوم__نام_مرکز":"خانه شخصی تورگل قریه مدوخیل","Polling_Center_Name":"Toor Gul House","د_مرکز_ځای__موقعیت_مرکز":"قریه مدوخیل ","Polling_Center_Location":"Mado Khel Village","Verification_Note":"Village","PS_Male":0,"PS_Female":2,"Map_Accuracy":"قریه"},"geometry":{"x":7604685.8811889961,"y":3967869.0417761132}},{"attributes":{"OBJECTID":1357,"ولایت":"غزنى","Province":"GHAZNI","PC_Code":"1103083","ولسوالي":"خواجه عمری","District":"KHWAJA OMARI","د_مرکز_نوم__نام_مرکز":"مسجد برکات","Polling_Center_Name":"Barkat Mosque","د_مرکز_ځای__موقعیت_مرکز":"قریه برکات ","Polling_Center_Location":"Barakat Village","Verification_Note":"Village","PS_Male":2,"PS_Female":0,"Map_Accuracy":"قریه"},"geometry":{"x":7605088.4825989828,"y":3982329.317967318}},{"attributes":{"OBJECTID":1358,"ولایت":"غزنى","Province":"GHAZNI","PC_Code":"1103084","ولسوالي":"خواجه عمری","District":"KHWAJA OMARI","د_مرکز_نوم__نام_مرکز":"مدرسه علوم دینی حاجی مستفی برکات","Polling_Center_Name":"Haji Mustafa Barakat Religious School","د_مرکز_ځای__موقعیت_مرکز":"قریه برکات ","Polling_Center_Location":"Barakat Village","Verification_Note":"Village","PS_Male":0,"PS_Female":2,"Map_Accuracy":"قریه"},"geometry":{"x":7604954.3181222863,"y":3981673.5896500796}},{"attributes":{"OBJECTID":1359,"ولایت":"غزنى","Province":"GHAZNI","PC_Code":"1104125","ولسوالي":"واغظ","District":"WAGHAZ","د_مرکز_نوم__نام_مرکز":"مسجد قریه حسن خیل","Polling_Center_Name":"Hassan Khel Village Mosque","د_مرکز_ځای__موقعیت_مرکز":"قریه حسن خیل  ","Polling_Center_Location":"Hassan Khel Village ","Verification_Note":"Village","PS_Male":2,"PS_Female":1,"Map_Accuracy":"قریه"},"geometry":{"x":7604332.7958017141,"y":3951854.393769905}},{"attributes":{"OBJECTID":1360,"ولایت":"غزنى","Province":"GHAZNI","PC_Code":"1104126","ولسوالي":"واغظ","District":"WAGHAZ","د_مرکز_نوم__نام_مرکز":"مکتب قریه سورخک","Polling_Center_Name":"Surkhak Village School","د_مرکز_ځای__موقعیت_مرکز":"قریه سورخک","Polling_Center_Location":"Surkhak Village","Verification_Note":"Building","PS_Male":2,"PS_Female":2,"Map_Accuracy":"تعمیر"},"geometry":{"x":7592827.9264282249,"y":3954145.4260052294}},{"attributes":{"OBJECTID":1361,"ولایت":"غزنى","Province":"GHAZNI","PC_Code":"1105066","ولسوالي":"ده یک","District":"DEH YAK","د_مرکز_نوم__نام_مرکز":"مسجد کندر مهمان خانه کندر","Polling_Center_Name":"Kandar Mosque","د_مرکز_ځای__موقعیت_مرکز":"کندر","Polling_Center_Location":"Kandar","Verification_Note":"Village","PS_Male":2,"PS_Female":1,"Map_Accuracy":"قریه"},"geometry":{"x":7646414.2127254494,"y":3957126.6331989393}},{"attributes":{"OBJECTID":1362,"ولایت":"غزنى","Province":"GHAZNI","PC_Code":"1105067","ولسوالي":"ده یک","District":"DEH YAK","د_مرکز_نوم__نام_مرکز":"مسجد رباط زد زریل","Polling_Center_Name":"Rubat Zed-e-Zareel Mosque","د_مرکز_ځای__موقعیت_مرکز":"رباط زد زریل","Polling_Center_Location":"Rubat Zed-e-Zareel ","Verification_Note":"Village","PS_Male":2,"PS_Female":1,"Map_Accuracy":"قریه"},"geometry":{"x":7647654.1214965507,"y":3970937.1116712019}},{"attributes":{"OBJECTID":1363,"ولایت":"غزنى","Province":"GHAZNI","PC_Code":"1106108","ولسوالي":"جغتو","District":"JAGHATU","د_مرکز_نوم__نام_مرکز":"مسجد ده رمزی","Polling_Center_Name":"Deh Ramzi Mosque","د_مرکز_ځای__موقعیت_مرکز":"ده رمزی","Polling_Center_Location":"Deh Ramzi","Verification_Note":"Building","PS_Male":2,"PS_Female":0,"Map_Accuracy":"تعمیر"},"geometry":{"x":7588535.4902778342,"y":3980472.1438379586}},{"attributes":{"OBJECTID":1364,"ولایت":"غزنى","Province":"GHAZNI","PC_Code":"1106109","ولسوالي":"جغتو","District":"JAGHATU","د_مرکز_نوم__نام_مرکز":"مهمان خانه عبدالحسین","Polling_Center_Name":"Abdul Hussain Guest House","د_مرکز_ځای__موقعیت_مرکز":"ده رمزی","Polling_Center_Location":"Deh Ramzi","Verification_Note":"Village","PS_Male":0,"PS_Female":2,"Map_Accuracy":"قریه"},"geometry":{"x":7588552.1414472759,"y":3980405.1631155387}},{"attributes":{"OBJECTID":1365,"ولایت":"غزنى","Province":"GHAZNI","PC_Code":"1106118","ولسوالي":"جغتو","District":"JAGHATU","د_مرکز_نوم__نام_مرکز":"مسجد کهنه ده شاشی","Polling_Center_Name":"Deh Shashi Old Mosque","د_مرکز_ځای__موقعیت_مرکز":"ده شاشی","Polling_Center_Location":"Deh Shahshi","Verification_Note":"Village","PS_Male":0,"PS_Female":2,"Map_Accuracy":"قریه"},"geometry":{"x":7584711.3863571621,"y":3968053.1122916415}},{"attributes":{"OBJECTID":1366,"ولایت":"غزنى","Province":"GHAZNI","PC_Code":"1106119","ولسوالي":"جغتو","District":"JAGHATU","د_مرکز_نوم__نام_مرکز":"مکتب احمدا","Polling_Center_Name":"Ahmada School","د_مرکز_ځای__موقعیت_مرکز":"نو قلعه احمدا","Polling_Center_Location":"New Qala-e-Ahmada","Verification_Note":"Building","PS_Male":3,"PS_Female":2,"Map_Accuracy":"تعمیر"},"geometry":{"x":7598697.71078258,"y":3969452.8484083712}},{"attributes":{"OBJECTID":1367,"ولایت":"غزنى","Province":"GHAZNI","PC_Code":"1107215","ولسوالي":"اندر","District":"ANDAR","د_مرکز_نوم__نام_مرکز":"مسجد قریه علی زی","Polling_Center_Name":"Ali Zai Village Mosque","د_مرکز_ځای__موقعیت_مرکز":"قریه علی زی","Polling_Center_Location":"Ali zai Village","Verification_Note":"Village","PS_Male":2,"PS_Female":0,"Map_Accuracy":"قریه"},"geometry":{"x":7612524.36632276,"y":3941945.3359429762}},{"attributes":{"OBJECTID":1368,"ولایت":"غزنى","Province":"GHAZNI","PC_Code":"1107216","ولسوالي":"اندر","District":"ANDAR","د_مرکز_نوم__نام_مرکز":"مسجد حاجی فضل الحق","Polling_Center_Name":"Haji Fazel Haq Ahmad Mosque","د_مرکز_ځای__موقعیت_مرکز":"مسجد حاجی فضل الحق، قریه علی زی","Polling_Center_Location":"Ali zai Village","Verification_Note":"Building","PS_Male":0,"PS_Female":2,"Map_Accuracy":"تعمیر"},"geometry":{"x":7614845.6656893231,"y":3952141.9605217949}},{"attributes":{"OBJECTID":1369,"ولایت":"غزنى","Province":"GHAZNI","PC_Code":"1107230","ولسوالي":"اندر","District":"ANDAR","د_مرکز_نوم__نام_مرکز":"مکتب سلطان شهاب الدین اندړ","Polling_Center_Name":"Sultan Shahabuddin Andar School","د_مرکز_ځای__موقعیت_مرکز":"بازار میری ","Polling_Center_Location":"Meeri Bazar","Verification_Note":"Building","PS_Male":1,"PS_Female":2,"Map_Accuracy":"تعمیر"},"geometry":{"x":7619034.1253164858,"y":3938300.9202715382}},{"attributes":{"OBJECTID":1370,"ولایت":"غزنى","Province":"GHAZNI","PC_Code":"1107231","ولسوالي":"اندر","District":"ANDAR","د_مرکز_نوم__نام_مرکز":"مسجد قریه میدادوال","Polling_Center_Name":"Medadwal Village Mosque","د_مرکز_ځای__موقعیت_مرکز":"قریه میداد وال","Polling_Center_Location":"Medadwal Village","Verification_Note":"Village","PS_Male":3,"PS_Female":0,"Map_Accuracy":"قریه"},"geometry":{"x":7617864.6383684464,"y":3930939.9361986592}},{"attributes":{"OBJECTID":1371,"ولایت":"غزنى","Province":"GHAZNI","PC_Code":"1107251","ولسوالي":"اندر","District":"ANDAR","د_مرکز_نوم__نام_مرکز":"مسجد قریه شیر قلعه ","Polling_Center_Name":"Sheer Qala Mosque","د_مرکز_ځای__موقعیت_مرکز":"قریه شیر قلعه پهلوی قریه ګبری ","Polling_Center_Location":"Sheer Qala","Verification_Note":"Building","PS_Male":1,"PS_Female":2,"Map_Accuracy":"تعمیر"},"geometry":{"x":7619905.6712133884,"y":3945953.2425605059}},{"attributes":{"OBJECTID":1372,"ولایت":"غزنى","Province":"GHAZNI","PC_Code":"1107252","ولسوالي":"اندر","District":"ANDAR","د_مرکز_نوم__نام_مرکز":"مکتب ملا محمد ګوډلی","Polling_Center_Name":"Molla Mohammad Gadali School","د_مرکز_ځای__موقعیت_مرکز":"قریه ملا محمد ګوډلی","Polling_Center_Location":"Mula Mohammad Gadali Village","Verification_Note":"Building","PS_Male":1,"PS_Female":2,"Map_Accuracy":"تعمیر"},"geometry":{"x":7615048.8329995349,"y":3932017.3090438321}},{"attributes":{"OBJECTID":1373,"ولایت":"غزنى","Province":"GHAZNI","PC_Code":"1109094","ولسوالي":"رشیدان","District":"RASHIDAN","د_مرکز_نوم__نام_مرکز":"مسجد پائین قریه لاغری","Polling_Center_Name":"Laghari Village Lower Mosque","د_مرکز_ځای__موقعیت_مرکز":"قریه لاغری","Polling_Center_Location":"Laghari Village","Verification_Note":"Village","PS_Male":2,"PS_Female":1,"Map_Accuracy":"قریه"},"geometry":{"x":7586438.6574249454,"y":3985387.74667082}},{"attributes":{"OBJECTID":1374,"ولایت":"غزنى","Province":"GHAZNI","PC_Code":"1110254","ولسوالي":"ناور","District":"NAWUR","د_مرکز_نوم__نام_مرکز":"لیسه شهید غلام حیدر","Polling_Center_Name":"Shaheed Ghulam Haider High School","د_مرکز_ځای__موقعیت_مرکز":"قریه درویش علی وارکلاغ","Polling_Center_Location":"Darwaish Ali War Kolokh","Verification_Note":"Building","PS_Male":3,"PS_Female":1,"Map_Accuracy":"تعمیر"},"geometry":{"x":7569315.36533371,"y":3991172.4745344073}},{"attributes":{"OBJECTID":1375,"ولایت":"غزنى","Province":"GHAZNI","PC_Code":"1110264","ولسوالي":"ناور","District":"NAWUR","د_مرکز_نوم__نام_مرکز":"لیسه قریه واغ","Polling_Center_Name":"Wagh Village High School","د_مرکز_ځای__موقعیت_مرکز":"قریه واغ ","Polling_Center_Location":"Wagh Village ","Verification_Note":"Building","PS_Male":3,"PS_Female":1,"Map_Accuracy":"تعمیر"},"geometry":{"x":7535059.2733535245,"y":3975203.4067659006}},{"attributes":{"OBJECTID":1376,"ولایت":"غزنى","Province":"GHAZNI","PC_Code":"1110265","ولسوالي":"ناور","District":"NAWUR","د_مرکز_نوم__نام_مرکز":"مکتب قریه قوریه","Polling_Center_Name":"Qoria Village School","د_مرکز_ځای__موقعیت_مرکز":"قریه قوریه ","Polling_Center_Location":"Qoria Village","Verification_Note":"Building","PS_Male":2,"PS_Female":1,"Map_Accuracy":"تعمیر"},"geometry":{"x":7537683.7928754315,"y":3958702.9046709239}},{"attributes":{"OBJECTID":1377,"ولایت":"غزنى","Province":"GHAZNI","PC_Code":"1111151","ولسوالي":"قره باغ","District":"QARA BAGH","د_مرکز_نوم__نام_مرکز":"مسجد پایین قریه گنگی","Polling_Center_Name":"Gangay Village Lower Mosque","د_مرکز_ځای__موقعیت_مرکز":"قریه گنگی","Polling_Center_Location":"Gangay Village ","Verification_Note":"Village","PS_Male":0,"PS_Female":1,"Map_Accuracy":"قریه"},"geometry":{"x":7577062.0018688068,"y":3906688.804443188}},{"attributes":{"OBJECTID":1378,"ولایت":"غزنى","Province":"GHAZNI","PC_Code":"1111152","ولسوالي":"قره باغ","District":"QARA BAGH","د_مرکز_نوم__نام_مرکز":"مسجد قریه غټ","Polling_Center_Name":"Ghatt Village Mosque","د_مرکز_ځای__موقعیت_مرکز":"مسجد قریه غټ جای آغا صاحب","Polling_Center_Location":"Ghatt Jay-e-Agha Sahib Village","Verification_Note":"Village","PS_Male":3,"PS_Female":0,"Map_Accuracy":"قریه"},"geometry":{"x":7564221.4744905941,"y":3912439.87650761}},{"attributes":{"OBJECTID":1379,"ولایت":"غزنى","Province":"GHAZNI","PC_Code":"1111157","ولسوالي":"قره باغ","District":"QARA BAGH","د_مرکز_نوم__نام_مرکز":"مسجد میر واعظ","Polling_Center_Name":"Mir Wahez Mosque","د_مرکز_ځای__موقعیت_مرکز":"قریه میرواعظ","Polling_Center_Location":"Mir Wahez Village","Verification_Note":"Village","PS_Male":0,"PS_Female":2,"Map_Accuracy":"قریه"},"geometry":{"x":7583641.9912160784,"y":3924574.5914046317}},{"attributes":{"OBJECTID":1380,"ولایت":"غزنى","Province":"GHAZNI","PC_Code":"1111158","ولسوالي":"قره باغ","District":"QARA BAGH","د_مرکز_نوم__نام_مرکز":"مکتب ملوک","Polling_Center_Name":"Malook School","د_مرکز_ځای__موقعیت_مرکز":"مکتب قریه ملوک","Polling_Center_Location":"Malook Village","Verification_Note":"Village","PS_Male":3,"PS_Female":0,"Map_Accuracy":"قریه"},"geometry":{"x":7585539.1280344389,"y":3919262.5036887676}},{"attributes":{"OBJECTID":1381,"ولایت":"غزنى","Province":"GHAZNI","PC_Code":"1111168","ولسوالي":"قره باغ","District":"QARA BAGH","د_مرکز_نوم__نام_مرکز":"مسجد وحید علی جنلگ","Polling_Center_Name":"Waheed Ali Janlag Mosque","د_مرکز_ځای__موقعیت_مرکز":"قریه جنګلک","Polling_Center_Location":"Jangalak Village","Verification_Note":"Building","PS_Male":2,"PS_Female":0,"Map_Accuracy":"تعمیر"},"geometry":{"x":7577369.2258522771,"y":3933935.504073076}},{"attributes":{"OBJECTID":1382,"ولایت":"غزنى","Province":"GHAZNI","PC_Code":"1111169","ولسوالي":"قره باغ","District":"QARA BAGH","د_مرکز_نوم__نام_مرکز":"مسجد بلای بلندی","Polling_Center_Name":"Balay-e-Bilandi Mosque","د_مرکز_ځای__موقعیت_مرکز":"قریه جنګلک","Polling_Center_Location":"Jangalak Village","Verification_Note":"Building","PS_Male":0,"PS_Female":2,"Map_Accuracy":"تعمیر"},"geometry":{"x":7577236.4539824128,"y":3933491.0537615493}},{"attributes":{"OBJECTID":1383,"ولایت":"غزنى","Province":"GHAZNI","PC_Code":"1111185","ولسوالي":"قره باغ","District":"QARA BAGH","د_مرکز_نوم__نام_مرکز":"مکتب  ابو ریحان","Polling_Center_Name":"Abu Raihan School","د_مرکز_ځای__موقعیت_مرکز":"شاکی نوکا","Polling_Center_Location":"Hasina Sarkani","Verification_Note":"Village","PS_Male":3,"PS_Female":1,"Map_Accuracy":"قریه"},"geometry":{"x":7535729.37049051,"y":3923939.0012227}},{"attributes":{"OBJECTID":1384,"ولایت":"غزنى","Province":"GHAZNI","PC_Code":"1111187","ولسوالي":"قره باغ","District":"QARA BAGH","د_مرکز_نوم__نام_مرکز":"مسجد ده روضه","Polling_Center_Name":"Deh Rowza Mosque","د_مرکز_ځای__موقعیت_مرکز":"ده روضه","Polling_Center_Location":"Deh Rawza","Verification_Note":"Village","PS_Male":3,"PS_Female":1,"Map_Accuracy":"قریه"},"geometry":{"x":7583362.0371682718,"y":3916685.4113918245}},{"attributes":{"OBJECTID":1385,"ولایت":"غزنى","Province":"GHAZNI","PC_Code":"1112202","ولسوالي":"گیرو","District":"GIRO","د_مرکز_نوم__نام_مرکز":"مکتب شهید محمد نعیم  قریه احد","Polling_Center_Name":"Shaheed Mohammad Naim School","د_مرکز_ځای__موقعیت_مرکز":"قریه احد ","Polling_Center_Location":"Ahad Village","Verification_Note":"Building","PS_Male":3,"PS_Female":0,"Map_Accuracy":"تعمیر"},"geometry":{"x":7606223.3013180047,"y":3904356.2742336318}},{"attributes":{"OBJECTID":1386,"ولایت":"غزنى","Province":"GHAZNI","PC_Code":"1112203","ولسوالي":"گیرو","District":"GIRO","د_مرکز_نوم__نام_مرکز":"مسجد سلیمان قلعه","Polling_Center_Name":"Sulaiman Qala Mosque","د_مرکز_ځای__موقعیت_مرکز":"قریه سلیمان قلعه","Polling_Center_Location":"Sulaiman Qala ","Verification_Note":"Building","PS_Male":0,"PS_Female":2,"Map_Accuracy":"تعمیر"},"geometry":{"x":7606222.0534265116,"y":3904849.948435612}},{"attributes":{"OBJECTID":1387,"ولایت":"غزنى","Province":"GHAZNI","PC_Code":"1112206","ولسوالي":"گیرو","District":"GIRO","د_مرکز_نوم__نام_مرکز":"مکتب قریه شهال","Polling_Center_Name":"Shahal Village School","د_مرکز_ځای__موقعیت_مرکز":" قریه شهال","Polling_Center_Location":"Shahal Village","Verification_Note":"Village","PS_Male":2,"PS_Female":1,"Map_Accuracy":"قریه"},"geometry":{"x":7618796.000680536,"y":3919071.0838958248}},{"attributes":{"OBJECTID":1388,"ولایت":"غزنى","Province":"GHAZNI","PC_Code":"1112207","ولسوالي":"گیرو","District":"GIRO","د_مرکز_نوم__نام_مرکز":"مکتب ابتدائیه قریه میلنی","Polling_Center_Name":"Melini Village Primary School","د_مرکز_ځای__موقعیت_مرکز":" قریه میلنی","Polling_Center_Location":"Melani Village","Verification_Note":"Village","PS_Male":2,"PS_Female":1,"Map_Accuracy":"قریه"},"geometry":{"x":7626117.46243931,"y":3921880.942399621}},{"attributes":{"OBJECTID":1389,"ولایت":"غزنى","Province":"GHAZNI","PC_Code":"1112212","ولسوالي":"گیرو","District":"GIRO","د_مرکز_نوم__نام_مرکز":"لیسه قریه دیسی","Polling_Center_Name":"Desi Village High School","د_مرکز_ځای__موقعیت_مرکز":"قریه دیسی","Polling_Center_Location":"Desi Village","Verification_Note":"Building","PS_Male":3,"PS_Female":1,"Map_Accuracy":"تعمیر"},"geometry":{"x":7617356.8767750971,"y":3898537.3742916808}},{"attributes":{"OBJECTID":1390,"ولایت":"غزنى","Province":"GHAZNI","PC_Code":"1112213","ولسوالي":"گیرو","District":"GIRO","د_مرکز_نوم__نام_مرکز":"مکتب قریه خاطی","Polling_Center_Name":"Khati Village School","د_مرکز_ځای__موقعیت_مرکز":"قریه خاطی","Polling_Center_Location":"Khati Village","Verification_Note":"Village","PS_Male":3,"PS_Female":0,"Map_Accuracy":"قریه"},"geometry":{"x":7624138.7918863073,"y":3922501.5583104566}},{"attributes":{"OBJECTID":1391,"ولایت":"غزنى","Province":"GHAZNI","PC_Code":"1113378","ولسوالي":"آب بند","District":"AB BAND","د_مرکز_نوم__نام_مرکز":"هوتل شمس الله","Polling_Center_Name":"Shamsullah Hotel ","د_مرکز_ځای__موقعیت_مرکز":"بازار جدید","Polling_Center_Location":"Bazar Jaded","Verification_Note":"Village","PS_Male":2,"PS_Female":0,"Map_Accuracy":"قریه"},"geometry":{"x":7569159.3343694359,"y":3886738.3444146663}},{"attributes":{"OBJECTID":1392,"ولایت":"غزنى","Province":"GHAZNI","PC_Code":"1113379","ولسوالي":"آب بند","District":"AB BAND","د_مرکز_نوم__نام_مرکز":"مسجد قریه سرفراز ","Polling_Center_Name":"Sarferaz Village Mosque","د_مرکز_ځای__موقعیت_مرکز":"قریه سرفراز ","Polling_Center_Location":"Sarferaz Village","Verification_Note":"Village","PS_Male":0,"PS_Female":2,"Map_Accuracy":"قریه"},"geometry":{"x":7565765.7674849667,"y":3893199.0121118352}},{"attributes":{"OBJECTID":1393,"ولایت":"غزنى","Province":"GHAZNI","PC_Code":"1113381","ولسوالي":"آب بند","District":"AB BAND","د_مرکز_نوم__نام_مرکز":"مسجد سدوزی ","Polling_Center_Name":"Sadozai Mosque","د_مرکز_ځای__موقعیت_مرکز":"سدوزی ","Polling_Center_Location":"Sadozai","Verification_Note":"Village","PS_Male":1,"PS_Female":1,"Map_Accuracy":"قریه"},"geometry":{"x":7559478.6363408826,"y":3894481.0672395751}},{"attributes":{"OBJECTID":1394,"ولایت":"غزنى","Province":"GHAZNI","PC_Code":"1113382","ولسوالي":"آب بند","District":"AB BAND","د_مرکز_نوم__نام_مرکز":"مسجد بزگی","Polling_Center_Name":"Bazgi Mosque","د_مرکز_ځای__موقعیت_مرکز":"بزگی","Polling_Center_Location":"Bazgi","Verification_Note":"Village","PS_Male":2,"PS_Female":0,"Map_Accuracy":"قریه"},"geometry":{"x":7563235.91405803,"y":3890468.7979758009}},{"attributes":{"OBJECTID":1395,"ولایت":"غزنى","Province":"GHAZNI","PC_Code":"1114336","ولسوالي":"جاغوری","District":"JAGHURI","د_مرکز_نوم__نام_مرکز":"لیسه عالی فیضیه","Polling_Center_Name":"Faizia High School","د_مرکز_ځای__موقعیت_مرکز":"قریه کته سنګ ","Polling_Center_Location":"Kata Sang Village","Verification_Note":"Building","PS_Male":3,"PS_Female":2,"Map_Accuracy":"تعمیر"},"geometry":{"x":7501288.6545782536,"y":3905650.2947927117}},{"attributes":{"OBJECTID":1396,"ولایت":"غزنى","Province":"GHAZNI","PC_Code":"1114337","ولسوالي":"جاغوری","District":"JAGHURI","د_مرکز_نوم__نام_مرکز":"لیسه لومان","Polling_Center_Name":"Loman High School","د_مرکز_ځای__موقعیت_مرکز":"قریه لومان ","Polling_Center_Location":"Luman Village","Verification_Note":"Building","PS_Male":2,"PS_Female":2,"Map_Accuracy":"تعمیر"},"geometry":{"x":7526381.6118044,"y":3912989.4176931754}},{"attributes":{"OBJECTID":1397,"ولایت":"غزنى","Province":"GHAZNI","PC_Code":"1115356","ولسوالي":"مقر","District":"MUQUR","د_مرکز_نوم__نام_مرکز":"مکتب نسوان","Polling_Center_Name":"Girls School","د_مرکز_ځای__موقعیت_مرکز":"بازار مقر","Polling_Center_Location":"Muqur Bazar","Verification_Note":"Building","PS_Male":2,"PS_Female":1,"Map_Accuracy":"تعمیر"},"geometry":{"x":7543831.6722421013,"y":3871792.5705038235}},{"attributes":{"OBJECTID":1398,"ولایت":"غزنى","Province":"GHAZNI","PC_Code":"1115357","ولسوالي":"مقر","District":"MUQUR","د_مرکز_نوم__نام_مرکز":"کلینیک ابن سینا","Polling_Center_Name":"Abnisena Clinic","د_مرکز_ځای__موقعیت_مرکز":"بازار مقر","Polling_Center_Location":"Muqur Bazar","Verification_Note":"Building","PS_Male":3,"PS_Female":1,"Map_Accuracy":"تعمیر"},"geometry":{"x":7543986.6267468967,"y":3871761.0511837453}},{"attributes":{"OBJECTID":1399,"ولایت":"غزنى","Province":"GHAZNI","PC_Code":"1115359","ولسوالي":"مقر","District":"MUQUR","د_مرکز_نوم__نام_مرکز":"مسجد چهار قلعه","Polling_Center_Name":"Chahar Qala Mosque","د_مرکز_ځای__موقعیت_مرکز":"قریه چهار قلعه","Polling_Center_Location":"Char Qala","Verification_Note":"Village","PS_Male":2,"PS_Female":1,"Map_Accuracy":"قریه"},"geometry":{"x":7544233.7771671638,"y":3870253.8124930486}}]}