{"objectIdFieldName":"OBJECTID","globalIdFieldName":"","geometryType":"esriGeometryPoint","spatialReference":{"wkid":102100,"latestWkid":3857},"fields":[{"name":"OBJECTID","type":"esriFieldTypeOID","alias":"OBJECTID","sqlType":"sqlTypeOther","domain":null,"defaultValue":null},{"name":"ولایت","type":"esriFieldTypeString","alias":"ولایت","sqlType":"sqlTypeOther","length":255,"domain":null,"defaultValue":null},{"name":"Province","type":"esriFieldTypeString","alias":"Province","sqlType":"sqlTypeOther","length":255,"domain":null,"defaultValue":null},{"name":"PC_Code","type":"esriFieldTypeString","alias":"PC_Code","sqlType":"sqlTypeOther","length":255,"domain":null,"defaultValue":null},{"name":"ولسوالي","type":"esriFieldTypeString","alias":"ولسوالي","sqlType":"sqlTypeOther","length":255,"domain":null,"defaultValue":null},{"name":"District","type":"esriFieldTypeString","alias":"District","sqlType":"sqlTypeOther","length":255,"domain":null,"defaultValue":null},{"name":"د_مرکز_نوم__نام_مرکز","type":"esriFieldTypeString","alias":"د_مرکز_نوم__نام_مرکز","sqlType":"sqlTypeOther","length":255,"domain":null,"defaultValue":null},{"name":"Polling_Center_Name","type":"esriFieldTypeString","alias":"Polling_Center_Name","sqlType":"sqlTypeOther","length":255,"domain":null,"defaultValue":null},{"name":"د_مرکز_ځای__موقعیت_مرکز","type":"esriFieldTypeString","alias":"د_مرکز_ځای__موقعیت_مرکز","sqlType":"sqlTypeOther","length":255,"domain":null,"defaultValue":null},{"name":"Polling_Center_Location","type":"esriFieldTypeString","alias":"Polling_Center_Location","sqlType":"sqlTypeOther","length":255,"domain":null,"defaultValue":null},{"name":"Verification_Note","type":"esriFieldTypeString","alias":"Verification_Note","sqlType":"sqlTypeOther","length":250,"domain":null,"defaultValue":null},{"name":"PS_Male","type":"esriFieldTypeSmallInteger","alias":"PS_Male","sqlType":"sqlTypeOther","domain":null,"defaultValue":null},{"name":"PS_Female","type":"esriFieldTypeSmallInteger","alias":"PS_Female","sqlType":"sqlTypeOther","domain":null,"defaultValue":null},{"name":"Map_Accuracy","type":"esriFieldTypeString","alias":"Map_Accuracy","sqlType":"sqlTypeOther","length":10,"domain":null,"defaultValue":null}],"features":[{"attributes":{"OBJECTID":1400,"ولایت":"غزنى","Province":"GHAZNI","PC_Code":"1115360","ولسوالي":"مقر","District":"MUQUR","د_مرکز_نوم__نام_مرکز":"مسجد سه کیچه","Polling_Center_Name":"3 Keecha Mosque","د_مرکز_ځای__موقعیت_مرکز":"قریه سه کیچه","Polling_Center_Location":"3 Keecha Village","Verification_Note":"Village","PS_Male":2,"PS_Female":1,"Map_Accuracy":"قریه"},"geometry":{"x":7555370.1378379017,"y":3878184.8930597752}},{"attributes":{"OBJECTID":1401,"ولایت":"غزنى","Province":"GHAZNI","PC_Code":"1115368","ولسوالي":"مقر","District":"MUQUR","د_مرکز_نوم__نام_مرکز":"مکتب عباس قلعه","Polling_Center_Name":"Abas Qala School","د_مرکز_ځای__موقعیت_مرکز":"قریه عباس قلعه","Polling_Center_Location":"Abas Qala","Verification_Note":"Building","PS_Male":2,"PS_Female":1,"Map_Accuracy":"تعمیر"},"geometry":{"x":7547474.7127846032,"y":3866368.9847398996}},{"attributes":{"OBJECTID":1402,"ولایت":"غزنى","Province":"GHAZNI","PC_Code":"1115369","ولسوالي":"مقر","District":"MUQUR","د_مرکز_نوم__نام_مرکز":"مسجد قریه اختر خیل","Polling_Center_Name":"Akhtar Khel Village Mosque","د_مرکز_ځای__موقعیت_مرکز":"قریه اختر خیل ","Polling_Center_Location":"Akhtar Khel Village ","Verification_Note":"Building","PS_Male":2,"PS_Female":1,"Map_Accuracy":"تعمیر"},"geometry":{"x":7542094.7442085035,"y":3869549.6068523824}},{"attributes":{"OBJECTID":1403,"ولایت":"غزنى","Province":"GHAZNI","PC_Code":"1116296","ولسوالي":"مالستان","District":"MALISTAN","د_مرکز_نوم__نام_مرکز":"مسجد قلم مزار بغرا","Polling_Center_Name":"Qalam Mazar Boghra Village Mosque","د_مرکز_ځای__موقعیت_مرکز":"قریه بغرا ","Polling_Center_Location":"Boghra Village ","Verification_Note":"Village","PS_Male":3,"PS_Female":1,"Map_Accuracy":"قریه"},"geometry":{"x":7495389.7946861051,"y":3938153.7344005704}},{"attributes":{"OBJECTID":1404,"ولایت":"غزنى","Province":"GHAZNI","PC_Code":"1116297","ولسوالي":"مالستان","District":"MALISTAN","د_مرکز_نوم__نام_مرکز":"مکتب متوسطه چکتمور","Polling_Center_Name":"Chaktamor Secondary School","د_مرکز_ځای__موقعیت_مرکز":"قریه چکتمور ","Polling_Center_Location":"Chaktamoor Village ","Verification_Note":"Building","PS_Male":2,"PS_Female":1,"Map_Accuracy":"تعمیر"},"geometry":{"x":7454879.3751893751,"y":3897337.7969568744}},{"attributes":{"OBJECTID":1405,"ولایت":"غزنى","Province":"GHAZNI","PC_Code":"1116299","ولسوالي":"مالستان","District":"MALISTAN","د_مرکز_نوم__نام_مرکز":"لیسه قریه خارقل داله","Polling_Center_Name":"Khar Qol Dala High School","د_مرکز_ځای__موقعیت_مرکز":"قریه خارقل داله ","Polling_Center_Location":"Khar Qol Dala Village","Verification_Note":"Building","PS_Male":3,"PS_Female":1,"Map_Accuracy":"تعمیر"},"geometry":{"x":7515229.7098195441,"y":3960991.9659657031}},{"attributes":{"OBJECTID":1406,"ولایت":"غزنى","Province":"GHAZNI","PC_Code":"1116301","ولسوالي":"مالستان","District":"MALISTAN","د_مرکز_نوم__نام_مرکز":"مسجد میراحمد غیغانتو","Polling_Center_Name":"Mir Ahmad Gheghanto Mosque","د_مرکز_ځای__موقعیت_مرکز":"قریه غیغانتو ","Polling_Center_Location":"Gheghanto Village ","Verification_Note":"Building","PS_Male":2,"PS_Female":1,"Map_Accuracy":"تعمیر"},"geometry":{"x":7498364.4006482139,"y":3933699.1233843789}},{"attributes":{"OBJECTID":1407,"ولایت":"غزنى","Province":"GHAZNI","PC_Code":"1116302","ولسوالي":"مالستان","District":"MALISTAN","د_مرکز_نوم__نام_مرکز":"کلینیک قریه جاکه","Polling_Center_Name":"Jaka Village Clinic","د_مرکز_ځای__موقعیت_مرکز":"قریه جاکه","Polling_Center_Location":"Jaka Village ","Verification_Note":"Building","PS_Male":2,"PS_Female":1,"Map_Accuracy":"تعمیر"},"geometry":{"x":7470054.2088374123,"y":3914310.0478480831}},{"attributes":{"OBJECTID":1408,"ولایت":"غزنى","Province":"GHAZNI","PC_Code":"1117387","ولسوالي":"گیلان","District":"GELAN","د_مرکز_نوم__نام_مرکز":"مسجد قریه آغوجان","Polling_Center_Name":"Agho Jan Village Mosque","د_مرکز_ځای__موقعیت_مرکز":"قریه آغوجان","Polling_Center_Location":"Agho Jan Village","Verification_Note":"Building","PS_Male":3,"PS_Female":1,"Map_Accuracy":"تعمیر"},"geometry":{"x":7525966.513668377,"y":3861437.3793602362}},{"attributes":{"OBJECTID":1409,"ولایت":"غزنى","Province":"GHAZNI","PC_Code":"1117388","ولسوالي":"گیلان","District":"GELAN","د_مرکز_نوم__نام_مرکز":"مسجد قریه بلاهیر","Polling_Center_Name":"Balaheer Village Mosque","د_مرکز_ځای__موقعیت_مرکز":"قریه بلاهیر","Polling_Center_Location":"Balaheer Village","Verification_Note":"Village","PS_Male":2,"PS_Female":1,"Map_Accuracy":"قریه"},"geometry":{"x":7527745.3323395513,"y":3847635.0878761634}},{"attributes":{"OBJECTID":1410,"ولایت":"غزنى","Province":"GHAZNI","PC_Code":"1118287","ولسوالي":"اجرستان","District":"AJRISTAN","د_مرکز_نوم__نام_مرکز":"مکتب متوسطه قریه عثمان خیل","Polling_Center_Name":"Osman Khel Village Secondary School","د_مرکز_ځای__موقعیت_مرکز":"قریه عثمان خیل","Polling_Center_Location":"Osman Khel Village","Verification_Note":"Building","PS_Male":5,"PS_Female":2,"Map_Accuracy":"تعمیر"},"geometry":{"x":7480767.1268631,"y":3962582.1709844396}},{"attributes":{"OBJECTID":1411,"ولایت":"غزنى","Province":"GHAZNI","PC_Code":"1118288","ولسوالي":"اجرستان","District":"AJRISTAN","د_مرکز_نوم__نام_مرکز":"مکتب متوسطه ادین خیل","Polling_Center_Name":"Addin Khel Secondary School","د_مرکز_ځای__موقعیت_مرکز":"قریه عباس خیل","Polling_Center_Location":"Abas Khel Village","Verification_Note":"Building","PS_Male":3,"PS_Female":2,"Map_Accuracy":"تعمیر"},"geometry":{"x":7483629.66192786,"y":3967458.0501954183}},{"attributes":{"OBJECTID":1412,"ولایت":"غزنى","Province":"GHAZNI","PC_Code":"1118292","ولسوالي":"اجرستان","District":"AJRISTAN","د_مرکز_نوم__نام_مرکز":"مکتب ابتدائیه پیروخیل","Polling_Center_Name":"Peero Khel Primary School","د_مرکز_ځای__موقعیت_مرکز":" قریه پیروخیل","Polling_Center_Location":"Peero Khel Village","Verification_Note":"Building","PS_Male":2,"PS_Female":2,"Map_Accuracy":"تعمیر"},"geometry":{"x":7466308.8189286813,"y":3950832.4774404764}},{"attributes":{"OBJECTID":1413,"ولایت":"غزنى","Province":"GHAZNI","PC_Code":"1118293","ولسوالي":"اجرستان","District":"AJRISTAN","د_مرکز_نوم__نام_مرکز":"متوسطه لنګر خیل","Polling_Center_Name":"Langar Khel Secondary School","د_مرکز_ځای__موقعیت_مرکز":"قریه لنگر خیل","Polling_Center_Location":"Langar Khel Village","Verification_Note":"Building","PS_Male":3,"PS_Female":2,"Map_Accuracy":"تعمیر"},"geometry":{"x":7491627.9862656705,"y":3974538.0501703247}},{"attributes":{"OBJECTID":1414,"ولایت":"پکتيکا","Province":"PAKTIKA","PC_Code":"1210158","ولسوالي":"سروبی","District":"SURUBI","د_مرکز_نوم__نام_مرکز":"عباس خیل ښوونځی","Polling_Center_Name":"Abas Khel School","د_مرکز_ځای__موقعیت_مرکز":"عباس خیل","Polling_Center_Location":"Abbas Khel","Verification_Note":"Village","PS_Male":2,"PS_Female":1,"Map_Accuracy":"قریه"},"geometry":{"x":7694696.9757672809,"y":3872470.1980196387}},{"attributes":{"OBJECTID":1415,"ولایت":"پکتيکا","Province":"PAKTIKA","PC_Code":"1211164","ولسوالي":"اورگون","District":"URGOON","د_مرکز_نوم__نام_مرکز":"قرخیل نجونو ښوونځی ","Polling_Center_Name":"Qara Khel Girls School","د_مرکز_ځای__موقعیت_مرکز":"قره خیل کلی","Polling_Center_Location":"Qara Khel Village","Verification_Note":"Village","PS_Male":0,"PS_Female":2,"Map_Accuracy":"قریه"},"geometry":{"x":7698644.476230301,"y":3883257.9745485857}},{"attributes":{"OBJECTID":1416,"ولایت":"غزنى","Province":"GHAZNI","PC_Code":"1115370","ولسوالي":"مقر","District":"MUQUR","د_مرکز_نوم__نام_مرکز":"مکتب قریه سره زرنده","Polling_Center_Name":"Sra Zranda Village School","د_مرکز_ځای__موقعیت_مرکز":"قریه سره زرنده","Polling_Center_Location":"Sra Zranda Village","Verification_Note":"Village","PS_Male":1,"PS_Female":2,"Map_Accuracy":"قریه"},"geometry":{"x":7546894.4142978564,"y":3894187.5970295593}},{"attributes":{"OBJECTID":1417,"ولایت":"پکتيکا","Province":"PAKTIKA","PC_Code":"1210152","ولسوالي":"سروبی","District":"SURUBI","د_مرکز_نوم__نام_مرکز":"مادو میلمستون","Polling_Center_Name":"Mado Guest House","د_مرکز_ځای__موقعیت_مرکز":"ربات","Polling_Center_Location":"Robat","Verification_Note":"Village","PS_Male":0,"PS_Female":3,"Map_Accuracy":"قریه"},"geometry":{"x":7694581.426135838,"y":3865681.8683881387}},{"attributes":{"OBJECTID":1418,"ولایت":"پکتيکا","Province":"PAKTIKA","PC_Code":"1210153","ولسوالي":"سروبی","District":"SURUBI","د_مرکز_نوم__نام_مرکز":"مستی جومات","Polling_Center_Name":"Masti Mosque","د_مرکز_ځای__موقعیت_مرکز":"مستی","Polling_Center_Location":"Masti","Verification_Note":"Village","PS_Male":2,"PS_Female":0,"Map_Accuracy":"قریه"},"geometry":{"x":7691464.8143520951,"y":3867345.0491156951}},{"attributes":{"OBJECTID":1419,"ولایت":"غزنى","Province":"GHAZNI","PC_Code":"1101003","ولسوالي":"غزنی","District":"GHAZNI","د_مرکز_نوم__نام_مرکز":"ریاست امور زنان","Polling_Center_Name":"Women's Affairs Department","د_مرکز_ځای__موقعیت_مرکز":"مرکز شهر","Polling_Center_Location":"Provincial Center","Verification_Note":"Building","PS_Male":0,"PS_Female":3,"Map_Accuracy":"تعمیر"},"geometry":{"x":7616676.67683772,"y":3967777.6841172576}},{"attributes":{"OBJECTID":1420,"ولایت":"غزنى","Province":"GHAZNI","PC_Code":"1101004","ولسوالي":"غزنی","District":"GHAZNI","د_مرکز_نوم__نام_مرکز":"مسجد سید شهدا حیدرآباد","Polling_Center_Name":"Sayed Shuhada Mosque","د_مرکز_ځای__موقعیت_مرکز":"قریه حیدر آباد","Polling_Center_Location":"Haider Abad Village","Verification_Note":"Building","PS_Male":3,"PS_Female":0,"Map_Accuracy":"تعمیر"},"geometry":{"x":7614978.1451228783,"y":3966809.2599235028}},{"attributes":{"OBJECTID":1421,"ولایت":"غزنى","Province":"GHAZNI","PC_Code":"1101007","ولسوالي":"غزنی","District":"GHAZNI","د_مرکز_نوم__نام_مرکز":"مسجد توحید","Polling_Center_Name":"Tawheed Mosque","د_مرکز_ځای__موقعیت_مرکز":"پلان سوم شهر ","Polling_Center_Location":"Plan-e-Sewam Shahar","Verification_Note":"Building","PS_Male":0,"PS_Female":4,"Map_Accuracy":"تعمیر"},"geometry":{"x":7616167.5972215943,"y":3967500.7733198777}},{"attributes":{"OBJECTID":1422,"ولایت":"غزنى","Province":"GHAZNI","PC_Code":"1101008","ولسوالي":"غزنی","District":"GHAZNI","د_مرکز_نوم__نام_مرکز":"لیسه سید احمد مکیی","Polling_Center_Name":"Sayed Ahmad Maki High School","د_مرکز_ځای__موقعیت_مرکز":"اده قرباغ","Polling_Center_Location":"Adah Qara Bagh","Verification_Note":"Building","PS_Male":4,"PS_Female":0,"Map_Accuracy":"تعمیر"},"geometry":{"x":7616529.3243409507,"y":3968316.385526374}},{"attributes":{"OBJECTID":1423,"ولایت":"غزنى","Province":"GHAZNI","PC_Code":"1101013","ولسوالي":"غزنی","District":"GHAZNI","د_مرکز_نوم__نام_مرکز":"مسجد جامع شامیر","Polling_Center_Name":"Shah Meer Mosque","د_مرکز_ځای__موقعیت_مرکز":"ناحیه دوم","Polling_Center_Location":"Nahia 2","Verification_Note":"Building","PS_Male":3,"PS_Female":0,"Map_Accuracy":"تعمیر"},"geometry":{"x":7617470.3592035919,"y":3968294.07542862}},{"attributes":{"OBJECTID":1424,"ولایت":"غزنى","Province":"GHAZNI","PC_Code":"1101014","ولسوالي":"غزنی","District":"GHAZNI","د_مرکز_نوم__نام_مرکز":"لیسه ملکه جهان","Polling_Center_Name":"Malika Jahan High School","د_مرکز_ځای__موقعیت_مرکز":"ساحه شامیر","Polling_Center_Location":"Saha-e-Shamer ","Verification_Note":"Building","PS_Male":0,"PS_Female":5,"Map_Accuracy":"تعمیر"},"geometry":{"x":7617181.5519166775,"y":3968649.8533646837}},{"attributes":{"OBJECTID":1425,"ولایت":"غزنى","Province":"GHAZNI","PC_Code":"1101024","ولسوالي":"غزنی","District":"GHAZNI","د_مرکز_نوم__نام_مرکز":"مکتب البرونی","Polling_Center_Name":"Alberoni School","د_مرکز_ځای__موقعیت_مرکز":"قریه نوآباد","Polling_Center_Location":"Nawabad Village","Verification_Note":"Building","PS_Male":4,"PS_Female":2,"Map_Accuracy":"تعمیر"},"geometry":{"x":7614921.8575355522,"y":3973119.4423040897}},{"attributes":{"OBJECTID":1426,"ولایت":"غزنى","Province":"GHAZNI","PC_Code":"1101025","ولسوالي":"غزنی","District":"GHAZNI","د_مرکز_نوم__نام_مرکز":"مسجد سرور کائینات","Polling_Center_Name":"Sarwar-e-Kaenat Mosque","د_مرکز_ځای__موقعیت_مرکز":"قریه نوآباد","Polling_Center_Location":"Nawabad Village","Verification_Note":"Building","PS_Male":5,"PS_Female":0,"Map_Accuracy":"تعمیر"},"geometry":{"x":7614163.4901649393,"y":3973560.298839964}},{"attributes":{"OBJECTID":1427,"ولایت":"غزنى","Province":"GHAZNI","PC_Code":"1101034","ولسوالي":"غزنی","District":"GHAZNI","د_مرکز_نوم__نام_مرکز":"مسجد قلعه قاضی","Polling_Center_Name":"Qala-e-Qazi Mosque","د_مرکز_ځای__موقعیت_مرکز":" قلعه قاضی","Polling_Center_Location":"Qala-e-Qazi","Verification_Note":"Village","PS_Male":7,"PS_Female":1,"Map_Accuracy":"قریه"},"geometry":{"x":7613744.0338708535,"y":3969408.5845334679}},{"attributes":{"OBJECTID":1428,"ولایت":"غزنى","Province":"GHAZNI","PC_Code":"1101035","ولسوالي":"غزنی","District":"GHAZNI","د_مرکز_نوم__نام_مرکز":"لیسه قلعه شهاده","Polling_Center_Name":"Qala-e-Shahada High School","د_مرکز_ځای__موقعیت_مرکز":"قلعه شهاده ","Polling_Center_Location":"Qala-e-Shahada","Verification_Note":"Building","PS_Male":8,"PS_Female":2,"Map_Accuracy":"تعمیر"},"geometry":{"x":7614502.6940117292,"y":3975022.4470105842}},{"attributes":{"OBJECTID":1429,"ولایت":"غزنى","Province":"GHAZNI","PC_Code":"1101055","ولسوالي":"غزنی","District":"GHAZNI","د_مرکز_نوم__نام_مرکز":"مسجد قلعه جوز","Polling_Center_Name":"Qala-e-Jowz Mosque","د_مرکز_ځای__موقعیت_مرکز":"قریه قلعه جوز","Polling_Center_Location":"Qala-e-Jowz ","Verification_Note":"Building","PS_Male":1,"PS_Female":2,"Map_Accuracy":"تعمیر"},"geometry":{"x":7623964.5178838819,"y":3967370.8441184983}},{"attributes":{"OBJECTID":1430,"ولایت":"غزنى","Province":"GHAZNI","PC_Code":"1101056","ولسوالي":"غزنی","District":"GHAZNI","د_مرکز_نوم__نام_مرکز":"مهمان خانه محمد نور","Polling_Center_Name":"Mohammad Noor Guest House ","د_مرکز_ځای__موقعیت_مرکز":"مرکز شهر","Polling_Center_Location":"Markaz-e-Shahar","Verification_Note":"Village","PS_Male":1,"PS_Female":2,"Map_Accuracy":"قریه"},"geometry":{"x":7616963.7631253116,"y":3968971.9807853624}},{"attributes":{"OBJECTID":1431,"ولایت":"غزنى","Province":"GHAZNI","PC_Code":"1107236","ولسوالي":"اندر","District":"ANDAR","د_مرکز_نوم__نام_مرکز":"مسجد نو قریه خانی قلعه","Polling_Center_Name":"Khani Qala New Mosque","د_مرکز_ځای__موقعیت_مرکز":"قریه خانی قلعه ","Polling_Center_Location":"Khani Qala","Verification_Note":"Village","PS_Male":0,"PS_Female":3,"Map_Accuracy":"قریه"},"geometry":{"x":7627009.1438057013,"y":3939158.3126330525}},{"attributes":{"OBJECTID":1432,"ولایت":"غزنى","Province":"GHAZNI","PC_Code":"1107237","ولسوالي":"اندر","District":"ANDAR","د_مرکز_نوم__نام_مرکز":"مسجد قریه سرفراز","Polling_Center_Name":"Sarferaz Village Mosque","د_مرکز_ځای__موقعیت_مرکز":"قلعه سرفراز ","Polling_Center_Location":"Qala-e-Sarferaz","Verification_Note":"Building","PS_Male":2,"PS_Female":0,"Map_Accuracy":"تعمیر"},"geometry":{"x":7626029.7805291861,"y":3940998.1635844633}},{"attributes":{"OBJECTID":1433,"ولایت":"غزنى","Province":"GHAZNI","PC_Code":"1107240","ولسوالي":"اندر","District":"ANDAR","د_مرکز_نوم__نام_مرکز":"مکتب قریه کنسف","Polling_Center_Name":"Kanasf Village School","د_مرکز_ځای__موقعیت_مرکز":"قریه کنسف ","Polling_Center_Location":"Kanasf Village","Verification_Note":"Building","PS_Male":0,"PS_Female":2,"Map_Accuracy":"تعمیر"},"geometry":{"x":7613875.53892491,"y":3928617.4965307266}},{"attributes":{"OBJECTID":1434,"ولایت":"غزنى","Province":"GHAZNI","PC_Code":"1107241","ولسوالي":"اندر","District":"ANDAR","د_مرکز_نوم__نام_مرکز":"مسجد قریه شمشی","Polling_Center_Name":"Shamshi Village Mosque","د_مرکز_ځای__موقعیت_مرکز":"قریه شمشی ","Polling_Center_Location":"Shamshai Village","Verification_Note":"Village","PS_Male":3,"PS_Female":0,"Map_Accuracy":"قریه"},"geometry":{"x":7628905.07614718,"y":3942523.2374145389}},{"attributes":{"OBJECTID":1435,"ولایت":"غزنى","Province":"GHAZNI","PC_Code":"1107246","ولسوالي":"اندر","District":"ANDAR","د_مرکز_نوم__نام_مرکز":"مسجد چینه سرده","Polling_Center_Name":"Chini Sardah Mosque","د_مرکز_ځای__موقعیت_مرکز":"قریه سرده ","Polling_Center_Location":"Sardah Village ","Verification_Note":"Building","PS_Male":0,"PS_Female":3,"Map_Accuracy":"تعمیر"},"geometry":{"x":7634623.522766985,"y":3932042.7543416619}},{"attributes":{"OBJECTID":1436,"ولایت":"غزنى","Province":"GHAZNI","PC_Code":"1107247","ولسوالي":"اندر","District":"ANDAR","د_مرکز_نوم__نام_مرکز":"مکتب حضرت بلال قریه نرمی","Polling_Center_Name":"Hazrat-e-Bilal School","د_مرکز_ځای__موقعیت_مرکز":"قریه نرمی","Polling_Center_Location":"Narmi Village ","Verification_Note":"Building","PS_Male":3,"PS_Female":0,"Map_Accuracy":"تعمیر"},"geometry":{"x":7614509.8039876,"y":3938346.8079109862}},{"attributes":{"OBJECTID":1437,"ولایت":"غزنى","Province":"GHAZNI","PC_Code":"1108074","ولسوالي":"زنخان","District":"ZANAKHAN","د_مرکز_نوم__نام_مرکز":"مسجد دور خان خیل","Polling_Center_Name":"Doorkhan Khel Mosque","د_مرکز_ځای__موقعیت_مرکز":" دور خان خیل","Polling_Center_Location":"Doorkhan Khel","Verification_Note":"Village","PS_Male":0,"PS_Female":2,"Map_Accuracy":"قریه"},"geometry":{"x":7641556.155563172,"y":3984845.4629906863}},{"attributes":{"OBJECTID":1438,"ولایت":"غزنى","Province":"GHAZNI","PC_Code":"1108076","ولسوالي":"زنخان","District":"ZANAKHAN","د_مرکز_نوم__نام_مرکز":"مسجد کوتل","Polling_Center_Name":"Kotal Mosque","د_مرکز_ځای__موقعیت_مرکز":"کوتل","Polling_Center_Location":"Kotal","Verification_Note":"Village","PS_Male":2,"PS_Female":1,"Map_Accuracy":"قریه"},"geometry":{"x":7646137.678412389,"y":3986974.6580619738}},{"attributes":{"OBJECTID":1439,"ولایت":"غزنى","Province":"GHAZNI","PC_Code":"1108079","ولسوالي":"زنخان","District":"ZANAKHAN","د_مرکز_نوم__نام_مرکز":"مسجد عظم وال","Polling_Center_Name":"Azamwal Mosque","د_مرکز_ځای__موقعیت_مرکز":"عظم وال","Polling_Center_Location":"Azamwal Village","Verification_Note":"Village","PS_Male":2,"PS_Female":0,"Map_Accuracy":"قریه"},"geometry":{"x":7641245.6788241826,"y":3982625.9100153372}},{"attributes":{"OBJECTID":1440,"ولایت":"غزنى","Province":"GHAZNI","PC_Code":"1108080","ولسوالي":"زنخان","District":"ZANAKHAN","د_مرکز_نوم__نام_مرکز":"د عظموالو د کلی مسجد","Polling_Center_Name":"Azamwal Village Mosque","د_مرکز_ځای__موقعیت_مرکز":"عظموال","Polling_Center_Location":"Azamwal Village","Verification_Note":"Village","PS_Male":0,"PS_Female":2,"Map_Accuracy":"قریه"},"geometry":{"x":7641418.6459357776,"y":3982527.2631370351}},{"attributes":{"OBJECTID":1441,"ولایت":"غزنى","Province":"GHAZNI","PC_Code":"1109087","ولسوالي":"رشیدان","District":"RASHIDAN","د_مرکز_نوم__نام_مرکز":"دفتر ولسوالی کمشنر","Polling_Center_Name":"District Commissioner Office","د_مرکز_ځای__موقعیت_مرکز":"حسین خیل","Polling_Center_Location":"Hussain Khel","Verification_Note":"Village","PS_Male":2,"PS_Female":0,"Map_Accuracy":"قریه"},"geometry":{"x":7593515.3075859509,"y":3989223.1149048135}},{"attributes":{"OBJECTID":1442,"ولایت":"غزنى","Province":"GHAZNI","PC_Code":"1109088","ولسوالي":"رشیدان","District":"RASHIDAN","د_مرکز_نوم__نام_مرکز":"مسجد قریه حسین خیل","Polling_Center_Name":"Hussain Khel Village Mosque","د_مرکز_ځای__موقعیت_مرکز":"حسین خیل","Polling_Center_Location":"Hussain Khel","Verification_Note":"Village","PS_Male":0,"PS_Female":2,"Map_Accuracy":"قریه"},"geometry":{"x":7593608.0155710764,"y":3989152.589395076}},{"attributes":{"OBJECTID":1443,"ولایت":"غزنى","Province":"GHAZNI","PC_Code":"1110259","ولسوالي":"ناور","District":"NAWUR","د_مرکز_نوم__نام_مرکز":"مدرسه امام باقیر","Polling_Center_Name":"Imam-e- Baqir Madrass","د_مرکز_ځای__موقعیت_مرکز":"قریه کته قلعه ","Polling_Center_Location":"Kata Qala","Verification_Note":"Building","PS_Male":1,"PS_Female":1,"Map_Accuracy":"تعمیر"},"geometry":{"x":7568719.980829563,"y":4043881.4253903925}},{"attributes":{"OBJECTID":1444,"ولایت":"غزنى","Province":"GHAZNI","PC_Code":"1110260","ولسوالي":"ناور","District":"NAWUR","د_مرکز_نوم__نام_مرکز":"مکتب ابتدائیه تورغه","Polling_Center_Name":"Torgha Primary School","د_مرکز_ځای__موقعیت_مرکز":"قریه تورغه ","Polling_Center_Location":"Torgha Village","Verification_Note":"Building","PS_Male":2,"PS_Female":1,"Map_Accuracy":"تعمیر"},"geometry":{"x":7575836.8050816022,"y":4035094.5860674009}},{"attributes":{"OBJECTID":1445,"ولایت":"غزنى","Province":"GHAZNI","PC_Code":"1110270","ولسوالي":"ناور","District":"NAWUR","د_مرکز_نوم__نام_مرکز":"مسجد قریه میان قول","Polling_Center_Name":"Mianqol Village Mosque","د_مرکز_ځای__موقعیت_مرکز":"قریه میان قول ","Polling_Center_Location":"Mianqol Village ","Verification_Note":"Village","PS_Male":1,"PS_Female":1,"Map_Accuracy":"قریه"},"geometry":{"x":7500046.58509583,"y":4040235.8024372682}},{"attributes":{"OBJECTID":1446,"ولایت":"غزنى","Province":"GHAZNI","PC_Code":"1110271","ولسوالي":"ناور","District":"NAWUR","د_مرکز_نوم__نام_مرکز":"لیسه سکه ناور","Polling_Center_Name":"Seka Nawer High School","د_مرکز_ځای__موقعیت_مرکز":"بند آبدره شابیردی ","Polling_Center_Location":"Band-e-Aabdara Shaberdi","Verification_Note":"Building","PS_Male":2,"PS_Female":1,"Map_Accuracy":"تعمیر"},"geometry":{"x":7523518.2039948255,"y":4041102.3415545225}},{"attributes":{"OBJECTID":1447,"ولایت":"غزنى","Province":"GHAZNI","PC_Code":"1111135","ولسوالي":"قره باغ","District":"QARA BAGH","د_مرکز_نوم__نام_مرکز":"مسجد قریه پناګیر","Polling_Center_Name":"Pana Geer Village Mosque","د_مرکز_ځای__موقعیت_مرکز":"قریه پنا ګیر","Polling_Center_Location":"Pangeer Village","Verification_Note":"Village","PS_Male":0,"PS_Female":4,"Map_Accuracy":"قریه"},"geometry":{"x":7575403.7689228319,"y":3921420.1771853566}},{"attributes":{"OBJECTID":1448,"ولایت":"غزنى","Province":"GHAZNI","PC_Code":"1111137","ولسوالي":"قره باغ","District":"QARA BAGH","د_مرکز_نوم__نام_مرکز":"مسجد بلوچ خیل","Polling_Center_Name":"Baloch Khel Village Mosque","د_مرکز_ځای__موقعیت_مرکز":"قریه بلوچ خیل ","Polling_Center_Location":"Balooch Khel Village","Verification_Note":"Building","PS_Male":0,"PS_Female":2,"Map_Accuracy":"تعمیر"},"geometry":{"x":7583609.5772067569,"y":3918902.9340021834}},{"attributes":{"OBJECTID":1449,"ولایت":"غزنى","Province":"GHAZNI","PC_Code":"1111140","ولسوالي":"قره باغ","District":"QARA BAGH","د_مرکز_نوم__نام_مرکز":"مسجد کهنه گامیشک","Polling_Center_Name":"Gumishak Village Old Mosque","د_مرکز_ځای__موقعیت_مرکز":"قریه گامیشک","Polling_Center_Location":"Gamishak Village","Verification_Note":"Building","PS_Male":3,"PS_Female":0,"Map_Accuracy":"تعمیر"},"geometry":{"x":7561317.7233843692,"y":3916247.9366669804}},{"attributes":{"OBJECTID":1450,"ولایت":"غزنى","Province":"GHAZNI","PC_Code":"1111141","ولسوالي":"قره باغ","District":"QARA BAGH","د_مرکز_نوم__نام_مرکز":"مسجد جدید قریه گامیشک","Polling_Center_Name":"Gumishak Village New Mosque","د_مرکز_ځای__موقعیت_مرکز":"قریه گامیشک","Polling_Center_Location":"Gamishak Village","Verification_Note":"Building","PS_Male":0,"PS_Female":3,"Map_Accuracy":"تعمیر"},"geometry":{"x":7561467.6796440333,"y":3916250.2556880116}},{"attributes":{"OBJECTID":1451,"ولایت":"غزنى","Province":"GHAZNI","PC_Code":"1111146","ولسوالي":"قره باغ","District":"QARA BAGH","د_مرکز_نوم__نام_مرکز":"کلینیک عسکر کوت","Polling_Center_Name":"Askar Kot Clinic","د_مرکز_ځای__موقعیت_مرکز":"بازار عسکر کوټ","Polling_Center_Location":"Askarkot Bazar","Verification_Note":"Building","PS_Male":4,"PS_Female":0,"Map_Accuracy":"تعمیر"},"geometry":{"x":7574481.5114318952,"y":3910085.8650390059}},{"attributes":{"OBJECTID":1452,"ولایت":"غزنى","Province":"GHAZNI","PC_Code":"1111147","ولسوالي":"قره باغ","District":"QARA BAGH","د_مرکز_نوم__نام_مرکز":"مسجد بازاز عسکر کوټ","Polling_Center_Name":"Askar Kot Bazar Mosque","د_مرکز_ځای__موقعیت_مرکز":"بازار عسکر کوټ","Polling_Center_Location":"Askarkot Bazar","Verification_Note":"Building","PS_Male":0,"PS_Female":3,"Map_Accuracy":"تعمیر"},"geometry":{"x":7574446.0172122568,"y":3910161.761158973}},{"attributes":{"OBJECTID":1453,"ولایت":"غزنى","Province":"GHAZNI","PC_Code":"1111163","ولسوالي":"قره باغ","District":"QARA BAGH","د_مرکز_نوم__نام_مرکز":"مسجد داوود خیل","Polling_Center_Name":"Dawood Khel Mosque","د_مرکز_ځای__موقعیت_مرکز":"قریه موشکی","Polling_Center_Location":"Moshaki Village","Verification_Note":"Building","PS_Male":0,"PS_Female":2,"Map_Accuracy":"تعمیر"},"geometry":{"x":7590710.1476999409,"y":3925802.6597810388}},{"attributes":{"OBJECTID":1454,"ولایت":"غزنى","Province":"GHAZNI","PC_Code":"1111164","ولسوالي":"قره باغ","District":"QARA BAGH","د_مرکز_نوم__نام_مرکز":"مسجد نو قریه ماربولاغ","Polling_Center_Name":"Marbolaagh Village New Mosque","د_مرکز_ځای__موقعیت_مرکز":"قریه ماربولاغ ","Polling_Center_Location":"Marbolaagh Village","Verification_Note":"Village","PS_Male":2,"PS_Female":0,"Map_Accuracy":"قریه"},"geometry":{"x":7590579.8371040188,"y":3933083.2937021106}},{"attributes":{"OBJECTID":1455,"ولایت":"غزنى","Province":"GHAZNI","PC_Code":"1111174","ولسوالي":"قره باغ","District":"QARA BAGH","د_مرکز_نوم__نام_مرکز":"مسجد گودول","Polling_Center_Name":"Godol Mosque","د_مرکز_ځای__موقعیت_مرکز":"قریه نیخته","Polling_Center_Location":"Nekhta Village","Verification_Note":"Building","PS_Male":3,"PS_Female":0,"Map_Accuracy":"تعمیر"},"geometry":{"x":7571450.5566567406,"y":3939425.9657809064}},{"attributes":{"OBJECTID":1456,"ولایت":"غزنى","Province":"GHAZNI","PC_Code":"1111175","ولسوالي":"قره باغ","District":"QARA BAGH","د_مرکز_نوم__نام_مرکز":"مسجد حبیب","Polling_Center_Name":"Habib Mosque","د_مرکز_ځای__موقعیت_مرکز":"قریه نیخته","Polling_Center_Location":"Nekhta Village","Verification_Note":"Village","PS_Male":0,"PS_Female":2,"Map_Accuracy":"قریه"},"geometry":{"x":7571746.9358954169,"y":3939346.9914189428}},{"attributes":{"OBJECTID":1457,"ولایت":"غزنى","Province":"GHAZNI","PC_Code":"1111195","ولسوالي":"قره باغ","District":"QARA BAGH","د_مرکز_نوم__نام_مرکز":"مسجد سید عالم دفتانی گوډول","Polling_Center_Name":"Sayed Aalam Daftani Godol Mosque","د_مرکز_ځای__موقعیت_مرکز":"قریه ګوډول بازار","Polling_Center_Location":"Qodol Bazar Village","Verification_Note":"Village","PS_Male":0,"PS_Female":2,"Map_Accuracy":"قریه"},"geometry":{"x":7567139.3876624443,"y":3946621.5312439278}},{"attributes":{"OBJECTID":1458,"ولایت":"غزنى","Province":"GHAZNI","PC_Code":"1112196","ولسوالي":"گیرو","District":"GIRO","د_مرکز_نوم__نام_مرکز":"لیسه شهید حبیب الله خادم","Polling_Center_Name":"Shaheed Habibullah Khadim High School","د_مرکز_ځای__موقعیت_مرکز":"قریه پنه مرکز ولسوالی","Polling_Center_Location":"Pune Village, District Center","Verification_Note":"Building","PS_Male":2,"PS_Female":2,"Map_Accuracy":"تعمیر"},"geometry":{"x":7604411.8716019988,"y":3908668.9002237841}},{"attributes":{"OBJECTID":1459,"ولایت":"غزنى","Province":"GHAZNI","PC_Code":"1112199","ولسوالي":"گیرو","District":"GIRO","د_مرکز_نوم__نام_مرکز":"مسجد قریه موسی خیل","Polling_Center_Name":"Musa Khel Village Mosque","د_مرکز_ځای__موقعیت_مرکز":"قریه موسی خیل ","Polling_Center_Location":"Musa Khel Village","Verification_Note":"Building","PS_Male":0,"PS_Female":3,"Map_Accuracy":"تعمیر"},"geometry":{"x":7608734.7113317065,"y":3912782.008892566}},{"attributes":{"OBJECTID":1460,"ولایت":"غزنى","Province":"GHAZNI","PC_Code":"1112200","ولسوالي":"گیرو","District":"GIRO","د_مرکز_نوم__نام_مرکز":"مکتب ابتدائیه قریه عظمت","Polling_Center_Name":"Azamat Village Primary School","د_مرکز_ځای__موقعیت_مرکز":"قریه عظمت ","Polling_Center_Location":"Azamat Village","Verification_Note":"Village","PS_Male":2,"PS_Female":0,"Map_Accuracy":"قریه"},"geometry":{"x":7598212.3077089414,"y":3906123.8148998544}},{"attributes":{"OBJECTID":1461,"ولایت":"غزنى","Province":"GHAZNI","PC_Code":"1114322","ولسوالي":"جاغوری","District":"JAGHURI","د_مرکز_نوم__نام_مرکز":"لیسه عالی قریه المیتو","Polling_Center_Name":"Almayto Village High School","د_مرکز_ځای__موقعیت_مرکز":"قریه المیتو","Polling_Center_Location":"Almetoo Village ","Verification_Note":"Building","PS_Male":3,"PS_Female":2,"Map_Accuracy":"تعمیر"},"geometry":{"x":7498853.4973025471,"y":3925609.1211248413}},{"attributes":{"OBJECTID":1462,"ولایت":"غزنى","Province":"GHAZNI","PC_Code":"1114323","ولسوالي":"جاغوری","District":"JAGHURI","د_مرکز_نوم__نام_مرکز":"لیسه انگوری","Polling_Center_Name":"Angoori High School","د_مرکز_ځای__موقعیت_مرکز":"قریه انګوری ","Polling_Center_Location":"Angori Village ","Verification_Note":"Building","PS_Male":3,"PS_Female":2,"Map_Accuracy":"تعمیر"},"geometry":{"x":7517516.7197773084,"y":3889281.36820627}},{"attributes":{"OBJECTID":1463,"ولایت":"غزنى","Province":"GHAZNI","PC_Code":"1114331","ولسوالي":"جاغوری","District":"JAGHURI","د_مرکز_نوم__نام_مرکز":"مکتب ابتدائیه غوغه","Polling_Center_Name":"Ghawgha Primary School","د_مرکز_ځای__موقعیت_مرکز":"قریه غوغه","Polling_Center_Location":"Ghowgha Village","Verification_Note":"Village","PS_Male":1,"PS_Female":1,"Map_Accuracy":"قریه"},"geometry":{"x":7479323.6525919624,"y":3899628.6905236915}},{"attributes":{"OBJECTID":1464,"ولایت":"غزنى","Province":"GHAZNI","PC_Code":"1114332","ولسوالي":"جاغوری","District":"JAGHURI","د_مرکز_نوم__نام_مرکز":"دارالمعلمین غجور","Polling_Center_Name":"Ghajour Teacher Training School","د_مرکز_ځای__موقعیت_مرکز":"قریه غجور","Polling_Center_Location":"Ghajour Village","Verification_Note":"Building","PS_Male":3,"PS_Female":2,"Map_Accuracy":"تعمیر"},"geometry":{"x":7518317.3718565032,"y":3915256.5402391851}},{"attributes":{"OBJECTID":1465,"ولایت":"غزنى","Province":"GHAZNI","PC_Code":"1114342","ولسوالي":"جاغوری","District":"JAGHURI","د_مرکز_نوم__نام_مرکز":"لیسه نسوان شهدا","Polling_Center_Name":"Shuhada Girls High School","د_مرکز_ځای__موقعیت_مرکز":"بازار سنګ ماشه","Polling_Center_Location":"Sang-e-Masha Bazar","Verification_Note":"Building","PS_Male":6,"PS_Female":6,"Map_Accuracy":"تعمیر"},"geometry":{"x":7508187.991714742,"y":3913751.7965215445}},{"attributes":{"OBJECTID":1466,"ولایت":"غزنى","Province":"GHAZNI","PC_Code":"1114343","ولسوالي":"جاغوری","District":"JAGHURI","د_مرکز_نوم__نام_مرکز":"لیسه عالی هدایت","Polling_Center_Name":"Hedayat High School","د_مرکز_ځای__موقعیت_مرکز":"قریه سنګ شانده","Polling_Center_Location":"Sang-e-Shande Village","Verification_Note":"Building","PS_Male":2,"PS_Female":2,"Map_Accuracy":"تعمیر"},"geometry":{"x":7513750.314975109,"y":3900083.5571629032}},{"attributes":{"OBJECTID":1467,"ولایت":"غزنى","Province":"GHAZNI","PC_Code":"1114351","ولسوالي":"جاغوری","District":"JAGHURI","د_مرکز_نوم__نام_مرکز":"لیسه الیاتو تورمی","Polling_Center_Name":"Ulyatoo Toormi High School","د_مرکز_ځای__موقعیت_مرکز":"قریه الیاتو تورمی","Polling_Center_Location":"Ulyato Toormi Village","Verification_Note":"Building","PS_Male":2,"PS_Female":1,"Map_Accuracy":"تعمیر"},"geometry":{"x":7526403.210012,"y":3934646.6340955868}},{"attributes":{"OBJECTID":1468,"ولایت":"غزنى","Province":"GHAZNI","PC_Code":"1114352","ولسوالي":"جاغوری","District":"JAGHURI","د_مرکز_نوم__نام_مرکز":"مکتب صاحلی زیرک","Polling_Center_Name":"Sahili Zirak School","د_مرکز_ځای__موقعیت_مرکز":"قریه زیرک ","Polling_Center_Location":"Zirak Village","Verification_Note":"Building","PS_Male":2,"PS_Female":1,"Map_Accuracy":"تعمیر"},"geometry":{"x":7528748.4511954077,"y":3902217.1831928641}},{"attributes":{"OBJECTID":1469,"ولایت":"غزنى","Province":"GHAZNI","PC_Code":"1116307","ولسوالي":"مالستان","District":"MALISTAN","د_مرکز_نوم__نام_مرکز":"مکتب ابتدائیه خاکریزک","Polling_Center_Name":"Khakrezak Primary School","د_مرکز_ځای__موقعیت_مرکز":"قریه نوده ","Polling_Center_Location":"Naw Deh Village","Verification_Note":"Building","PS_Male":2,"PS_Female":1,"Map_Accuracy":"تعمیر"},"geometry":{"x":7498982.8750411421,"y":3947573.9122653306}},{"attributes":{"OBJECTID":1470,"ولایت":"غزنى","Province":"GHAZNI","PC_Code":"1116308","ولسوالي":"مالستان","District":"MALISTAN","د_مرکز_نوم__نام_مرکز":"مکتب متوسطه کندلی","Polling_Center_Name":"Kandali Secondary School","د_مرکز_ځای__موقعیت_مرکز":"قریه کندلی ","Polling_Center_Location":"Kandali Village","Verification_Note":"Building","PS_Male":1,"PS_Female":1,"Map_Accuracy":"تعمیر"},"geometry":{"x":7517855.0386341475,"y":3949388.9555144832}},{"attributes":{"OBJECTID":1471,"ولایت":"غزنى","Province":"GHAZNI","PC_Code":"1116316","ولسوالي":"مالستان","District":"MALISTAN","د_مرکز_نوم__نام_مرکز":"لیسه قریه سبزک","Polling_Center_Name":"Sabzak Village High School","د_مرکز_ځای__موقعیت_مرکز":"قریه سبزک","Polling_Center_Location":"Sabzak Village","Verification_Note":"Building","PS_Male":2,"PS_Female":1,"Map_Accuracy":"تعمیر"},"geometry":{"x":7504557.0616196394,"y":3949481.650880903}},{"attributes":{"OBJECTID":1472,"ولایت":"غزنى","Province":"GHAZNI","PC_Code":"1116317","ولسوالي":"مالستان","District":"MALISTAN","د_مرکز_نوم__نام_مرکز":"کلینیک صحی شینه ده","Polling_Center_Name":"Sheena Deh Health Clinic","د_مرکز_ځای__موقعیت_مرکز":"بازار شینه ده ","Polling_Center_Location":"Sheena Deh Bazar","Verification_Note":"Building","PS_Male":2,"PS_Female":1,"Map_Accuracy":"تعمیر"},"geometry":{"x":7497011.6717995778,"y":3941699.6703028381}},{"attributes":{"OBJECTID":1473,"ولایت":"غزنى","Province":"GHAZNI","PC_Code":"1117391","ولسوالي":"گیلان","District":"GELAN","د_مرکز_نوم__نام_مرکز":"مسجد قریه هوتک","Polling_Center_Name":"Hotak Village Mosque","د_مرکز_ځای__موقعیت_مرکز":"قریه هوتک","Polling_Center_Location":"Hotak Village","Verification_Note":"Building","PS_Male":3,"PS_Female":1,"Map_Accuracy":"تعمیر"},"geometry":{"x":7535468.1420508437,"y":3848351.1317391694}},{"attributes":{"OBJECTID":1474,"ولایت":"غزنى","Province":"GHAZNI","PC_Code":"1117392","ولسوالي":"گیلان","District":"GELAN","د_مرکز_نوم__نام_مرکز":"مسجد قریه هوتک خیل","Polling_Center_Name":"Hotak Khel Village Mosque","د_مرکز_ځای__موقعیت_مرکز":"قریه هوتک خیل","Polling_Center_Location":"Hotak Khel Village","Verification_Note":"Building","PS_Male":2,"PS_Female":1,"Map_Accuracy":"تعمیر"},"geometry":{"x":7534273.5291805454,"y":3847318.3686937764}},{"attributes":{"OBJECTID":1475,"ولایت":"غزنى","Province":"GHAZNI","PC_Code":"1118290","ولسوالي":"اجرستان","District":"AJRISTAN","د_مرکز_نوم__نام_مرکز":"لیسه قریه گامیشک","Polling_Center_Name":"Gameshak Village High School","د_مرکز_ځای__موقعیت_مرکز":"قریه گامیشک","Polling_Center_Location":"Gameshak Village","Verification_Note":"District","PS_Male":3,"PS_Female":2,"Map_Accuracy":"ولسوالی"},"geometry":{"x":7485882.638177719,"y":3962559.8706273362}},{"attributes":{"OBJECTID":1476,"ولایت":"غزنى","Province":"GHAZNI","PC_Code":"1103085","ولسوالي":"خواجه عمری","District":"KHWAJA OMARI","د_مرکز_نوم__نام_مرکز":"مسجد قلعه نو چهار برجه","Polling_Center_Name":"Qala-e-Naw Chahar Burja Mosque","د_مرکز_ځای__موقعیت_مرکز":"قلعه نو چهار برجه ","Polling_Center_Location":"Qala-e-Naw Chahar Burja","Verification_Note":"Village","PS_Male":3,"PS_Female":0,"Map_Accuracy":"قریه"},"geometry":{"x":7616522.5293992311,"y":3980281.0504473075}},{"attributes":{"OBJECTID":1477,"ولایت":"غزنى","Province":"GHAZNI","PC_Code":"1106103","ولسوالي":"جغتو","District":"JAGHATU","د_مرکز_نوم__نام_مرکز":"مکتب شهید عزیرالله","Polling_Center_Name":"Shaheed Azizullah School","د_مرکز_ځای__موقعیت_مرکز":"قریه آگر","Polling_Center_Location":"Agar Village","Verification_Note":"Building","PS_Male":2,"PS_Female":1,"Map_Accuracy":"تعمیر"},"geometry":{"x":7590543.6771938205,"y":3957177.7649422213}},{"attributes":{"OBJECTID":1478,"ولایت":"غزنى","Province":"GHAZNI","PC_Code":"1110276","ولسوالي":"ناور","District":"NAWUR","د_مرکز_نوم__نام_مرکز":"مسجد قریه ټوبی ","Polling_Center_Name":"Toobie Village Mosque","د_مرکز_ځای__موقعیت_مرکز":"قریه ټوبی ","Polling_Center_Location":"Toobi Village","Verification_Note":"Village","PS_Male":1,"PS_Female":1,"Map_Accuracy":"قریه"},"geometry":{"x":7517971.4955194332,"y":4022821.4828867316}},{"attributes":{"OBJECTID":1479,"ولایت":"غزنى","Province":"GHAZNI","PC_Code":"1101028","ولسوالي":"غزنی","District":"GHAZNI","د_مرکز_نوم__نام_مرکز":"لیسه نسوان مغلان","Polling_Center_Name":"Maghulan Girls School","د_مرکز_ځای__موقعیت_مرکز":"قریه مغلان شهر ","Polling_Center_Location":"Moghlan-e-Shahr Village","Verification_Note":"Building","PS_Male":0,"PS_Female":3,"Map_Accuracy":"تعمیر"},"geometry":{"x":7617694.8138060682,"y":3968271.0013592616}},{"attributes":{"OBJECTID":1480,"ولایت":"غزنى","Province":"GHAZNI","PC_Code":"1101029","ولسوالي":"غزنی","District":"GHAZNI","د_مرکز_نوم__نام_مرکز":"مسجد خلفای  راشدین","Polling_Center_Name":"Khalafay-e-Rashedeen Mosque","د_مرکز_ځای__موقعیت_مرکز":"قریه قلعه اهنگران","Polling_Center_Location":"Qala-e-Ahangaran","Verification_Note":"Village","PS_Male":3,"PS_Female":1,"Map_Accuracy":"قریه"},"geometry":{"x":7615546.7784401961,"y":3971236.8081420511}},{"attributes":{"OBJECTID":1481,"ولایت":"غزنى","Province":"GHAZNI","PC_Code":"1101030","ولسوالي":"غزنی","District":"GHAZNI","د_مرکز_نوم__نام_مرکز":"مسجد حضرت داوود","Polling_Center_Name":"Hazrat-e-Dawood Mosque","د_مرکز_ځای__موقعیت_مرکز":"قریه قلعه اهنگران","Polling_Center_Location":"Qala-e-Ahangaran","Verification_Note":"Village","PS_Male":0,"PS_Female":3,"Map_Accuracy":"قریه"},"geometry":{"x":7615148.6843563877,"y":3971638.9705799967}},{"attributes":{"OBJECTID":1482,"ولایت":"غزنى","Province":"GHAZNI","PC_Code":"1101031","ولسوالي":"غزنی","District":"GHAZNI","د_مرکز_نوم__نام_مرکز":"مسجد زمان حیدر آباد بالا","Polling_Center_Name":"Haider Abad Bala Mosque","د_مرکز_ځای__موقعیت_مرکز":"قریه حیدر آباد بالا","Polling_Center_Location":"Haider Abad Bala Village","Verification_Note":"Building","PS_Male":4,"PS_Female":3,"Map_Accuracy":"تعمیر"},"geometry":{"x":7614582.1360531375,"y":3967319.9036480486}},{"attributes":{"OBJECTID":1483,"ولایت":"غزنى","Province":"GHAZNI","PC_Code":"1101046","ولسوالي":"غزنی","District":"GHAZNI","د_مرکز_نوم__نام_مرکز":"کلینیک اسفنده","Polling_Center_Name":"Esfandah Clinic ","د_مرکز_ځای__موقعیت_مرکز":"قریه اسفنده","Polling_Center_Location":"Esfandah Village","Verification_Note":"Building","PS_Male":3,"PS_Female":0,"Map_Accuracy":"تعمیر"},"geometry":{"x":7613768.2970670685,"y":3958564.9948937669}},{"attributes":{"OBJECTID":1484,"ولایت":"غزنى","Province":"GHAZNI","PC_Code":"1101047","ولسوالي":"غزنی","District":"GHAZNI","د_مرکز_نوم__نام_مرکز":"مکتب اسفنده","Polling_Center_Name":"Espandah School","د_مرکز_ځای__موقعیت_مرکز":"قریه ا سفنده","Polling_Center_Location":"Esfandah Village","Verification_Note":"Building","PS_Male":0,"PS_Female":3,"Map_Accuracy":"تعمیر"},"geometry":{"x":7614090.7528964616,"y":3959081.8700867519}},{"attributes":{"OBJECTID":1485,"ولایت":"غزنى","Province":"GHAZNI","PC_Code":"1103081","ولسوالي":"خواجه عمری","District":"KHWAJA OMARI","د_مرکز_نوم__نام_مرکز":"لیسه ذکور طورمی","Polling_Center_Name":"Tormi Boys High School","د_مرکز_ځای__موقعیت_مرکز":"قریه تورمی","Polling_Center_Location":"Tormi Village","Verification_Note":"Building","PS_Male":2,"PS_Female":1,"Map_Accuracy":"تعمیر"},"geometry":{"x":7614722.4809879586,"y":3987106.2012658194}},{"attributes":{"OBJECTID":1486,"ولایت":"غزنى","Province":"GHAZNI","PC_Code":"1103086","ولسوالي":"خواجه عمری","District":"KHWAJA OMARI","د_مرکز_نوم__نام_مرکز":"مکتب قلعه نو چهار برجه","Polling_Center_Name":"Qala-e-Naw Chahar Burja School","د_مرکز_ځای__موقعیت_مرکز":"قلعه نو پاین","Polling_Center_Location":"Qala-e-Naw Payen","Verification_Note":"Building","PS_Male":0,"PS_Female":3,"Map_Accuracy":"تعمیر"},"geometry":{"x":7613199.5780337453,"y":3989843.1384674385}},{"attributes":{"OBJECTID":1487,"ولایت":"غزنى","Province":"GHAZNI","PC_Code":"1104131","ولسوالي":"واغظ","District":"WAGHAZ","د_مرکز_نوم__نام_مرکز":"مسجد قریه گدولی","Polling_Center_Name":"Gadoly Village Mosque","د_مرکز_ځای__موقعیت_مرکز":"قر یه گډلی ","Polling_Center_Location":"Gadoly Village","Verification_Note":"Building","PS_Male":2,"PS_Female":1,"Map_Accuracy":"تعمیر"},"geometry":{"x":7582067.7287884057,"y":3942701.980686076}},{"attributes":{"OBJECTID":1488,"ولایت":"غزنى","Province":"GHAZNI","PC_Code":"1105061","ولسوالي":"ده یک","District":"DEH YAK","د_مرکز_نوم__نام_مرکز":"مکتب علی قلعه","Polling_Center_Name":"Ali Qala School","د_مرکز_ځای__موقعیت_مرکز":"علی قلعه","Polling_Center_Location":"Ali Qala","Verification_Note":"Village","PS_Male":2,"PS_Female":1,"Map_Accuracy":"قریه"},"geometry":{"x":7633948.3566969857,"y":3951044.5260064378}},{"attributes":{"OBJECTID":1489,"ولایت":"غزنى","Province":"GHAZNI","PC_Code":"1105062","ولسوالي":"ده یک","District":"DEH YAK","د_مرکز_نوم__نام_مرکز":"مکتب تسانی","Polling_Center_Name":"Tesani School","د_مرکز_ځای__موقعیت_مرکز":" تسانی","Polling_Center_Location":"Tesani","Verification_Note":"Village","PS_Male":3,"PS_Female":1,"Map_Accuracy":"قریه"},"geometry":{"x":7635228.1000346765,"y":3961099.9917589426}},{"attributes":{"OBJECTID":1490,"ولایت":"غزنى","Province":"GHAZNI","PC_Code":"1105069","ولسوالي":"ده یک","District":"DEH YAK","د_مرکز_نوم__نام_مرکز":"مکتب ابراهیم زی سید عبدالمتین","Polling_Center_Name":"Ibrahim Zai Sayed Abdul Matin School","د_مرکز_ځای__موقعیت_مرکز":"ابراهیم زی سید عبدالمتین","Polling_Center_Location":"Ibrahim Zai Sayed Abdul Matin ","Verification_Note":"Village","PS_Male":2,"PS_Female":1,"Map_Accuracy":"قریه"},"geometry":{"x":7637986.1929267906,"y":3952627.2868458182}},{"attributes":{"OBJECTID":1491,"ولایت":"غزنى","Province":"GHAZNI","PC_Code":"1106111","ولسوالي":"جغتو","District":"JAGHATU","د_مرکز_نوم__نام_مرکز":"لیسه بی بی هاجر جرمتو","Polling_Center_Name":"BiBi Hajera High School ","د_مرکز_ځای__موقعیت_مرکز":"قریه سرخی ","Polling_Center_Location":"Sorkhi Village","Verification_Note":"Building","PS_Male":5,"PS_Female":0,"Map_Accuracy":"تعمیر"},"geometry":{"x":7586619.0005659983,"y":3977991.5084131062}},{"attributes":{"OBJECTID":1492,"ولایت":"غزنى","Province":"GHAZNI","PC_Code":"1107219","ولسوالي":"اندر","District":"ANDAR","د_مرکز_نوم__نام_مرکز":"د مهتر ګوډلو د کلی مکتب","Polling_Center_Name":"Mehtar Qodali Village School","د_مرکز_ځای__موقعیت_مرکز":"قریه مهتر ګوډلی","Polling_Center_Location":"Mehtar Qoodali Village","Verification_Note":"Building","PS_Male":3,"PS_Female":1,"Map_Accuracy":"تعمیر"},"geometry":{"x":7630944.9178735614,"y":3944986.9994598925}},{"attributes":{"OBJECTID":1493,"ولایت":"غزنى","Province":"GHAZNI","PC_Code":"1107220","ولسوالي":"اندر","District":"ANDAR","د_مرکز_نوم__نام_مرکز":"مسجد قریه بابوړزک","Polling_Center_Name":"Baborzak Village Mosque","د_مرکز_ځای__موقعیت_مرکز":"قریه بابوړزک","Polling_Center_Location":"Baborzak Village","Verification_Note":"Village","PS_Male":2,"PS_Female":1,"Map_Accuracy":"قریه"},"geometry":{"x":7632066.026484102,"y":3937150.4832698107}},{"attributes":{"OBJECTID":1494,"ولایت":"غزنى","Province":"GHAZNI","PC_Code":"1107249","ولسوالي":"اندر","District":"ANDAR","د_مرکز_نوم__نام_مرکز":"مسجد قریه عبد الوال","Polling_Center_Name":"Abdul Wal Village Mosque","د_مرکز_ځای__موقعیت_مرکز":"قریه عبد الوال ","Polling_Center_Location":"Abdul Wal Village ","Verification_Note":"Building","PS_Male":3,"PS_Female":1,"Map_Accuracy":"تعمیر"},"geometry":{"x":7624951.4709232785,"y":3937911.6486687511}},{"attributes":{"OBJECTID":1495,"ولایت":"غزنى","Province":"GHAZNI","PC_Code":"1110255","ولسوالي":"ناور","District":"NAWUR","د_مرکز_نوم__نام_مرکز":"مسجد قریه میانه سوخته","Polling_Center_Name":"Meyana Sokhta Mosque","د_مرکز_ځای__موقعیت_مرکز":"قریه میانه سوخته ","Polling_Center_Location":"Meyana Sokhtah Village","Verification_Note":"Village","PS_Male":2,"PS_Female":1,"Map_Accuracy":"قریه"},"geometry":{"x":7581745.7783494927,"y":3994017.2937581539}},{"attributes":{"OBJECTID":1496,"ولایت":"غزنى","Province":"GHAZNI","PC_Code":"1110256","ولسوالي":"ناور","District":"NAWUR","د_مرکز_نوم__نام_مرکز":" متوسطه شهید سید عیسی خان ","Polling_Center_Name":"Shaheed Sayed Esa Khan Secondary School","د_مرکز_ځای__موقعیت_مرکز":"قریه جانبیګ ","Polling_Center_Location":"Janbieg Village","Verification_Note":"Building","PS_Male":2,"PS_Female":1,"Map_Accuracy":"تعمیر"},"geometry":{"x":7592258.7943995893,"y":3995016.7078568414}},{"attributes":{"OBJECTID":1497,"ولایت":"غزنى","Province":"GHAZNI","PC_Code":"1110279","ولسوالي":"ناور","District":"NAWUR","د_مرکز_نوم__نام_مرکز":"مدرسه قریه ګلچین ده","Polling_Center_Name":"Gulchin Deh Village Madrassa","د_مرکز_ځای__موقعیت_مرکز":"قریه ګلچین ده ","Polling_Center_Location":"Gulchin Dah Village","Verification_Note":"Village","PS_Male":1,"PS_Female":1,"Map_Accuracy":"قریه"},"geometry":{"x":7493488.1248267554,"y":4022190.5311135203}},{"attributes":{"OBJECTID":1498,"ولایت":"غزنى","Province":"GHAZNI","PC_Code":"1110280","ولسوالي":"ناور","District":"NAWUR","د_مرکز_نوم__نام_مرکز":"مدرسه قریه پایین دامن","Polling_Center_Name":"Payen Daman Village Madrass","د_مرکز_ځای__موقعیت_مرکز":"قریه وسه پایین دامن ","Polling_Center_Location":"Wasa-e-Payen Daaman Village","Verification_Note":"Village","PS_Male":2,"PS_Female":1,"Map_Accuracy":"قریه"},"geometry":{"x":7551089.0518227965,"y":4014715.3817838132}},{"attributes":{"OBJECTID":1499,"ولایت":"غزنى","Province":"GHAZNI","PC_Code":"1110283","ولسوالي":"ناور","District":"NAWUR","د_مرکز_نوم__نام_مرکز":"مکتب قریه بهایی","Polling_Center_Name":"Bahayee Village School","د_مرکز_ځای__موقعیت_مرکز":"قریه  قاره بهایی","Polling_Center_Location":"Qara-e-Bahaye Village","Verification_Note":"Building","PS_Male":1,"PS_Female":1,"Map_Accuracy":"تعمیر"},"geometry":{"x":7539200.8682543,"y":3992086.402582489}},{"attributes":{"OBJECTID":1500,"ولایت":"غزنى","Province":"GHAZNI","PC_Code":"1110284","ولسوالي":"ناور","District":"NAWUR","د_مرکز_نوم__نام_مرکز":"مدرسه علمیه المهدی بورقلعه","Polling_Center_Name":"Alem Ahadi Madrass","د_مرکز_ځای__موقعیت_مرکز":"قریه بورقلعه/قرناله ","Polling_Center_Location":"Bur Qala/Qarnala Village","Verification_Note":"Building","PS_Male":1,"PS_Female":1,"Map_Accuracy":"تعمیر"},"geometry":{"x":7580760.2524259649,"y":4018651.9335032776}},{"attributes":{"OBJECTID":1501,"ولایت":"غزنى","Province":"GHAZNI","PC_Code":"1111149","ولسوالي":"قره باغ","District":"QARA BAGH","د_مرکز_نوم__نام_مرکز":"مسجد پایین قلعه باران","Polling_Center_Name":"Qala-e-Baran Lower Mosque","د_مرکز_ځای__موقعیت_مرکز":"قلعه باران","Polling_Center_Location":"Qala-e-Baran","Verification_Note":"Village","PS_Male":0,"PS_Female":2,"Map_Accuracy":"قریه"},"geometry":{"x":7596024.41996536,"y":3928423.3945822865}},{"attributes":{"OBJECTID":1502,"ولایت":"غزنى","Province":"GHAZNI","PC_Code":"1111153","ولسوالي":"قره باغ","District":"QARA BAGH","د_مرکز_نوم__نام_مرکز":"مسجد پایین قریه غټ","Polling_Center_Name":"Ghatt Village Lower Mosque","د_مرکز_ځای__موقعیت_مرکز":"مسجد پایین قریه غټ جای آغا صاحب","Polling_Center_Location":"Ghatt Jay-e-Agha Sahib Village","Verification_Note":"Village","PS_Male":0,"PS_Female":2,"Map_Accuracy":"قریه"},"geometry":{"x":7555701.7129599862,"y":3915061.6822319403}},{"attributes":{"OBJECTID":1503,"ولایت":"غزنى","Province":"GHAZNI","PC_Code":"1111154","ولسوالي":"قره باغ","District":"QARA BAGH","د_مرکز_نوم__نام_مرکز":"مسجد قریه خونیان","Polling_Center_Name":"Khonyan Village Mosque","د_مرکز_ځای__موقعیت_مرکز":"قریه خونیان ","Polling_Center_Location":"Khonyan Village","Verification_Note":"Village","PS_Male":3,"PS_Female":0,"Map_Accuracy":"قریه"},"geometry":{"x":7575549.924735073,"y":3915853.6645864174}},{"attributes":{"OBJECTID":1504,"ولایت":"غزنى","Province":"GHAZNI","PC_Code":"1111159","ولسوالي":"قره باغ","District":"QARA BAGH","د_مرکز_نوم__نام_مرکز":"کلینیک قریه ملوک","Polling_Center_Name":"Malook Village Clinic","د_مرکز_ځای__موقعیت_مرکز":"قر یه ملوک","Polling_Center_Location":"Malook Village","Verification_Note":"Village","PS_Male":0,"PS_Female":3,"Map_Accuracy":"قریه"},"geometry":{"x":7586293.8745159768,"y":3917152.113783285}},{"attributes":{"OBJECTID":1505,"ولایت":"غزنى","Province":"GHAZNI","PC_Code":"1111160","ولسوالي":"قره باغ","District":"QARA BAGH","د_مرکز_نوم__نام_مرکز":"مسجد نو بهادرګی","Polling_Center_Name":"Bahadoorgi New Mosque","د_مرکز_ځای__موقعیت_مرکز":"قریه بهادورګی","Polling_Center_Location":"Bahadoorgi Village","Verification_Note":"Building","PS_Male":2,"PS_Female":0,"Map_Accuracy":"تعمیر"},"geometry":{"x":7576099.7973785959,"y":3919577.6417006552}},{"attributes":{"OBJECTID":1506,"ولایت":"غزنى","Province":"GHAZNI","PC_Code":"1111179","ولسوالي":"قره باغ","District":"QARA BAGH","د_مرکز_نوم__نام_مرکز":"مسجد قریه زردالو","Polling_Center_Name":"Zardalo Village School","د_مرکز_ځای__موقعیت_مرکز":"قریه زردالو","Polling_Center_Location":"Zardalo Village","Verification_Note":"Village","PS_Male":0,"PS_Female":3,"Map_Accuracy":"قریه"},"geometry":{"x":7552096.3763290122,"y":3919064.53081125}},{"attributes":{"OBJECTID":1507,"ولایت":"غزنى","Province":"GHAZNI","PC_Code":"1111180","ولسوالي":"قره باغ","District":"QARA BAGH","د_مرکز_نوم__نام_مرکز":"کلینیک تاق چین","Polling_Center_Name":"Taq Cheen Clinic","د_مرکز_ځای__موقعیت_مرکز":"قریه تاق چین ","Polling_Center_Location":"Taq Cheen Village","Verification_Note":"Village","PS_Male":5,"PS_Female":0,"Map_Accuracy":"قریه"},"geometry":{"x":7544118.7117755041,"y":3911316.4990763888}},{"attributes":{"OBJECTID":1508,"ولایت":"غزنى","Province":"GHAZNI","PC_Code":"1111190","ولسوالي":"قره باغ","District":"QARA BAGH","د_مرکز_نوم__نام_مرکز":"مسجد ملک غلام حسین","Polling_Center_Name":"Malak Ghulam Hussain Mosque","د_مرکز_ځای__موقعیت_مرکز":"قریه گلکو","Polling_Center_Location":"Gulko Village","Verification_Note":"Village","PS_Male":3,"PS_Female":0,"Map_Accuracy":"قریه"},"geometry":{"x":7559539.3922925629,"y":3930528.46462211}},{"attributes":{"OBJECTID":1509,"ولایت":"غزنى","Province":"GHAZNI","PC_Code":"1113375","ولسوالي":"آب بند","District":"AB BAND","د_مرکز_نوم__نام_مرکز":"مکتب ذکور _ اناث جوری","Polling_Center_Name":"Joori Boys/Girls School","د_مرکز_ځای__موقعیت_مرکز":" جوری","Polling_Center_Location":"Jori","Verification_Note":"District","PS_Male":2,"PS_Female":1,"Map_Accuracy":"ولسوالی"},"geometry":{"x":7575469.9361149631,"y":3881526.7900697589}},{"attributes":{"OBJECTID":1510,"ولایت":"غزنى","Province":"GHAZNI","PC_Code":"1113376","ولسوالي":"آب بند","District":"AB BAND","د_مرکز_نوم__نام_مرکز":"مکتب غازی صاحب خان","Polling_Center_Name":"Ghazi Sahib Khan School","د_مرکز_ځای__موقعیت_مرکز":"عالم خیل","Polling_Center_Location":"Alam Khel","Verification_Note":"Village","PS_Male":1,"PS_Female":1,"Map_Accuracy":"قریه"},"geometry":{"x":7580009.2466132827,"y":3874228.9459784031}},{"attributes":{"OBJECTID":1511,"ولایت":"غزنى","Province":"GHAZNI","PC_Code":"1114328","ولسوالي":"جاغوری","District":"JAGHURI","د_مرکز_نوم__نام_مرکز":"مدرسه ده مرده","Polling_Center_Name":"Deh Mordah Madrassa","د_مرکز_ځای__موقعیت_مرکز":"قریه ده مرده ","Polling_Center_Location":"Deh Mordah","Verification_Note":"District","PS_Male":2,"PS_Female":1,"Map_Accuracy":"ولسوالی"},"geometry":{"x":7518217.8577977121,"y":3917374.1681874171}},{"attributes":{"OBJECTID":1512,"ولایت":"غزنى","Province":"GHAZNI","PC_Code":"1114333","ولسوالي":"جاغوری","District":"JAGHURI","د_مرکز_نوم__نام_مرکز":"مسجد قلتار غو","Polling_Center_Name":"Qaltar Gho Mosque","د_مرکز_ځای__موقعیت_مرکز":"قریه قلتارغو حیدر ","Polling_Center_Location":"Qaltargho Haider Village","Verification_Note":"Building","PS_Male":2,"PS_Female":1,"Map_Accuracy":"تعمیر"},"geometry":{"x":7514767.8664029427,"y":3905579.199947387}},{"attributes":{"OBJECTID":1513,"ولایت":"غزنى","Province":"GHAZNI","PC_Code":"1114334","ولسوالي":"جاغوری","District":"JAGHURI","د_مرکز_نوم__نام_مرکز":"لیسه عالی شریفی","Polling_Center_Name":"Sharifi High School","د_مرکز_ځای__موقعیت_مرکز":"قریه حوت قول ","Polling_Center_Location":"Hatqool Village","Verification_Note":"Building","PS_Male":4,"PS_Female":2,"Map_Accuracy":"تعمیر"},"geometry":{"x":7515245.9201637916,"y":3886596.2984195575}},{"attributes":{"OBJECTID":1514,"ولایت":"غزنى","Province":"GHAZNI","PC_Code":"1115363","ولسوالي":"مقر","District":"MUQUR","د_مرکز_نوم__نام_مرکز":"مکتب سنگاسی","Polling_Center_Name":"Sangasi School","د_مرکز_ځای__موقعیت_مرکز":"قریه سینګاسی","Polling_Center_Location":"Sangasi Village","Verification_Note":"Village","PS_Male":2,"PS_Female":1,"Map_Accuracy":"قریه"},"geometry":{"x":7547282.936018642,"y":3894184.5112754852}},{"attributes":{"OBJECTID":1515,"ولایت":"غزنى","Province":"GHAZNI","PC_Code":"1115364","ولسوالي":"مقر","District":"MUQUR","د_مرکز_نوم__نام_مرکز":"مکتب لرگه","Polling_Center_Name":"Larga School","د_مرکز_ځای__موقعیت_مرکز":"قریه لړګه ","Polling_Center_Location":"Larrka Village","Verification_Note":"Village","PS_Male":2,"PS_Female":1,"Map_Accuracy":"قریه"},"geometry":{"x":7535723.5857731737,"y":3898785.367268756}},{"attributes":{"OBJECTID":1516,"ولایت":"غزنى","Province":"GHAZNI","PC_Code":"1116312","ولسوالي":"مالستان","District":"MALISTAN","د_مرکز_نوم__نام_مرکز":"مسجد عامه قریه اولوم بلخسان","Polling_Center_Name":"Ulom Balkhsan Village Public Mosque","د_مرکز_ځای__موقعیت_مرکز":"قریه اولوم بلخسان","Polling_Center_Location":"Ulom Balkhsan Village","Verification_Note":"Building","PS_Male":2,"PS_Female":1,"Map_Accuracy":"تعمیر"},"geometry":{"x":7507705.67553059,"y":3948629.0513629243}},{"attributes":{"OBJECTID":1517,"ولایت":"غزنى","Province":"GHAZNI","PC_Code":"1116313","ولسوالي":"مالستان","District":"MALISTAN","د_مرکز_نوم__نام_مرکز":"لیسه پای جلگه","Polling_Center_Name":"Pay Jalgah High school","د_مرکز_ځای__موقعیت_مرکز":"قریه پای جلګه","Polling_Center_Location":"Pay Jalga Village ","Verification_Note":"Building","PS_Male":3,"PS_Female":2,"Map_Accuracy":"تعمیر"},"geometry":{"x":7467802.9079459012,"y":3910877.3608852103}},{"attributes":{"OBJECTID":1518,"ولایت":"غزنى","Province":"GHAZNI","PC_Code":"1116318","ولسوالي":"مالستان","District":"MALISTAN","د_مرکز_نوم__نام_مرکز":"مسجد قریه قاره ورده مکنک","Polling_Center_Name":"Qara Warda Maknak Village Mosque","د_مرکز_ځای__موقعیت_مرکز":"قریه ورده مکنک ","Polling_Center_Location":"Warda Maknak Village","Verification_Note":"Building","PS_Male":2,"PS_Female":1,"Map_Accuracy":"تعمیر"},"geometry":{"x":7493247.3609169982,"y":3949232.8531369939}},{"attributes":{"OBJECTID":1519,"ولایت":"غزنى","Province":"GHAZNI","PC_Code":"1116319","ولسوالي":"مالستان","District":"MALISTAN","د_مرکز_نوم__نام_مرکز":"مسجد کهنه ده","Polling_Center_Name":"Kohnda Deh Mosque","د_مرکز_ځای__موقعیت_مرکز":"قریه بیچی لال ","Polling_Center_Location":"Bechi Lal Village","Verification_Note":"Building","PS_Male":2,"PS_Female":1,"Map_Accuracy":"تعمیر"},"geometry":{"x":7467571.1875202544,"y":3923784.110466443}},{"attributes":{"OBJECTID":1520,"ولایت":"غزنى","Province":"GHAZNI","PC_Code":"1117393","ولسوالي":"گیلان","District":"GELAN","د_مرکز_نوم__نام_مرکز":"مسجد قریه لوی کاریز","Polling_Center_Name":"Loy Kariz Village Mosque","د_مرکز_ځای__موقعیت_مرکز":"قریه لوی کاریز","Polling_Center_Location":"Loy Kariz Village","Verification_Note":"Village","PS_Male":2,"PS_Female":1,"Map_Accuracy":"قریه"},"geometry":{"x":7536253.1893638149,"y":3833978.536981754}},{"attributes":{"OBJECTID":1521,"ولایت":"غزنى","Province":"GHAZNI","PC_Code":"1117394","ولسوالي":"گیلان","District":"GELAN","د_مرکز_نوم__نام_مرکز":"مسجد قریه ازاد","Polling_Center_Name":"Azad Village Mosque","د_مرکز_ځای__موقعیت_مرکز":"قریه ازاد","Polling_Center_Location":"Azad Village ","Verification_Note":"Building","PS_Male":2,"PS_Female":1,"Map_Accuracy":"تعمیر"},"geometry":{"x":7538582.912610203,"y":3861916.6662093848}},{"attributes":{"OBJECTID":1522,"ولایت":"پکتيکا","Province":"PAKTIKA","PC_Code":"1201006","ولسوالي":"شرن","District":"SHARAN","د_مرکز_نوم__نام_مرکز":"جومات مسواس","Polling_Center_Name":"Maswas Mosque","د_مرکز_ځای__موقعیت_مرکز":"مسواس","Polling_Center_Location":"Maswas","Verification_Note":"Village","PS_Male":0,"PS_Female":2,"Map_Accuracy":"قریه"},"geometry":{"x":7651878.7440395392,"y":3925401.2840124518}},{"attributes":{"OBJECTID":1523,"ولایت":"پکتيکا","Province":"PAKTIKA","PC_Code":"1201007","ولسوالي":"شرن","District":"SHARAN","د_مرکز_نوم__نام_مرکز":"لومړنی ښوونځی مسواس","Polling_Center_Name":"Maswas Primary School","د_مرکز_ځای__موقعیت_مرکز":"څلی مسواس ","Polling_Center_Location":"Chalai Maswas","Verification_Note":"Village","PS_Male":2,"PS_Female":1,"Map_Accuracy":"قریه"},"geometry":{"x":7651859.8965365589,"y":3925545.5923975185}},{"attributes":{"OBJECTID":1524,"ولایت":"پکتيکا","Province":"PAKTIKA","PC_Code":"1201012","ولسوالي":"شرن","District":"SHARAN","د_مرکز_نوم__نام_مرکز":"میلمستون ملک احمدجان","Polling_Center_Name":"Malik Ahmad Jan Guest House","د_مرکز_ځای__موقعیت_مرکز":"دلاو","Polling_Center_Location":"Dulow","Verification_Note":"Village","PS_Male":0,"PS_Female":2,"Map_Accuracy":"قریه"},"geometry":{"x":7658149.1839391813,"y":3920963.9184639752}},{"attributes":{"OBJECTID":1525,"ولایت":"پکتيکا","Province":"PAKTIKA","PC_Code":"1201013","ولسوالي":"شرن","District":"SHARAN","د_مرکز_نوم__نام_مرکز":"جومات سپوانی","Polling_Center_Name":"Sepvani Mosque","د_مرکز_ځای__موقعیت_مرکز":"سپوانی","Polling_Center_Location":"Spavani","Verification_Note":"Building","PS_Male":2,"PS_Female":0,"Map_Accuracy":"تعمیر"},"geometry":{"x":7657308.1084133014,"y":3915271.979573071}},{"attributes":{"OBJECTID":1526,"ولایت":"پکتيکا","Province":"PAKTIKA","PC_Code":"1205286","ولسوالي":"سروضه ","District":"SAR RAWZA","د_مرکز_نوم__نام_مرکز":"مارزك ابتدائيه ښوونځي","Polling_Center_Name":"Marzak Primary School","د_مرکز_ځای__موقعیت_مرکز":"مارزک ","Polling_Center_Location":"Marzak","Verification_Note":"Village","PS_Male":0,"PS_Female":2,"Map_Accuracy":"قریه"},"geometry":{"x":7690471.636326775,"y":3914925.5315272287}},{"attributes":{"OBJECTID":1527,"ولایت":"پکتيکا","Province":"PAKTIKA","PC_Code":"1206066","ولسوالي":"اومنه","District":"OMNA","د_مرکز_نوم__نام_مرکز":"رﺍجى خیل جومات","Polling_Center_Name":"Raji Khel Mosque","د_مرکز_ځای__موقعیت_مرکز":"زواکہ","Polling_Center_Location":"Zawaka","Verification_Note":"Village","PS_Male":2,"PS_Female":1,"Map_Accuracy":"قریه"},"geometry":{"x":7659886.1620665528,"y":3891173.9630073458}},{"attributes":{"OBJECTID":1528,"ولایت":"پکتيکا","Province":"PAKTIKA","PC_Code":"1207102","ولسوالي":"زرغون شهر ","District":"ZARGHUN SHAHR","د_مرکز_نوم__نام_مرکز":"داودجان میلمستون","Polling_Center_Name":"Daoud Jan Guest House","د_مرکز_ځای__موقعیت_مرکز":"بک خیل","Polling_Center_Location":"Bak Khel","Verification_Note":"Village","PS_Male":0,"PS_Female":3,"Map_Accuracy":"قریه"},"geometry":{"x":7631672.0200519934,"y":3871306.3049055934}},{"attributes":{"OBJECTID":1529,"ولایت":"پکتيکا","Province":"PAKTIKA","PC_Code":"1207103","ولسوالي":"زرغون شهر ","District":"ZARGHUN SHAHR","د_مرکز_نوم__نام_مرکز":"شاه خیل جومات","Polling_Center_Name":"Shah Khel Mosque","د_مرکز_ځای__موقعیت_مرکز":"شاه خیل","Polling_Center_Location":"Shah Khel","Verification_Note":"Village","PS_Male":3,"PS_Female":0,"Map_Accuracy":"قریه"},"geometry":{"x":7630509.7555125132,"y":3871358.9150418341}},{"attributes":{"OBJECTID":1530,"ولایت":"پکتيکا","Province":"PAKTIKA","PC_Code":"1208131","ولسوالي":"گومل","District":"GOMAL","د_مرکز_نوم__نام_مرکز":"کمکی ګومل مولوی عباس ښوونځی ","Polling_Center_Name":"Mawlavi Abbas School, Kamky Gomal","د_مرکز_ځای__موقعیت_مرکز":"شادیزی کلې","Polling_Center_Location":"Shadezai Village","Verification_Note":"Building","PS_Male":3,"PS_Female":0,"Map_Accuracy":"تعمیر"},"geometry":{"x":7632693.7893753313,"y":3811295.1429656222}},{"attributes":{"OBJECTID":1531,"ولایت":"پکتيکا","Province":"PAKTIKA","PC_Code":"1208134","ولسوالي":"گومل","District":"GOMAL","د_مرکز_نوم__نام_مرکز":"شهید فیزوز ښوونځی ","Polling_Center_Name":"Shaheed Feroz School","د_مرکز_ځای__موقعیت_مرکز":"زاولو خیل","Polling_Center_Location":"Zavlo Khel","Verification_Note":"Village","PS_Male":0,"PS_Female":4,"Map_Accuracy":"قریه"},"geometry":{"x":7668818.1808597818,"y":3839337.0645192638}},{"attributes":{"OBJECTID":1532,"ولایت":"پکتيکا","Province":"PAKTIKA","PC_Code":"1208135","ولسوالي":"گومل","District":"GOMAL","د_مرکز_نوم__نام_مرکز":"امیر مدار میلمستون","Polling_Center_Name":"Amir Madar Guest House","د_مرکز_ځای__موقعیت_مرکز":"تابوت","Polling_Center_Location":"Tabot","Verification_Note":"Village","PS_Male":2,"PS_Female":0,"Map_Accuracy":"قریه"},"geometry":{"x":7674368.2177879475,"y":3861175.0037880838}},{"attributes":{"OBJECTID":1533,"ولایت":"پکتيکا","Province":"PAKTIKA","PC_Code":"1208137","ولسوالي":"گومل","District":"GOMAL","د_مرکز_نوم__نام_مرکز":"اپسینه د انجونو منځنی ښوونځی ","Polling_Center_Name":"Apsena Girls Secondary School","د_مرکز_ځای__موقعیت_مرکز":"اﺳﭙینه","Polling_Center_Location":"Apsena","Verification_Note":"District","PS_Male":0,"PS_Female":2,"Map_Accuracy":"ولسوالی"},"geometry":{"x":7712873.2266767845,"y":3759877.2509514838}},{"attributes":{"OBJECTID":1534,"ولایت":"پکتيکا","Province":"PAKTIKA","PC_Code":"1210149","ولسوالي":"سروبی","District":"SURUBI","د_مرکز_نوم__نام_مرکز":"خانی قلعه جومات","Polling_Center_Name":"Khani Qala Mosque","د_مرکز_ځای__موقعیت_مرکز":"خانی قلعه","Polling_Center_Location":"Khani Kala","Verification_Note":"Village","PS_Male":2,"PS_Female":0,"Map_Accuracy":"قریه"},"geometry":{"x":7683399.8764309995,"y":3866956.8016562909}},{"attributes":{"OBJECTID":1535,"ولایت":"پکتيکا","Province":"PAKTIKA","PC_Code":"1210150","ولسوالي":"سروبی","District":"SURUBI","د_مرکز_نوم__نام_مرکز":"پایندی جومات","Polling_Center_Name":"Payandi Mosque","د_مرکز_ځای__موقعیت_مرکز":"خانی قلعه","Polling_Center_Location":"Khani Kala","Verification_Note":"Village","PS_Male":0,"PS_Female":3,"Map_Accuracy":"قریه"},"geometry":{"x":7693404.3883867413,"y":3858516.7017326653}},{"attributes":{"OBJECTID":1536,"ولایت":"پکتيکا","Province":"PAKTIKA","PC_Code":"1211161","ولسوالي":"اورگون","District":"URGOON","د_مرکز_نوم__نام_مرکز":"بالش ښوونځی ","Polling_Center_Name":"Balish School","د_مرکز_ځای__موقعیت_مرکز":"بالش ولسوالی مرکز","Polling_Center_Location":"Balish District Center","Verification_Note":"Building","PS_Male":3,"PS_Female":0,"Map_Accuracy":"تعمیر"},"geometry":{"x":7700881.23656993,"y":3887406.102348581}},{"attributes":{"OBJECTID":1537,"ولایت":"پکتيکا","Province":"PAKTIKA","PC_Code":"1211162","ولسوالي":"اورگون","District":"URGOON","د_مرکز_نوم__نام_مرکز":"برکت نجونو ښوونځی ","Polling_Center_Name":"Barakat Girls School","د_مرکز_ځای__موقعیت_مرکز":"بالش ولسوالی مرکز","Polling_Center_Location":"Balish District Center","Verification_Note":"Building","PS_Male":0,"PS_Female":3,"Map_Accuracy":"تعمیر"},"geometry":{"x":7701025.0825027339,"y":3887377.5362017676}},{"attributes":{"OBJECTID":1538,"ولایت":"پکتيکا","Province":"PAKTIKA","PC_Code":"1211175","ولسوالي":"اورگون","District":"URGOON","د_مرکز_نوم__نام_مرکز":"نورلی ښوونځی ","Polling_Center_Name":"Noorli School","د_مرکز_ځای__موقعیت_مرکز":"نورﷲ کلی","Polling_Center_Location":"Noorullah Village","Verification_Note":"Village","PS_Male":2,"PS_Female":0,"Map_Accuracy":"قریه"},"geometry":{"x":7696477.6234176941,"y":3877470.5535141006}},{"attributes":{"OBJECTID":1539,"ولایت":"پکتيکا","Province":"PAKTIKA","PC_Code":"1211176","ولسوالي":"اورگون","District":"URGOON","د_مرکز_نوم__نام_مرکز":"حاجی میلمستون","Polling_Center_Name":"Haji Guest House","د_مرکز_ځای__موقعیت_مرکز":"نورﷲ کلی","Polling_Center_Location":"Noorullah Village","Verification_Note":"Village","PS_Male":0,"PS_Female":2,"Map_Accuracy":"قریه"},"geometry":{"x":7696180.4827537052,"y":3877249.0554312691}},{"attributes":{"OBJECTID":1540,"ولایت":"پکتيکا","Province":"PAKTIKA","PC_Code":"1212195","ولسوالي":"زیړوک","District":"ZIRUK","د_مرکز_نوم__نام_مرکز":"وار زانه نجونو ښوونځی","Polling_Center_Name":"War Zana Girls School","د_مرکز_ځای__موقعیت_مرکز":"سرو میدان","Polling_Center_Location":"Sro Maidan","Verification_Note":"Village","PS_Male":2,"PS_Female":0,"Map_Accuracy":"قریه"},"geometry":{"x":7708643.1973461322,"y":3911613.1442825273}},{"attributes":{"OBJECTID":1541,"ولایت":"پکتيکا","Province":"PAKTIKA","PC_Code":"1212196","ولسوالي":"زیړوک","District":"ZIRUK","د_مرکز_نوم__نام_مرکز":"شاه اغاه جومات","Polling_Center_Name":"Shah Agha Mosque","د_مرکز_ځای__موقعیت_مرکز":"وار زانه","Polling_Center_Location":"Var Zana","Verification_Note":"Village","PS_Male":0,"PS_Female":2,"Map_Accuracy":"قریه"},"geometry":{"x":7706523.8478998393,"y":3904950.7411212325}},{"attributes":{"OBJECTID":1542,"ولایت":"پکتيکا","Province":"PAKTIKA","PC_Code":"1214250","ولسوالي":"برمل","District":"BARMAL","د_مرکز_نوم__نام_مرکز":"نواب کلینیک","Polling_Center_Name":"Nawab Clinic","د_مرکز_ځای__موقعیت_مرکز":"د ولسوالی مرکز","Polling_Center_Location":"District Center","Verification_Note":"Village","PS_Male":0,"PS_Female":3,"Map_Accuracy":"قریه"},"geometry":{"x":7711336.5857842155,"y":3831666.2491141111}},{"attributes":{"OBJECTID":1543,"ولایت":"پکتيکا","Province":"PAKTIKA","PC_Code":"1214251","ولسوالي":"برمل","District":"BARMAL","د_مرکز_نوم__نام_مرکز":"فاروقیه ښوونځی ","Polling_Center_Name":"Faroqia School","د_مرکز_ځای__موقعیت_مرکز":"فاروقیه","Polling_Center_Location":"Faroqia","Verification_Note":"Building","PS_Male":4,"PS_Female":0,"Map_Accuracy":"تعمیر"},"geometry":{"x":7709537.4891545922,"y":3834459.0018520206}},{"attributes":{"OBJECTID":1544,"ولایت":"پکتيکا","Province":"PAKTIKA","PC_Code":"1217220","ولسوالي":"وازه خواه","District":"WAZAKHWAH","د_مرکز_نوم__نام_مرکز":"د مشوری کلی جومات","Polling_Center_Name":"Mashori Village Mosque","د_مرکز_ځای__موقعیت_مرکز":"ماشوری کلی","Polling_Center_Location":"Mashori Village","Verification_Note":"Village","PS_Male":0,"PS_Female":4,"Map_Accuracy":"قریه"},"geometry":{"x":7604787.8765592352,"y":3761225.7898018658}},{"attributes":{"OBJECTID":1545,"ولایت":"پکتيکا","Province":"PAKTIKA","PC_Code":"1217221","ولسوالي":"وازه خواه","District":"WAZAKHWAH","د_مرکز_نوم__نام_مرکز":"مرجان جومات","Polling_Center_Name":"Marjan Mosque","د_مرکز_ځای__موقعیت_مرکز":"مرجان کلی","Polling_Center_Location":"Marjan Village","Verification_Note":"Village","PS_Male":4,"PS_Female":0,"Map_Accuracy":"قریه"},"geometry":{"x":7598585.8424866907,"y":3787630.9000362679}},{"attributes":{"OBJECTID":1546,"ولایت":"پکتيکا","Province":"PAKTIKA","PC_Code":"1217230","ولسوالي":"وازه خواه","District":"WAZAKHWAH","د_مرکز_نوم__نام_مرکز":"میراج جماعت","Polling_Center_Name":"Hamidullah Guest House","د_مرکز_ځای__موقعیت_مرکز":"گلالبی","Polling_Center_Location":"Gulalabi","Verification_Note":"Village","PS_Male":5,"PS_Female":0,"Map_Accuracy":"قریه"},"geometry":{"x":7604106.0914323144,"y":3787063.8814801648}},{"attributes":{"OBJECTID":1547,"ولایت":"پکتيکا","Province":"PAKTIKA","PC_Code":"1218237","ولسوالي":"وړممی","District":"WOR MAMY","د_مرکز_نوم__نام_مرکز":"ولسوالی مرکز","Polling_Center_Name":"District Compound","د_مرکز_ځای__موقعیت_مرکز":"وور","Polling_Center_Location":"Wowr","Verification_Note":"Building","PS_Male":4,"PS_Female":0,"Map_Accuracy":"تعمیر"},"geometry":{"x":7645040.9031293541,"y":3775122.3277141228}},{"attributes":{"OBJECTID":1548,"ولایت":"پکتيکا","Province":"PAKTIKA","PC_Code":"1218238","ولسوالي":"وړممی","District":"WOR MAMY","د_مرکز_نوم__نام_مرکز":"کلینیک","Polling_Center_Name":"Clinic","د_مرکز_ځای__موقعیت_مرکز":"وور","Polling_Center_Location":"Wowr","Verification_Note":"Building","PS_Male":0,"PS_Female":3,"Map_Accuracy":"تعمیر"},"geometry":{"x":7644690.9970267229,"y":3775201.6154093295}},{"attributes":{"OBJECTID":1549,"ولایت":"پکتيا","Province":"PAKTYA","PC_Code":"1301011","ولسوالي":"گردیز","District":"GARDEZ","د_مرکز_نوم__نام_مرکز":"خدایداد خیلو لیسه","Polling_Center_Name":"Khudaidad Khel High School","د_مرکز_ځای__موقعیت_مرکز":"دولت زی ","Polling_Center_Location":"Dawlatzai","Verification_Note":"Building","PS_Male":2,"PS_Female":2,"Map_Accuracy":"تعمیر"},"geometry":{"x":7707006.3388555869,"y":3973012.4331006557}},{"attributes":{"OBJECTID":1550,"ولایت":"پکتيا","Province":"PAKTYA","PC_Code":"1301012","ولسوالي":"گردیز","District":"GARDEZ","د_مرکز_نوم__نام_مرکز":"مکتب بالا ده","Polling_Center_Name":"Bala Deh School","د_مرکز_ځای__موقعیت_مرکز":" بالا ده","Polling_Center_Location":"Bala Deh","Verification_Note":"Building","PS_Male":3,"PS_Female":2,"Map_Accuracy":"تعمیر"},"geometry":{"x":7713029.1975285262,"y":3978492.77073811}},{"attributes":{"OBJECTID":1551,"ولایت":"پکتيا","Province":"PAKTYA","PC_Code":"1302196","ولسوالي":"احمد آبا","District":"AHMADABA","د_مرکز_نوم__نام_مرکز":"د مچلغو کلینیک","Polling_Center_Name":"Machalgho Clinic","د_مرکز_ځای__موقعیت_مرکز":"مچلغو","Polling_Center_Location":"Machalgho","Verification_Note":"Village","PS_Male":2,"PS_Female":2,"Map_Accuracy":"قریه"},"geometry":{"x":7723372.3188849837,"y":3996447.6927311346}},{"attributes":{"OBJECTID":1552,"ولایت":"پکتيا","Province":"PAKTYA","PC_Code":"1302197","ولسوالي":"احمد آبا","District":"AHMADABA","د_مرکز_نوم__نام_مرکز":"د مموزیو منځنی ښوونځی","Polling_Center_Name":"Mamozo Secondary School","د_مرکز_ځای__موقعیت_مرکز":"مموزی","Polling_Center_Location":"Mamozay","Verification_Note":"Building","PS_Male":3,"PS_Female":1,"Map_Accuracy":"تعمیر"},"geometry":{"x":7726606.4573343173,"y":3994542.7392663434}},{"attributes":{"OBJECTID":1553,"ولایت":"پکتيا","Province":"PAKTYA","PC_Code":"1303086","ولسوالي":"زرمت","District":"ZURMAT","د_مرکز_نوم__نام_مرکز":"د اتا گل مسجد","Polling_Center_Name":"Ataa Gul Mosque","د_مرکز_ځای__موقعیت_مرکز":"سهاک","Polling_Center_Location":"Sahak","Verification_Note":"Village","PS_Male":0,"PS_Female":2,"Map_Accuracy":"قریه"},"geometry":{"x":7686136.7752052471,"y":3966539.15129894}},{"attributes":{"OBJECTID":1554,"ولایت":"پکتيا","Province":"PAKTYA","PC_Code":"1303087","ولسوالي":"زرمت","District":"ZURMAT","د_مرکز_نوم__نام_مرکز":"دولت خان مسجد ","Polling_Center_Name":"Dawlat Khan Mosque","د_مرکز_ځای__موقعیت_مرکز":"کولالگو","Polling_Center_Location":"Kolalgo","Verification_Note":"Village","PS_Male":2,"PS_Female":1,"Map_Accuracy":"قریه"},"geometry":{"x":7668581.9686926827,"y":3955769.1399144903}},{"attributes":{"OBJECTID":1555,"ولایت":"پکتيا","Province":"PAKTYA","PC_Code":"1303091","ولسوالي":"زرمت","District":"ZURMAT","د_مرکز_نوم__نام_مرکز":"د دولت زویو لیسه","Polling_Center_Name":"Dawlat Zo High School","د_مرکز_ځای__موقعیت_مرکز":" مکاوه دولت زای","Polling_Center_Location":"Makawa Dawlatzai","Verification_Note":"Village","PS_Male":1,"PS_Female":1,"Map_Accuracy":"قریه"},"geometry":{"x":7675004.4921674505,"y":3957763.9052848145}},{"attributes":{"OBJECTID":1556,"ولایت":"پکتيا","Province":"PAKTYA","PC_Code":"1303092","ولسوالي":"زرمت","District":"ZURMAT","د_مرکز_نوم__نام_مرکز":"د نوی کوهی مسجد","Polling_Center_Name":"Nawi Kohi Mosque","د_مرکز_ځای__موقعیت_مرکز":" گلدت خیل","Polling_Center_Location":"Guldat Khel","Verification_Note":"Village","PS_Male":2,"PS_Female":0,"Map_Accuracy":"قریه"},"geometry":{"x":7678363.9730238393,"y":3953423.5680662021}},{"attributes":{"OBJECTID":1557,"ولایت":"پکتيا","Province":"PAKTYA","PC_Code":"1303094","ولسوالي":"زرمت","District":"ZURMAT","د_مرکز_نوم__نام_مرکز":"مکتب سورکی","Polling_Center_Name":"Sorkai School","د_مرکز_ځای__موقعیت_مرکز":"سورکی","Polling_Center_Location":"Sorkai","Verification_Note":"Building","PS_Male":0,"PS_Female":2,"Map_Accuracy":"تعمیر"},"geometry":{"x":7702046.7560913153,"y":3943326.6308739483}},{"attributes":{"OBJECTID":1558,"ولایت":"پکتيا","Province":"PAKTYA","PC_Code":"1303095","ولسوالي":"زرمت","District":"ZURMAT","د_مرکز_نوم__نام_مرکز":"سالح خیل شاه محمد هجره","Polling_Center_Name":"Saleh Khel Shah Mohammad Hojra","د_مرکز_ځای__موقعیت_مرکز":"سورکی","Polling_Center_Location":"Sorkai","Verification_Note":"Village","PS_Male":3,"PS_Female":0,"Map_Accuracy":"قریه"},"geometry":{"x":7696493.0834685788,"y":3943031.535068199}},{"attributes":{"OBJECTID":1559,"ولایت":"پکتيا","Province":"PAKTYA","PC_Code":"1306039","ولسوالي":"سید کرم","District":"SAYYID KARAM","د_مرکز_نوم__نام_مرکز":"د کلگر مکتب","Polling_Center_Name":"Kalgar School","د_مرکز_ځای__موقعیت_مرکز":" کلگر","Polling_Center_Location":"Kalgar","Verification_Note":"Building","PS_Male":0,"PS_Female":2,"Map_Accuracy":"تعمیر"},"geometry":{"x":7732062.7209498324,"y":3986059.799934}},{"attributes":{"OBJECTID":1560,"ولایت":"پکتيا","Province":"PAKTYA","PC_Code":"1306040","ولسوالي":"سید کرم","District":"SAYYID KARAM","د_مرکز_نوم__نام_مرکز":"مچ مسجد","Polling_Center_Name":"Moch Mossque","د_مرکز_ځای__موقعیت_مرکز":"مچ","Polling_Center_Location":"Moch","Verification_Note":"Building","PS_Male":2,"PS_Female":1,"Map_Accuracy":"تعمیر"},"geometry":{"x":7725661.86247436,"y":3983067.2040973082}},{"attributes":{"OBJECTID":1561,"ولایت":"پکتيا","Province":"PAKTYA","PC_Code":"1307054","ولسوالي":"ځاځی اریوب","District":"JAJI ARYOB","د_مرکز_نوم__نام_مرکز":"مصری خیلو مسجد ","Polling_Center_Name":"Miseri Khel Mosque","د_مرکز_ځای__موقعیت_مرکز":"علی خیل","Polling_Center_Location":"Ali Khel","Verification_Note":"Building","PS_Male":0,"PS_Female":4,"Map_Accuracy":"تعمیر"},"geometry":{"x":7760528.00864118,"y":4021371.8672759011}},{"attributes":{"OBJECTID":1562,"ولایت":"پکتيا","Province":"PAKTYA","PC_Code":"1307055","ولسوالي":"ځاځی اریوب","District":"JAJI ARYOB","د_مرکز_نوم__نام_مرکز":"د ماری خیلو مکتب","Polling_Center_Name":"Maari Khel School","د_مرکز_ځای__موقعیت_مرکز":"مری خیل","Polling_Center_Location":"Mari Khel","Verification_Note":"Building","PS_Male":4,"PS_Female":0,"Map_Accuracy":"تعمیر"},"geometry":{"x":7755848.2441149428,"y":4024401.2654667497}},{"attributes":{"OBJECTID":1563,"ولایت":"پکتيا","Province":"PAKTYA","PC_Code":"1307065","ولسوالي":"ځاځی اریوب","District":"JAJI ARYOB","د_مرکز_نوم__نام_مرکز":"محمد الله مکتب","Polling_Center_Name":"Mohammadullah School","د_مرکز_ځای__موقعیت_مرکز":"بلاووټ","Polling_Center_Location":"Belawott","Verification_Note":"Building","PS_Male":4,"PS_Female":2,"Map_Accuracy":"تعمیر"},"geometry":{"x":7771881.7072593644,"y":4027188.5091302097}},{"attributes":{"OBJECTID":1564,"ولایت":"پکتيا","Province":"PAKTYA","PC_Code":"1307067","ولسوالي":"ځاځی اریوب","District":"JAJI ARYOB","د_مرکز_نوم__نام_مرکز":"د میر محمد دکان","Polling_Center_Name":"Mir Mohammad Shop","د_مرکز_ځای__موقعیت_مرکز":"خوازی خیل","Polling_Center_Location":"Khawazi Khel","Verification_Note":"Building","PS_Male":3,"PS_Female":0,"Map_Accuracy":"تعمیر"},"geometry":{"x":7764022.781640701,"y":4022433.8604980931}},{"attributes":{"OBJECTID":1565,"ولایت":"پکتيا","Province":"PAKTYA","PC_Code":"1307071","ولسوالي":"ځاځی اریوب","District":"JAJI ARYOB","د_مرکز_نوم__نام_مرکز":"د امام اعظم مکتب","Polling_Center_Name":"Imam-e-Azam School","د_مرکز_ځای__موقعیت_مرکز":"علی سنگئ","Polling_Center_Location":"Ali Sangi","Verification_Note":"Building","PS_Male":3,"PS_Female":1,"Map_Accuracy":"تعمیر"},"geometry":{"x":7767707.535822805,"y":4026502.1779286191}},{"attributes":{"OBJECTID":1566,"ولایت":"پکتيا","Province":"PAKTYA","PC_Code":"1307073","ولسوالي":"ځاځی اریوب","District":"JAJI ARYOB","د_مرکز_نوم__نام_مرکز":"د صبیل کور","Polling_Center_Name":"Sabil House","د_مرکز_ځای__موقعیت_مرکز":"غونزی احمدخیل","Polling_Center_Location":"Ghonzai Ahmad Khel","Verification_Note":"Building","PS_Male":3,"PS_Female":1,"Map_Accuracy":"تعمیر"},"geometry":{"x":7766505.2151909582,"y":4023322.9785502926}},{"attributes":{"OBJECTID":1567,"ولایت":"پکتيا","Province":"PAKTYA","PC_Code":"1307211","ولسوالي":"ځاځی اریوب","District":"JAJI ARYOB","د_مرکز_نوم__نام_مرکز":"سرواڼ خيل مكتب","Polling_Center_Name":"Sarwan Khel School","د_مرکز_ځای__موقعیت_مرکز":"سرواڼ خيل","Polling_Center_Location":"Sarwan Khel","Verification_Note":"Village","PS_Male":1,"PS_Female":1,"Map_Accuracy":"قریه"},"geometry":{"x":7756422.30871021,"y":4022446.2096500695}},{"attributes":{"OBJECTID":1568,"ولایت":"پکتيا","Province":"PAKTYA","PC_Code":"1307212","ولسوالي":"ځاځی اریوب","District":"JAJI ARYOB","د_مرکز_نوم__نام_مرکز":"دخيرمني مكتب","Polling_Center_Name":"Khair Meni School","د_مرکز_ځای__موقعیت_مرکز":"خيرمنه","Polling_Center_Location":"Khair Mena","Verification_Note":"Building","PS_Male":1,"PS_Female":1,"Map_Accuracy":"تعمیر"},"geometry":{"x":7758082.892723836,"y":4015923.5331729725}},{"attributes":{"OBJECTID":1569,"ولایت":"پکتيا","Province":"PAKTYA","PC_Code":"1307214","ولسوالي":"ځاځی اریوب","District":"JAJI ARYOB","د_مرکز_نوم__نام_مرکز":"دشګي مكتب","Polling_Center_Name":"Shagay School","د_مرکز_ځای__موقعیت_مرکز":" شګه","Polling_Center_Location":"Shaga","Verification_Note":"Building","PS_Male":1,"PS_Female":2,"Map_Accuracy":"تعمیر"},"geometry":{"x":7758079.5965537131,"y":4020982.3604957238}},{"attributes":{"OBJECTID":1570,"ولایت":"پکتيا","Province":"PAKTYA","PC_Code":"1307215","ولسوالي":"ځاځی اریوب","District":"JAJI ARYOB","د_مرکز_نوم__نام_مرکز":"د علی سنګیو کلینیک","Polling_Center_Name":"Ali Sangayo Cilnic","د_مرکز_ځای__موقعیت_مرکز":"علی سنګی پایان","Polling_Center_Location":"Ali Sangi","Verification_Note":"Village","PS_Male":2,"PS_Female":1,"Map_Accuracy":"قریه"},"geometry":{"x":7767200.6759173162,"y":4024618.2121014521}},{"attributes":{"OBJECTID":1571,"ولایت":"پکتيا","Province":"PAKTYA","PC_Code":"1310168","ولسوالي":"څمکنی","District":"SAMKANI","د_مرکز_نوم__نام_مرکز":"بابلو خیلو مکتب","Polling_Center_Name":"Bablo Khel School","د_مرکز_ځای__موقعیت_مرکز":"توشی کلی","Polling_Center_Location":"Toshi Village","Verification_Note":"Building","PS_Male":4,"PS_Female":0,"Map_Accuracy":"تعمیر"},"geometry":{"x":7779188.0585104488,"y":4002024.3695845604}},{"attributes":{"OBJECTID":1572,"ولایت":"پکتيا","Province":"PAKTYA","PC_Code":"1310169","ولسوالي":"څمکنی","District":"SAMKANI","د_مرکز_نوم__نام_مرکز":" بابو خیلو مکتب","Polling_Center_Name":"Babo Khel School","د_مرکز_ځای__موقعیت_مرکز":"بابو خیل ","Polling_Center_Location":"Babo Khel","Verification_Note":"Village","PS_Male":0,"PS_Female":4,"Map_Accuracy":"قریه"},"geometry":{"x":7776172.9111029916,"y":4001531.8277933151}},{"attributes":{"OBJECTID":1573,"ولایت":"پکتيا","Province":"PAKTYA","PC_Code":"1312144","ولسوالي":"لجه منګل","District":"LAJA MANGAL","د_مرکز_نوم__نام_مرکز":"ولسوالی تعمیر ","Polling_Center_Name":"District Compound","د_مرکز_ځای__موقعیت_مرکز":"لجه خوله، لجه منګل","Polling_Center_Location":"Laja Khola, Laja Mangal ","Verification_Note":"Village","PS_Male":2,"PS_Female":0,"Map_Accuracy":"قریه"},"geometry":{"x":7757716.0415683165,"y":4001380.8298377618}},{"attributes":{"OBJECTID":1574,"ولایت":"پکتيا","Province":"PAKTYA","PC_Code":"1312145","ولسوالي":"لجه منګل","District":"LAJA MANGAL","د_مرکز_نوم__نام_مرکز":"د ارام مسجد ","Polling_Center_Name":"Araam Mosque","د_مرکز_ځای__موقعیت_مرکز":"ارام کلی، لجه منګل","Polling_Center_Location":"Araam Village, Laja Mangal ","Verification_Note":"Village","PS_Male":0,"PS_Female":2,"Map_Accuracy":"قریه"},"geometry":{"x":7752002.3697754182,"y":3988850.4547396749}},{"attributes":{"OBJECTID":1575,"ولایت":"پکتيا","Province":"PAKTYA","PC_Code":"1313205","ولسوالي":"میرزکه","District":"MEERZAKA","د_مرکز_نوم__نام_مرکز":"دغونزي مسجد","Polling_Center_Name":"Ghonzai Mosque","د_مرکز_ځای__موقعیت_مرکز":"غونزی، میرزکه","Polling_Center_Location":"Ghonzai, Merzaka","Verification_Note":"Village","PS_Male":1,"PS_Female":1,"Map_Accuracy":"قریه"},"geometry":{"x":7738401.4831869453,"y":4001995.3709724769}},{"attributes":{"OBJECTID":1576,"ولایت":"خوست","Province":"KHOST","PC_Code":"1401001","ولسوالي":"خوست","District":"KHOST","د_مرکز_نوم__نام_مرکز":"د شمل زوړ کلي جومات (نورزى)","Polling_Center_Name":"Shamul Old Village Mosque (Noorzai)","د_مرکز_ځای__موقعیت_مرکز":"شمل زوړ کلى","Polling_Center_Location":"Shamal Old Village","Verification_Note":"Building","PS_Male":3,"PS_Female":2,"Map_Accuracy":"تعمیر"},"geometry":{"x":7790419.4615360536,"y":3937859.770576179}},{"attributes":{"OBJECTID":1577,"ولایت":"پکتيا","Province":"PAKTYA","PC_Code":"1303099","ولسوالي":"زرمت","District":"ZURMAT","د_مرکز_نوم__نام_مرکز":"د زوړ کوهی مدرسه","Polling_Center_Name":"Zor Kohi Madrassa","د_مرکز_ځای__موقعیت_مرکز":"زوړ کوهئ","Polling_Center_Location":"Zor Kohi","Verification_Note":"Village","PS_Male":0,"PS_Female":2,"Map_Accuracy":"قریه"},"geometry":{"x":7682961.5637283623,"y":3956540.2022393346}},{"attributes":{"OBJECTID":1578,"ولایت":"کندز","Province":"KUNDUZ","PC_Code":"1904165","ولسوالي":"خان آباد","District":"KHAN ABAD","د_مرکز_نوم__نام_مرکز":"مکتب لغمانی","Polling_Center_Name":"Laghmani School","د_مرکز_ځای__موقعیت_مرکز":"قریه لغمانی","Polling_Center_Location":"Laghmani Village","Verification_Note":"Village","PS_Male":1,"PS_Female":1,"Map_Accuracy":"قریه"},"geometry":{"x":7685319.5331823491,"y":4408371.8599342257}},{"attributes":{"OBJECTID":1579,"ولایت":"کندز","Province":"KUNDUZ","PC_Code":"1905202","ولسوالي":"حضرت امام صاحب","District":"HAZRAT-E-IMAM SAHIB","د_مرکز_نوم__نام_مرکز":"مسجد استامنگ","Polling_Center_Name":"Astaamang Mosque","د_مرکز_ځای__موقعیت_مرکز":"قریه استا مینگ","Polling_Center_Location":"Astameng Village","Verification_Note":"Village","PS_Male":3,"PS_Female":1,"Map_Accuracy":"قریه"},"geometry":{"x":7670158.04117528,"y":4464345.7124862671}},{"attributes":{"OBJECTID":1580,"ولایت":"نورستان","Province":"NOORISTAN","PC_Code":"1603042","ولسوالي":"واما","District":"WAMA","د_مرکز_نوم__نام_مرکز":"مکتب واما قدیم","Polling_Center_Name":"Wama Qadeem School","د_مرکز_ځای__موقعیت_مرکز":"واما قدیم","Polling_Center_Location":"Wama Wadeem","Verification_Note":"Village","PS_Male":2,"PS_Female":1,"Map_Accuracy":"قریه"},"geometry":{"x":7875236.0391307175,"y":4180090.4088413939}},{"attributes":{"OBJECTID":1581,"ولایت":"پکتيا","Province":"PAKTYA","PC_Code":"1301014","ولسوالي":"گردیز","District":"GARDEZ","د_مرکز_نوم__نام_مرکز":"د رمضان خیمه","Polling_Center_Name":"Ramazan Tent","د_مرکز_ځای__موقعیت_مرکز":"ممړی ","Polling_Center_Location":"Mamri","Verification_Note":"Building","PS_Male":1,"PS_Female":1,"Map_Accuracy":"تعمیر"},"geometry":{"x":7710235.308740966,"y":3974883.3104034364}},{"attributes":{"OBJECTID":1582,"ولایت":"پکتيا","Province":"PAKTYA","PC_Code":"1301015","ولسوالي":"گردیز","District":"GARDEZ","د_مرکز_نوم__نام_مرکز":"د مرجان خیمه ","Polling_Center_Name":"Marjaan Tent","د_مرکز_ځای__موقعیت_مرکز":"گلوال تیره","Polling_Center_Location":"Glowal Tera","Verification_Note":"Village","PS_Male":1,"PS_Female":1,"Map_Accuracy":"قریه"},"geometry":{"x":7709170.14040095,"y":3980892.0090198815}},{"attributes":{"OBJECTID":1583,"ولایت":"پکتيا","Province":"PAKTYA","PC_Code":"1301018","ولسوالي":"گردیز","District":"GARDEZ","د_مرکز_نوم__نام_مرکز":"د مالداری خیمه","Polling_Center_Name":"Maldaari Tent","د_مرکز_ځای__موقعیت_مرکز":"لکړئ","Polling_Center_Location":"Lakri","Verification_Note":"Village","PS_Male":2,"PS_Female":1,"Map_Accuracy":"قریه"},"geometry":{"x":7708003.2238199487,"y":3970886.4092937335}},{"attributes":{"OBJECTID":1584,"ولایت":"پکتيا","Province":"PAKTYA","PC_Code":"1301201","ولسوالي":"گردیز","District":"GARDEZ","د_مرکز_نوم__نام_مرکز":"دبنوزو ابتدائيه مكتب","Polling_Center_Name":"Banozo Primary School","د_مرکز_ځای__موقعیت_مرکز":"بنوزي","Polling_Center_Location":"Banozai","Verification_Note":"Building","PS_Male":2,"PS_Female":1,"Map_Accuracy":"تعمیر"},"geometry":{"x":7711469.3008811362,"y":3968831.7016156539}},{"attributes":{"OBJECTID":1585,"ولایت":"پکتيا","Province":"PAKTYA","PC_Code":"1302191","ولسوالي":"احمد آبا","District":"AHMADABA","د_مرکز_نوم__نام_مرکز":"سلام خیل مکتب","Polling_Center_Name":"Salam Khel School","د_مرکز_ځای__موقعیت_مرکز":"سلام خیل","Polling_Center_Location":"Salam Khel","Verification_Note":"Village","PS_Male":5,"PS_Female":0,"Map_Accuracy":"قریه"},"geometry":{"x":7718292.8160860576,"y":3984880.9432245418}},{"attributes":{"OBJECTID":1586,"ولایت":"پکتيا","Province":"PAKTYA","PC_Code":"1302192","ولسوالي":"احمد آبا","District":"AHMADABA","د_مرکز_نوم__نام_مرکز":"سرکی ملنګ کلینیک","Polling_Center_Name":"Sarkay Malang Clinic","د_مرکز_ځای__موقعیت_مرکز":"سلام خیل","Polling_Center_Location":"Salam Khel","Verification_Note":"Building","PS_Male":0,"PS_Female":4,"Map_Accuracy":"تعمیر"},"geometry":{"x":7721159.0313731842,"y":3996381.4878442064}},{"attributes":{"OBJECTID":1587,"ولایت":"پکتيا","Province":"PAKTYA","PC_Code":"1303079","ولسوالي":"زرمت","District":"ZURMAT","د_مرکز_نوم__نام_مرکز":"د باتور لیسه","Polling_Center_Name":"Batoor High School","د_مرکز_ځای__موقعیت_مرکز":"باتور","Polling_Center_Location":"Batoor","Verification_Note":"Village","PS_Male":2,"PS_Female":0,"Map_Accuracy":"قریه"},"geometry":{"x":7689233.9962468892,"y":3958368.4440070689}},{"attributes":{"OBJECTID":1588,"ولایت":"پکتيا","Province":"PAKTYA","PC_Code":"1303080","ولسوالي":"زرمت","District":"ZURMAT","د_مرکز_نوم__نام_مرکز":"د مقرب خیلو مدرسه","Polling_Center_Name":"Maqarab Khel Madrassa","د_مرکز_ځای__موقعیت_مرکز":"مقرب خیل، باتور","Polling_Center_Location":"Maqarab Khel, Batoor","Verification_Note":"Building","PS_Male":0,"PS_Female":2,"Map_Accuracy":"تعمیر"},"geometry":{"x":7689046.5620542616,"y":3959512.20220311}},{"attributes":{"OBJECTID":1589,"ولایت":"پکتيا","Province":"PAKTYA","PC_Code":"1303106","ولسوالي":"زرمت","District":"ZURMAT","د_مرکز_نوم__نام_مرکز":"د مامو زیو کلینیک","Polling_Center_Name":"Mamozo Clinic","د_مرکز_ځای__موقعیت_مرکز":" ارمه جانیک خیل","Polling_Center_Location":"Arma Janik Khel","Verification_Note":"Village","PS_Male":0,"PS_Female":2,"Map_Accuracy":"قریه"},"geometry":{"x":7696465.1433895864,"y":3958942.1260365918}},{"attributes":{"OBJECTID":1590,"ولایت":"پکتيا","Province":"PAKTYA","PC_Code":"1303107","ولسوالي":"زرمت","District":"ZURMAT","د_مرکز_نوم__نام_مرکز":"د جانیک خیلو مسجد","Polling_Center_Name":"Janik Khel Mosque","د_مرکز_ځای__موقعیت_مرکز":"ارمه جانیک خیل","Polling_Center_Location":"Arma Janik Khel","Verification_Note":"Village","PS_Male":2,"PS_Female":0,"Map_Accuracy":"قریه"},"geometry":{"x":7695504.5964465961,"y":3959870.722207725}},{"attributes":{"OBJECTID":1591,"ولایت":"پکتيا","Province":"PAKTYA","PC_Code":"1305117","ولسوالي":"وزه ځدراڼ","District":"WUZA ZADRAN","د_مرکز_نوم__نام_مرکز":"د گل ولی خیمه","Polling_Center_Name":"Gul Wali Tent","د_مرکز_ځای__موقعیت_مرکز":"لوټه","Polling_Center_Location":"Lotta","Verification_Note":"Village","PS_Male":0,"PS_Female":2,"Map_Accuracy":"قریه"},"geometry":{"x":7731134.9843135588,"y":3944354.1342838332}},{"attributes":{"OBJECTID":1592,"ولایت":"پکتيا","Province":"PAKTYA","PC_Code":"1305118","ولسوالي":"وزه ځدراڼ","District":"WUZA ZADRAN","د_مرکز_نوم__نام_مرکز":"د مکتب خیمه","Polling_Center_Name":"School Tent","د_مرکز_ځای__موقعیت_مرکز":"تنگه بیری","Polling_Center_Location":"Tanga Berai","Verification_Note":"Village","PS_Male":2,"PS_Female":1,"Map_Accuracy":"قریه"},"geometry":{"x":7732196.7574091107,"y":3940940.8216078877}},{"attributes":{"OBJECTID":1593,"ولایت":"پکتيا","Province":"PAKTYA","PC_Code":"1305124","ولسوالي":"وزه ځدراڼ","District":"WUZA ZADRAN","د_مرکز_نوم__نام_مرکز":"ابتدائیه مکتب","Polling_Center_Name":"Primary School","د_مرکز_ځای__موقعیت_مرکز":"علی احمد خیل","Polling_Center_Location":"Ali Ahmad Khel","Verification_Note":"Village","PS_Male":2,"PS_Female":1,"Map_Accuracy":"قریه"},"geometry":{"x":7727265.5577754043,"y":3964086.0785567313}},{"attributes":{"OBJECTID":1594,"ولایت":"پکتيا","Province":"PAKTYA","PC_Code":"1305125","ولسوالي":"وزه ځدراڼ","District":"WUZA ZADRAN","د_مرکز_نوم__نام_مرکز":"مکتب نصری بابا","Polling_Center_Name":"Nasri Baba School","د_مرکز_ځای__موقعیت_مرکز":"کلیژه خوله","Polling_Center_Location":"Klazai Khola","Verification_Note":"Village","PS_Male":3,"PS_Female":0,"Map_Accuracy":"قریه"},"geometry":{"x":7719189.2418891564,"y":3933434.00585635}},{"attributes":{"OBJECTID":1595,"ولایت":"پکتيا","Province":"PAKTYA","PC_Code":"1305130","ولسوالي":"وزه ځدراڼ","District":"WUZA ZADRAN","د_مرکز_نوم__نام_مرکز":"ولسوالی تعمیر","Polling_Center_Name":"District Compound","د_مرکز_ځای__موقعیت_مرکز":"د ولسوالی مرکز","Polling_Center_Location":"District Center","Verification_Note":"Building","PS_Male":2,"PS_Female":1,"Map_Accuracy":"تعمیر"},"geometry":{"x":7729893.2465632223,"y":3944133.9347503334}},{"attributes":{"OBJECTID":1596,"ولایت":"پکتيا","Province":"PAKTYA","PC_Code":"1305131","ولسوالي":"وزه ځدراڼ","District":"WUZA ZADRAN","د_مرکز_نوم__نام_مرکز":"گرده څيړي مسجد","Polling_Center_Name":"Garda Seri Mosque","د_مرکز_ځای__موقعیت_مرکز":"خړخیل، ګرده څیړی","Polling_Center_Location":"Khar Khil, Garda Seri","Verification_Note":"Building","PS_Male":2,"PS_Female":1,"Map_Accuracy":"تعمیر"},"geometry":{"x":7723785.2661058046,"y":3946660.2624102533}},{"attributes":{"OBJECTID":1597,"ولایت":"پکتيا","Province":"PAKTYA","PC_Code":"1306023","ولسوالي":"سید کرم","District":"SAYYID KARAM","د_مرکز_نوم__نام_مرکز":"د خنډخیلو مسجد","Polling_Center_Name":"Khandh Khel Mosque","د_مرکز_ځای__موقعیت_مرکز":"خنډخیل","Polling_Center_Location":"Khandh Khel","Verification_Note":"Building","PS_Male":3,"PS_Female":0,"Map_Accuracy":"تعمیر"},"geometry":{"x":7726908.6006962284,"y":3990079.3428951651}},{"attributes":{"OBJECTID":1598,"ولایت":"پکتيا","Province":"PAKTYA","PC_Code":"1307058","ولسوالي":"ځاځی اریوب","District":"JAJI ARYOB","د_مرکز_نوم__نام_مرکز":"د خرلوټی شفاخانه","Polling_Center_Name":"Kharlooti Hospital","د_مرکز_ځای__موقعیت_مرکز":"خرلوټی","Polling_Center_Location":"Kharlooti","Verification_Note":"Village","PS_Male":3,"PS_Female":1,"Map_Accuracy":"قریه"},"geometry":{"x":7749903.1335347183,"y":4032549.913750641}},{"attributes":{"OBJECTID":1599,"ولایت":"پکتيا","Province":"PAKTYA","PC_Code":"1307059","ولسوالي":"ځاځی اریوب","District":"JAJI ARYOB","د_مرکز_نوم__نام_مرکز":"د محمد انور دکان","Polling_Center_Name":"Mohammad Anwer Shop","د_مرکز_ځای__موقعیت_مرکز":"شیشته کلی ","Polling_Center_Location":"Shishta Village","Verification_Note":"Building","PS_Male":4,"PS_Female":0,"Map_Accuracy":"تعمیر"},"geometry":{"x":7759287.1180321649,"y":4020548.0123740658}}]}