{"objectIdFieldName":"OBJECTID","globalIdFieldName":"","geometryType":"esriGeometryPoint","spatialReference":{"wkid":102100,"latestWkid":3857},"fields":[{"name":"OBJECTID","type":"esriFieldTypeOID","alias":"OBJECTID","sqlType":"sqlTypeOther","domain":null,"defaultValue":null},{"name":"ولایت","type":"esriFieldTypeString","alias":"ولایت","sqlType":"sqlTypeOther","length":255,"domain":null,"defaultValue":null},{"name":"Province","type":"esriFieldTypeString","alias":"Province","sqlType":"sqlTypeOther","length":255,"domain":null,"defaultValue":null},{"name":"PC_Code","type":"esriFieldTypeString","alias":"PC_Code","sqlType":"sqlTypeOther","length":255,"domain":null,"defaultValue":null},{"name":"ولسوالي","type":"esriFieldTypeString","alias":"ولسوالي","sqlType":"sqlTypeOther","length":255,"domain":null,"defaultValue":null},{"name":"District","type":"esriFieldTypeString","alias":"District","sqlType":"sqlTypeOther","length":255,"domain":null,"defaultValue":null},{"name":"د_مرکز_نوم__نام_مرکز","type":"esriFieldTypeString","alias":"د_مرکز_نوم__نام_مرکز","sqlType":"sqlTypeOther","length":255,"domain":null,"defaultValue":null},{"name":"Polling_Center_Name","type":"esriFieldTypeString","alias":"Polling_Center_Name","sqlType":"sqlTypeOther","length":255,"domain":null,"defaultValue":null},{"name":"د_مرکز_ځای__موقعیت_مرکز","type":"esriFieldTypeString","alias":"د_مرکز_ځای__موقعیت_مرکز","sqlType":"sqlTypeOther","length":255,"domain":null,"defaultValue":null},{"name":"Polling_Center_Location","type":"esriFieldTypeString","alias":"Polling_Center_Location","sqlType":"sqlTypeOther","length":255,"domain":null,"defaultValue":null},{"name":"Verification_Note","type":"esriFieldTypeString","alias":"Verification_Note","sqlType":"sqlTypeOther","length":250,"domain":null,"defaultValue":null},{"name":"PS_Male","type":"esriFieldTypeSmallInteger","alias":"PS_Male","sqlType":"sqlTypeOther","domain":null,"defaultValue":null},{"name":"PS_Female","type":"esriFieldTypeSmallInteger","alias":"PS_Female","sqlType":"sqlTypeOther","domain":null,"defaultValue":null},{"name":"Map_Accuracy","type":"esriFieldTypeString","alias":"Map_Accuracy","sqlType":"sqlTypeOther","length":10,"domain":null,"defaultValue":null}],"features":[{"attributes":{"OBJECTID":1600,"ولایت":"پکتيا","Province":"PAKTYA","PC_Code":"1307063","ولسوالي":"ځاځی اریوب","District":"JAJI ARYOB","د_مرکز_نوم__نام_مرکز":"د رحمت الله دکان","Polling_Center_Name":"Rahmatullah Shop","د_مرکز_ځای__موقعیت_مرکز":"حسن لګاډه","Polling_Center_Location":"Hassan Lagada","Verification_Note":"Village","PS_Male":4,"PS_Female":0,"Map_Accuracy":"قریه"},"geometry":{"x":7751188.7853770219,"y":4030370.849977985}},{"attributes":{"OBJECTID":1601,"ولایت":"پکتيا","Province":"PAKTYA","PC_Code":"1308134","ولسوالي":" لجه احمد خیل","District":"LAJA AHMAD KHEL","د_مرکز_نوم__نام_مرکز":"میرازی مکتب ","Polling_Center_Name":"Mirzai School","د_مرکز_ځای__موقعیت_مرکز":"میرازی کلی، احمدخیل","Polling_Center_Location":"Mirzai Village, Ahmad Khel","Verification_Note":"Village","PS_Male":3,"PS_Female":0,"Map_Accuracy":"قریه"},"geometry":{"x":7752386.1200088747,"y":4006830.7159860283}},{"attributes":{"OBJECTID":1602,"ولایت":"پکتيا","Province":"PAKTYA","PC_Code":"1308135","ولسوالي":" لجه احمد خیل","District":"LAJA AHMAD KHEL","د_مرکز_نوم__نام_مرکز":"میرازی لیسه  ","Polling_Center_Name":"Mirzai High School","د_مرکز_ځای__موقعیت_مرکز":"میرازی کلی، احمدخیل","Polling_Center_Location":"Mirzai Village, Ahmad Khel","Verification_Note":"Village","PS_Male":0,"PS_Female":2,"Map_Accuracy":"قریه"},"geometry":{"x":7753065.1410728432,"y":4007464.5072872564}},{"attributes":{"OBJECTID":1603,"ولایت":"پکتيا","Province":"PAKTYA","PC_Code":"1308137","ولسوالي":" لجه احمد خیل","District":"LAJA AHMAD KHEL","د_مرکز_نوم__نام_مرکز":"کلینیک موشکه","Polling_Center_Name":"Moshaka Clinic","د_مرکز_ځای__موقعیت_مرکز":"موشکه، احمدخیل","Polling_Center_Location":"Moshaka, Ahmad Khel","Verification_Note":"Village","PS_Male":0,"PS_Female":2,"Map_Accuracy":"قریه"},"geometry":{"x":7752473.2186048627,"y":4004849.0388713032}},{"attributes":{"OBJECTID":1604,"ولایت":"پکتيا","Province":"PAKTYA","PC_Code":"1308140","ولسوالي":" لجه احمد خیل","District":"LAJA AHMAD KHEL","د_مرکز_نوم__نام_مرکز":"د جنازی باغ کلینیک","Polling_Center_Name":"Janaz Bagh Clinic","د_مرکز_ځای__موقعیت_مرکز":"ثبت خیل کلی","Polling_Center_Location":"Sabt Khel Village ","Verification_Note":"District","PS_Male":3,"PS_Female":0,"Map_Accuracy":"ولسوالی"},"geometry":{"x":7751426.301095359,"y":4010742.6225569472}},{"attributes":{"OBJECTID":1605,"ولایت":"پکتيا","Province":"PAKTYA","PC_Code":"1308141","ولسوالي":" لجه احمد خیل","District":"LAJA AHMAD KHEL","د_مرکز_نوم__نام_مرکز":"د دولت خیلو مسجد","Polling_Center_Name":"Dawlat Khel Mosque","د_مرکز_ځای__موقعیت_مرکز":"ثبت خیل، احمد خیل","Polling_Center_Location":"Sabt Khel Village, Ahmad Khel","Verification_Note":"Village","PS_Male":0,"PS_Female":2,"Map_Accuracy":"قریه"},"geometry":{"x":7751555.2402351536,"y":4007334.6765442193}},{"attributes":{"OBJECTID":1606,"ولایت":"پکتيا","Province":"PAKTYA","PC_Code":"1309173","ولسوالي":"جانی خیل","District":"JANI KHEL","د_مرکز_نوم__نام_مرکز":"جانی خیلو کلینیک","Polling_Center_Name":"Jani Khel Clinic","د_مرکز_ځای__موقعیت_مرکز":"میدان خوله","Polling_Center_Location":"Maidan Khola","Verification_Note":"Building","PS_Male":0,"PS_Female":3,"Map_Accuracy":"تعمیر"},"geometry":{"x":7767973.3233522139,"y":3982194.8832897097}},{"attributes":{"OBJECTID":1607,"ولایت":"پکتيا","Province":"PAKTYA","PC_Code":"1309174","ولسوالي":"جانی خیل","District":"JANI KHEL","د_مرکز_نوم__نام_مرکز":"اسدالله دوکان","Polling_Center_Name":"Asadullah Shop","د_مرکز_ځای__موقعیت_مرکز":"اورگوړ","Polling_Center_Location":"Orgur","Verification_Note":"Village","PS_Male":3,"PS_Female":0,"Map_Accuracy":"قریه"},"geometry":{"x":7763981.7325784788,"y":3989285.38592425}},{"attributes":{"OBJECTID":1608,"ولایت":"پکتيا","Province":"PAKTYA","PC_Code":"1311179","ولسوالي":"ډنډ پټان","District":"DAND PATAN","د_مرکز_نوم__نام_مرکز":"تعمیر ولسوالی","Polling_Center_Name":"District Compound","د_مرکز_ځای__موقعیت_مرکز":"د ولسوالی مرکز، سپرئ","Polling_Center_Location":"Dand Patan District Center, Sperai","Verification_Note":"Building","PS_Male":3,"PS_Female":0,"Map_Accuracy":"تعمیر"},"geometry":{"x":7783796.5284688137,"y":4005109.9988699257}},{"attributes":{"OBJECTID":1609,"ولایت":"پکتيا","Province":"PAKTYA","PC_Code":"1311180","ولسوالي":"ډنډ پټان","District":"DAND PATAN","د_مرکز_نوم__نام_مرکز":"سپیری کلینیک","Polling_Center_Name":"Spera Clinic","د_مرکز_ځای__موقعیت_مرکز":"د ولسوالی مرکز، سپرئ","Polling_Center_Location":"Dand Patan District Center, Sperai","Verification_Note":"Building","PS_Male":0,"PS_Female":3,"Map_Accuracy":"تعمیر"},"geometry":{"x":7783765.6517816521,"y":4005237.5183780789}},{"attributes":{"OBJECTID":1610,"ولایت":"پکتيا","Province":"PAKTYA","PC_Code":"1311183","ولسوالي":"ډنډ پټان","District":"DAND PATAN","د_مرکز_نوم__نام_مرکز":"شیروانه الګاډه مکتب","Polling_Center_Name":"Shirwana Algada School","د_مرکز_ځای__موقعیت_مرکز":"حسن لگاده","Polling_Center_Location":"Hassan Lagada","Verification_Note":"Building","PS_Male":2,"PS_Female":0,"Map_Accuracy":"تعمیر"},"geometry":{"x":7782158.4220867679,"y":3999904.8201254606}},{"attributes":{"OBJECTID":1611,"ولایت":"پکتيا","Province":"PAKTYA","PC_Code":"1311184","ولسوالي":"ډنډ پټان","District":"DAND PATAN","د_مرکز_نوم__نام_مرکز":"سپین جومات","Polling_Center_Name":"Speen Mosque","د_مرکز_ځای__موقعیت_مرکز":"شیروانه الګاډه","Polling_Center_Location":"Sherwana Alagada","Verification_Note":"Village","PS_Male":0,"PS_Female":2,"Map_Accuracy":"قریه"},"geometry":{"x":7780595.1680435389,"y":4000156.5570198819}},{"attributes":{"OBJECTID":1612,"ولایت":"پکتيا","Province":"PAKTYA","PC_Code":"1311189","ولسوالي":"ډنډ پټان","District":"DAND PATAN","د_مرکز_نوم__نام_مرکز":"مسجد شپولی خوله","Polling_Center_Name":"Shpoli Khola Mosque","د_مرکز_ځای__موقعیت_مرکز":"شپولی خوله، ډنډه","Polling_Center_Location":"Shpoli Khola, Danda","Verification_Note":"Village","PS_Male":3,"PS_Female":1,"Map_Accuracy":"قریه"},"geometry":{"x":7785508.764726162,"y":4002975.0132905915}},{"attributes":{"OBJECTID":1613,"ولایت":"پکتيا","Province":"PAKTYA","PC_Code":"1313044","ولسوالي":"میرزکه","District":"MEERZAKA","د_مرکز_نوم__نام_مرکز":"نائب الدین مسجد","Polling_Center_Name":"Naibuddin Mosque","د_مرکز_ځای__موقعیت_مرکز":"شمازلی خوړ","Polling_Center_Location":"Shamazali Khwar","Verification_Note":"District","PS_Male":3,"PS_Female":1,"Map_Accuracy":"ولسوالی"},"geometry":{"x":7734028.2440030575,"y":4003458.2607149482}},{"attributes":{"OBJECTID":1614,"ولایت":"پکتيا","Province":"PAKTYA","PC_Code":"1313046","ولسوالي":"میرزکه","District":"MEERZAKA","د_مرکز_نوم__نام_مرکز":"د خلیلانو عالی لیسه","Polling_Center_Name":"Khalilan High School","د_مرکز_ځای__موقعیت_مرکز":"خلیلان، میرزکه","Polling_Center_Location":"Khalilan, Merzaka","Verification_Note":"Village","PS_Male":3,"PS_Female":1,"Map_Accuracy":"قریه"},"geometry":{"x":7735278.7744346969,"y":3997731.9730474874}},{"attributes":{"OBJECTID":1615,"ولایت":"پکتيا","Province":"PAKTYA","PC_Code":"1313047","ولسوالي":"میرزکه","District":"MEERZAKA","د_مرکز_نوم__نام_مرکز":"انډوام متوسطه مکتب","Polling_Center_Name":"Andwam Secondary School","د_مرکز_ځای__موقعیت_مرکز":"انډوام، میرزکه","Polling_Center_Location":"Andwam, Merzaka","Verification_Note":"Village","PS_Male":2,"PS_Female":0,"Map_Accuracy":"قریه"},"geometry":{"x":7741013.9757510684,"y":4001879.8876445442}},{"attributes":{"OBJECTID":1616,"ولایت":"پکتيا","Province":"PAKTYA","PC_Code":"1301008","ولسوالي":"گردیز","District":"GARDEZ","د_مرکز_نوم__نام_مرکز":"مکتب اناث رباط","Polling_Center_Name":"Robaat Girls School","د_مرکز_ځای__موقعیت_مرکز":"رباط کلی ","Polling_Center_Location":"Robaat Village","Verification_Note":"Building","PS_Male":0,"PS_Female":2,"Map_Accuracy":"تعمیر"},"geometry":{"x":7700353.4998071454,"y":3979266.2041697204}},{"attributes":{"OBJECTID":1617,"ولایت":"پکتيا","Province":"PAKTYA","PC_Code":"1301009","ولسوالي":"گردیز","District":"GARDEZ","د_مرکز_نوم__نام_مرکز":"د زاهو ابتدائیه مکتب","Polling_Center_Name":"Zahoo Primary School","د_مرکز_ځای__موقعیت_مرکز":"زاهو","Polling_Center_Location":"Zahoo Village","Verification_Note":"Building","PS_Male":3,"PS_Female":2,"Map_Accuracy":"تعمیر"},"geometry":{"x":7718521.4941500165,"y":3969660.5446424633}},{"attributes":{"OBJECTID":1618,"ولایت":"پکتيا","Province":"PAKTYA","PC_Code":"1303081","ولسوالي":"زرمت","District":"ZURMAT","د_مرکز_نوم__نام_مرکز":"د شاگوم بالاه مدرسه","Polling_Center_Name":"Shagom Bala Madrssa","د_مرکز_ځای__موقعیت_مرکز":"هیبت خیل","Polling_Center_Location":"Haibat Khel","Verification_Note":"Village","PS_Male":2,"PS_Female":0,"Map_Accuracy":"قریه"},"geometry":{"x":7683847.9095515683,"y":3965284.6924661025}},{"attributes":{"OBJECTID":1619,"ولایت":"پکتيا","Province":"PAKTYA","PC_Code":"1303082","ولسوالي":"زرمت","District":"ZURMAT","د_مرکز_نوم__نام_مرکز":"مسجد هیبت خیل","Polling_Center_Name":"Haibat Khel Mosque","د_مرکز_ځای__موقعیت_مرکز":"هیبت خیل","Polling_Center_Location":"Haibat Khel","Verification_Note":"Village","PS_Male":0,"PS_Female":2,"Map_Accuracy":"قریه"},"geometry":{"x":7684748.5031563975,"y":3965223.6874079332}},{"attributes":{"OBJECTID":1620,"ولایت":"پکتيا","Province":"PAKTYA","PC_Code":"1303098","ولسوالي":"زرمت","District":"ZURMAT","د_مرکز_نوم__نام_مرکز":"ایمنی خیل مدرسه","Polling_Center_Name":"Emani Khel Madrassa","د_مرکز_ځای__موقعیت_مرکز":"زوړ کوهئ","Polling_Center_Location":"Zor Kohi","Verification_Note":"District","PS_Male":2,"PS_Female":0,"Map_Accuracy":"ولسوالی"},"geometry":{"x":7692691.78000601,"y":3950168.3760655895}},{"attributes":{"OBJECTID":1621,"ولایت":"پکتيا","Province":"PAKTYA","PC_Code":"1303110","ولسوالي":"زرمت","District":"ZURMAT","د_مرکز_نوم__نام_مرکز":"د رحمن خیلو مدرسه ","Polling_Center_Name":"Rahman Khel Madrassa","د_مرکز_ځای__موقعیت_مرکز":"ارمه رحمان خیل","Polling_Center_Location":"Arma Rahman Khel","Verification_Note":"Village","PS_Male":2,"PS_Female":0,"Map_Accuracy":"قریه"},"geometry":{"x":7694237.077102188,"y":3955767.0985185876}},{"attributes":{"OBJECTID":1622,"ولایت":"پکتيا","Province":"PAKTYA","PC_Code":"1303111","ولسوالي":"زرمت","District":"ZURMAT","د_مرکز_نوم__نام_مرکز":"د رحمن خیلو مسجد","Polling_Center_Name":"Rahman Khel Mosque","د_مرکز_ځای__موقعیت_مرکز":"ارمه رحمان خیل","Polling_Center_Location":"Arma Rahman Khel","Verification_Note":"Village","PS_Male":0,"PS_Female":2,"Map_Accuracy":"قریه"},"geometry":{"x":7694131.0419476219,"y":3956125.259601675}},{"attributes":{"OBJECTID":1623,"ولایت":"پکتيا","Province":"PAKTYA","PC_Code":"1306020","ولسوالي":"سید کرم","District":"SAYYID KARAM","د_مرکز_نوم__نام_مرکز":"د ولسوالی کلینیک","Polling_Center_Name":"Sayed Karam District Clinic","د_مرکز_ځای__موقعیت_مرکز":" ولسوالی مرکز","Polling_Center_Location":"District Center","Verification_Note":"Building","PS_Male":0,"PS_Female":3,"Map_Accuracy":"تعمیر"},"geometry":{"x":7723432.9445928559,"y":3987762.4426906556}},{"attributes":{"OBJECTID":1624,"ولایت":"پکتيا","Province":"PAKTYA","PC_Code":"1307061","ولسوالي":"ځاځی اریوب","District":"JAJI ARYOB","د_مرکز_نوم__نام_مرکز":"د سپری مکتب","Polling_Center_Name":"Speri School","د_مرکز_ځای__موقعیت_مرکز":"شیشته کلی ","Polling_Center_Location":"Shishta Village","Verification_Note":"District","PS_Male":3,"PS_Female":1,"Map_Accuracy":"ولسوالی"},"geometry":{"x":7763233.9071636386,"y":4025460.47723791}},{"attributes":{"OBJECTID":1625,"ولایت":"پکتيا","Province":"PAKTYA","PC_Code":"1307076","ولسوالي":"ځاځی اریوب","District":"JAJI ARYOB","د_مرکز_نوم__نام_مرکز":"ګل غونډی مسجد","Polling_Center_Name":"Gul Ghundi School","د_مرکز_ځای__موقعیت_مرکز":"ګل غونډي","Polling_Center_Location":"Gul Ghundi","Verification_Note":"Building","PS_Male":3,"PS_Female":1,"Map_Accuracy":"تعمیر"},"geometry":{"x":7775861.8722005673,"y":4027546.8509322256}},{"attributes":{"OBJECTID":1626,"ولایت":"پکتيا","Province":"PAKTYA","PC_Code":"1309177","ولسوالي":"جانی خیل","District":"JANI KHEL","د_مرکز_نوم__نام_مرکز":"موله ګل مسجد","Polling_Center_Name":"Mowla Gul Mosque","د_مرکز_ځای__موقعیت_مرکز":"بل خیل","Polling_Center_Location":"Bal Khel","Verification_Note":"Village","PS_Male":3,"PS_Female":0,"Map_Accuracy":"قریه"},"geometry":{"x":7772318.4744021855,"y":3970525.7716672719}},{"attributes":{"OBJECTID":1627,"ولایت":"پکتيا","Province":"PAKTYA","PC_Code":"1309178","ولسوالي":"جانی خیل","District":"JANI KHEL","د_مرکز_نوم__نام_مرکز":"د چیناری مدرسه","Polling_Center_Name":"Chenari Madrassa","د_مرکز_ځای__موقعیت_مرکز":"تنگه پاروخیل","Polling_Center_Location":"Tanga Paaro Khel","Verification_Note":"Village","PS_Male":3,"PS_Female":1,"Map_Accuracy":"قریه"},"geometry":{"x":7769184.9224636182,"y":3969651.93909394}},{"attributes":{"OBJECTID":1628,"ولایت":"پکتيا","Province":"PAKTYA","PC_Code":"1311187","ولسوالي":"ډنډ پټان","District":"DAND PATAN","د_مرکز_نوم__نام_مرکز":"سلتک مقبل متوسطه مکتب","Polling_Center_Name":"Saltak Maqbol Secondary School","د_مرکز_ځای__موقعیت_مرکز":"سلتک مقبل","Polling_Center_Location":"Saltak Moqbol","Verification_Note":"Village","PS_Male":3,"PS_Female":0,"Map_Accuracy":"قریه"},"geometry":{"x":7782196.9497625381,"y":3993097.5258080661}},{"attributes":{"OBJECTID":1629,"ولایت":"پکتيا","Province":"PAKTYA","PC_Code":"1312148","ولسوالي":"لجه منګل","District":"LAJA MANGAL","د_مرکز_نوم__نام_مرکز":"لجه ابتدائیه مکتب","Polling_Center_Name":"Laja Primary School","د_مرکز_ځای__موقعیت_مرکز":"لجه منګل پتکه ","Polling_Center_Location":"Laja Mangal Patka","Verification_Note":"Village","PS_Male":2,"PS_Female":0,"Map_Accuracy":"قریه"},"geometry":{"x":7755290.5100889727,"y":3999925.2267476767}},{"attributes":{"OBJECTID":1630,"ولایت":"پکتيا","Province":"PAKTYA","PC_Code":"1312149","ولسوالي":"لجه منګل","District":"LAJA MANGAL","د_مرکز_نوم__نام_مرکز":"پتکه مسجد ","Polling_Center_Name":"Patka Mosque","د_مرکز_ځای__موقعیت_مرکز":"لجه منګل پتکه ","Polling_Center_Location":"Laja Mangal Patka","Verification_Note":"Village","PS_Male":0,"PS_Female":2,"Map_Accuracy":"قریه"},"geometry":{"x":7755283.70067573,"y":3999985.72222919}},{"attributes":{"OBJECTID":1631,"ولایت":"پکتيا","Province":"PAKTYA","PC_Code":"1312150","ولسوالي":"لجه منګل","District":"LAJA MANGAL","د_مرکز_نوم__نام_مرکز":"خیرانی مکتب ","Polling_Center_Name":"Khairani School","د_مرکز_ځای__موقعیت_مرکز":"خیرانی، لجه منګل","Polling_Center_Location":"Khairani, Laja Mangal","Verification_Note":"Village","PS_Male":2,"PS_Female":0,"Map_Accuracy":"قریه"},"geometry":{"x":7753096.654507488,"y":3996946.0592785403}},{"attributes":{"OBJECTID":1632,"ولایت":"پکتيا","Province":"PAKTYA","PC_Code":"1308220","ولسوالي":"لجه احمد خیل","District":"AHMADABA","د_مرکز_نوم__نام_مرکز":"د مخکی کلی جامع مسجد","Polling_Center_Name":"Makh ki Mosque","د_مرکز_ځای__موقعیت_مرکز":"مخی کلی","Polling_Center_Location":"Makhi village","Verification_Note":"Building","PS_Male":2,"PS_Female":1,"Map_Accuracy":"تعمیر"},"geometry":{"x":7743553.2102941386,"y":4004289.0710548311}},{"attributes":{"OBJECTID":1633,"ولایت":"پکتيا","Province":"PAKTYA","PC_Code":"1311221","ولسوالي":"دند وپټان","District":"DAND PATAN","د_مرکز_نوم__نام_مرکز":"د نجونو منزنی خونزی","Polling_Center_Name":"Femal Secondary school","د_مرکز_ځای__موقعیت_مرکز":"د پټان کلی","Polling_Center_Location":"Patan village","Verification_Note":"Building","PS_Male":2,"PS_Female":1,"Map_Accuracy":"تعمیر"},"geometry":{"x":7783930.004545778,"y":4005026.9694452435}},{"attributes":{"OBJECTID":1634,"ولایت":"پکتيا","Province":"PAKTYA","PC_Code":"1302194","ولسوالي":"احمد آبا","District":"AHMADABA","د_مرکز_نوم__نام_مرکز":"د مالی خیلو مکتب","Polling_Center_Name":"Mali Khel School","د_مرکز_ځای__موقعیت_مرکز":"عیسی خیل","Polling_Center_Location":"Esa Khel","Verification_Note":"Village","PS_Male":0,"PS_Female":3,"Map_Accuracy":"قریه"},"geometry":{"x":7714371.845284082,"y":3979333.8694820553}},{"attributes":{"OBJECTID":1635,"ولایت":"پکتيا","Province":"PAKTYA","PC_Code":"1303089","ولسوالي":"زرمت","District":"ZURMAT","د_مرکز_نوم__نام_مرکز":"د اتفاق مکتب","Polling_Center_Name":"Ettifaq School","د_مرکز_ځای__موقعیت_مرکز":" جیغاتیان کولالگو","Polling_Center_Location":"Jaighatian Kolalgo","Verification_Note":"Village","PS_Male":0,"PS_Female":2,"Map_Accuracy":"قریه"},"geometry":{"x":7667896.1638189517,"y":3957559.441363357}},{"attributes":{"OBJECTID":1636,"ولایت":"پکتيا","Province":"PAKTYA","PC_Code":"1303108","ولسوالي":"زرمت","District":"ZURMAT","د_مرکز_نوم__نام_مرکز":"د خر مست خیلو مسجد","Polling_Center_Name":"Khar Mast Khel Mosque","د_مرکز_ځای__موقعیت_مرکز":"ارمه خرمست خیل","Polling_Center_Location":"Arma Khar Mast Khel","Verification_Note":"Village","PS_Male":2,"PS_Female":0,"Map_Accuracy":"قریه"},"geometry":{"x":7698190.751344163,"y":3959001.575140819}},{"attributes":{"OBJECTID":1637,"ولایت":"پکتيا","Province":"PAKTYA","PC_Code":"1303109","ولسوالي":"زرمت","District":"ZURMAT","د_مرکز_نوم__نام_مرکز":"د محمد طلا هجره","Polling_Center_Name":"Mohammad Telaa Hojra","د_مرکز_ځای__موقعیت_مرکز":" ارمه خرمست خیل","Polling_Center_Location":"Arma Khar Mast Khel","Verification_Note":"Village","PS_Male":0,"PS_Female":2,"Map_Accuracy":"قریه"},"geometry":{"x":7698299.3858088367,"y":3958931.1235015318}},{"attributes":{"OBJECTID":1638,"ولایت":"پکتيا","Province":"PAKTYA","PC_Code":"1305127","ولسوالي":"وزه ځدراڼ","District":"WUZA ZADRAN","د_مرکز_نوم__نام_مرکز":"د ابراهیم دکانونه","Polling_Center_Name":"Ibrahim Shops","د_مرکز_ځای__موقعیت_مرکز":"زرغون راغه، ګرده څیړی","Polling_Center_Location":"Garda Seri,  Zarghon Ragha","Verification_Note":"Village","PS_Male":2,"PS_Female":1,"Map_Accuracy":"قریه"},"geometry":{"x":7716445.1083498746,"y":3946659.8108565286}},{"attributes":{"OBJECTID":1639,"ولایت":"پکتيا","Province":"PAKTYA","PC_Code":"1305128","ولسوالي":"وزه ځدراڼ","District":"WUZA ZADRAN","د_مرکز_نوم__نام_مرکز":"فخری دوکانونه","Polling_Center_Name":"Fakhri Shops ","د_مرکز_ځای__موقعیت_مرکز":"فخری، ګرده څیړی","Polling_Center_Location":"Garda Seri, Fakhri","Verification_Note":"Village","PS_Male":2,"PS_Female":1,"Map_Accuracy":"قریه"},"geometry":{"x":7724977.5158859566,"y":3944543.4974170104}},{"attributes":{"OBJECTID":1640,"ولایت":"پکتيا","Province":"PAKTYA","PC_Code":"1306026","ولسوالي":"سید کرم","District":"SAYYID KARAM","د_مرکز_نوم__نام_مرکز":"عثمان خیل مسجد","Polling_Center_Name":"Usman Khel Mosque","د_مرکز_ځای__موقعیت_مرکز":"عثمان خیل","Polling_Center_Location":"Usman Khel ","Verification_Note":"Building","PS_Male":0,"PS_Female":2,"Map_Accuracy":"تعمیر"},"geometry":{"x":7728864.3706035912,"y":3982330.7047685832}},{"attributes":{"OBJECTID":1641,"ولایت":"پکتيا","Province":"PAKTYA","PC_Code":"1309208","ولسوالي":"جانی خیل","District":"JANI KHEL","د_مرکز_نوم__نام_مرکز":"چلم مكتب","Polling_Center_Name":"Chalam School","د_مرکز_ځای__موقعیت_مرکز":"دچلم كلي","Polling_Center_Location":"Chalam Village","Verification_Note":"Building","PS_Male":1,"PS_Female":1,"Map_Accuracy":"تعمیر"},"geometry":{"x":7770958.1796130352,"y":3986397.9128651842}},{"attributes":{"OBJECTID":1642,"ولایت":"پکتيا","Province":"PAKTYA","PC_Code":"1309209","ولسوالي":"جانی خیل","District":"JANI KHEL","د_مرکز_نوم__نام_مرکز":"د درندي مسجد ","Polling_Center_Name":"Darandy Mosque","د_مرکز_ځای__موقعیت_مرکز":"درندی، بل خیل","Polling_Center_Location":"Darandi, Bal Khel","Verification_Note":"Building","PS_Male":1,"PS_Female":1,"Map_Accuracy":"تعمیر"},"geometry":{"x":7772247.8493097275,"y":3979274.1551007256}},{"attributes":{"OBJECTID":1643,"ولایت":"پکتيا","Province":"PAKTYA","PC_Code":"1312153","ولسوالي":"لجه منګل","District":"LAJA MANGAL","د_مرکز_نوم__نام_مرکز":"توسنک مسجد","Polling_Center_Name":"Toshnak Mosque","د_مرکز_ځای__موقعیت_مرکز":"توشنک، لجه منګل","Polling_Center_Location":"Toshnak, Laja Mangal ","Verification_Note":"Village","PS_Male":3,"PS_Female":1,"Map_Accuracy":"قریه"},"geometry":{"x":7750862.3732529245,"y":3990573.4624804035}},{"attributes":{"OBJECTID":1644,"ولایت":"پکتيا","Province":"PAKTYA","PC_Code":"1313050","ولسوالي":"میرزکه","District":"MEERZAKA","د_مرکز_نوم__نام_مرکز":"د وچی الګاډې مکتب","Polling_Center_Name":"Wacha Alagadi School","د_مرکز_ځای__موقعیت_مرکز":"کړکین، میرزکه","Polling_Center_Location":"Karkeen, Merzaka","Verification_Note":"Village","PS_Male":0,"PS_Female":2,"Map_Accuracy":"قریه"},"geometry":{"x":7738173.3828711361,"y":4005931.0529096052}},{"attributes":{"OBJECTID":1645,"ولایت":"پکتيا","Province":"PAKTYA","PC_Code":"1302198","ولسوالي":"احمد آبا","District":"AHMADABA","د_مرکز_نوم__نام_مرکز":"اخند خیلو منځنئ ښوونځی","Polling_Center_Name":"Akhond Khel Secondary School","د_مرکز_ځای__موقعیت_مرکز":"مچلغو","Polling_Center_Location":"Machalgho","Verification_Note":"Village","PS_Male":2,"PS_Female":2,"Map_Accuracy":"قریه"},"geometry":{"x":7723615.1078075916,"y":3998956.2603122294}},{"attributes":{"OBJECTID":1646,"ولایت":"پکتيا","Province":"PAKTYA","PC_Code":"1302200","ولسوالي":"احمد آبا","District":"AHMADABA","د_مرکز_نوم__نام_مرکز":"د فاضل خیلو جامع جومات","Polling_Center_Name":"Fazel Khel Mosque","د_مرکز_ځای__موقعیت_مرکز":"غړک","Polling_Center_Location":"Gharak","Verification_Note":"Village","PS_Male":0,"PS_Female":4,"Map_Accuracy":"قریه"},"geometry":{"x":7718526.1372859813,"y":3995135.0594743118}},{"attributes":{"OBJECTID":1647,"ولایت":"خوست","Province":"KHOST","PC_Code":"1401022","ولسوالي":"خوست","District":"KHOST","د_مرکز_نوم__نام_مرکز":"د غازي ببرک ځدران پارک","Polling_Center_Name":"Ghazi Babrak Zadran Park ","د_مرکز_ځای__موقعیت_مرکز":"خوست ښآر","Polling_Center_Location":"Khost City ","Verification_Note":"Building","PS_Male":2,"PS_Female":1,"Map_Accuracy":"تعمیر"},"geometry":{"x":7783231.4807522967,"y":3940155.0310811028}},{"attributes":{"OBJECTID":1648,"ولایت":"خوست","Province":"KHOST","PC_Code":"1401023","ولسوالي":"خوست","District":"KHOST","د_مرکز_نوم__نام_مرکز":"د ګمرکاتو د کور جومات","Polling_Center_Name":"Customs House Mosque ","د_مرکز_ځای__موقعیت_مرکز":"مټه چينه ","Polling_Center_Location":"Mata Cheena","Verification_Note":"Village","PS_Male":2,"PS_Female":1,"Map_Accuracy":"قریه"},"geometry":{"x":7778797.5886985771,"y":3939470.1151269451}},{"attributes":{"OBJECTID":1649,"ولایت":"خوست","Province":"KHOST","PC_Code":"1401044","ولسوالي":"خوست","District":"KHOST","د_مرکز_نوم__نام_مرکز":"امين رحمان کور ","Polling_Center_Name":"Amin Rahman House","د_مرکز_ځای__موقعیت_مرکز":"کجيرې کلى","Polling_Center_Location":"Kajery Village","Verification_Note":"Building","PS_Male":2,"PS_Female":1,"Map_Accuracy":"تعمیر"},"geometry":{"x":7788123.7118850611,"y":3942661.6240054592}},{"attributes":{"OBJECTID":1650,"ولایت":"خوست","Province":"KHOST","PC_Code":"1401045","ولسوالي":"خوست","District":"KHOST","د_مرکز_نوم__نام_مرکز":"د کوټولي کلي جومات","Polling_Center_Name":"Mosque","د_مرکز_ځای__موقعیت_مرکز":" کوټولى کلى","Polling_Center_Location":"Kotoli Village ","Verification_Note":"Building","PS_Male":2,"PS_Female":1,"Map_Accuracy":"تعمیر"},"geometry":{"x":7785781.4696487337,"y":3942416.3590020016}},{"attributes":{"OBJECTID":1651,"ولایت":"خوست","Province":"KHOST","PC_Code":"1402090","ولسوالي":"مندوزی","District":"MANDUZAY","د_مرکز_نوم__نام_مرکز":"د چنداړ کلي جومات","Polling_Center_Name":"Chandarr Village Mosque","د_مرکز_ځای__موقعیت_مرکز":"د چنداړ کلي  مندوزی ","Polling_Center_Location":"Chandarr Village Mandozay","Verification_Note":"Village","PS_Male":2,"PS_Female":1,"Map_Accuracy":"قریه"},"geometry":{"x":7768750.20983332,"y":3937442.8825256526}},{"attributes":{"OBJECTID":1652,"ولایت":"خوست","Province":"KHOST","PC_Code":"1402091","ولسوالي":"مندوزی","District":"MANDUZAY","د_مرکز_نوم__نام_مرکز":" دحسن زيو د نجونو ليسه","Polling_Center_Name":"Hassanzayo Girls High School","د_مرکز_ځای__موقعیت_مرکز":"حسن زي- مندوزی  کلی","Polling_Center_Location":"Hassanzai -Mandozi Village","Verification_Note":"Village","PS_Male":2,"PS_Female":1,"Map_Accuracy":"قریه"},"geometry":{"x":7763469.262170665,"y":3936656.9397678897}},{"attributes":{"OBJECTID":1653,"ولایت":"خوست","Province":"KHOST","PC_Code":"1402095","ولسوالي":"مندوزی","District":"MANDUZAY","د_مرکز_نوم__نام_مرکز":"د بهرام خيلو جومات","Polling_Center_Name":"Bahram Khel Mosque","د_مرکز_ځای__موقعیت_مرکز":"بهرام خيل","Polling_Center_Location":"Bahram Khel","Verification_Note":"Village","PS_Male":1,"PS_Female":1,"Map_Accuracy":"قریه"},"geometry":{"x":7773553.1671872362,"y":3936245.5201312751}},{"attributes":{"OBJECTID":1654,"ولایت":"خوست","Province":"KHOST","PC_Code":"1402096","ولسوالي":"مندوزی","District":"MANDUZAY","د_مرکز_نوم__نام_مرکز":"دحيدرخيلو دسموات ښوونځی","Polling_Center_Name":"Haider Khel Samawat School","د_مرکز_ځای__موقعیت_مرکز":" حيدرحيل","Polling_Center_Location":"Haider Khel","Verification_Note":"Village","PS_Male":1,"PS_Female":1,"Map_Accuracy":"قریه"},"geometry":{"x":7776171.4294405617,"y":3938370.424582094}},{"attributes":{"OBJECTID":1655,"ولایت":"خوست","Province":"KHOST","PC_Code":"1406119","ولسوالي":"نادرشاه کوت","District":"NADIRSHAH KOT","د_مرکز_نوم__نام_مرکز":"سرکاري هجره ","Polling_Center_Name":"Sarkary Hojra","د_مرکز_ځای__موقعیت_مرکز":"غوړشتى","Polling_Center_Location":"Ghorashti","Verification_Note":"Village","PS_Male":1,"PS_Female":1,"Map_Accuracy":"قریه"},"geometry":{"x":7753573.0306836106,"y":3935127.3714660779}},{"attributes":{"OBJECTID":1656,"ولایت":"خوست","Province":"KHOST","PC_Code":"1406120","ولسوالي":"نادرشاه کوت","District":"NADIRSHAH KOT","د_مرکز_نوم__نام_مرکز":"شازغر کلى جومات ","Polling_Center_Name":"Shaz Ghar Village Mosque","د_مرکز_ځای__موقعیت_مرکز":"ايم توى","Polling_Center_Location":"Aim Toy","Verification_Note":"Building","PS_Male":1,"PS_Female":1,"Map_Accuracy":"تعمیر"},"geometry":{"x":7766400.7463016286,"y":3944426.2074493915}},{"attributes":{"OBJECTID":1657,"ولایت":"خوست","Province":"KHOST","PC_Code":"1406122","ولسوالي":"نادرشاه کوت","District":"NADIRSHAH KOT","د_مرکز_نوم__نام_مرکز":"د المارې ښوونځی","Polling_Center_Name":"Almara School ","د_مرکز_ځای__موقعیت_مرکز":" الماره","Polling_Center_Location":"Almara","Verification_Note":"Building","PS_Male":1,"PS_Female":1,"Map_Accuracy":"تعمیر"},"geometry":{"x":7753856.7595753521,"y":3935712.1607237086}},{"attributes":{"OBJECTID":1658,"ولایت":"خوست","Province":"KHOST","PC_Code":"1406123","ولسوالي":"نادرشاه کوت","District":"NADIRSHAH KOT","د_مرکز_نوم__نام_مرکز":"د جهانمير جومات","Polling_Center_Name":"Jahanmer Mosque","د_مرکز_ځای__موقعیت_مرکز":" نوى کوټ","Polling_Center_Location":"Nawi Kot ","Verification_Note":"Building","PS_Male":2,"PS_Female":1,"Map_Accuracy":"تعمیر"},"geometry":{"x":7758839.6531975977,"y":3936232.0444225967}},{"attributes":{"OBJECTID":1659,"ولایت":"خوست","Province":"KHOST","PC_Code":"1408056","ولسوالي":"علی شیر","District":"ALI SHER","د_مرکز_نوم__نام_مرکز":"ميرام ګل کلي زمان خيل جومات","Polling_Center_Name":"Miram Gul Mosque","د_مرکز_ځای__موقعیت_مرکز":"زمان خيل","Polling_Center_Location":"Zaman Khel","Verification_Note":"District","PS_Male":1,"PS_Female":1,"Map_Accuracy":"ولسوالی"},"geometry":{"x":7814739.2548048645,"y":3954195.9135628343}},{"attributes":{"OBJECTID":1660,"ولایت":"خوست","Province":"KHOST","PC_Code":"1410106","ولسوالي":"قلندر","District":"QALANDAR","د_مرکز_نوم__نام_مرکز":"د حاجي داود هجره لنډرې کلى","Polling_Center_Name":"Haji Dawood Hojra","د_مرکز_ځای__موقعیت_مرکز":" لنډرۍ کلى","Polling_Center_Location":"Landari Village","Verification_Note":"Village","PS_Male":1,"PS_Female":1,"Map_Accuracy":"قریه"},"geometry":{"x":7756070.0604454987,"y":3963560.1875798181}},{"attributes":{"OBJECTID":1661,"ولایت":"خوست","Province":"KHOST","PC_Code":"1410107","ولسوالي":"قلندر","District":"QALANDAR","د_مرکز_نوم__نام_مرکز":"د حاجي قادر کور بيګالي","Polling_Center_Name":"Haji Qader House","د_مرکز_ځای__موقعیت_مرکز":"بيګالى","Polling_Center_Location":"Begali","Verification_Note":"Village","PS_Male":2,"PS_Female":1,"Map_Accuracy":"قریه"},"geometry":{"x":7747111.1969570629,"y":3965380.9151301011}},{"attributes":{"OBJECTID":1662,"ولایت":"خوست","Province":"KHOST","PC_Code":"1410111","ولسوالي":"قلندر","District":"QALANDAR","د_مرکز_نوم__نام_مرکز":"جومات ستر کوټ ماڼه","Polling_Center_Name":"Ster Kot Mana Mosque","د_مرکز_ځای__موقعیت_مرکز":"ستر کوټ مانه","Polling_Center_Location":"Ster Kot Mana","Verification_Note":"Building","PS_Male":2,"PS_Female":1,"Map_Accuracy":"تعمیر"},"geometry":{"x":7755915.9441764615,"y":3957292.1469819322}},{"attributes":{"OBJECTID":1663,"ولایت":"خوست","Province":"KHOST","PC_Code":"1410112","ولسوالي":"قلندر","District":"QALANDAR","د_مرکز_نوم__نام_مرکز":"جومات شينکې","Polling_Center_Name":"Shenkai Village Mosque","د_مرکز_ځای__موقعیت_مرکز":" شينکۍ","Polling_Center_Location":"Shenkai","Verification_Note":"Village","PS_Male":1,"PS_Female":1,"Map_Accuracy":"قریه"},"geometry":{"x":7752486.2262873612,"y":3960749.3397660255}},{"attributes":{"OBJECTID":1664,"ولایت":"خوست","Province":"KHOST","PC_Code":"1411132","ولسوالي":"سپیره","District":"SPERA","د_مرکز_نوم__نام_مرکز":"د کلي د لمنې خيمې","Polling_Center_Name":"Kali da lamani Khaima","د_مرکز_ځای__موقعیت_مرکز":"مندته کلی","Polling_Center_Location":"Mandata Village","Verification_Note":"Village","PS_Male":2,"PS_Female":1,"Map_Accuracy":"قریه"},"geometry":{"x":7729220.3825802878,"y":3910588.3419640213}},{"attributes":{"OBJECTID":1665,"ولایت":"خوست","Province":"KHOST","PC_Code":"1411168","ولسوالي":"سپیره","District":"SPERA","د_مرکز_نوم__نام_مرکز":"د ډنډکي کلى جومات","Polling_Center_Name":"Dandaki Village Mosque","د_مرکز_ځای__موقعیت_مرکز":"د ډنډکي لوی کلی","Polling_Center_Location":"Dandoki big Village","Verification_Note":"Village","PS_Male":0,"PS_Female":2,"Map_Accuracy":"قریه"},"geometry":{"x":7741034.9338715971,"y":3924872.7678307295}},{"attributes":{"OBJECTID":1666,"ولایت":"خوست","Province":"KHOST","PC_Code":"1412157","ولسوالي":"شمل","District":"SHAMUL","د_مرکز_نوم__نام_مرکز":"جومات کمال خيل تازه کلى","Polling_Center_Name":"Kamal Khel Taza Village Mosque","د_مرکز_ځای__موقعیت_مرکز":"کمال خيل تازه کلى","Polling_Center_Location":"Kamal Khail Taza Village","Verification_Note":"Village","PS_Male":1,"PS_Female":1,"Map_Accuracy":"قریه"},"geometry":{"x":7737349.7043552771,"y":3934800.8901880831}},{"attributes":{"OBJECTID":1667,"ولایت":"خوست","Province":"KHOST","PC_Code":"1413100","ولسوالي":"ځاځي میدان","District":"JAJI MAIDAN","د_مرکز_نوم__نام_مرکز":"د اسکندرې ښوونځی","Polling_Center_Name":"Askandary School ","د_مرکز_ځای__موقعیت_مرکز":"اسکندره","Polling_Center_Location":"Askandary ","Verification_Note":"Building","PS_Male":4,"PS_Female":1,"Map_Accuracy":"تعمیر"},"geometry":{"x":7793219.4005379416,"y":3985540.8634178266}},{"attributes":{"OBJECTID":1668,"ولایت":"خوست","Province":"KHOST","PC_Code":"1401011","ولسوالي":"خوست","District":"KHOST","د_مرکز_نوم__نام_مرکز":"د پاستې پالې جومات","Polling_Center_Name":"Pasti Pali Mosque","د_مرکز_ځای__موقعیت_مرکز":"شمل خرسين","Polling_Center_Location":"Shamal Khar Seen","Verification_Note":"Building","PS_Male":1,"PS_Female":1,"Map_Accuracy":"تعمیر"},"geometry":{"x":7798446.0721564814,"y":3933855.6654583141}},{"attributes":{"OBJECTID":1669,"ولایت":"خوست","Province":"KHOST","PC_Code":"1401012","ولسوالي":"خوست","District":"KHOST","د_مرکز_نوم__نام_مرکز":"د ظاهر خان هجره ( خرسين)","Polling_Center_Name":"Zahir Khan Hojra","د_مرکز_ځای__موقعیت_مرکز":"شمل خرسين","Polling_Center_Location":"Shamal Khar Seen","Verification_Note":"Village","PS_Male":1,"PS_Female":1,"Map_Accuracy":"قریه"},"geometry":{"x":7798241.765268635,"y":3933538.666917488}},{"attributes":{"OBJECTID":1670,"ولایت":"خوست","Province":"KHOST","PC_Code":"1401017","ولسوالي":"خوست","District":"KHOST","د_مرکز_نوم__نام_مرکز":"مرکزي جومات","Polling_Center_Name":"Central Mosque","د_مرکز_ځای__موقعیت_مرکز":"مرکز خوست ښار","Polling_Center_Location":"Khost City","Verification_Note":"Building","PS_Male":2,"PS_Female":2,"Map_Accuracy":"تعمیر"},"geometry":{"x":7783859.1935497671,"y":3940710.8115988523}},{"attributes":{"OBJECTID":1671,"ولایت":"خوست","Province":"KHOST","PC_Code":"1401018","ولسوالي":"خوست","District":"KHOST","د_مرکز_نوم__نام_مرکز":"د ښځو چارو رياست","Polling_Center_Name":"Women's Affairs Department","د_مرکز_ځای__موقعیت_مرکز":"خوست ښار د ښځوچارو رياست","Polling_Center_Location":"Khost City","Verification_Note":"Building","PS_Male":3,"PS_Female":2,"Map_Accuracy":"تعمیر"},"geometry":{"x":7783194.5560772009,"y":3939746.6879002377}},{"attributes":{"OBJECTID":1672,"ولایت":"خوست","Province":"KHOST","PC_Code":"1401028","ولسوالي":"خوست","District":"KHOST","د_مرکز_نوم__نام_مرکز":"د سروکي کلي جومات (لکڼ)","Polling_Center_Name":"Sroki Village Mosque ","د_مرکز_ځای__موقعیت_مرکز":"لکڼ ببرو کلى","Polling_Center_Location":"Lakan Babro Village ","Verification_Note":"Building","PS_Male":3,"PS_Female":2,"Map_Accuracy":"تعمیر"},"geometry":{"x":7800076.1089886278,"y":3946236.7276839986}},{"attributes":{"OBJECTID":1673,"ولایت":"خوست","Province":"KHOST","PC_Code":"1401029","ولسوالي":"خوست","District":"KHOST","د_مرکز_نوم__نام_مرکز":"د مديخيل کلی مدرسه","Polling_Center_Name":"Madikhel Village Madrassa","د_مرکز_ځای__موقعیت_مرکز":"مديخيل کلی","Polling_Center_Location":"Madikhel Village ","Verification_Note":"Village","PS_Male":2,"PS_Female":2,"Map_Accuracy":"قریه"},"geometry":{"x":7796136.848394312,"y":3945185.38018959}},{"attributes":{"OBJECTID":1674,"ولایت":"خوست","Province":"KHOST","PC_Code":"1401032","ولسوالي":"خوست","District":"KHOST","د_مرکز_نوم__نام_مرکز":"د ايوب خيل کلی جومات","Polling_Center_Name":"Ayoub Khel Village Mosque","د_مرکز_ځای__موقعیت_مرکز":"ايوب خيل کلی","Polling_Center_Location":"Ayoub Village","Verification_Note":"Building","PS_Male":2,"PS_Female":1,"Map_Accuracy":"تعمیر"},"geometry":{"x":7799985.6229405329,"y":3946042.6429570466}},{"attributes":{"OBJECTID":1675,"ولایت":"خوست","Province":"KHOST","PC_Code":"1401033","ولسوالي":"خوست","District":"KHOST","د_مرکز_نوم__نام_مرکز":"مدرسه","Polling_Center_Name":"Madrassa","د_مرکز_ځای__موقعیت_مرکز":"لکڼ چنار کلى","Polling_Center_Location":"Lakan Chinar Village","Verification_Note":"Village","PS_Male":2,"PS_Female":1,"Map_Accuracy":"قریه"},"geometry":{"x":7799032.5711388625,"y":3942234.4936449304}},{"attributes":{"OBJECTID":1676,"ولایت":"خوست","Province":"KHOST","PC_Code":"1401035","ولسوالي":"خوست","District":"KHOST","د_مرکز_نوم__نام_مرکز":"لوى مارکېټ عازي آباد","Polling_Center_Name":"Loy Market","د_مرکز_ځای__موقعیت_مرکز":"غازي آباد","Polling_Center_Location":"Ghazi Abad","Verification_Note":"Village","PS_Male":2,"PS_Female":1,"Map_Accuracy":"قریه"},"geometry":{"x":7795972.1534340717,"y":3934495.9612606391}},{"attributes":{"OBJECTID":1677,"ولایت":"خوست","Province":"KHOST","PC_Code":"1401036","ولسوالي":"خوست","District":"KHOST","د_مرکز_نوم__نام_مرکز":"د خليل کور ","Polling_Center_Name":"Khalil House ","د_مرکز_ځای__موقعیت_مرکز":"ماڼۍ کلى","Polling_Center_Location":"Mani Village","Verification_Note":"Village","PS_Male":2,"PS_Female":2,"Map_Accuracy":"قریه"},"geometry":{"x":7783504.3047867268,"y":3942326.5227779374}},{"attributes":{"OBJECTID":1678,"ولایت":"خوست","Province":"KHOST","PC_Code":"1402080","ولسوالي":"مندوزی","District":"MANDUZAY","د_مرکز_نوم__نام_مرکز":"د ډاډوالو ښکلى جومات ","Polling_Center_Name":"Dadwalow Nice Mosque","د_مرکز_ځای__موقعیت_مرکز":"د ډاډوالو کلى ","Polling_Center_Location":"Dadwalow Village","Verification_Note":"Village","PS_Male":1,"PS_Female":1,"Map_Accuracy":"قریه"},"geometry":{"x":7770013.8485802822,"y":3936481.7062125131}},{"attributes":{"OBJECTID":1679,"ولایت":"خوست","Province":"KHOST","PC_Code":"1402081","ولسوالي":"مندوزی","District":"MANDUZAY","د_مرکز_نوم__نام_مرکز":"د برهانخيلو جومات ","Polling_Center_Name":"Burhani Khelo Mosque","د_مرکز_ځای__موقعیت_مرکز":"د برهانخيلوکلى","Polling_Center_Location":"Burhani Khel Village","Verification_Note":"Building","PS_Male":1,"PS_Female":1,"Map_Accuracy":"تعمیر"},"geometry":{"x":7773556.06817317,"y":3936301.9011879414}},{"attributes":{"OBJECTID":1680,"ولایت":"خوست","Province":"KHOST","PC_Code":"1403151","ولسوالي":"گربز","District":"GURBUZ","د_مرکز_نوم__نام_مرکز":"د زوالدين ليسه","Polling_Center_Name":"Zolddin High School","د_مرکز_ځای__موقعیت_مرکز":"فاطلان کلی","Polling_Center_Location":"Fatlan Village","Verification_Note":"Village","PS_Male":1,"PS_Female":1,"Map_Accuracy":"قریه"},"geometry":{"x":7779632.3679940552,"y":3927829.6665717885}},{"attributes":{"OBJECTID":1681,"ولایت":"خوست","Province":"KHOST","PC_Code":"1403152","ولسوالي":"گربز","District":"GURBUZ","د_مرکز_نوم__نام_مرکز":"شيخ امير ليسه","Polling_Center_Name":"Shaikh Amer High School","د_مرکز_ځای__موقعیت_مرکز":"د ولسوالی مرکز شیخ امیر ","Polling_Center_Location":"District Center, Shaikh Amir","Verification_Note":"Building","PS_Male":2,"PS_Female":1,"Map_Accuracy":"تعمیر"},"geometry":{"x":7783502.54927836,"y":3933502.9656882137}},{"attributes":{"OBJECTID":1682,"ولایت":"خوست","Province":"KHOST","PC_Code":"1404143","ولسوالي":"تڼي","District":"TANAY","د_مرکز_نوم__نام_مرکز":"د دره ګي مدرسه ","Polling_Center_Name":"Daragi Madrassa","د_مرکز_ځای__موقعیت_مرکز":" دره ګى","Polling_Center_Location":"Dara Gai","Verification_Note":"Village","PS_Male":2,"PS_Female":1,"Map_Accuracy":"قریه"},"geometry":{"x":7772354.3174971119,"y":3932565.3046906292}},{"attributes":{"OBJECTID":1683,"ولایت":"خوست","Province":"KHOST","PC_Code":"1404144","ولسوالي":"تڼي","District":"TANAY","د_مرکز_نوم__نام_مرکز":"د تورخيلو جومات","Polling_Center_Name":"Toor Khel Village Mosque","د_مرکز_ځای__موقعیت_مرکز":" تور خيل","Polling_Center_Location":"Tora Khel","Verification_Note":"Building","PS_Male":2,"PS_Female":1,"Map_Accuracy":"تعمیر"},"geometry":{"x":7759694.0186008811,"y":3921768.3601866737}},{"attributes":{"OBJECTID":1684,"ولایت":"خوست","Province":"KHOST","PC_Code":"1405074","ولسوالي":"موسی خیل","District":"MUSA KHEL","د_مرکز_نوم__نام_مرکز":"د زوړ کوټ جومات","Polling_Center_Name":"Zoor Kot Mosque","د_مرکز_ځای__موقعیت_مرکز":" زوړ کوټ","Polling_Center_Location":"Zor Kot","Verification_Note":"Village","PS_Male":2,"PS_Female":1,"Map_Accuracy":"قریه"},"geometry":{"x":7762134.1340467073,"y":3968187.7120328471}},{"attributes":{"OBJECTID":1685,"ولایت":"خوست","Province":"KHOST","PC_Code":"1405075","ولسوالي":"موسی خیل","District":"MUSA KHEL","د_مرکز_نوم__نام_مرکز":"آزداه فضا په عوزک کی","Polling_Center_Name":"Open Space","د_مرکز_ځای__موقعیت_مرکز":"عوزک کلی","Polling_Center_Location":"Owzak Village","Verification_Note":"Village","PS_Male":2,"PS_Female":1,"Map_Accuracy":"قریه"},"geometry":{"x":7760090.568683356,"y":3974372.1874339357}},{"attributes":{"OBJECTID":1686,"ولایت":"خوست","Province":"KHOST","PC_Code":"1406114","ولسوالي":"نادرشاه کوت","District":"NADIRSHAH KOT","د_مرکز_نوم__نام_مرکز":"د ډاکټر عبدالبادشاه کور","Polling_Center_Name":"Dr. Abdul Badsha House","د_مرکز_ځای__موقعیت_مرکز":" لاټکې","Polling_Center_Location":"Latkai","Verification_Note":"Village","PS_Male":1,"PS_Female":1,"Map_Accuracy":"قریه"},"geometry":{"x":7762944.823804386,"y":3943654.6329061389}},{"attributes":{"OBJECTID":1687,"ولایت":"خوست","Province":"KHOST","PC_Code":"1406115","ولسوالي":"نادرشاه کوت","District":"NADIRSHAH KOT","د_مرکز_نوم__نام_مرکز":"ماکوش جومات ","Polling_Center_Name":"Makosh Mosque","د_مرکز_ځای__موقعیت_مرکز":" ليړه","Polling_Center_Location":"lera","Verification_Note":"Village","PS_Male":1,"PS_Female":1,"Map_Accuracy":"قریه"},"geometry":{"x":7755717.9279530458,"y":3935126.2433702424}},{"attributes":{"OBJECTID":1688,"ولایت":"خوست","Province":"KHOST","PC_Code":"1406126","ولسوالي":"نادرشاه کوت","District":"NADIRSHAH KOT","د_مرکز_نوم__نام_مرکز":"د اووم کلي مدرسه","Polling_Center_Name":"Owm Village Madrassa","د_مرکز_ځای__موقعیت_مرکز":"اوم کلى","Polling_Center_Location":"Owm Village","Verification_Note":"Building","PS_Male":1,"PS_Female":1,"Map_Accuracy":"تعمیر"},"geometry":{"x":7767139.5848939717,"y":3946332.853386052}},{"attributes":{"OBJECTID":1689,"ولایت":"خوست","Province":"KHOST","PC_Code":"1407064","ولسوالي":"صبری","District":"SABARI","د_مرکز_نوم__نام_مرکز":"د موچي کلي ښوونځی","Polling_Center_Name":"Mochi Village School","د_مرکز_ځای__موقعیت_مرکز":" موچي کلى","Polling_Center_Location":"Mochi Village","Verification_Note":"Village","PS_Male":5,"PS_Female":3,"Map_Accuracy":"قریه"},"geometry":{"x":7782985.0093809329,"y":3961345.6928953007}},{"attributes":{"OBJECTID":1690,"ولایت":"خوست","Province":"KHOST","PC_Code":"1407167","ولسوالي":"صبری","District":"SABARI","د_مرکز_نوم__نام_مرکز":"د ولسوالى مرکز","Polling_Center_Name":"District Center","د_مرکز_ځای__موقعیت_مرکز":"حلبسات","Polling_Center_Location":"Halbasat","Verification_Note":"Village","PS_Male":3,"PS_Female":0,"Map_Accuracy":"قریه"},"geometry":{"x":7779748.1358117014,"y":3971297.2330861092}},{"attributes":{"OBJECTID":1691,"ولایت":"خوست","Province":"KHOST","PC_Code":"1408048","ولسوالي":"علی شیر","District":"ALI SHER","د_مرکز_نوم__نام_مرکز":"د نظام الدين هجره ","Polling_Center_Name":"Nizamuddin Hojra","د_مرکز_ځای__موقعیت_مرکز":" صدق","Polling_Center_Location":"Sedeeq","Verification_Note":"Village","PS_Male":2,"PS_Female":1,"Map_Accuracy":"قریه"},"geometry":{"x":7815486.457943745,"y":3938221.517924495}},{"attributes":{"OBJECTID":1692,"ولایت":"خوست","Province":"KHOST","PC_Code":"1409058","ولسوالي":"باک","District":"BAAK","د_مرکز_نوم__نام_مرکز":"سپرکۍ جومات ","Polling_Center_Name":"Spearkai Mosque","د_مرکز_ځای__موقعیت_مرکز":"شګو کلی","Polling_Center_Location":"Shaga Village ","Verification_Note":"Building","PS_Male":2,"PS_Female":1,"Map_Accuracy":"تعمیر"},"geometry":{"x":7794407.89929653,"y":3967573.261686869}},{"attributes":{"OBJECTID":1693,"ولایت":"خوست","Province":"KHOST","PC_Code":"1409059","ولسوالي":"باک","District":"BAAK","د_مرکز_نوم__نام_مرکز":"ښوونځى کوټکي عوازي کلى","Polling_Center_Name":"School ","د_مرکز_ځای__موقعیت_مرکز":" کوټکي عوازي کلى","Polling_Center_Location":"Kotaki Awazi Village","Verification_Note":"Village","PS_Male":2,"PS_Female":1,"Map_Accuracy":"قریه"},"geometry":{"x":7798979.7455877028,"y":3962226.5065127388}},{"attributes":{"OBJECTID":1694,"ولایت":"خوست","Province":"KHOST","PC_Code":"1411129","ولسوالي":"سپیره","District":"SPERA","د_مرکز_نوم__نام_مرکز":"هوار ميدان (غورمه)","Polling_Center_Name":"Open Space","د_مرکز_ځای__موقعیت_مرکز":"غورمه","Polling_Center_Location":"Ghorma","Verification_Note":"Village","PS_Male":2,"PS_Female":2,"Map_Accuracy":"قریه"},"geometry":{"x":7733532.32413185,"y":3921263.4537983835}},{"attributes":{"OBJECTID":1695,"ولایت":"خوست","Province":"KHOST","PC_Code":"1411130","ولسوالي":"سپیره","District":"SPERA","د_مرکز_نوم__نام_مرکز":"خیمه په تورمنده کلی کی ","Polling_Center_Name":"Tormanda Village Tent ","د_مرکز_ځای__موقعیت_مرکز":"تورمنده کلی","Polling_Center_Location":"Tormanda Village","Verification_Note":"Village","PS_Male":2,"PS_Female":1,"Map_Accuracy":"قریه"},"geometry":{"x":7735550.7635729425,"y":3913264.2239139155}},{"attributes":{"OBJECTID":1696,"ولایت":"خوست","Province":"KHOST","PC_Code":"1411171","ولسوالي":"سپیره","District":"SPERA","د_مرکز_نوم__نام_مرکز":"د پړوند اڅړخيلو کلى جومات","Polling_Center_Name":"Parwand Asar Khel Village Mosque","د_مرکز_ځای__موقعیت_مرکز":"اڅړ خيل","Polling_Center_Location":"Asar Khel","Verification_Note":"Village","PS_Male":1,"PS_Female":1,"Map_Accuracy":"قریه"},"geometry":{"x":7737226.4669998027,"y":3913720.7052014694}},{"attributes":{"OBJECTID":1697,"ولایت":"خوست","Province":"KHOST","PC_Code":"1411172","ولسوالي":"سپیره","District":"SPERA","د_مرکز_نوم__نام_مرکز":"د برخيلو منديي","Polling_Center_Name":"Bar Khel Mandaye","د_مرکز_ځای__موقعیت_مرکز":"برخيل","Polling_Center_Location":"Bar Khel","Verification_Note":"District","PS_Male":1,"PS_Female":1,"Map_Accuracy":"ولسوالی"},"geometry":{"x":7735986.3033070639,"y":3917941.0764129683}},{"attributes":{"OBJECTID":1698,"ولایت":"خوست","Province":"KHOST","PC_Code":"1413104","ولسوالي":"ځاځي میدان","District":"JAJI MAIDAN","د_مرکز_نوم__نام_مرکز":"هوار ميدان کوچي خيل","Polling_Center_Name":"Open Space","د_مرکز_ځای__موقعیت_مرکز":"کوچي خيل","Polling_Center_Location":"Kuchi Khel","Verification_Note":"Village","PS_Male":2,"PS_Female":3,"Map_Accuracy":"قریه"},"geometry":{"x":7797597.0539849214,"y":3981764.217716597}},{"attributes":{"OBJECTID":1699,"ولایت":"کنړ ","Province":"KUNAR","PC_Code":"1501001","ولسوالي":"اسعد آباد","District":"ASAD ABAD","د_مرکز_نوم__نام_مرکز":"لیسه عمرا خان","Polling_Center_Name":"Omera Khan High School","د_مرکز_ځای__موقعیت_مرکز":"دم کلی","Polling_Center_Location":"Dam Village","Verification_Note":"Village","PS_Male":6,"PS_Female":0,"Map_Accuracy":"قریه"},"geometry":{"x":7920440.5210290812,"y":4146500.407651037}},{"attributes":{"OBJECTID":1700,"ولایت":"خوست","Province":"KHOST","PC_Code":"1402178","ولسوالي":"مندوزائی","District":"MANDUZAY","د_مرکز_نوم__نام_مرکز":"شيرزاعلي جومات","Polling_Center_Name":"Shiraz ali Mosque","د_مرکز_ځای__موقعیت_مرکز":"کرام کلى","Polling_Center_Location":"Kram village","Verification_Note":"Building","PS_Male":2,"PS_Female":1,"Map_Accuracy":"تعمیر"},"geometry":{"x":7772278.17685784,"y":3937696.9138778672}},{"attributes":{"OBJECTID":1701,"ولایت":"خوست","Province":"KHOST","PC_Code":"1402179","ولسوالي":"مندوزائی","District":"MANDUZAY","د_مرکز_نوم__نام_مرکز":"نورشاه حجره ورزه کلى","Polling_Center_Name":"Noor sha House","د_مرکز_ځای__موقعیت_مرکز":"ورزه کلى","Polling_Center_Location":"Warza village","Verification_Note":"Building","PS_Male":2,"PS_Female":1,"Map_Accuracy":"تعمیر"},"geometry":{"x":7769705.8869938627,"y":3943648.1288609132}},{"attributes":{"OBJECTID":1702,"ولایت":"خوست","Province":"KHOST","PC_Code":"1401007","ولسوالي":"خوست","District":"KHOST","د_مرکز_نوم__نام_مرکز":"د سرکي جان کلي جومات شمل","Polling_Center_Name":"Sarkai Jan Village Mosque","د_مرکز_ځای__موقعیت_مرکز":" شمل سرکى جان کلى","Polling_Center_Location":"Shamal Serkai Jaan Village","Verification_Note":"Building","PS_Male":1,"PS_Female":1,"Map_Accuracy":"تعمیر"},"geometry":{"x":7794532.0565962866,"y":3941049.7732047141}},{"attributes":{"OBJECTID":1703,"ولایت":"خوست","Province":"KHOST","PC_Code":"1401008","ولسوالي":"خوست","District":"KHOST","د_مرکز_نوم__نام_مرکز":"د سرکي جان کلي د اکبر جان هجره","Polling_Center_Name":"Akber Jan Hojra","د_مرکز_ځای__موقعیت_مرکز":" شمل سرکى جان کلى","Polling_Center_Location":"Shamal Serkai Jaan Village","Verification_Note":"Village","PS_Male":1,"PS_Female":1,"Map_Accuracy":"قریه"},"geometry":{"x":7793976.7871838361,"y":3941005.0341935232}},{"attributes":{"OBJECTID":1704,"ولایت":"خوست","Province":"KHOST","PC_Code":"1401039","ولسوالي":"خوست","District":"KHOST","د_مرکز_نوم__نام_مرکز":"جومات","Polling_Center_Name":"Mosque","د_مرکز_ځای__موقعیت_مرکز":"اڅړ","Polling_Center_Location":"Asarr","Verification_Note":"Village","PS_Male":2,"PS_Female":1,"Map_Accuracy":"قریه"},"geometry":{"x":7774185.8826826178,"y":3947623.74319461}},{"attributes":{"OBJECTID":1705,"ولایت":"خوست","Province":"KHOST","PC_Code":"1401040","ولسوالي":"خوست","District":"KHOST","د_مرکز_نوم__نام_مرکز":"رحمت ګل هجره ","Polling_Center_Name":"Rahmat Gul Hojra","د_مرکز_ځای__موقعیت_مرکز":"حبشخيل","Polling_Center_Location":"Habash Khel","Verification_Note":"Building","PS_Male":2,"PS_Female":1,"Map_Accuracy":"تعمیر"},"geometry":{"x":7782742.7347543649,"y":3944382.8843199685}},{"attributes":{"OBJECTID":1706,"ولایت":"خوست","Province":"KHOST","PC_Code":"1402083","ولسوالي":"مندوزی","District":"MANDUZAY","د_مرکز_نوم__نام_مرکز":"جومات حسن محمد ","Polling_Center_Name":"Hassan Mohammad Mosque","د_مرکز_ځای__موقعیت_مرکز":"حسن محمد مندوزى","Polling_Center_Location":"Hassan Mohammad Mandozai","Verification_Note":"Village","PS_Male":1,"PS_Female":1,"Map_Accuracy":"قریه"},"geometry":{"x":7770098.8677281737,"y":3938322.6517312005}},{"attributes":{"OBJECTID":1707,"ولایت":"خوست","Province":"KHOST","PC_Code":"1402087","ولسوالي":"مندوزی","District":"MANDUZAY","د_مرکز_نوم__نام_مرکز":"د ژورې ګلي خانو خيل جومات","Polling_Center_Name":"Zhawari Village Khano Khel Mosque","د_مرکز_ځای__موقعیت_مرکز":"د ژورې کلي خانو خيل ","Polling_Center_Location":"Zhawari Village Khano Khel ","Verification_Note":"Village","PS_Male":1,"PS_Female":1,"Map_Accuracy":"قریه"},"geometry":{"x":7766677.315123722,"y":3937217.8493147269}},{"attributes":{"OBJECTID":1708,"ولایت":"خوست","Province":"KHOST","PC_Code":"1402088","ولسوالي":"مندوزی","District":"MANDUZAY","د_مرکز_نوم__نام_مرکز":"شډل کلي جومات","Polling_Center_Name":"Shadal Village Mosque","د_مرکز_ځای__موقعیت_مرکز":"شډل","Polling_Center_Location":"Shadal","Verification_Note":"Building","PS_Male":1,"PS_Female":1,"Map_Accuracy":"تعمیر"},"geometry":{"x":7761365.1679473817,"y":3936494.7041456029}},{"attributes":{"OBJECTID":1709,"ولایت":"خوست","Province":"KHOST","PC_Code":"1402092","ولسوالي":"مندوزی","District":"MANDUZAY","د_مرکز_نوم__نام_مرکز":"د ډاډوالو د ډول کلي جومات","Polling_Center_Name":"Dadwalo Village Mosque","د_مرکز_ځای__موقعیت_مرکز":" ډډوال شمل خيل","Polling_Center_Location":"Dadwaal Shamal Khel","Verification_Note":"Building","PS_Male":1,"PS_Female":1,"Map_Accuracy":"تعمیر"},"geometry":{"x":7771529.7551044933,"y":3936513.8094552755}},{"attributes":{"OBJECTID":1710,"ولایت":"خوست","Province":"KHOST","PC_Code":"1402093","ولسوالي":"مندوزی","District":"MANDUZAY","د_مرکز_نوم__نام_مرکز":"د دلپوريو متوسطه ښوونځی","Polling_Center_Name":"Dalpowrio Secondary School","د_مرکز_ځای__موقعیت_مرکز":"د دلپوريو کلی","Polling_Center_Location":"Dalporayo Village","Verification_Note":"Village","PS_Male":1,"PS_Female":1,"Map_Accuracy":"قریه"},"geometry":{"x":7763377.0618024059,"y":3935395.979928121}},{"attributes":{"OBJECTID":1711,"ولایت":"خوست","Province":"KHOST","PC_Code":"1403147","ولسوالي":"گربز","District":"GURBUZ","د_مرکز_نوم__نام_مرکز":"د شهيد محمد قادر محمد ليسه","Polling_Center_Name":"Shaheed Mohammad Qadir High School","د_مرکز_ځای__موقعیت_مرکز":"شهيد کلى","Polling_Center_Location":"Shaheed Village","Verification_Note":"Building","PS_Male":3,"PS_Female":0,"Map_Accuracy":"تعمیر"},"geometry":{"x":7788442.8359221,"y":3932994.1608491093}},{"attributes":{"OBJECTID":1712,"ولایت":"خوست","Province":"KHOST","PC_Code":"1403148","ولسوالي":"گربز","District":"GURBUZ","د_مرکز_نوم__نام_مرکز":"د محمد يعقوب خان جومات","Polling_Center_Name":"Mohammad Yaqoob Khan Mosque","د_مرکز_ځای__موقعیت_مرکز":"د مرمنډى کلى","Polling_Center_Location":"Marmandi Village","Verification_Note":"Village","PS_Male":3,"PS_Female":1,"Map_Accuracy":"قریه"},"geometry":{"x":7790206.923685059,"y":3934646.3251139894}},{"attributes":{"OBJECTID":1713,"ولایت":"خوست","Province":"KHOST","PC_Code":"1403154","ولسوالي":"گربز","District":"GURBUZ","د_مرکز_نوم__نام_مرکز":"د بوږي خيلو کلي جومات","Polling_Center_Name":"Bozhi Khel Village Mosque","د_مرکز_ځای__موقعیت_مرکز":"بوږي خيل","Polling_Center_Location":"Bogi Khel ","Verification_Note":"Building","PS_Male":1,"PS_Female":1,"Map_Accuracy":"تعمیر"},"geometry":{"x":7783958.7410044074,"y":3926223.3294408992}},{"attributes":{"OBJECTID":1714,"ولایت":"خوست","Province":"KHOST","PC_Code":"1404135","ولسوالي":"تڼي","District":"TANAY","د_مرکز_نوم__نام_مرکز":"ډاکټر بادشاه خان کور خبي خيل","Polling_Center_Name":"Dr. Badshah khan House","د_مرکز_ځای__موقعیت_مرکز":"خبي خيل","Polling_Center_Location":"Khabi khail","Verification_Note":"District","PS_Male":2,"PS_Female":2,"Map_Accuracy":"ولسوالی"},"geometry":{"x":7777188.5823446214,"y":3927604.5984489545}},{"attributes":{"OBJECTID":1715,"ولایت":"خوست","Province":"KHOST","PC_Code":"1404138","ولسوالي":"تڼي","District":"TANAY","د_مرکز_نوم__نام_مرکز":"ملک خونه ګل جومات کوچان","Polling_Center_Name":"Malik Khona Gul Mosque","د_مرکز_ځای__موقعیت_مرکز":"کوچان","Polling_Center_Location":"Kochan","Verification_Note":"Village","PS_Male":2,"PS_Female":2,"Map_Accuracy":"قریه"},"geometry":{"x":7750311.8148813359,"y":3915720.8447258919}},{"attributes":{"OBJECTID":1716,"ولایت":"خوست","Province":"KHOST","PC_Code":"1404139","ولسوالي":"تڼي","District":"TANAY","د_مرکز_نوم__نام_مرکز":"د ورژلې مدرسه ","Polling_Center_Name":"Warzhali Madrassa","د_مرکز_ځای__موقعیت_مرکز":"د ورژاله تنداى","Polling_Center_Location":"Warzhala Tandai","Verification_Note":"Building","PS_Male":3,"PS_Female":1,"Map_Accuracy":"تعمیر"},"geometry":{"x":7754550.4202655517,"y":3914637.1209689528}},{"attributes":{"OBJECTID":1717,"ولایت":"خوست","Province":"KHOST","PC_Code":"1405070","ولسوالي":"موسی خیل","District":"MUSA KHEL","د_مرکز_نوم__نام_مرکز":"د باډک هجره ","Polling_Center_Name":"Badak Hojra","د_مرکز_ځای__موقعیت_مرکز":"وچکړى کلى","Polling_Center_Location":"Wachkri Village","Verification_Note":"Village","PS_Male":2,"PS_Female":1,"Map_Accuracy":"قریه"},"geometry":{"x":7748456.5453234538,"y":3972060.7747584209}},{"attributes":{"OBJECTID":1718,"ولایت":"خوست","Province":"KHOST","PC_Code":"1405071","ولسوالي":"موسی خیل","District":"MUSA KHEL","د_مرکز_نوم__نام_مرکز":"د غرنى تپې جومات","Polling_Center_Name":"Gharani Tapa Mosque","د_مرکز_ځای__موقعیت_مرکز":"غرنۍ تپه","Polling_Center_Location":"Gharani Tapa","Verification_Note":"Village","PS_Male":1,"PS_Female":1,"Map_Accuracy":"قریه"},"geometry":{"x":7776258.8196936175,"y":3954299.0532103404}},{"attributes":{"OBJECTID":1719,"ولایت":"خوست","Province":"KHOST","PC_Code":"1408054","ولسوالي":"علی شیر","District":"ALI SHER","د_مرکز_نوم__نام_مرکز":"مرکزي باغ بلاوټ","Polling_Center_Name":"Balawat Markarzi Bagh ","د_مرکز_ځای__موقعیت_مرکز":"بلاوت موت خيل کلى","Polling_Center_Location":"Balawat Mot Khel Village","Verification_Note":"District","PS_Male":4,"PS_Female":2,"Map_Accuracy":"ولسوالی"},"geometry":{"x":7808629.3988366649,"y":3951208.7644861341}},{"attributes":{"OBJECTID":1720,"ولایت":"خوست","Province":"KHOST","PC_Code":"1408163","ولسوالي":"علی شیر","District":"ALI SHER","د_مرکز_نوم__نام_مرکز":"ادم خان مرکزي جومات ببرک تهانه","Polling_Center_Name":"Adam Khan Central Mosque ","د_مرکز_ځای__موقعیت_مرکز":"ببرک تاڼه","Polling_Center_Location":"Babrak Tana Village","Verification_Note":"Village","PS_Male":4,"PS_Female":3,"Map_Accuracy":"قریه"},"geometry":{"x":7814705.78437357,"y":3955851.0242031664}},{"attributes":{"OBJECTID":1721,"ولایت":"خوست","Province":"KHOST","PC_Code":"1408164","ولسوالي":"علی شیر","District":"ALI SHER","د_مرکز_نوم__نام_مرکز":"بټى تاڼه","Polling_Center_Name":"Bati Tana","د_مرکز_ځای__موقعیت_مرکز":"ببرک تاڼه","Polling_Center_Location":"Babrak Tana Village","Verification_Note":"Village","PS_Male":2,"PS_Female":2,"Map_Accuracy":"قریه"},"geometry":{"x":7815690.0356889255,"y":3956005.5413317904}},{"attributes":{"OBJECTID":1722,"ولایت":"خوست","Province":"KHOST","PC_Code":"1409062","ولسوالي":"باک","District":"BAAK","د_مرکز_نوم__نام_مرکز":"د رحيم جمال هجره","Polling_Center_Name":"Rahim Jamal Hojra","د_مرکز_ځای__موقعیت_مرکز":" مانه کهول","Polling_Center_Location":"Mana Kahol","Verification_Note":"Village","PS_Male":2,"PS_Female":1,"Map_Accuracy":"قریه"},"geometry":{"x":7794801.2683132291,"y":3966904.7794484571}},{"attributes":{"OBJECTID":1723,"ولایت":"خوست","Province":"KHOST","PC_Code":"1409063","ولسوالي":"باک","District":"BAAK","د_مرکز_نوم__نام_مرکز":"د ولسوالۍ مرکز","Polling_Center_Name":"District Compound","د_مرکز_ځای__موقعیت_مرکز":" د يعقوبيو ولسوالۍ مرکز","Polling_Center_Location":"Yaqobayo District Center","Verification_Note":"Building","PS_Male":1,"PS_Female":1,"Map_Accuracy":"تعمیر"},"geometry":{"x":7794991.3942111395,"y":3964905.7759497464}},{"attributes":{"OBJECTID":1724,"ولایت":"خوست","Province":"KHOST","PC_Code":"1411173","ولسوالي":"سپیره","District":"SPERA","د_مرکز_نوم__نام_مرکز":"د خوست خيل کلى او دوکانونه","Polling_Center_Name":"Khost Khel Village Shops","د_مرکز_ځای__موقعیت_مرکز":"د خوست خيل کلى","Polling_Center_Location":"Khost Khel Village","Verification_Note":"Village","PS_Male":1,"PS_Female":1,"Map_Accuracy":"قریه"},"geometry":{"x":7727943.3509853892,"y":3919260.9533736631}},{"attributes":{"OBJECTID":1725,"ولایت":"خوست","Province":"KHOST","PC_Code":"1412155","ولسوالي":"شمل","District":"SHAMUL","د_مرکز_نوم__نام_مرکز":"د دوه منده ښوونځی","Polling_Center_Name":"Dwa Manda Village School ","د_مرکز_ځای__موقعیت_مرکز":" دوه منده","Polling_Center_Location":"Dowa Manda","Verification_Note":"Building","PS_Male":2,"PS_Female":1,"Map_Accuracy":"تعمیر"},"geometry":{"x":7747548.0168653242,"y":3932233.5452522486}},{"attributes":{"OBJECTID":1726,"ولایت":"خوست","Province":"KHOST","PC_Code":"1413186","ولسوالي":"جاجی میدان","District":"JAJI MAIDAN","د_مرکز_نوم__نام_مرکز":" شيخانو جامع جومات","Polling_Center_Name":"Shaikhano Mosque","د_مرکز_ځای__موقعیت_مرکز":"شيخان","Polling_Center_Location":"Shaikhan","Verification_Note":"Building","PS_Male":2,"PS_Female":1,"Map_Accuracy":"تعمیر"},"geometry":{"x":7790956.4100980125,"y":3982262.9294322953}},{"attributes":{"OBJECTID":1727,"ولایت":"کنړ ","Province":"KUNAR","PC_Code":"1506120","ولسوالي":"شیگل وشلتن","District":"SHIGAL WA SHILTAN","د_مرکز_نوم__نام_مرکز":"کلنیک","Polling_Center_Name":"Clinic","د_مرکز_ځای__موقعیت_مرکز":"ډیری","Polling_Center_Location":"Dirai","Verification_Note":"Building","PS_Male":2,"PS_Female":1,"Map_Accuracy":"تعمیر"},"geometry":{"x":7930305.3294728994,"y":4169157.4142040014}},{"attributes":{"OBJECTID":1728,"ولایت":"کنړ ","Province":"KUNAR","PC_Code":"1510121","ولسوالي":"خاص کنر","District":"KHAS KUNAR","د_مرکز_نوم__نام_مرکز":"مسجد","Polling_Center_Name":"Mosque","د_مرکز_ځای__موقعیت_مرکز":"شامکار","Polling_Center_Location":"Shamkar","Verification_Note":"Building","PS_Male":2,"PS_Female":1,"Map_Accuracy":"تعمیر"},"geometry":{"x":7898505.9360917732,"y":4121727.6960850507}},{"attributes":{"OBJECTID":1729,"ولایت":"خوست","Province":"KHOST","PC_Code":"1408183","ولسوالي":"تری زائی","District":"ALI SHER","د_مرکز_نوم__نام_مرکز":"مسجد","Polling_Center_Name":"Mosque","د_مرکز_ځای__موقعیت_مرکز":"متاخيل","Polling_Center_Location":"Mata khil","Verification_Note":"Building","PS_Male":2,"PS_Female":1,"Map_Accuracy":"تعمیر"},"geometry":{"x":7799204.44843265,"y":3952193.2201682627}},{"attributes":{"OBJECTID":1730,"ولایت":"خوست","Province":"KHOST","PC_Code":"1408184","ولسوالي":"تری زائی","District":"ALI SHER","د_مرکز_نوم__نام_مرکز":"مسجد ښکرى","Polling_Center_Name":"Shakari Mosque","د_مرکز_ځای__موقعیت_مرکز":"د ښکرى کلى","Polling_Center_Location":"Shakari village","Verification_Note":"Building","PS_Male":2,"PS_Female":1,"Map_Accuracy":"تعمیر"},"geometry":{"x":7800678.0598955788,"y":3951214.6575304717}},{"attributes":{"OBJECTID":1731,"ولایت":"کنړ ","Province":"KUNAR","PC_Code":"1502043","ولسوالي":"مره وره","District":"MARA WARA","د_مرکز_نوم__نام_مرکز":"مکتب ابتدائیه","Polling_Center_Name":"Khan Ghondy Primary School","د_مرکز_ځای__موقعیت_مرکز":"خان غوندی","Polling_Center_Location":"Khan Ghondy","Verification_Note":"Building","PS_Male":3,"PS_Female":1,"Map_Accuracy":"تعمیر"},"geometry":{"x":7923358.54552041,"y":4148376.7970770523}},{"attributes":{"OBJECTID":1732,"ولایت":"کنړ ","Province":"KUNAR","PC_Code":"1504031","ولسوالي":"نرنګ","District":"NARANG","د_مرکز_نوم__نام_مرکز":"لیسه نرنګ ","Polling_Center_Name":"Narang High School","د_مرکز_ځای__موقعیت_مرکز":"نرنګ","Polling_Center_Location":"Narang","Verification_Note":"Building","PS_Male":2,"PS_Female":2,"Map_Accuracy":"تعمیر"},"geometry":{"x":7906179.9732832424,"y":4129975.176463291}},{"attributes":{"OBJECTID":1733,"ولایت":"کنړ ","Province":"KUNAR","PC_Code":"1504032","ولسوالي":"نرنګ","District":"NARANG","د_مرکز_نوم__نام_مرکز":"مکتب لمتک","Polling_Center_Name":"Lamtak Primary School","د_مرکز_ځای__موقعیت_مرکز":"لمټک ","Polling_Center_Location":"Lamtak","Verification_Note":"Building","PS_Male":2,"PS_Female":1,"Map_Accuracy":"تعمیر"},"geometry":{"x":7909472.7526139431,"y":4131412.5149822608}},{"attributes":{"OBJECTID":1734,"ولایت":"کنړ ","Province":"KUNAR","PC_Code":"1507020","ولسوالي":"دره پیچ","District":"DARA-E-PECH","د_مرکز_نوم__نام_مرکز":"مدرسه قریه","Polling_Center_Name":"Nanglam Village Madrassa","د_مرکز_ځای__موقعیت_مرکز":"ننگلام","Polling_Center_Location":"Nanglam","Verification_Note":"Village","PS_Male":2,"PS_Female":1,"Map_Accuracy":"قریه"},"geometry":{"x":7893354.0476826429,"y":4161361.2734628096}},{"attributes":{"OBJECTID":1735,"ولایت":"کنړ ","Province":"KUNAR","PC_Code":"1507021","ولسوالي":"دره پیچ","District":"DARA-E-PECH","د_مرکز_نوم__نام_مرکز":"مکتب ابتدائیه","Polling_Center_Name":"Shahilam Primary School","د_مرکز_ځای__موقعیت_مرکز":"شاهیلام","Polling_Center_Location":"Shahilam","Verification_Note":"Village","PS_Male":2,"PS_Female":1,"Map_Accuracy":"قریه"},"geometry":{"x":7894692.4708635136,"y":4165718.0512557104}},{"attributes":{"OBJECTID":1736,"ولایت":"کنړ ","Province":"KUNAR","PC_Code":"1508059","ولسوالي":"بر کنړ ","District":"BAR KUNAR","د_مرکز_نوم__نام_مرکز":"مسجد قریه","Polling_Center_Name":"Sher Kasi Village Mosque","د_مرکز_ځای__موقعیت_مرکز":"شیرکڅی","Polling_Center_Location":"Sher Kasi Village","Verification_Note":"Village","PS_Male":2,"PS_Female":1,"Map_Accuracy":"قریه"},"geometry":{"x":7942006.1151389368,"y":4167299.2320748419}},{"attributes":{"OBJECTID":1737,"ولایت":"کنړ ","Province":"KUNAR","PC_Code":"1508060","ولسوالي":"بر کنړ ","District":"BAR KUNAR","د_مرکز_نوم__نام_مرکز":"مسجد قریه","Polling_Center_Name":"Dambaro Village Mosque","د_مرکز_ځای__موقعیت_مرکز":"دمبارو","Polling_Center_Location":"Dambaro Village ","Verification_Note":"Building","PS_Male":2,"PS_Female":1,"Map_Accuracy":"تعمیر"},"geometry":{"x":7939893.6020452008,"y":4165013.6679982692}},{"attributes":{"OBJECTID":1738,"ولایت":"کنړ ","Province":"KUNAR","PC_Code":"1511117","ولسوالي":"غازی آباد","District":"GHAZI ABAD","د_مرکز_نوم__نام_مرکز":"مکتب دخترانه","Polling_Center_Name":"Sokai Girls School","د_مرکز_ځای__موقعیت_مرکز":"نیشاگام","Polling_Center_Location":"Nishagam","Verification_Note":"Village","PS_Male":2,"PS_Female":2,"Map_Accuracy":"قریه"},"geometry":{"x":7947437.8085390739,"y":4183854.2754147649}},{"attributes":{"OBJECTID":1739,"ولایت":"کنړ ","Province":"KUNAR","PC_Code":"1511118","ولسوالي":"غازی آباد","District":"GHAZI ABAD","د_مرکز_نوم__نام_مرکز":"کلینیک AMI","Polling_Center_Name":"AMI Clinic","د_مرکز_ځای__موقعیت_مرکز":"بارګام","Polling_Center_Location":"Bargam","Verification_Note":"Village","PS_Male":3,"PS_Female":2,"Map_Accuracy":"قریه"},"geometry":{"x":7945956.9765600227,"y":4181183.9742132425}},{"attributes":{"OBJECTID":1740,"ولایت":"کنړ ","Province":"KUNAR","PC_Code":"1514085","ولسوالي":"نور ګل","District":"NOOR GAL","د_مرکز_نوم__نام_مرکز":"مکتب متوسطه","Polling_Center_Name":"Patan Secondary School","د_مرکز_ځای__موقعیت_مرکز":"پتن","Polling_Center_Location":"Patan","Verification_Note":"Building","PS_Male":3,"PS_Female":2,"Map_Accuracy":"تعمیر"},"geometry":{"x":7880510.4356413409,"y":4113593.9776772782}},{"attributes":{"OBJECTID":1741,"ولایت":"کنړ ","Province":"KUNAR","PC_Code":"1514086","ولسوالي":"نور ګل","District":"NOOR GAL","د_مرکز_نوم__نام_مرکز":"مکتب سیراوړ","Polling_Center_Name":"Sirawar Village School","د_مرکز_ځای__موقعیت_مرکز":"سیراور","Polling_Center_Location":"Sirawar","Verification_Note":"Building","PS_Male":3,"PS_Female":1,"Map_Accuracy":"تعمیر"},"geometry":{"x":7874600.1755201407,"y":4114925.7303316891}},{"attributes":{"OBJECTID":1742,"ولایت":"کنړ ","Province":"KUNAR","PC_Code":"1515110","ولسوالي":"نری","District":"NARI","د_مرکز_نوم__نام_مرکز":"مکتب ابتدائیه","Polling_Center_Name":"Machmana Primary School","د_مرکز_ځای__موقعیت_مرکز":"مچ منه","Polling_Center_Location":"Machmana","Verification_Note":"Village","PS_Male":3,"PS_Female":1,"Map_Accuracy":"قریه"},"geometry":{"x":7965645.24783032,"y":4193913.8940587416}},{"attributes":{"OBJECTID":1743,"ولایت":"کنړ ","Province":"KUNAR","PC_Code":"1501002","ولسوالي":"اسعد آباد","District":"ASAD ABAD","د_مرکز_نوم__نام_مرکز":"امام ابو حنیفه مسجد ","Polling_Center_Name":"Imam-e-Abu Hanifa Mosque","د_مرکز_ځای__موقعیت_مرکز":"دم کلی","Polling_Center_Location":"Dam Village","Verification_Note":"Building","PS_Male":3,"PS_Female":2,"Map_Accuracy":"تعمیر"},"geometry":{"x":7920284.9331163764,"y":4146638.1807813123}},{"attributes":{"OBJECTID":1744,"ولایت":"کنړ ","Province":"KUNAR","PC_Code":"1501003","ولسوالي":"اسعد آباد","District":"ASAD ABAD","د_مرکز_نوم__نام_مرکز":"ریاست امورزنان","Polling_Center_Name":"Women Affairs Department","د_مرکز_ځای__موقعیت_مرکز":"اسعد آباد","Polling_Center_Location":"Asad Abad","Verification_Note":"Building","PS_Male":4,"PS_Female":4,"Map_Accuracy":"تعمیر"},"geometry":{"x":7920231.6489289142,"y":4147025.9449067935}},{"attributes":{"OBJECTID":1745,"ولایت":"کنړ ","Province":"KUNAR","PC_Code":"1501006","ولسوالي":"اسعد آباد","District":"ASAD ABAD","د_مرکز_نوم__نام_مرکز":"مکتب ابتدائیه تیشه ","Polling_Center_Name":"Tesha Primary School","د_مرکز_ځای__موقعیت_مرکز":"تیشه","Polling_Center_Location":"Tesha","Verification_Note":"Building","PS_Male":4,"PS_Female":3,"Map_Accuracy":"تعمیر"},"geometry":{"x":7916946.7064903751,"y":4141198.1233737022}},{"attributes":{"OBJECTID":1746,"ولایت":"کنړ ","Province":"KUNAR","PC_Code":"1501007","ولسوالي":"اسعد آباد","District":"ASAD ABAD","د_مرکز_نوم__نام_مرکز":"کرهالی انجونو لیسه ","Polling_Center_Name":"Kirhala Girls High School","د_مرکز_ځای__موقعیت_مرکز":"کرهاله","Polling_Center_Location":"Kirhala","Verification_Note":"Village","PS_Male":3,"PS_Female":1,"Map_Accuracy":"قریه"},"geometry":{"x":7920757.463204097,"y":4146267.3848525211}},{"attributes":{"OBJECTID":1747,"ولایت":"کنړ ","Province":"KUNAR","PC_Code":"1502046","ولسوالي":"مره وره","District":"MARA WARA","د_مرکز_نوم__نام_مرکز":"کلینیک","Polling_Center_Name":"Adam Khel Clinic","د_مرکز_ځای__موقعیت_مرکز":"ادم خیل","Polling_Center_Location":"Adam Khel","Verification_Note":"Building","PS_Male":3,"PS_Female":1,"Map_Accuracy":"تعمیر"},"geometry":{"x":7924346.9134305418,"y":4150239.5777694955}},{"attributes":{"OBJECTID":1748,"ولایت":"کنړ ","Province":"KUNAR","PC_Code":"1505040","ولسوالي":"سرکاڼو","District":"SAR KANI","د_مرکز_نوم__نام_مرکز":"مدرسه قریه دونایی","Polling_Center_Name":"Donaye Village Madrassa","د_مرکز_ځای__موقعیت_مرکز":"دونایی","Polling_Center_Location":"Donaye","Verification_Note":"Building","PS_Male":3,"PS_Female":1,"Map_Accuracy":"تعمیر"},"geometry":{"x":7913947.4365818761,"y":4131172.5412768647}},{"attributes":{"OBJECTID":1749,"ولایت":"کنړ ","Province":"KUNAR","PC_Code":"1505041","ولسوالي":"سرکاڼو","District":"SAR KANI","د_مرکز_نوم__نام_مرکز":"مکتب ابتدائیه","Polling_Center_Name":"Pashad Primary School","د_مرکز_ځای__موقعیت_مرکز":"پشد","Polling_Center_Location":"Pashad","Verification_Note":"Building","PS_Male":2,"PS_Female":2,"Map_Accuracy":"تعمیر"},"geometry":{"x":7905291.7940280214,"y":4126722.7497480735}},{"attributes":{"OBJECTID":1750,"ولایت":"کنړ ","Province":"KUNAR","PC_Code":"1506067","ولسوالي":"شیګل و شیلتن","District":"SHIGAL WA SHILTAN","د_مرکز_نوم__نام_مرکز":"مکتب ابتدائیه","Polling_Center_Name":"Shilton Primary School","د_مرکز_ځای__موقعیت_مرکز":"شلتن","Polling_Center_Location":"Shilton","Verification_Note":"Village","PS_Male":3,"PS_Female":2,"Map_Accuracy":"قریه"},"geometry":{"x":7933047.5023419894,"y":4162400.3757250309}},{"attributes":{"OBJECTID":1751,"ولایت":"کنړ ","Province":"KUNAR","PC_Code":"1508056","ولسوالي":"بر کنړ ","District":"BAR KUNAR","د_مرکز_نوم__نام_مرکز":"ججی لیسه","Polling_Center_Name":"Jaji High School","د_مرکز_ځای__موقعیت_مرکز":"ججی","Polling_Center_Location":"Jaji Village ","Verification_Note":"Building","PS_Male":2,"PS_Female":1,"Map_Accuracy":"تعمیر"},"geometry":{"x":7942793.0005593374,"y":4167494.3239655569}},{"attributes":{"OBJECTID":1752,"ولایت":"کنړ ","Province":"KUNAR","PC_Code":"1508057","ولسوالي":"بر کنړ ","District":"BAR KUNAR","د_مرکز_نوم__نام_مرکز":"لیسه ذکور","Polling_Center_Name":"Shangar Boys High School","د_مرکز_ځای__موقعیت_مرکز":"شنگر","Polling_Center_Location":"Shangar","Verification_Note":"Building","PS_Male":2,"PS_Female":1,"Map_Accuracy":"تعمیر"},"geometry":{"x":7944689.5128753558,"y":4173023.0858720019}},{"attributes":{"OBJECTID":1753,"ولایت":"کنړ ","Province":"KUNAR","PC_Code":"1509094","ولسوالي":"څوکی","District":"SAWKAI","د_مرکز_نوم__نام_مرکز":"مسجد قریه","Polling_Center_Name":"Wali Qala Mosque","د_مرکز_ځای__موقعیت_مرکز":"ولی قلعه","Polling_Center_Location":"Wali Qala","Verification_Note":"Building","PS_Male":3,"PS_Female":2,"Map_Accuracy":"تعمیر"},"geometry":{"x":7893968.3587266095,"y":4122203.7883945853}},{"attributes":{"OBJECTID":1754,"ولایت":"کنړ ","Province":"KUNAR","PC_Code":"1509095","ولسوالي":"څوکی","District":"SAWKAI","د_مرکز_نوم__نام_مرکز":"ګټو قلعه لیسه","Polling_Center_Name":"Gato Qala High School","د_مرکز_ځای__موقعیت_مرکز":"ګټو قلعه","Polling_Center_Location":"Gato Qala","Verification_Note":"Building","PS_Male":2,"PS_Female":1,"Map_Accuracy":"تعمیر"},"geometry":{"x":7890541.961497914,"y":4119313.3921332657}},{"attributes":{"OBJECTID":1755,"ولایت":"کنړ ","Province":"KUNAR","PC_Code":"1510100","ولسوالي":"خاص کنړ","District":"KHAS KUNAR","د_مرکز_نوم__نام_مرکز":"لیسه منگوال","Polling_Center_Name":"Mangwal High School","د_مرکز_ځای__موقعیت_مرکز":"منگوال","Polling_Center_Location":"Mangwal","Verification_Note":"Building","PS_Male":2,"PS_Female":1,"Map_Accuracy":"تعمیر"},"geometry":{"x":7885501.6620840728,"y":4110932.0553638339}},{"attributes":{"OBJECTID":1756,"ولایت":"کنړ ","Province":"KUNAR","PC_Code":"1510101","ولسوالي":"خاص کنړ","District":"KHAS KUNAR","د_مرکز_نوم__نام_مرکز":"مسجد قریه","Polling_Center_Name":"Mangwal Village Mosque","د_مرکز_ځای__موقعیت_مرکز":"منگوال","Polling_Center_Location":"Mangwal","Verification_Note":"Building","PS_Male":1,"PS_Female":1,"Map_Accuracy":"تعمیر"},"geometry":{"x":7884534.2311437689,"y":4110185.4519401044}},{"attributes":{"OBJECTID":1757,"ولایت":"کنړ ","Province":"KUNAR","PC_Code":"1512052","ولسوالي":"دانګام","District":"DANGAM","د_مرکز_نوم__نام_مرکز":"مکتب ابتدائیه","Polling_Center_Name":"Dairy Primary School","د_مرکز_ځای__موقعیت_مرکز":"دایری","Polling_Center_Location":"Dairy","Verification_Note":"Village","PS_Male":2,"PS_Female":2,"Map_Accuracy":"قریه"},"geometry":{"x":7953387.2520078458,"y":4160376.6379209161}},{"attributes":{"OBJECTID":1758,"ولایت":"کنړ ","Province":"KUNAR","PC_Code":"1507018","ولسوالي":"دره پیچ","District":"DARA-E-PECH","د_مرکز_نوم__نام_مرکز":"لیسه بارکندی( اوس لیسه شوی ده)","Polling_Center_Name":"Barkandy High School","د_مرکز_ځای__موقعیت_مرکز":"بارکنډی ","Polling_Center_Location":"Barkandi","Verification_Note":"Village","PS_Male":2,"PS_Female":1,"Map_Accuracy":"قریه"},"geometry":{"x":7901190.3264640905,"y":4156275.8685956076}},{"attributes":{"OBJECTID":1759,"ولایت":"کنړ ","Province":"KUNAR","PC_Code":"1507026","ولسوالي":"دره پیچ","District":"DARA-E-PECH","د_مرکز_نوم__نام_مرکز":"مدرسه قریه","Polling_Center_Name":"Kandagal Village Madrassa","د_مرکز_ځای__موقعیت_مرکز":"کنده گل","Polling_Center_Location":"Kandagal","Verification_Note":"Village","PS_Male":2,"PS_Female":1,"Map_Accuracy":"قریه"},"geometry":{"x":7898513.9131351635,"y":4155666.4550161958}},{"attributes":{"OBJECTID":1760,"ولایت":"کنړ ","Province":"KUNAR","PC_Code":"1507027","ولسوالي":"دره پیچ","District":"DARA-E-PECH","د_مرکز_نوم__نام_مرکز":"مسجد قریه","Polling_Center_Name":"Sondoray Village Mosque","د_مرکز_ځای__موقعیت_مرکز":"سوندری ","Polling_Center_Location":"Sondoray","Verification_Note":"Village","PS_Male":1,"PS_Female":2,"Map_Accuracy":"قریه"},"geometry":{"x":7894876.9495236613,"y":4159430.1264550984}},{"attributes":{"OBJECTID":1761,"ولایت":"کنړ ","Province":"KUNAR","PC_Code":"1509089","ولسوالي":"څوکی","District":"SAWKAI","د_مرکز_نوم__نام_مرکز":"مکتب ابتدائیه","Polling_Center_Name":"Babaro Primary School","د_مرکز_ځای__موقعیت_مرکز":"با برو","Polling_Center_Location":"Babaro","Verification_Note":"Village","PS_Male":2,"PS_Female":1,"Map_Accuracy":"قریه"},"geometry":{"x":7898763.498112686,"y":4125318.2869019657}},{"attributes":{"OBJECTID":1762,"ولایت":"کنړ ","Province":"KUNAR","PC_Code":"1509090","ولسوالي":"څوکی","District":"SAWKAI","د_مرکز_نوم__نام_مرکز":"لیسه جمعیت","Polling_Center_Name":"Jamiat High School","د_مرکز_ځای__موقعیت_مرکز":"شالوتی","Polling_Center_Location":"Shaloti ","Verification_Note":"Building","PS_Male":2,"PS_Female":1,"Map_Accuracy":"تعمیر"},"geometry":{"x":7895613.1832399219,"y":4123149.0979187265}},{"attributes":{"OBJECTID":1763,"ولایت":"کنړ ","Province":"KUNAR","PC_Code":"1515104","ولسوالي":"نری","District":"NARI","د_مرکز_نوم__نام_مرکز":"مکتب ابتدائیه","Polling_Center_Name":"Primary School","د_مرکز_ځای__موقعیت_مرکز":"زروکڅ","Polling_Center_Location":"Zarokas","Verification_Note":"Village","PS_Male":2,"PS_Female":2,"Map_Accuracy":"قریه"},"geometry":{"x":7961887.9055478573,"y":4192532.6625637785}},{"attributes":{"OBJECTID":1764,"ولایت":"کنړ ","Province":"KUNAR","PC_Code":"1515105","ولسوالي":"نری","District":"NARI","د_مرکز_نوم__نام_مرکز":"لیسه بری کوت","Polling_Center_Name":"Barikot High School","د_مرکز_ځای__موقعیت_مرکز":"بری کوت","Polling_Center_Location":"Barikot","Verification_Note":"Village","PS_Male":3,"PS_Female":2,"Map_Accuracy":"قریه"},"geometry":{"x":7963796.7464974895,"y":4204387.2106707022}},{"attributes":{"OBJECTID":1765,"ولایت":"نورستان","Province":"NOORISTAN","PC_Code":"1601009","ولسوالي":"پارون","District":"PAROON","د_مرکز_نوم__نام_مرکز":"مکتب ابتدائیه کوشت","Polling_Center_Name":"Kosht Primary School","د_مرکز_ځای__موقعیت_مرکز":"کوشت","Polling_Center_Location":"Kosht","Verification_Note":"Village","PS_Male":2,"PS_Female":1,"Map_Accuracy":"قریه"},"geometry":{"x":7886294.9937935472,"y":4192241.6294142976}},{"attributes":{"OBJECTID":1766,"ولایت":"نورستان","Province":"NOORISTAN","PC_Code":"1601010","ولسوالي":"پارون","District":"PAROON","د_مرکز_نوم__نام_مرکز":"مسجد جامع قریه موم","Polling_Center_Name":"Moom Village Mosque","د_مرکز_ځای__موقعیت_مرکز":"قریه موم","Polling_Center_Location":"Moom Village","Verification_Note":"Village","PS_Male":2,"PS_Female":1,"Map_Accuracy":"قریه"},"geometry":{"x":7883840.0294408426,"y":4199026.0003539026}},{"attributes":{"OBJECTID":1767,"ولایت":"نورستان","Province":"NOORISTAN","PC_Code":"1604014","ولسوالي":"نورګرام","District":"NOOR GRAM","د_مرکز_نوم__نام_مرکز":"کلینیک صحی پشګر","Polling_Center_Name":"Pashgar Health Clinic","د_مرکز_ځای__موقعیت_مرکز":"دوستو","Polling_Center_Location":"Dusto","Verification_Note":"Village","PS_Male":1,"PS_Female":1,"Map_Accuracy":"قریه"},"geometry":{"x":7828418.6046024635,"y":4164568.2011359036}},{"attributes":{"OBJECTID":1768,"ولایت":"نورستان","Province":"NOORISTAN","PC_Code":"1604015","ولسوالي":"نورګرام","District":"NOOR GRAM","د_مرکز_نوم__نام_مرکز":"شامه","Polling_Center_Name":"Shama ","د_مرکز_ځای__موقعیت_مرکز":"چاییل","Polling_Center_Location":"Chayel ","Verification_Note":"Village","PS_Male":2,"PS_Female":1,"Map_Accuracy":"قریه"},"geometry":{"x":7825458.7206429988,"y":4168991.9514675438}},{"attributes":{"OBJECTID":1769,"ولایت":"نورستان","Province":"NOORISTAN","PC_Code":"1604017","ولسوالي":"نورګرام","District":"NOOR GRAM","د_مرکز_نوم__نام_مرکز":"ملک ومشوک","Polling_Center_Name":"Malak Mashoq Mosque","د_مرکز_ځای__موقعیت_مرکز":"قریه ملک","Polling_Center_Location":"Malak Village","Verification_Note":"Village","PS_Male":1,"PS_Female":1,"Map_Accuracy":"قریه"},"geometry":{"x":7844220.6846192926,"y":4170904.6553394943}},{"attributes":{"OBJECTID":1770,"ولایت":"نورستان","Province":"NOORISTAN","PC_Code":"1604018","ولسوالي":"نورګرام","District":"NOOR GRAM","د_مرکز_نوم__نام_مرکز":"مکتب کلتن","Polling_Center_Name":"Koltan School","د_مرکز_ځای__موقعیت_مرکز":"کلتن","Polling_Center_Location":"Koltan","Verification_Note":"Building","PS_Male":1,"PS_Female":1,"Map_Accuracy":"تعمیر"},"geometry":{"x":7851548.4515140243,"y":4177309.3608945459}},{"attributes":{"OBJECTID":1771,"ولایت":"نورستان","Province":"NOORISTAN","PC_Code":"1607049","ولسوالي":"منډول","District":"MANDOL","د_مرکز_نوم__نام_مرکز":"خانه ملک قریه پاچا","Polling_Center_Name":"Pacha Village Malak House","د_مرکز_ځای__موقعیت_مرکز":"قریه پاچا","Polling_Center_Location":"Pacha Village ","Verification_Note":"Building","PS_Male":1,"PS_Female":1,"Map_Accuracy":"تعمیر"},"geometry":{"x":7824144.271227669,"y":4216911.7589780465}},{"attributes":{"OBJECTID":1772,"ولایت":"نورستان","Province":"NOORISTAN","PC_Code":"1607050","ولسوالي":"منډول","District":"MANDOL","د_مرکز_نوم__نام_مرکز":"مسجد قریه منګور","Polling_Center_Name":"Magor Village Mosque","د_مرکز_ځای__موقعیت_مرکز":"قریه منګور","Polling_Center_Location":"Mangor Village","Verification_Note":"Village","PS_Male":1,"PS_Female":1,"Map_Accuracy":"قریه"},"geometry":{"x":7820781.88047979,"y":4214537.737179473}},{"attributes":{"OBJECTID":1773,"ولایت":"نورستان","Province":"NOORISTAN","PC_Code":"1607054","ولسوالي":"منډول","District":"MANDOL","د_مرکز_نوم__نام_مرکز":"مسجد جامع قریه ګیزین","Polling_Center_Name":"Gezin Village Mosque","د_مرکز_ځای__موقعیت_مرکز":"قریه ګیزین","Polling_Center_Location":"Gezin Village","Verification_Note":"Village","PS_Male":1,"PS_Female":1,"Map_Accuracy":"قریه"},"geometry":{"x":7826046.0044277981,"y":4218594.4144504443}},{"attributes":{"OBJECTID":1774,"ولایت":"نورستان","Province":"NOORISTAN","PC_Code":"1608065","ولسوالي":"برګ مټال","District":"BARG-E-MATAL","د_مرکز_نوم__نام_مرکز":"خانه ملک قریه شدګل","Polling_Center_Name":"Shod Gul Village Malak House","د_مرکز_ځای__موقعیت_مرکز":"قریه شدګل","Polling_Center_Location":"Shod Gul Village","Verification_Note":"Village","PS_Male":2,"PS_Female":1,"Map_Accuracy":"قریه"},"geometry":{"x":7941406.4840188511,"y":4260192.9819927737}},{"attributes":{"OBJECTID":1775,"ولایت":"نورستان","Province":"NOORISTAN","PC_Code":"1602033","ولسوالي":"وایګل","District":"WAYGAL","د_مرکز_نوم__نام_مرکز":"مسجد ارنس","Polling_Center_Name":"Arns Mosque","د_مرکز_ځای__موقعیت_مرکز":"ارنس","Polling_Center_Location":"Arns","Verification_Note":"Village","PS_Male":2,"PS_Female":2,"Map_Accuracy":"قریه"},"geometry":{"x":7899138.299706243,"y":4181032.3741179854}},{"attributes":{"OBJECTID":1776,"ولایت":"نورستان","Province":"NOORISTAN","PC_Code":"1603044","ولسوالي":"واما","District":"WAMA","د_مرکز_نوم__نام_مرکز":"پونز ابتدائیه مکتب","Polling_Center_Name":"Ponz Primary School","د_مرکز_ځای__موقعیت_مرکز":"پونز","Polling_Center_Location":"Ponz","Verification_Note":"Village","PS_Male":2,"PS_Female":2,"Map_Accuracy":"قریه"},"geometry":{"x":7875139.0943257734,"y":4179266.5993333086}},{"attributes":{"OBJECTID":1777,"ولایت":"نورستان","Province":"NOORISTAN","PC_Code":"1603045","ولسوالي":"واما","District":"WAMA","د_مرکز_نوم__نام_مرکز":"مسجد جامع سرپل","Polling_Center_Name":"Sar-e-Pul Mosque","د_مرکز_ځای__موقعیت_مرکز":"سر پل پسو چم","Polling_Center_Location":"Sar-e-Pul Paso Cham","Verification_Note":"Village","PS_Male":2,"PS_Female":2,"Map_Accuracy":"قریه"},"geometry":{"x":7875933.2097244635,"y":4180154.0754094943}},{"attributes":{"OBJECTID":1778,"ولایت":"نورستان","Province":"NOORISTAN","PC_Code":"1605021","ولسوالي":"دو آب","District":"DUAB","د_مرکز_نوم__نام_مرکز":"کلینیک دهن ماوی","Polling_Center_Name":"Dahan-e-Mawi Clinic","د_مرکز_ځای__موقعیت_مرکز":"دهن ماوی","Polling_Center_Location":"Dahan-e-Mawi","Verification_Note":"Village","PS_Male":1,"PS_Female":1,"Map_Accuracy":"قریه"},"geometry":{"x":7830432.3073992208,"y":4190178.9957717434}},{"attributes":{"OBJECTID":1779,"ولایت":"نورستان","Province":"NOORISTAN","PC_Code":"1605022","ولسوالي":"دو آب","District":"DUAB","د_مرکز_نوم__نام_مرکز":"مسجد شاه دیس","Polling_Center_Name":"Shah Des Mosque","د_مرکز_ځای__موقعیت_مرکز":"شاده دیس بیجیګل","Polling_Center_Location":"Shah Des Bijigal","Verification_Note":"Village","PS_Male":2,"PS_Female":1,"Map_Accuracy":"قریه"},"geometry":{"x":7836670.3689117618,"y":4180733.5830599591}},{"attributes":{"OBJECTID":1780,"ولایت":"نورستان","Province":"NOORISTAN","PC_Code":"1603075","ولسوالي":"واما","District":"WAMA","د_مرکز_نوم__نام_مرکز":"مسجد بونی","Polling_Center_Name":"Boni Mosque","د_مرکز_ځای__موقعیت_مرکز":"بونی","Polling_Center_Location":"Boni","Verification_Note":"Village","PS_Male":2,"PS_Female":1,"Map_Accuracy":"قریه"},"geometry":{"x":7885734.7347075678,"y":4190227.6840649992}},{"attributes":{"OBJECTID":1781,"ولایت":"نورستان","Province":"NOORISTAN","PC_Code":"1606074","ولسوالي":"کامدیش","District":"KAMDESH","د_مرکز_نوم__نام_مرکز":"مکتب کامز آباد","Polling_Center_Name":"Kamez abad School","د_مرکز_ځای__موقعیت_مرکز":"کامز آباد","Polling_Center_Location":"Kamez abad","Verification_Note":"District","PS_Male":2,"PS_Female":2,"Map_Accuracy":"ولسوالی"},"geometry":{"x":7944047.5303663239,"y":4234930.1326822937}},{"attributes":{"OBJECTID":1782,"ولایت":"کابل","Province":"KABUL","PC_Code":"0101553","ولسوالي":"ناحیه_13","District":"District_13","د_مرکز_نوم__نام_مرکز":"مسجد امام هادی","Polling_Center_Name":"Emam Hadi Mosque","د_مرکز_ځای__موقعیت_مرکز":"شهرک اتفاق","Polling_Center_Location":"Etifaq Town","Verification_Note":"Building","PS_Male":2,"PS_Female":1,"Map_Accuracy":"تعمیر"},"geometry":{"x":7683719.480700314,"y":4096214.2641322985}},{"attributes":{"OBJECTID":1783,"ولایت":"کابل","Province":"KABUL","PC_Code":"0101554","ولسوالي":"ناحیه_13","District":"District_13","د_مرکز_نوم__نام_مرکز":null,"Polling_Center_Name":"Sahrak Mohamadia Secondary School","د_مرکز_ځای__موقعیت_مرکز":null,"Polling_Center_Location":"Qala naw","Verification_Note":"Building","PS_Male":2,"PS_Female":1,"Map_Accuracy":"تعمیر"},"geometry":{"x":7685358.676232256,"y":4094890.4244146496}},{"attributes":{"OBJECTID":1784,"ولایت":"کابل","Province":"KABUL","PC_Code":"0101556","ولسوالي":"ناحیه_13","District":"District_13","د_مرکز_نوم__نام_مرکز":null,"Polling_Center_Name":"Qambar bin Hashem Mosque","د_مرکز_ځای__موقعیت_مرکز":null,"Polling_Center_Location":"Kor Kariz","Verification_Note":"Building","PS_Male":2,"PS_Female":1,"Map_Accuracy":"تعمیر"},"geometry":{"x":7685271.8504803367,"y":4093332.5433206335}},{"attributes":{"OBJECTID":1785,"ولایت":"کابل","Province":"KABUL","PC_Code":"0101555","ولسوالي":"ناحیه_13","District":"District_13","د_مرکز_نوم__نام_مرکز":null,"Polling_Center_Name":"Qhraman Karbala Mosque","د_مرکز_ځای__موقعیت_مرکز":null,"Polling_Center_Location":"Regression","Verification_Note":"Building","PS_Male":2,"PS_Female":1,"Map_Accuracy":"تعمیر"},"geometry":{"x":7687717.5013991669,"y":4096979.7379875332}},{"attributes":{"OBJECTID":1786,"ولایت":"کابل","Province":"KABUL","PC_Code":"0101557","ولسوالي":"ناحیه_13","District":"District_13","د_مرکز_نوم__نام_مرکز":null,"Polling_Center_Name":"Shahrak High school","د_مرکز_ځای__موقعیت_مرکز":null,"Polling_Center_Location":"Shrak Dwazda Emamy","Verification_Note":"Building","PS_Male":2,"PS_Female":1,"Map_Accuracy":"تعمیر"},"geometry":{"x":7691325.9787982553,"y":4094696.289140977}},{"attributes":{"OBJECTID":1787,"ولایت":"نورستان","Province":"NOORISTAN","PC_Code":"1601001","ولسوالي":"پارون","District":"PAROON","د_مرکز_نوم__نام_مرکز":"مکتب سابقه نسوان شتوی","Polling_Center_Name":"Shatawi Girls Old School","د_مرکز_ځای__موقعیت_مرکز":"شتوی","Polling_Center_Location":"Shatawi","Verification_Note":"Building","PS_Male":2,"PS_Female":1,"Map_Accuracy":"تعمیر"},"geometry":{"x":7896093.0802288949,"y":4224975.5890906677}},{"attributes":{"OBJECTID":1788,"ولایت":"نورستان","Province":"NOORISTAN","PC_Code":"1601002","ولسوالي":"پارون","District":"PAROON","د_مرکز_نوم__نام_مرکز":"مکتب ابتدائیه چتراس","Polling_Center_Name":"Chatras Primary School","د_مرکز_ځای__موقعیت_مرکز":"چتراس","Polling_Center_Location":"Chatras","Verification_Note":"Village","PS_Male":2,"PS_Female":1,"Map_Accuracy":"قریه"},"geometry":{"x":7891713.6492322832,"y":4195362.0312790647}},{"attributes":{"OBJECTID":1789,"ولایت":"نورستان","Province":"NOORISTAN","PC_Code":"1605025","ولسوالي":"دو آب","District":"DUAB","د_مرکز_نوم__نام_مرکز":"مکتب متوسطه کور ګل","Polling_Center_Name":"Kor Gul Secondary School","د_مرکز_ځای__موقعیت_مرکز":"کورګل","Polling_Center_Location":"Kor Gul","Verification_Note":"Village","PS_Male":1,"PS_Female":1,"Map_Accuracy":"قریه"},"geometry":{"x":7826456.901366245,"y":4173986.8726637363}},{"attributes":{"OBJECTID":1790,"ولایت":"نورستان","Province":"NOORISTAN","PC_Code":"1608072","ولسوالي":"برګ مټال","District":"BARG-E-MATAL","د_مرکز_نوم__نام_مرکز":"مکتب قریه پشاورک","Polling_Center_Name":"Peshawarak Village School","د_مرکز_ځای__موقعیت_مرکز":"قریه پشاورک","Polling_Center_Location":"Peshawarak Village","Verification_Note":"Village","PS_Male":2,"PS_Female":2,"Map_Accuracy":"قریه"},"geometry":{"x":7944106.8755661063,"y":4278876.1527122408}},{"attributes":{"OBJECTID":1791,"ولایت":"بدخشان","Province":"BADAKHSHAN","PC_Code":"1701002","ولسوالي":"فیض آباد","District":"FAIZ ABAD","د_مرکز_نوم__نام_مرکز":"مکتب دو ابه","Polling_Center_Name":"Do-Aba School","د_مرکز_ځای__موقعیت_مرکز":"دوبایی یفتل علیا","Polling_Center_Location":"Dobayee Yaftal Ulya","Verification_Note":"Building","PS_Male":2,"PS_Female":1,"Map_Accuracy":"تعمیر"},"geometry":{"x":7853854.3546157666,"y":4476415.4393583387}},{"attributes":{"OBJECTID":1792,"ولایت":"بدخشان","Province":"BADAKHSHAN","PC_Code":"1701003","ولسوالي":"فیض آباد","District":"FAIZ ABAD","د_مرکز_نوم__نام_مرکز":"لیسه تلبزنگ","Polling_Center_Name":"Talabzang High School","د_مرکز_ځای__موقعیت_مرکز":"تلب زنگ ","Polling_Center_Location":"Talabzang","Verification_Note":"Building","PS_Male":2,"PS_Female":1,"Map_Accuracy":"تعمیر"},"geometry":{"x":7853543.846707318,"y":4468780.0465644}},{"attributes":{"OBJECTID":1793,"ولایت":"بدخشان","Province":"BADAKHSHAN","PC_Code":"1701012","ولسوالي":"فیض آباد","District":"FAIZ ABAD","د_مرکز_نوم__نام_مرکز":"فاکولته طب","Polling_Center_Name":"Medical Faculty","د_مرکز_ځای__موقعیت_مرکز":" ناحیه شهر جدید","Polling_Center_Location":"Nahia Shahr Jadid","Verification_Note":"Building","PS_Male":2,"PS_Female":1,"Map_Accuracy":"تعمیر"},"geometry":{"x":7854048.9945190325,"y":4453633.3541737571}},{"attributes":{"OBJECTID":1794,"ولایت":"بدخشان","Province":"BADAKHSHAN","PC_Code":"1701013","ولسوالي":"فیض آباد","District":"FAIZ ABAD","د_مرکز_نوم__نام_مرکز":"مسجد امام بخاری ","Polling_Center_Name":"Imam Bukhari Mosque","د_مرکز_ځای__موقعیت_مرکز":"حصه سوم شهر جدید","Polling_Center_Location":"Hisa 3 Shahr Jadid","Verification_Note":"Building","PS_Male":1,"PS_Female":1,"Map_Accuracy":"تعمیر"},"geometry":{"x":7854064.8842631467,"y":4453655.5709099546}},{"attributes":{"OBJECTID":1795,"ولایت":"بدخشان","Province":"BADAKHSHAN","PC_Code":"1701023","ولسوالي":"فیض آباد","District":"FAIZ ABAD","د_مرکز_نوم__نام_مرکز":"مکتب دره کولان ","Polling_Center_Name":"Dara-e-Kolan School","د_مرکز_ځای__موقعیت_مرکز":"دره کولان ","Polling_Center_Location":"Dara-e-Kolan","Verification_Note":"Building","PS_Male":1,"PS_Female":1,"Map_Accuracy":"تعمیر"},"geometry":{"x":7858638.3943354264,"y":4469560.0387434512}},{"attributes":{"OBJECTID":1796,"ولایت":"بدخشان","Province":"BADAKHSHAN","PC_Code":"1702038","ولسوالي":"ارگو","District":"ARGO","د_مرکز_نوم__نام_مرکز":"لیسه ذکور خردمند شهید ","Polling_Center_Name":"Khiradmand Shaheed Boys High School","د_مرکز_ځای__موقعیت_مرکز":"شهروحدت ","Polling_Center_Location":"Shahr-e-Wahdat","Verification_Note":"Building","PS_Male":2,"PS_Female":2,"Map_Accuracy":"تعمیر"},"geometry":{"x":7838782.1764625609,"y":4446384.2212144881}},{"attributes":{"OBJECTID":1797,"ولایت":"بدخشان","Province":"BADAKHSHAN","PC_Code":"1702043","ولسوالي":"ارگو","District":"ARGO","د_مرکز_نوم__نام_مرکز":"مکتب خواجه ایشتل","Polling_Center_Name":"Khwaja Eshtal School","د_مرکز_ځای__موقعیت_مرکز":"خواجه ایشتل","Polling_Center_Location":"Khwaja Eshtal","Verification_Note":"Building","PS_Male":2,"PS_Female":2,"Map_Accuracy":"تعمیر"},"geometry":{"x":7844348.6330156215,"y":4454235.3399652913}},{"attributes":{"OBJECTID":1798,"ولایت":"بدخشان","Province":"BADAKHSHAN","PC_Code":"1702044","ولسوالي":"ارگو","District":"ARGO","د_مرکز_نوم__نام_مرکز":"مکتب نسوان ده دهی","Polling_Center_Name":"Deh Dahi Girls School","د_مرکز_ځای__موقعیت_مرکز":"ده دهی","Polling_Center_Location":"Deh Dahi","Verification_Note":"Building","PS_Male":2,"PS_Female":2,"Map_Accuracy":"تعمیر"},"geometry":{"x":7843719.2515389882,"y":4439370.5192958042}},{"attributes":{"OBJECTID":1799,"ولایت":"بدخشان","Province":"BADAKHSHAN","PC_Code":"1702048","ولسوالي":"ارگو","District":"ARGO","د_مرکز_نوم__نام_مرکز":"مکتب متوسطه خوش دره ","Polling_Center_Name":"Khosh Dara Secondary School","د_مرکز_ځای__موقعیت_مرکز":"خوش دره ","Polling_Center_Location":"Khosh Dara","Verification_Note":"Building","PS_Male":2,"PS_Female":1,"Map_Accuracy":"تعمیر"},"geometry":{"x":7826677.2237892263,"y":4450756.5241989046}}]}