{"objectIdFieldName":"OBJECTID","globalIdFieldName":"","geometryType":"esriGeometryPoint","spatialReference":{"wkid":102100,"latestWkid":3857},"fields":[{"name":"OBJECTID","type":"esriFieldTypeOID","alias":"OBJECTID","sqlType":"sqlTypeOther","domain":null,"defaultValue":null},{"name":"ولایت","type":"esriFieldTypeString","alias":"ولایت","sqlType":"sqlTypeOther","length":255,"domain":null,"defaultValue":null},{"name":"Province","type":"esriFieldTypeString","alias":"Province","sqlType":"sqlTypeOther","length":255,"domain":null,"defaultValue":null},{"name":"PC_Code","type":"esriFieldTypeString","alias":"PC_Code","sqlType":"sqlTypeOther","length":255,"domain":null,"defaultValue":null},{"name":"ولسوالي","type":"esriFieldTypeString","alias":"ولسوالي","sqlType":"sqlTypeOther","length":255,"domain":null,"defaultValue":null},{"name":"District","type":"esriFieldTypeString","alias":"District","sqlType":"sqlTypeOther","length":255,"domain":null,"defaultValue":null},{"name":"د_مرکز_نوم__نام_مرکز","type":"esriFieldTypeString","alias":"د_مرکز_نوم__نام_مرکز","sqlType":"sqlTypeOther","length":255,"domain":null,"defaultValue":null},{"name":"Polling_Center_Name","type":"esriFieldTypeString","alias":"Polling_Center_Name","sqlType":"sqlTypeOther","length":255,"domain":null,"defaultValue":null},{"name":"د_مرکز_ځای__موقعیت_مرکز","type":"esriFieldTypeString","alias":"د_مرکز_ځای__موقعیت_مرکز","sqlType":"sqlTypeOther","length":255,"domain":null,"defaultValue":null},{"name":"Polling_Center_Location","type":"esriFieldTypeString","alias":"Polling_Center_Location","sqlType":"sqlTypeOther","length":255,"domain":null,"defaultValue":null},{"name":"Verification_Note","type":"esriFieldTypeString","alias":"Verification_Note","sqlType":"sqlTypeOther","length":250,"domain":null,"defaultValue":null},{"name":"PS_Male","type":"esriFieldTypeSmallInteger","alias":"PS_Male","sqlType":"sqlTypeOther","domain":null,"defaultValue":null},{"name":"PS_Female","type":"esriFieldTypeSmallInteger","alias":"PS_Female","sqlType":"sqlTypeOther","domain":null,"defaultValue":null},{"name":"Map_Accuracy","type":"esriFieldTypeString","alias":"Map_Accuracy","sqlType":"sqlTypeOther","length":10,"domain":null,"defaultValue":null}],"features":[{"attributes":{"OBJECTID":200,"ولایت":"کابل","Province":"KABUL","PC_Code":"0101532","ولسوالي":"ناحیه_21","District":"Nahia_21","د_مرکز_نوم__نام_مرکز":"مسجد عبدالوهاب","Polling_Center_Name":"Abdul wahab Mosque","د_مرکز_ځای__موقعیت_مرکز":"ناحیه 21 ده سبز","Polling_Center_Location":"Deh sabz_District_21","Verification_Note":"Building","PS_Male":2,"PS_Female":1,"Map_Accuracy":"تعمیر"},"geometry":{"x":7726667.1100928336,"y":4099824.7994822189}},{"attributes":{"OBJECTID":201,"ولایت":"کابل","Province":"KABUL","PC_Code":"0101534","ولسوالي":"ناحیه_17","District":"Nahia_17","د_مرکز_نوم__نام_مرکز":"لیسه شهرک طلائی","Polling_Center_Name":"Shahrak tlaie High school","د_مرکز_ځای__موقعیت_مرکز":"شهرک طلائی","Polling_Center_Location":"Shahrak tlaie town","Verification_Note":"Building","PS_Male":2,"PS_Female":1,"Map_Accuracy":"تعمیر"},"geometry":{"x":7690169.7763842829,"y":4110618.7910394}},{"attributes":{"OBJECTID":202,"ولایت":"کابل","Province":"KABUL","PC_Code":"0106543","ولسوالي":"شکردره","District":"Shakar Dara","د_مرکز_نوم__نام_مرکز":"مسجد","Polling_Center_Name":"Mosque","د_مرکز_ځای__موقعیت_مرکز":"اسد آباد","Polling_Center_Location":"Asad abad","Verification_Note":"District","PS_Male":2,"PS_Female":1,"Map_Accuracy":"ولسوالی"},"geometry":{"x":7688362.986353334,"y":4122922.7070426494}},{"attributes":{"OBJECTID":203,"ولایت":"کابل","Province":"KABUL","PC_Code":"0110544","ولسوالي":"کلکان","District":"Kalakan","د_مرکز_نوم__نام_مرکز":"مکتب متوسطه مقاومت","Polling_Center_Name":"Moqawmat Secondary school","د_مرکز_ځای__موقعیت_مرکز":"قریه بازاری","Polling_Center_Location":"Bazari village","Verification_Note":"Building","PS_Male":2,"PS_Female":1,"Map_Accuracy":"تعمیر"},"geometry":{"x":7699314.4611572437,"y":4136279.483549729}},{"attributes":{"OBJECTID":204,"ولایت":"کابل","Province":"KABUL","PC_Code":"0101523","ولسوالي":"ناحیه_11","District":"Nahia_11","د_مرکز_نوم__نام_مرکز":"مسجد یعقوب","Polling_Center_Name":"Yaqob Mosque","د_مرکز_ځای__موقعیت_مرکز":"عقب لوای 16 ","Polling_Center_Location":"Behaind Lwai 16","Verification_Note":"Building","PS_Male":2,"PS_Female":1,"Map_Accuracy":"تعمیر"},"geometry":{"x":7693375.4518869855,"y":4105844.3491163328}},{"attributes":{"OBJECTID":205,"ولایت":"کابل","Province":"KABUL","PC_Code":"0101524","ولسوالي":"ناحیه_12","District":"Nahia_12","د_مرکز_نوم__نام_مرکز":"لیسه غلام صدیق","Polling_Center_Name":"Ghulam sedeq High school","د_مرکز_ځای__موقعیت_مرکز":"بلاک ده ارزان قیمت","Polling_Center_Location":"Arzan qimat 10th Block","Verification_Note":"Building","PS_Male":2,"PS_Female":1,"Map_Accuracy":"تعمیر"},"geometry":{"x":7718311.6723832786,"y":4098516.4625958875}},{"attributes":{"OBJECTID":206,"ولایت":"کابل","Province":"KABUL","PC_Code":"0101525","ولسوالي":"ناحیه_12","District":"Nahia_12","د_مرکز_نوم__نام_مرکز":"لیسه صدیق الله رشتین","Polling_Center_Name":"Sedeq ullah risghteen High school","د_مرکز_ځای__موقعیت_مرکز":"بلاک سیزده ارزان قیمت","Polling_Center_Location":"Arzan qimat 13th Block","Verification_Note":"Building","PS_Male":2,"PS_Female":1,"Map_Accuracy":"تعمیر"},"geometry":{"x":7718363.7849331051,"y":4096929.7356587946}},{"attributes":{"OBJECTID":207,"ولایت":"کابل","Province":"KABUL","PC_Code":"0114548","ولسوالي":"قره باغ","District":"Qarabagh","د_مرکز_نوم__نام_مرکز":"مکتب متوسطه جارچی","Polling_Center_Name":"Jar chi Secondary school","د_مرکز_ځای__موقعیت_مرکز":"جارچی","Polling_Center_Location":"Jar chi","Verification_Note":"Village","PS_Male":2,"PS_Female":1,"Map_Accuracy":"قریه"},"geometry":{"x":7703289.3684788942,"y":4147442.8371794149}},{"attributes":{"OBJECTID":208,"ولایت":"کابل","Province":"KABUL","PC_Code":"0114549","ولسوالي":"قره باغ","District":"Qarabagh","د_مرکز_نوم__نام_مرکز":"مکتب متوسطه قلعه حاجی","Polling_Center_Name":"Qala haji Secondary school","د_مرکز_ځای__موقعیت_مرکز":"قلعه حاجی","Polling_Center_Location":"Qala haji","Verification_Note":"Village","PS_Male":2,"PS_Female":1,"Map_Accuracy":"قریه"},"geometry":{"x":7697633.274466224,"y":4140833.4067084566}},{"attributes":{"OBJECTID":209,"ولایت":"کابل","Province":"KABUL","PC_Code":"0115550","ولسوالي":"سروبی","District":"Surbi","د_مرکز_نوم__نام_مرکز":"مکتب رودبار","Polling_Center_Name":"Rod bar School","د_مرکز_ځای__موقعیت_مرکز":"رودبار","Polling_Center_Location":"Rod bar","Verification_Note":"Building","PS_Male":2,"PS_Female":1,"Map_Accuracy":"تعمیر"},"geometry":{"x":7775014.1572462916,"y":4127410.38571281}},{"attributes":{"OBJECTID":210,"ولایت":"هرات","Province":"HERAT","PC_Code":"3207479","ولسوالي":"کشک (رباط سنگی)","District":"KUSHK (RUBAT-E-SANGI)","د_مرکز_نوم__نام_مرکز":"مکتب","Polling_Center_Name":"School","د_مرکز_ځای__موقعیت_مرکز":"جعفر بيگ خراساني ","Polling_Center_Location":"Jafar big khurasani","Verification_Note":"Building","PS_Male":2,"PS_Female":1,"Map_Accuracy":"تعمیر"},"geometry":{"x":6938795.3175142407,"y":4133466.2431748807}},{"attributes":{"OBJECTID":211,"ولایت":"هرات","Province":"HERAT","PC_Code":"3209480","ولسوالي":"ادرسکن","District":"ADRASKAN","د_مرکز_نوم__نام_مرکز":" مسجد دره بست","Polling_Center_Name":"Dara bast Mosque","د_مرکز_ځای__موقعیت_مرکز":"دره بست","Polling_Center_Location":"Dara bast","Verification_Note":"Building","PS_Male":2,"PS_Female":1,"Map_Accuracy":"تعمیر"},"geometry":{"x":6984985.616659224,"y":3970198.1544797048}},{"attributes":{"OBJECTID":212,"ولایت":" فراه","Province":"FARAH","PC_Code":"3309252","ولسوالي":"لاش جوین","District":"LASH-E-JUWAYN","د_مرکز_نوم__نام_مرکز":"مکتب سبزگذی","Polling_Center_Name":"Sabz gazi School","د_مرکز_ځای__موقعیت_مرکز":"سبزگذی","Polling_Center_Location":"Sabz gazi","Verification_Note":"Building","PS_Male":2,"PS_Female":1,"Map_Accuracy":"تعمیر"},"geometry":{"x":6865152.5194126293,"y":3756565.4584579766}},{"attributes":{"OBJECTID":213,"ولایت":"ننگرهار","Province":"NANGARHAR","PC_Code":"0613517","ولسوالي":"کوټ","District":"KOT","د_مرکز_نوم__نام_مرکز":"مکتب","Polling_Center_Name":"School","د_مرکز_ځای__موقعیت_مرکز":"تنګی کلی","Polling_Center_Location":"Tangi village","Verification_Note":"Village","PS_Male":2,"PS_Female":1,"Map_Accuracy":"قریه"},"geometry":{"x":7850702.5706596784,"y":4040801.6576187685}},{"attributes":{"OBJECTID":214,"ولایت":"لوگر","Province":"LOGAR","PC_Code":"0505083","ولسوالي":"محمدآغه","District":"Mohamad Agha","د_مرکز_نوم__نام_مرکز":"مسجد عقب بازار","Polling_Center_Name":"Aqeb Bazar Mosque","د_مرکز_ځای__موقعیت_مرکز":"بازارواغجان","Polling_Center_Location":"Waghjan bazar","Verification_Note":"Building","PS_Male":2,"PS_Female":1,"Map_Accuracy":"تعمیر"},"geometry":{"x":7688907.01271984,"y":4050193.2334664837}},{"attributes":{"OBJECTID":215,"ولایت":"ننگرهار","Province":"NANGARHAR","PC_Code":"0601508","ولسوالي":"جلال آباد","District":"JALALABAD","د_مرکز_نوم__نام_مرکز":"مسجد شهرک سیاف","Polling_Center_Name":"Shahrak Saiaf Mosque","د_مرکز_ځای__موقعیت_مرکز":"فامیلی های فارم هده ","Polling_Center_Location":"Farm hada family","Verification_Note":"Building","PS_Male":2,"PS_Female":1,"Map_Accuracy":"تعمیر"},"geometry":{"x":7838313.2988786548,"y":4081343.0766112953}},{"attributes":{"OBJECTID":216,"ولایت":"لغمان","Province":"LAGHMAN","PC_Code":"0705136","ولسوالي":"دولت شاه","District":"Dawlat Shah","د_مرکز_نوم__نام_مرکز":"مسجد","Polling_Center_Name":"Mosque","د_مرکز_ځای__موقعیت_مرکز":"کشيدور","Polling_Center_Location":"Kasheedor","Verification_Note":"Building","PS_Male":2,"PS_Female":1,"Map_Accuracy":"تعمیر"},"geometry":{"x":7801092.0115521587,"y":4164251.2731877118}},{"attributes":{"OBJECTID":217,"ولایت":"پنجشیر","Province":"PANJSHIR","PC_Code":"0804102","ولسوالي":"( خنج (حصه اول","District":"HISSA-E-AWAL KHINJ","د_مرکز_نوم__نام_مرکز":"مکتب خاتم الانبیا","Polling_Center_Name":"Khatam alanbia School","د_مرکز_ځای__موقعیت_مرکز":"مرکز خینج،شاه چهره","Polling_Center_Location":"Khenj center_Shah chehra","Verification_Note":"Building","PS_Male":2,"PS_Female":1,"Map_Accuracy":"تعمیر"},"geometry":{"x":7758711.1986315362,"y":4219671.5333293825}},{"attributes":{"OBJECTID":218,"ولایت":"پنجشیر","Province":"PANJSHIR","PC_Code":"0804103","ولسوالي":"( خنج (حصه اول","District":"HISSA-E-AWAL KHINJ","د_مرکز_نوم__نام_مرکز":"مکتب محمد پناه شهید","Polling_Center_Name":"Muhammad pana shaheed School","د_مرکز_ځای__موقعیت_مرکز":"زریان شهر","Polling_Center_Location":"Zarian Shahr","Verification_Note":"Building","PS_Male":2,"PS_Female":1,"Map_Accuracy":"تعمیر"},"geometry":{"x":7765899.8222853541,"y":4227742.49274426}},{"attributes":{"OBJECTID":219,"ولایت":"بغلان","Province":"BAGHLAN","PC_Code":"0905269","ولسوالي":"بغلان جدید","District":"BAGLAN-E-JADEED","د_مرکز_نوم__نام_مرکز":"مکتب ابتدایه","Polling_Center_Name":"Primary School","د_مرکز_ځای__موقعیت_مرکز":"شتر غلت","Polling_Center_Location":"Shotur ghalt","Verification_Note":"Building","PS_Male":2,"PS_Female":1,"Map_Accuracy":"تعمیر"},"geometry":{"x":7662706.8413367346,"y":4322421.587839365}},{"attributes":{"OBJECTID":220,"ولایت":"باميان","Province":"BAMYAN","PC_Code":"1003172","ولسوالي":"سیغان","District":"SAIGHAN","د_مرکز_نوم__نام_مرکز":"مسجد سموچها","Polling_Center_Name":"Samuch ha Mosque","د_مرکز_ځای__موقعیت_مرکز":"سموج ها","Polling_Center_Location":"Samuch ha","Verification_Note":"Building","PS_Male":2,"PS_Female":1,"Map_Accuracy":"تعمیر"},"geometry":{"x":7527081.53855741,"y":4190625.5381643027}},{"attributes":{"OBJECTID":221,"ولایت":"باميان","Province":"BAMYAN","PC_Code":"1003173","ولسوالي":"سیغان","District":"SAIGHAN","د_مرکز_نوم__نام_مرکز":"مسجد کدو خانه","Polling_Center_Name":"Kado khana Mosque","د_مرکز_ځای__موقعیت_مرکز":"کدوخانه","Polling_Center_Location":"Kado khana","Verification_Note":"Building","PS_Male":2,"PS_Female":1,"Map_Accuracy":"تعمیر"},"geometry":{"x":7511571.3824392781,"y":4180336.2083707303}},{"attributes":{"OBJECTID":222,"ولایت":"باميان","Province":"BAMYAN","PC_Code":"1005174","ولسوالي":"یکاولنگ","District":"Yakawlang","د_مرکز_نوم__نام_مرکز":"منبر پای وچه","Polling_Center_Name":"Pai wcha Mosque","د_مرکز_ځای__موقعیت_مرکز":"سرتوسری","Polling_Center_Location":"Sartosari","Verification_Note":"Building","PS_Male":2,"PS_Female":1,"Map_Accuracy":"تعمیر"},"geometry":{"x":7424386.4729931913,"y":4176924.876071848}},{"attributes":{"OBJECTID":223,"ولایت":"باميان","Province":"BAMYAN","PC_Code":"1006181","ولسوالي":"پنجاب","District":"PANJAB","د_مرکز_نوم__نام_مرکز":"مدرسه دینی دهن کوهدر","Polling_Center_Name":"Dahan kohdar Madrasa","د_مرکز_ځای__موقعیت_مرکز":"دهن کهدر","Polling_Center_Location":"Dahan Kahdar","Verification_Note":"Building","PS_Male":2,"PS_Female":1,"Map_Accuracy":"تعمیر"},"geometry":{"x":7433038.5532120168,"y":4078603.9118111432}},{"attributes":{"OBJECTID":224,"ولایت":"باميان","Province":"BAMYAN","PC_Code":"1006182","ولسوالي":"پنجاب","District":"PANJAB","د_مرکز_نوم__نام_مرکز":"مکتب متوسطه دو آبی","Polling_Center_Name":"Do abi Secondary School","د_مرکز_ځای__موقعیت_مرکز":"دوآبی مهر","Polling_Center_Location":"Do abi","Verification_Note":"Building","PS_Male":2,"PS_Female":1,"Map_Accuracy":"تعمیر"},"geometry":{"x":7473078.4846657626,"y":4086559.477410011}},{"attributes":{"OBJECTID":225,"ولایت":"پکتيا","Province":"PAKTYA","PC_Code":"1308219","ولسوالي":"لجه احمد خیل","District":"AHMADABA","د_مرکز_نوم__نام_مرکز":"هده","Polling_Center_Name":"Transport station","د_مرکز_ځای__موقعیت_مرکز":"د ماما خیلو کلی","Polling_Center_Location":"Mama khil village","Verification_Note":"Building","PS_Male":2,"PS_Female":1,"Map_Accuracy":"تعمیر"},"geometry":{"x":7752222.295010455,"y":4006862.4610727951}},{"attributes":{"OBJECTID":226,"ولایت":"کنړ ","Province":"KUNAR","PC_Code":"1510122","ولسوالي":"خاص کنر","District":"KHAS KUNAR","د_مرکز_نوم__نام_مرکز":"مسجد","Polling_Center_Name":"Mosque","د_مرکز_ځای__موقعیت_مرکز":"چمباړی","Polling_Center_Location":"Chambari","Verification_Note":"Building","PS_Male":2,"PS_Female":1,"Map_Accuracy":"تعمیر"},"geometry":{"x":7883152.7766344883,"y":4111514.4548596963}},{"attributes":{"OBJECTID":227,"ولایت":"کنړ ","Province":"KUNAR","PC_Code":"1512123","ولسوالي":"دانگام","District":"DANGAM","د_مرکز_نوم__نام_مرکز":"مسجد","Polling_Center_Name":"Mosque","د_مرکز_ځای__موقعیت_مرکز":"شوکاڼو","Polling_Center_Location":"Shokano","Verification_Note":"Building","PS_Male":2,"PS_Female":1,"Map_Accuracy":"تعمیر"},"geometry":{"x":7949406.5459425971,"y":4169239.8133906275}},{"attributes":{"OBJECTID":228,"ولایت":"بدخشان","Province":"BADAKHSHAN","PC_Code":"1701283","ولسوالي":"فیض آباد","District":"FAIZ ABAD","د_مرکز_نوم__نام_مرکز":" لیسه نسوان لایابه","Polling_Center_Name":"Laiaba Femal high school","د_مرکز_ځای__موقعیت_مرکز":"لایابه","Polling_Center_Location":"Laiaba","Verification_Note":"Building","PS_Male":2,"PS_Female":1,"Map_Accuracy":"تعمیر"},"geometry":{"x":7850713.262451496,"y":4463354.9192397818}},{"attributes":{"OBJECTID":229,"ولایت":"بدخشان","Province":"BADAKHSHAN","PC_Code":"1702290","ولسوالي":"ارگو","District":"ARGO","د_مرکز_نوم__نام_مرکز":"نسوان دهدهی ولسوالی","Polling_Center_Name":"Dehdhi Femal School","د_مرکز_ځای__موقعیت_مرکز":"درخان","Polling_Center_Location":"Dur khan","Verification_Note":"Building","PS_Male":2,"PS_Female":1,"Map_Accuracy":"تعمیر"},"geometry":{"x":7843456.43534942,"y":4438984.0463260263}},{"attributes":{"OBJECTID":230,"ولایت":"بدخشان","Province":"BADAKHSHAN","PC_Code":"1704291","ولسوالي":"یفتل سفلی","District":"YAFTAL-E-SUFLA","د_مرکز_نوم__نام_مرکز":" لیسه بید کلان","Polling_Center_Name":"Bid kalan High School","د_مرکز_ځای__موقعیت_مرکز":"بید کلان","Polling_Center_Location":"Bid kalan","Verification_Note":"Building","PS_Male":2,"PS_Female":1,"Map_Accuracy":"تعمیر"},"geometry":{"x":7827013.7124423087,"y":4487272.6608831659}},{"attributes":{"OBJECTID":231,"ولایت":"بدخشان","Province":"BADAKHSHAN","PC_Code":"1709299","ولسوالي":"یاوان","District":"YAWAN","د_مرکز_نوم__نام_مرکز":"مدرسه","Polling_Center_Name":"Madrasa","د_مرکز_ځای__موقعیت_مرکز":"تیرگران","Polling_Center_Location":"Tir garan","Verification_Note":"Building","PS_Male":2,"PS_Female":1,"Map_Accuracy":"تعمیر"},"geometry":{"x":7838923.5724760145,"y":4519694.991065897}},{"attributes":{"OBJECTID":232,"ولایت":"بدخشان","Province":"BADAKHSHAN","PC_Code":"1710300","ولسوالي":"جرم","District":"Jurm ","د_مرکز_نوم__نام_مرکز":"نسوان خرنداب","Polling_Center_Name":"Kharandab Female School","د_مرکز_ځای__موقعیت_مرکز":"خرنداب","Polling_Center_Location":"Kharandab","Verification_Note":"Building","PS_Male":2,"PS_Female":1,"Map_Accuracy":"تعمیر"},"geometry":{"x":7886224.1693278775,"y":4416798.763050139}},{"attributes":{"OBJECTID":233,"ولایت":"بدخشان","Province":"BADAKHSHAN","PC_Code":"1713308","ولسوالي":"شهر بزرگ","District":"SHAHR-E-BUZURG","د_مرکز_نوم__نام_مرکز":"مسجد غضنفر پائین","Polling_Center_Name":"Ghazanfar paien Mosque","د_مرکز_ځای__موقعیت_مرکز":"غنغر پایان","Polling_Center_Location":"Ghanghar paian","Verification_Note":"Building","PS_Male":2,"PS_Female":1,"Map_Accuracy":"تعمیر"},"geometry":{"x":7820631.1213839613,"y":4497719.1493881419}},{"attributes":{"OBJECTID":234,"ولایت":"بدخشان","Province":"BADAKHSHAN","PC_Code":"1715309","ولسوالي":"کشم","District":"KHASH","د_مرکز_نوم__نام_مرکز":"مدرسه وحدت آباد ","Polling_Center_Name":"Wahdat abad Madrasa","د_مرکز_ځای__موقعیت_مرکز":"وحدت آباد","Polling_Center_Location":"Wahdat abad","Verification_Note":"Building","PS_Male":2,"PS_Female":1,"Map_Accuracy":"تعمیر"},"geometry":{"x":7815920.9153184518,"y":4422731.1818558276}},{"attributes":{"OBJECTID":235,"ولایت":"بدخشان","Province":"BADAKHSHAN","PC_Code":"1726316","ولسوالي":"کران ومنجان","District":"KIRAN WA MENJAN","د_مرکز_نوم__نام_مرکز":" مکتب لاجور شو","Polling_Center_Name":"Lahjor sho School","د_مرکز_ځای__موقعیت_مرکز":"لاجور شو","Polling_Center_Location":"Lahjor sho","Verification_Note":"Building","PS_Male":2,"PS_Female":1,"Map_Accuracy":"تعمیر"},"geometry":{"x":7879274.52791537,"y":4324409.2206847444}},{"attributes":{"OBJECTID":236,"ولایت":"سمنگان","Province":"SAMANGAN","PC_Code":"2005100","ولسوالي":"روی دو آب","District":"ROI-DO-AB","د_مرکز_نوم__نام_مرکز":"مکتب اناثیه سرخ قلعه","Polling_Center_Name":"Sorkh qala Female school","د_مرکز_ځای__موقعیت_مرکز":"چوقورک ده","Polling_Center_Location":"Choqurak","Verification_Note":"Building","PS_Male":2,"PS_Female":1,"Map_Accuracy":"تعمیر"},"geometry":{"x":7565999.1071639247,"y":4235308.2812169343}},{"attributes":{"OBJECTID":237,"ولایت":"سمنگان","Province":"SAMANGAN","PC_Code":"2006101","ولسوالي":"درۀ صوف پائین","District":"DARA-E-SOOF-E-PAYIN","د_مرکز_نوم__نام_مرکز":"مکتب","Polling_Center_Name":"School","د_مرکز_ځای__موقعیت_مرکز":"قریه تاقچی","Polling_Center_Location":"Qaria taqchi","Verification_Note":"Building","PS_Male":2,"PS_Female":1,"Map_Accuracy":"تعمیر"},"geometry":{"x":7496160.33562227,"y":4288317.8306449726}},{"attributes":{"OBJECTID":238,"ولایت":"دایکندی","Province":"DAYKUNDI","PC_Code":"2404176","ولسوالي":"اشترلی","District":"ASHTARLAY","د_مرکز_نوم__نام_مرکز":"مسجد","Polling_Center_Name":"Mosque","د_مرکز_ځای__موقعیت_مرکز":"تالیج ","Polling_Center_Location":"Taleej","Verification_Note":"Building","PS_Male":2,"PS_Female":1,"Map_Accuracy":"تعمیر"},"geometry":{"x":7381053.6366403587,"y":4025381.3947767317}},{"attributes":{"OBJECTID":239,"ولایت":"دایکندی","Province":"DAYKUNDI","PC_Code":"2404177","ولسوالي":"اشترلی","District":"ASHTARLAY","د_مرکز_نوم__نام_مرکز":"مسجد","Polling_Center_Name":"Mosque","د_مرکز_ځای__موقعیت_مرکز":"خربید علیا","Polling_Center_Location":"Khar bid hulia","Verification_Note":"Building","PS_Male":2,"PS_Female":1,"Map_Accuracy":"تعمیر"},"geometry":{"x":7369893.1564868577,"y":4014975.0326734558}},{"attributes":{"OBJECTID":240,"ولایت":"دایکندی","Province":"DAYKUNDI","PC_Code":"2406186","ولسوالي":"کیتی","District":"KITI","د_مرکز_نوم__نام_مرکز":"مسجد","Polling_Center_Name":"Mosque","د_مرکز_ځای__موقعیت_مرکز":"غوله کیسو ","Polling_Center_Location":"Ghola kisaw","Verification_Note":"Building","PS_Male":2,"PS_Female":1,"Map_Accuracy":"تعمیر"},"geometry":{"x":7332495.6069918275,"y":3951930.0241719782}},{"attributes":{"OBJECTID":241,"ولایت":"دایکندی","Province":"DAYKUNDI","PC_Code":"2406187","ولسوالي":"کیتی","District":"KITI","د_مرکز_نوم__نام_مرکز":"مدرسه","Polling_Center_Name":"Madrasa","د_مرکز_ځای__موقعیت_مرکز":"کورنگگ ","Polling_Center_Location":"Korangak","Verification_Note":"Building","PS_Male":2,"PS_Female":1,"Map_Accuracy":"تعمیر"},"geometry":{"x":7313110.4422196783,"y":3970082.6255532727}},{"attributes":{"OBJECTID":242,"ولایت":"زابل","Province":"ZABUL","PC_Code":"2601046","ولسوالي":"قلات","District":"QALAT","د_مرکز_نوم__نام_مرکز":"کگری مسجد","Polling_Center_Name":"Kagari Mosque","د_مرکز_ځای__موقعیت_مرکز":"کگری،امکی","Polling_Center_Location":"Kagari, Amaki","Verification_Note":"Building","PS_Male":2,"PS_Female":1,"Map_Accuracy":"تعمیر"},"geometry":{"x":7443993.1209166534,"y":3785902.6683242768}},{"attributes":{"OBJECTID":243,"ولایت":"زابل","Province":"ZABUL","PC_Code":"2601047","ولسوالي":"قلات","District":"QALAT","د_مرکز_نوم__نام_مرکز":"مسحد لور کاریز","Polling_Center_Name":"Lwar kariz Mosque","د_مرکز_ځای__موقعیت_مرکز":"میرانزائی","Polling_Center_Location":"Miranzaie","Verification_Note":"Building","PS_Male":2,"PS_Female":1,"Map_Accuracy":"تعمیر"},"geometry":{"x":7456798.0053523779,"y":3783411.5656492263}},{"attributes":{"OBJECTID":244,"ولایت":"زابل","Province":"ZABUL","PC_Code":"2603056","ولسوالي":"شنیکی","District":"SHINKAI","د_مرکز_نوم__نام_مرکز":"مسجد","Polling_Center_Name":"Moque","د_مرکز_ځای__موقعیت_مرکز":"عمرزی","Polling_Center_Location":"Omar zai","Verification_Note":"Building","PS_Male":2,"PS_Female":1,"Map_Accuracy":"تعمیر"},"geometry":{"x":7458948.6352416351,"y":3757480.3879688606}},{"attributes":{"OBJECTID":245,"ولایت":"زابل","Province":"ZABUL","PC_Code":"2604057","ولسوالي":"میزان","District":"MIZAN","د_مرکز_نوم__نام_مرکز":"مسجد","Polling_Center_Name":"Moque","د_مرکز_ځای__موقعیت_مرکز":"پیتاب جر کنه","Polling_Center_Location":"Pitab jar kana","Verification_Note":"Village","PS_Male":2,"PS_Female":1,"Map_Accuracy":"قریه"},"geometry":{"x":7407018.0588341281,"y":3796335.4647101238}},{"attributes":{"OBJECTID":246,"ولایت":"زابل","Province":"ZABUL","PC_Code":"2605065","ولسوالي":"ارغنداب","District":"ARGHANDAB","د_مرکز_نوم__نام_مرکز":"مسجد","Polling_Center_Name":"Moque","د_مرکز_ځای__موقعیت_مرکز":"میران،کوتنی","Polling_Center_Location":"Miran, Kotani","Verification_Note":"Building","PS_Male":2,"PS_Female":1,"Map_Accuracy":"تعمیر"},"geometry":{"x":7426766.3542417772,"y":3816821.3690242693}},{"attributes":{"OBJECTID":247,"ولایت":"زابل","Province":"ZABUL","PC_Code":"2605066","ولسوالي":"ارغنداب","District":"ARGHANDAB","د_مرکز_نوم__نام_مرکز":"مسجد","Polling_Center_Name":"Moque","د_مرکز_ځای__موقعیت_مرکز":"کرتو کاریز","Polling_Center_Location":"Karto kariz","Verification_Note":"Village","PS_Male":2,"PS_Female":1,"Map_Accuracy":"قریه"},"geometry":{"x":7475411.666163452,"y":3832245.521841459}},{"attributes":{"OBJECTID":248,"ولایت":"زابل","Province":"ZABUL","PC_Code":"2609075","ولسوالي":"نوبهار","District":"NAW BAHAR","د_مرکز_نوم__نام_مرکز":"مسجد","Polling_Center_Name":"Mosque","د_مرکز_ځای__موقعیت_مرکز":"عمر زی","Polling_Center_Location":"Omar zai","Verification_Note":"Village","PS_Male":2,"PS_Female":1,"Map_Accuracy":"قریه"},"geometry":{"x":7510120.8770064563,"y":3764426.3149149716}},{"attributes":{"OBJECTID":249,"ولایت":"زابل","Province":"ZABUL","PC_Code":"2609076","ولسوالي":"نوبهار","District":"NAW BAHAR","د_مرکز_نوم__نام_مرکز":"شخصی کور","Polling_Center_Name":"House","د_مرکز_ځای__موقعیت_مرکز":"لور مرغه،شین زی","Polling_Center_Location":"Lwar magha, Shin zai","Verification_Note":"Building","PS_Male":2,"PS_Female":1,"Map_Accuracy":"تعمیر"},"geometry":{"x":7537231.16738059,"y":3789811.9280772954}},{"attributes":{"OBJECTID":250,"ولایت":"جوزجان","Province":"JAWZJAN","PC_Code":"2805125","ولسوالي":"قوش تیپه","District":"QUSH TEPA","د_مرکز_نوم__نام_مرکز":"مسجد","Polling_Center_Name":"Mosque","د_مرکز_ځای__موقعیت_مرکز":"گردن","Polling_Center_Location":"Gardan","Verification_Note":"Village","PS_Male":2,"PS_Female":1,"Map_Accuracy":"قریه"},"geometry":{"x":7276832.9062853493,"y":4306642.9039019048}},{"attributes":{"OBJECTID":251,"ولایت":"بادغيس","Province":"BADGHIS","PC_Code":"3102192","ولسوالي":"آبکمری","District":"AB KAMARI","د_مرکز_نوم__نام_مرکز":"سنگ لوح مسجد","Polling_Center_Name":"Sang lawh Mosque","د_مرکز_ځای__موقعیت_مرکز":"سنگ لوح","Polling_Center_Location":"Sang lawh","Verification_Note":"Building","PS_Male":2,"PS_Female":1,"Map_Accuracy":"تعمیر"},"geometry":{"x":6999247.398715578,"y":4124323.4147997797}},{"attributes":{"OBJECTID":252,"ولایت":"خوست","Province":"KHOST","PC_Code":"1404180","ولسوالي":"تنی","District":"TANAY","د_مرکز_نوم__نام_مرکز":"حاجي پير بادشاه کلى جوما","Polling_Center_Name":"Haji pir padsh village Mosque","د_مرکز_ځای__موقعیت_مرکز":"پير باد شاه کلى","Polling_Center_Location":"Pir padsha village","Verification_Note":"Building","PS_Male":2,"PS_Female":1,"Map_Accuracy":"تعمیر"},"geometry":{"x":7772431.9621740207,"y":3930508.1710741296}},{"attributes":{"OBJECTID":253,"ولایت":"خوست","Province":"KHOST","PC_Code":"1404181","ولسوالي":"تنی","District":"TANAY","د_مرکز_نوم__نام_مرکز":"حاجي نيک محمد کلي ښونځې","Polling_Center_Name":"Haji nik muhammad village School","د_مرکز_ځای__موقعیت_مرکز":"نيک محمد کلى","Polling_Center_Location":"Nik muhammad village","Verification_Note":"Building","PS_Male":2,"PS_Female":1,"Map_Accuracy":"تعمیر"},"geometry":{"x":7768607.7769901231,"y":3929080.8665799052}},{"attributes":{"OBJECTID":254,"ولایت":"بادغيس","Province":"BADGHIS","PC_Code":"3106201","ولسوالي":"جوند","District":"JAWAND","د_مرکز_نوم__نام_مرکز":"مسجد تخلنگه","Polling_Center_Name":"Takhlanga Mosque","د_مرکز_ځای__موقعیت_مرکز":"تخلنگه","Polling_Center_Location":"Takhlanga","Verification_Note":"Building","PS_Male":2,"PS_Female":1,"Map_Accuracy":"تعمیر"},"geometry":{"x":7161958.0865819864,"y":4152732.7213149667}},{"attributes":{"OBJECTID":255,"ولایت":"هرات","Province":"HERAT","PC_Code":"3201471","ولسوالي":"ناحیه_12","District":"DISTRICT_12","د_مرکز_نوم__نام_مرکز":"مسجد جامع جبرئيل","Polling_Center_Name":"Jebariel Mosque","د_مرکز_ځای__موقعیت_مرکز":"مسجد جامع جبرئيل","Polling_Center_Location":"Jebraiel Mosque","Verification_Note":"Building","PS_Male":2,"PS_Female":1,"Map_Accuracy":"تعمیر"},"geometry":{"x":6917907.6045567617,"y":4079109.3883087486}},{"attributes":{"OBJECTID":256,"ولایت":"کابل","Province":"KABUL","PC_Code":"0115551","ولسوالي":"سروبی","District":"Surbi","د_مرکز_نوم__نام_مرکز":"لیسه تهزین عام جروبی","Polling_Center_Name":"Tahzin am jarobe High school","د_مرکز_ځای__موقعیت_مرکز":"جروبی","Polling_Center_Location":"Jarobi","Verification_Note":"Building","PS_Male":2,"PS_Female":1,"Map_Accuracy":"تعمیر"},"geometry":{"x":7749992.7729980759,"y":4076916.8308238089}},{"attributes":{"OBJECTID":257,"ولایت":"کابل","Province":"KABUL","PC_Code":"0115552","ولسوالي":"سروبی","District":"Surbi","د_مرکز_نوم__نام_مرکز":"مکتب وکه خاص","Polling_Center_Name":"Waka khas School","د_مرکز_ځای__موقعیت_مرکز":"وکه خاص","Polling_Center_Location":"Waka khas","Verification_Note":"Building","PS_Male":2,"PS_Female":1,"Map_Accuracy":"تعمیر"},"geometry":{"x":7765635.5428010747,"y":4114749.0729990825}},{"attributes":{"OBJECTID":258,"ولایت":"بغلان","Province":"BAGHLAN","PC_Code":"0911279","ولسوالي":"تاله وبرفک","District":"Tala wa Barfak","د_مرکز_نوم__نام_مرکز":"مسجد کلوله سنگ","Polling_Center_Name":"Klola sang Mosque","د_مرکز_ځای__موقعیت_مرکز":"کلوله سنگ","Polling_Center_Location":"Klola sang","Verification_Note":"Building","PS_Male":2,"PS_Female":1,"Map_Accuracy":"تعمیر"},"geometry":{"x":7614048.3844756335,"y":4217042.5203811005}},{"attributes":{"OBJECTID":259,"ولایت":"تخار","Province":"TAKHAR","PC_Code":"1812212","ولسوالي":"دشت قلعه","District":"DASHT-E-QALA","د_مرکز_نوم__نام_مرکز":"لیسه آی خانم","Polling_Center_Name":"Ai khanum High school","د_مرکز_ځای__موقعیت_مرکز":"آی خانم","Polling_Center_Location":"Ai khanum","Verification_Note":"Building","PS_Male":2,"PS_Female":1,"Map_Accuracy":"تعمیر"},"geometry":{"x":7729107.5124089867,"y":4462652.5640092567}},{"attributes":{"OBJECTID":260,"ولایت":"تخار","Province":"TAKHAR","PC_Code":"1813213","ولسوالي":"ورسج","District":"WARSAJ","د_مرکز_نوم__نام_مرکز":"مکتب متوسطه","Polling_Center_Name":"Secondary School","د_مرکز_ځای__موقعیت_مرکز":"ترشت","Polling_Center_Location":"Trsht","Verification_Note":"Building","PS_Male":2,"PS_Female":1,"Map_Accuracy":"تعمیر"},"geometry":{"x":7778946.1590305679,"y":4329075.1797715127}},{"attributes":{"OBJECTID":261,"ولایت":"غور","Province":"GHOR","PC_Code":"2301239","ولسوالي":"چغچران","District":"CHIGHCHERAN","د_مرکز_نوم__نام_مرکز":"مسجد شاخ ملان","Polling_Center_Name":"Shakh malan Mosque","د_مرکز_ځای__موقعیت_مرکز":"شاخ ملان،چشمه سکینه","Polling_Center_Location":"Shakh malan_Cheshma sakina","Verification_Note":"Building","PS_Male":2,"PS_Female":1,"Map_Accuracy":"تعمیر"},"geometry":{"x":7202726.9665592462,"y":4105148.8135224283}},{"attributes":{"OBJECTID":262,"ولایت":"غور","Province":"GHOR","PC_Code":"2305240","ولسوالي":"پسابند","District":"SAGHAR","د_مرکز_نوم__نام_مرکز":"مکتب ناگه","Polling_Center_Name":"Naga School","د_مرکز_ځای__موقعیت_مرکز":"ناگه","Polling_Center_Location":"Naga","Verification_Note":"Building","PS_Male":2,"PS_Female":1,"Map_Accuracy":"تعمیر"},"geometry":{"x":7101762.7569956742,"y":3964869.8976743668}},{"attributes":{"OBJECTID":263,"ولایت":"فارياب","Province":"FARYAB","PC_Code":"2910215","ولسوالي":"کوهستان","District":"KOHISTAN","د_مرکز_نوم__نام_مرکز":"مسجد","Polling_Center_Name":"Mosque","د_مرکز_ځای__موقعیت_مرکز":"دیوارک","Polling_Center_Location":"Diwarak","Verification_Note":"Village","PS_Male":2,"PS_Female":1,"Map_Accuracy":"قریه"},"geometry":{"x":7262598.6737992167,"y":4205472.0058211386}},{"attributes":{"OBJECTID":264,"ولایت":"فارياب","Province":"FARYAB","PC_Code":"2911216","ولسوالي":"قرم قل","District":"QARAM QUL","د_مرکز_نوم__نام_مرکز":"مکتب متوسطه قپچاق","Polling_Center_Name":"Qepchaq Secondary school","د_مرکز_ځای__موقعیت_مرکز":"قپچاق","Polling_Center_Location":"Qep chap","Verification_Note":"District","PS_Male":2,"PS_Female":1,"Map_Accuracy":"ولسوالی"},"geometry":{"x":7233292.7947104536,"y":4410039.501284495}},{"attributes":{"OBJECTID":265,"ولایت":"نيمروز","Province":"NIMROZ","PC_Code":"3403061","ولسوالي":"اصل چغانسور","District":"ASL-E-CHAKHANSUR","د_مرکز_نوم__نام_مرکز":"مکتب سرکنگ","Polling_Center_Name":"Sarkanak School","د_مرکز_ځای__موقعیت_مرکز":"حاجی میر علی خان,سرکنگ","Polling_Center_Location":"Haji mir ali","Verification_Note":"Building","PS_Male":2,"PS_Female":1,"Map_Accuracy":"تعمیر"},"geometry":{"x":6906244.1929626167,"y":3664284.3346855342}},{"attributes":{"OBJECTID":266,"ولایت":"هرات","Province":"HERAT","PC_Code":"3210414","ولسوالي":"کشک کهنه ","District":"KUSHK-E-KUHNA","د_مرکز_نوم__نام_مرکز":"مسجد بلند محمد آباد چشمه خافی مردانه","Polling_Center_Name":"Muhammad Abad Cheshma khafi Mosque(Male)","د_مرکز_ځای__موقعیت_مرکز":"قریه چشمه خافی","Polling_Center_Location":"Chashma-e- Khafi Village","Verification_Note":"Building","PS_Male":2,"PS_Female":0,"Map_Accuracy":"تعمیر"},"geometry":{"x":6974103.1993467137,"y":4147834.4330950975}},{"attributes":{"OBJECTID":267,"ولایت":"کابل","Province":"KABUL","PC_Code":"0101535","ولسوالي":"ناحیه_21","District":"Nahia_21","د_مرکز_نوم__نام_مرکز":"مسجد حمزه","Polling_Center_Name":"Hamza Mosque","د_مرکز_ځای__موقعیت_مرکز":"ناحیه 21 ده سبز","Polling_Center_Location":"Deh sabz_District_21","Verification_Note":"District","PS_Male":2,"PS_Female":1,"Map_Accuracy":"ولسوالی"},"geometry":{"x":7725323.6730820946,"y":4100788.0841635019}},{"attributes":{"OBJECTID":268,"ولایت":"کابل","Province":"KABUL","PC_Code":"0111545","ولسوالي":"گلدره","District":"Guldara","د_مرکز_نوم__نام_مرکز":"ابتدائیه قول افغان","Polling_Center_Name":"Qul afghan Primary school","د_مرکز_ځای__موقعیت_مرکز":"قول افغان","Polling_Center_Location":"Qul  Afghan","Verification_Note":"Building","PS_Male":2,"PS_Female":1,"Map_Accuracy":"تعمیر"},"geometry":{"x":7686024.5451210216,"y":4127288.4387456104}},{"attributes":{"OBJECTID":269,"ولایت":"کابل","Province":"KABUL","PC_Code":"0112546","ولسوالي":"فرزه","District":"Farza","د_مرکز_نوم__نام_مرکز":"مسجد قلعه مقرب","Polling_Center_Name":"Qala muqareb Mosque","د_مرکز_ځای__موقعیت_مرکز":"بوستان","Polling_Center_Location":"Bostan","Verification_Note":"Village","PS_Male":2,"PS_Female":1,"Map_Accuracy":"قریه"},"geometry":{"x":7688557.0892513692,"y":4133593.8955670372}},{"attributes":{"OBJECTID":270,"ولایت":"کابل","Province":"KABUL","PC_Code":"0114547","ولسوالي":"قره باغ","District":"Qarabagh","د_مرکز_نوم__نام_مرکز":"لیسه السغان","Polling_Center_Name":"Alas ghan High school","د_مرکز_ځای__موقعیت_مرکز":"شهرک باریک آب","Polling_Center_Location":"Barik ab town","Verification_Note":"Building","PS_Male":2,"PS_Female":1,"Map_Accuracy":"تعمیر"},"geometry":{"x":7708927.5372705609,"y":4139979.4957630038}},{"attributes":{"OBJECTID":271,"ولایت":"پنجشیر","Province":"PANJSHIR","PC_Code":"0807066","ولسوالي":"پریان","District":"PARYAN","د_مرکز_نوم__نام_مرکز":"مسجد بالای کوچه","Polling_Center_Name":"Balaye Kucha Mosque ","د_مرکز_ځای__موقعیت_مرکز":"کرپیتاب","Polling_Center_Location":"Karpitab","Verification_Note":"Village","PS_Male":2,"PS_Female":0,"Map_Accuracy":"قریه"},"geometry":{"x":7803034.7739996575,"y":4258872.4588449523}},{"attributes":{"OBJECTID":272,"ولایت":"ننگرهار","Province":"NANGARHAR","PC_Code":"0616520","ولسوالي":"شینوار","District":"SHINWAR","د_مرکز_نوم__نام_مرکز":"لیسه مار کو","Polling_Center_Name":"Marko High school","د_مرکز_ځای__موقعیت_مرکز":"مارکو","Polling_Center_Location":"Marko","Verification_Note":"Building","PS_Male":2,"PS_Female":1,"Map_Accuracy":"تعمیر"},"geometry":{"x":7882374.172938928,"y":4062418.200400494}},{"attributes":{"OBJECTID":273,"ولایت":"ننگرهار","Province":"NANGARHAR","PC_Code":"0622521","ولسوالي":"دُر بابا","District":"DUR BABA","د_مرکز_نوم__نام_مرکز":"انځرکلی منځنی ښوونځی","Polling_Center_Name":"Anjeer village Secondary school","د_مرکز_ځای__موقعیت_مرکز":"انځرکلی","Polling_Center_Location":"Ageer village","Verification_Note":"Building","PS_Male":2,"PS_Female":1,"Map_Accuracy":"تعمیر"},"geometry":{"x":7896236.501923129,"y":4042313.6882688478}},{"attributes":{"OBJECTID":274,"ولایت":"لغمان","Province":"LAGHMAN","PC_Code":"0702130","ولسوالي":"قرغه ئی","District":"QARGHAYEE","د_مرکز_نوم__نام_مرکز":"گل غوتدی مکتب","Polling_Center_Name":"Gul ghondi School","د_مرکز_ځای__موقعیت_مرکز":"چپه دره","Polling_Center_Location":"Chapa dara","Verification_Note":"Building","PS_Male":2,"PS_Female":1,"Map_Accuracy":"تعمیر"},"geometry":{"x":7833306.9386624843,"y":4094694.841449216}},{"attributes":{"OBJECTID":275,"ولایت":"پنجشیر","Province":"PANJSHIR","PC_Code":"0806104","ولسوالي":"شُتل","District":"SHUTUL","د_مرکز_نوم__نام_مرکز":"مسجد استوفالو","Polling_Center_Name":"Estofalo Mosque","د_مرکز_ځای__موقعیت_مرکز":"استوفالو","Polling_Center_Location":"Astofalo","Verification_Note":"Building","PS_Male":2,"PS_Female":1,"Map_Accuracy":"تعمیر"},"geometry":{"x":7715347.6486746036,"y":4197525.7353250533}},{"attributes":{"OBJECTID":276,"ولایت":"پنجشیر","Province":"PANJSHIR","PC_Code":"0806105","ولسوالي":"شُتل","District":"SHUTUL","د_مرکز_نوم__نام_مرکز":"مسجد سنگ لخشان","Polling_Center_Name":"Sang lakhshan Mosque","د_مرکز_ځای__موقعیت_مرکز":"سنگ لخشان","Polling_Center_Location":"Sang lakhshan","Verification_Note":"Building","PS_Male":2,"PS_Female":1,"Map_Accuracy":"تعمیر"},"geometry":{"x":7713607.3491075784,"y":4194802.3440344706}},{"attributes":{"OBJECTID":277,"ولایت":"بغلان","Province":"BAGHLAN","PC_Code":"0905272","ولسوالي":"بغلان جدید","District":"BAGLAN-E-JADEED","د_مرکز_نوم__نام_مرکز":"مسجد ملاخیل ","Polling_Center_Name":"Mualah khil Mosque","د_مرکز_ځای__موقعیت_مرکز":"ملا خیل","Polling_Center_Location":"Mulah khil","Verification_Note":"Building","PS_Male":2,"PS_Female":1,"Map_Accuracy":"تعمیر"},"geometry":{"x":7653047.451083228,"y":4329402.5620186627}},{"attributes":{"OBJECTID":278,"ولایت":"باميان","Province":"BAMYAN","PC_Code":"1005175","ولسوالي":"یکاولنگ","District":"Yakawlang","د_مرکز_نوم__نام_مرکز":"لیسه نسوان سوختگی دره چاشت","Polling_Center_Name":"Dara chasht sokhtagi Femal high school","د_مرکز_ځای__موقعیت_مرکز":"سرک سوختگی","Polling_Center_Location":"Sarak sokhtagi","Verification_Note":"Building","PS_Male":2,"PS_Female":1,"Map_Accuracy":"تعمیر"},"geometry":{"x":7424177.3222603425,"y":4145200.6029529124}},{"attributes":{"OBJECTID":279,"ولایت":"باميان","Province":"BAMYAN","PC_Code":"1006183","ولسوالي":"پنجاب","District":"PANJAB","د_مرکز_نوم__نام_مرکز":"مکتب متوسطه قلعه عاشور","Polling_Center_Name":"Qala ashor Secondary school","د_مرکز_ځای__موقعیت_مرکز":"دهن سبزچوبک","Polling_Center_Location":"Dahan sabz chobak","Verification_Note":"Village","PS_Male":2,"PS_Female":1,"Map_Accuracy":"قریه"},"geometry":{"x":7457250.5377841294,"y":4089006.0772029236}},{"attributes":{"OBJECTID":280,"ولایت":"ننگرهار","Province":"NANGARHAR","PC_Code":"0601013","ولسوالي":"جلال آباد","District":"JALALABAD","د_مرکز_نوم__نام_مرکز":"نجم الجهاد لیسه","Polling_Center_Name":"Najmul Jihad High School","د_مرکز_ځای__موقعیت_مرکز":"شپږمه ناحیه","Polling_Center_Location":"D06-Nahia 6","Verification_Note":"Building","PS_Male":2,"PS_Female":2,"Map_Accuracy":"تعمیر"},"geometry":{"x":7840231.7365702689,"y":4077764.2082411647}},{"attributes":{"OBJECTID":281,"ولایت":"ننگرهار","Province":"NANGARHAR","PC_Code":"0601040","ولسوالي":"جلال آباد","District":"JALALABAD","د_مرکز_نوم__نام_مرکز":"انګور باغ جامع جومات","Polling_Center_Name":"Angoor Bagh Jame Mosque","د_مرکز_ځای__موقعیت_مرکز":"دویمه ناحیه","Polling_Center_Location":"D02-Nahia 2","Verification_Note":"Building","PS_Male":2,"PS_Female":2,"Map_Accuracy":"تعمیر"},"geometry":{"x":7843334.0073979683,"y":4084728.2188120559}},{"attributes":{"OBJECTID":282,"ولایت":"ننگرهار","Province":"NANGARHAR","PC_Code":"0601044","ولسوالي":"جلال آباد","District":"JALALABAD","د_مرکز_نوم__نام_مرکز":"مياعمر مکتب","Polling_Center_Name":"Mia Umar School","د_مرکز_ځای__موقعیت_مرکز":"دویمه ناحیه","Polling_Center_Location":"D02-Nahia 2","Verification_Note":"Building","PS_Male":0,"PS_Female":6,"Map_Accuracy":"تعمیر"},"geometry":{"x":7842713.391329363,"y":4085321.5421691537}},{"attributes":{"OBJECTID":283,"ولایت":"پکتيا","Province":"PAKTYA","PC_Code":"1312222","ولسوالي":"لجه منگل","District":"LAJA MANGAL","د_مرکز_نوم__نام_مرکز":"للک کهول مدرسه","Polling_Center_Name":"Lalak kahol Madrasa ","د_مرکز_ځای__موقعیت_مرکز":"لعلک کلی","Polling_Center_Location":"Lalak village","Verification_Note":"Building","PS_Male":2,"PS_Female":1,"Map_Accuracy":"تعمیر"},"geometry":{"x":7751094.5862673186,"y":3993232.5345813558}},{"attributes":{"OBJECTID":284,"ولایت":"پکتيا","Province":"PAKTYA","PC_Code":"1312223","ولسوالي":"لجه منگل","District":"LAJA MANGAL","د_مرکز_نوم__نام_مرکز":"دودی مسجد","Polling_Center_Name":"Dodai Mosque","د_مرکز_ځای__موقعیت_مرکز":"کوزه ډوډه","Polling_Center_Location":"Koza doda","Verification_Note":"Building","PS_Male":2,"PS_Female":1,"Map_Accuracy":"تعمیر"},"geometry":{"x":7756091.7927930839,"y":4002520.9921469018}},{"attributes":{"OBJECTID":285,"ولایت":"خوست","Province":"KHOST","PC_Code":"1401176","ولسوالي":"( خوست(متون","District":"KHOST","د_مرکز_نوم__نام_مرکز":"شمل ګډه خاره حسن کوټ مکتب","Polling_Center_Name":"Hasan kot School","د_مرکز_ځای__موقعیت_مرکز":"مرکز","Polling_Center_Location":"Center","Verification_Note":"Building","PS_Male":2,"PS_Female":1,"Map_Accuracy":"تعمیر"},"geometry":{"x":7796697.1605796814,"y":3937896.9988325089}},{"attributes":{"OBJECTID":286,"ولایت":"ننگرهار","Province":"NANGARHAR","PC_Code":"0606188","ولسوالي":"کوز کنړ","District":"KUZ KUNAR","د_مرکز_نوم__نام_مرکز":"زرګران کلي جومات","Polling_Center_Name":"Zargaran Village Mosque","د_مرکز_ځای__موقعیت_مرکز":"زرګران کلي","Polling_Center_Location":"Zargaran Village","Verification_Note":"Building","PS_Male":2,"PS_Female":1,"Map_Accuracy":"تعمیر"},"geometry":{"x":7857034.3460402749,"y":4105517.1832331046}},{"attributes":{"OBJECTID":287,"ولایت":"ننگرهار","Province":"NANGARHAR","PC_Code":"0610324","ولسوالي":"ده بالا","District":"DEH BALA","د_مرکز_نوم__نام_مرکز":"جاودره ملک شیر محمد حجره","Polling_Center_Name":"Jawdara Malak Sher Mohammad Hujra","د_مرکز_ځای__موقعیت_مرکز":"جاودره","Polling_Center_Location":"Jawdara","Verification_Note":"Village","PS_Male":0,"PS_Female":1,"Map_Accuracy":"قریه"},"geometry":{"x":7845803.2614997439,"y":4040632.2447127327}},{"attributes":{"OBJECTID":288,"ولایت":"تخار","Province":"TAKHAR","PC_Code":"1803204","ولسوالي":"بهارک","District":"BAHARAK","د_مرکز_نوم__نام_مرکز":"لیسه قاضی عنایت الله","Polling_Center_Name":"Qazi enayaht ullah High School","د_مرکز_ځای__موقعیت_مرکز":"شش بند","Polling_Center_Location":"Shash band","Verification_Note":"Village","PS_Male":2,"PS_Female":1,"Map_Accuracy":"قریه"},"geometry":{"x":7729814.1246766672,"y":4408539.7439641505}},{"attributes":{"OBJECTID":289,"ولایت":"تخار","Province":"TAKHAR","PC_Code":"1806205","ولسوالي":null,"District":"NAMAK AB","د_مرکز_نوم__نام_مرکز":"مکتب ابتدایه","Polling_Center_Name":"Primary School","د_مرکز_ځای__موقعیت_مرکز":"تاش یلاق","Polling_Center_Location":"Tash yalaq","Verification_Note":"Building","PS_Male":2,"PS_Female":1,"Map_Accuracy":"تعمیر"},"geometry":{"x":7750176.5021440871,"y":4379816.9325614125}},{"attributes":{"OBJECTID":290,"ولایت":"تخار","Province":"TAKHAR","PC_Code":"1807206","ولسوالي":"کلفگان","District":"KALAFGAN","د_مرکز_نوم__نام_مرکز":"مکتب متوسطه امام ابوحنیفه","Polling_Center_Name":"Emam abo hanifa Secondary School","د_مرکز_ځای__موقعیت_مرکز":"خرقان،خیاردره","Polling_Center_Location":"Kharqan khiar dara","Verification_Note":"Building","PS_Male":2,"PS_Female":1,"Map_Accuracy":"تعمیر"},"geometry":{"x":7781752.7891130969,"y":4420013.9070309848}},{"attributes":{"OBJECTID":291,"ولایت":"تخار","Province":"TAKHAR","PC_Code":"1807207","ولسوالي":"کلفگان","District":"KALAFGAN","د_مرکز_نوم__نام_مرکز":"مکتب ابتدایه","Polling_Center_Name":"Primary School","د_مرکز_ځای__موقعیت_مرکز":"گرم سیر","Polling_Center_Location":"Garm sir","Verification_Note":"Building","PS_Male":2,"PS_Female":1,"Map_Accuracy":"تعمیر"},"geometry":{"x":7789413.1898895837,"y":4427550.6910914779}},{"attributes":{"OBJECTID":292,"ولایت":"تخار","Province":"TAKHAR","PC_Code":"1808208","ولسوالي":"فرخار","District":"FARKHAR","د_مرکز_نوم__نام_مرکز":"مکتب متوسطه","Polling_Center_Name":"Secondary School","د_مرکز_ځای__موقعیت_مرکز":"کشکتان","Polling_Center_Location":"Kashkatan","Verification_Note":"Building","PS_Male":2,"PS_Female":1,"Map_Accuracy":"تعمیر"},"geometry":{"x":7764526.3083066754,"y":4387765.626172334}},{"attributes":{"OBJECTID":293,"ولایت":"سرپل","Province":"SAR-E-PUL","PC_Code":"2203137","ولسوالي":"کوهستانات","District":"KOHISTANAT","د_مرکز_نوم__نام_مرکز":"مسجد حاجی طاهر","Polling_Center_Name":"Haji zaher Mosque","د_مرکز_ځای__موقعیت_مرکز":"گنجی ها","Polling_Center_Location":"Kunji ha","Verification_Note":"Village","PS_Male":2,"PS_Female":1,"Map_Accuracy":"قریه"},"geometry":{"x":7334496.4451516382,"y":4271005.2109736651}},{"attributes":{"OBJECTID":294,"ولایت":"سرپل","Province":"SAR-E-PUL","PC_Code":"2203138","ولسوالي":"کوهستانات","District":"KOHISTANAT","د_مرکز_نوم__نام_مرکز":"مسجد","Polling_Center_Name":"Mosque","د_مرکز_ځای__موقعیت_مرکز":"خمیده","Polling_Center_Location":"Khamida","Verification_Note":"Village","PS_Male":2,"PS_Female":1,"Map_Accuracy":"قریه"},"geometry":{"x":7328874.4025466777,"y":4229167.1752616987}},{"attributes":{"OBJECTID":295,"ولایت":"زابل","Province":"ZABUL","PC_Code":"2601048","ولسوالي":"قلات","District":"QALAT","د_مرکز_نوم__نام_مرکز":"پوسته امنیتی بارکزی","Polling_Center_Name":"Barak zai Check post","د_مرکز_ځای__موقعیت_مرکز":"میرانزائی،خرجوی","Polling_Center_Location":"Miranzaie kharjoi","Verification_Note":"Village","PS_Male":2,"PS_Female":1,"Map_Accuracy":"قریه"},"geometry":{"x":7474333.5112916343,"y":3798735.6853318438}},{"attributes":{"OBJECTID":296,"ولایت":"زابل","Province":"ZABUL","PC_Code":"2601049","ولسوالي":"قلات","District":"QALAT","د_مرکز_نوم__نام_مرکز":"مسجد نوخیز","Polling_Center_Name":"Naw khiz Mosque","د_مرکز_ځای__موقعیت_مرکز":"نوخیز","Polling_Center_Location":"Naw khiz","Verification_Note":"Building","PS_Male":2,"PS_Female":1,"Map_Accuracy":"تعمیر"},"geometry":{"x":7436049.6725237034,"y":3775300.8513141051}},{"attributes":{"OBJECTID":297,"ولایت":"فارياب","Province":"FARYAB","PC_Code":"2901209","ولسوالي":"میمنه","District":"MAIMANA","د_مرکز_نوم__نام_مرکز":"مکتب متوسطه دولت کپتان","Polling_Center_Name":"Dawlat keptan Secondary school","د_مرکز_ځای__موقعیت_مرکز":"قتور","Polling_Center_Location":"Qatoor","Verification_Note":"District","PS_Male":2,"PS_Female":1,"Map_Accuracy":"ولسوالی"},"geometry":{"x":7212278.56960072,"y":4288917.6820338815}},{"attributes":{"OBJECTID":298,"ولایت":"بادغيس","Province":"BADGHIS","PC_Code":"3106195","ولسوالي":"جوند","District":"JAWAND","د_مرکز_نوم__نام_مرکز":"فضای آزاد","Polling_Center_Name":"Open Field","د_مرکز_ځای__موقعیت_مرکز":"سر خاص","Polling_Center_Location":"Sar khas","Verification_Note":"Building","PS_Male":2,"PS_Female":1,"Map_Accuracy":"تعمیر"},"geometry":{"x":7181672.0919129364,"y":4182396.9322526231}},{"attributes":{"OBJECTID":299,"ولایت":"بادغيس","Province":"BADGHIS","PC_Code":"3106196","ولسوالي":"جوند","District":"JAWAND","د_مرکز_نوم__نام_مرکز":"مسجد گوساله دانک","Polling_Center_Name":"Gosala danak Mosque","د_مرکز_ځای__موقعیت_مرکز":"گوساله دانک","Polling_Center_Location":"Gosala danak","Verification_Note":"Building","PS_Male":2,"PS_Female":1,"Map_Accuracy":"تعمیر"},"geometry":{"x":7167413.8448070213,"y":4171420.0514291003}},{"attributes":{"OBJECTID":300,"ولایت":"بادغيس","Province":"BADGHIS","PC_Code":"3106197","ولسوالي":"جوند","District":"JAWAND","د_مرکز_نوم__نام_مرکز":" مسجد گل زیری پاین","Polling_Center_Name":"Gul zirai paien Mosque","د_مرکز_ځای__موقعیت_مرکز":"گل زیری پاین","Polling_Center_Location":"Gul zirai pahien","Verification_Note":"Building","PS_Male":2,"PS_Female":1,"Map_Accuracy":"تعمیر"},"geometry":{"x":7137464.538727507,"y":4144778.1759672612}},{"attributes":{"OBJECTID":301,"ولایت":"هرات","Province":"HERAT","PC_Code":"3202476","ولسوالي":"انجیل","District":"ENJIL","د_مرکز_نوم__نام_مرکز":" ليسه چونگر","Polling_Center_Name":"Chongar High school","د_مرکز_ځای__موقعیت_مرکز":"چونگر","Polling_Center_Location":"Chongar","Verification_Note":"Building","PS_Male":2,"PS_Female":1,"Map_Accuracy":"تعمیر"},"geometry":{"x":6931679.5787385479,"y":4069579.471529454}},{"attributes":{"OBJECTID":302,"ولایت":"هرات","Province":"HERAT","PC_Code":"3205477","ولسوالي":"زنده جان","District":"ZENDAJAN","د_مرکز_نوم__نام_مرکز":"مجتمع فرهنگی","Polling_Center_Name":"Cultural Asosiation","د_مرکز_ځای__موقعیت_مرکز":"سنگ ترقيده","Polling_Center_Location":"Sang tarqida","Verification_Note":"Building","PS_Male":2,"PS_Female":1,"Map_Accuracy":"تعمیر"},"geometry":{"x":6877581.603607662,"y":4055723.3231495246}},{"attributes":{"OBJECTID":303,"ولایت":"هرات","Province":"HERAT","PC_Code":"3205478","ولسوالي":"زنده جان","District":"ZENDAJAN","د_مرکز_نوم__نام_مرکز":"مکتب قلعه یادگار","Polling_Center_Name":"Qala yadgar School","د_مرکز_ځای__موقعیت_مرکز":"يادگار","Polling_Center_Location":"Yadgar","Verification_Note":"Building","PS_Male":2,"PS_Female":1,"Map_Accuracy":"تعمیر"},"geometry":{"x":6896647.7820449844,"y":4076245.0381253138}},{"attributes":{"OBJECTID":304,"ولایت":"هرات","Province":"HERAT","PC_Code":"3209481","ولسوالي":"ادرسکن","District":"ADRASKAN","د_مرکز_نوم__نام_مرکز":"مكتب ابتدائي كال يك پايه","Polling_Center_Name":"Kal yak paia Promary School","د_مرکز_ځای__موقعیت_مرکز":"كال يك پايه","Polling_Center_Location":"Kal yak paia","Verification_Note":"Building","PS_Male":2,"PS_Female":1,"Map_Accuracy":"تعمیر"},"geometry":{"x":6932932.2046482861,"y":3988668.3178422078}},{"attributes":{"OBJECTID":305,"ولایت":"هرات","Province":"HERAT","PC_Code":"3203084","ولسوالي":"گذره","District":"GUZARA","د_مرکز_نوم__نام_مرکز":"مدرسه شهرک خاتم الانبیاء","Polling_Center_Name":"Khatamul Anbeya Madrassa","د_مرکز_ځای__موقعیت_مرکز":"شهرک خاتم الانبیاء","Polling_Center_Location":"Shahrak-e- Khatamul Anbeya ","Verification_Note":"Building","PS_Male":2,"PS_Female":1,"Map_Accuracy":"تعمیر"},"geometry":{"x":6927263.9495378472,"y":4064026.7711376697}},{"attributes":{"OBJECTID":306,"ولایت":"هرات","Province":"HERAT","PC_Code":"3203085","ولسوالي":"گذره","District":"GUZARA","د_مرکز_نوم__نام_مرکز":"لیسه خواجه شهاب","Polling_Center_Name":"Khwaja Shahab High School","د_مرکز_ځای__موقعیت_مرکز":"قریه فیروز آباد","Polling_Center_Location":"Feroz Abad Village ","Verification_Note":"Building","PS_Male":1,"PS_Female":1,"Map_Accuracy":"تعمیر"},"geometry":{"x":6929682.0281772725,"y":4061393.5113788694}},{"attributes":{"OBJECTID":307,"ولایت":"هرات","Province":"HERAT","PC_Code":"3201018","ولسوالي":"هرات","District":"HERAT","د_مرکز_نوم__نام_مرکز":"مسجد جامع کبیر برامان","Polling_Center_Name":"Kabeer Buraman Mosque","د_مرکز_ځای__موقعیت_مرکز":"ناحیه هفتم","Polling_Center_Location":"D07 - Nahia 7","Verification_Note":"Building","PS_Male":4,"PS_Female":4,"Map_Accuracy":"تعمیر"},"geometry":{"x":6921655.6580069475,"y":4075507.2142277583}},{"attributes":{"OBJECTID":308,"ولایت":"هرات","Province":"HERAT","PC_Code":"3201019","ولسوالي":"هرات","District":"HERAT","د_مرکز_نوم__نام_مرکز":"لیسه پایین آب","Polling_Center_Name":"Paeen Aab School","د_مرکز_ځای__موقعیت_مرکز":"ناحیه دهم ","Polling_Center_Location":"D07 - Nahia 7","Verification_Note":"Building","PS_Male":3,"PS_Female":3,"Map_Accuracy":"تعمیر"},"geometry":{"x":6921034.1445919238,"y":4073454.1207493842}},{"attributes":{"OBJECTID":309,"ولایت":"کابل","Province":"KABUL","PC_Code":"0101526","ولسوالي":"ناحیه_15","District":"Nahia_15","د_مرکز_نوم__نام_مرکز":"مسجد اقصی","Polling_Center_Name":"Aqsa Mosque","د_مرکز_ځای__موقعیت_مرکز":"ناحیه 15","Polling_Center_Location":"District-15","Verification_Note":"Building","PS_Male":2,"PS_Female":1,"Map_Accuracy":"تعمیر"},"geometry":{"x":7698529.15335666,"y":4106915.6331873685}},{"attributes":{"OBJECTID":310,"ولایت":"کابل","Province":"KABUL","PC_Code":"0101527","ولسوالي":"ناحیه_15","District":"Nahia_15","د_مرکز_نوم__نام_مرکز":"مسجد آل محمد","Polling_Center_Name":"Al muhammad Mosque","د_مرکز_ځای__موقعیت_مرکز":"ناحیه 15","Polling_Center_Location":"District-15","Verification_Note":"Building","PS_Male":2,"PS_Female":1,"Map_Accuracy":"تعمیر"},"geometry":{"x":7700093.1097145639,"y":4105540.5719362125}},{"attributes":{"OBJECTID":311,"ولایت":"کابل","Province":"KABUL","PC_Code":"0101529","ولسوالي":"ناحیه_15","District":"Nahia_15","د_مرکز_نوم__نام_مرکز":"مسجد پروژه خراسان","Polling_Center_Name":"Prozha khurasan Mosque","د_مرکز_ځای__موقعیت_مرکز":"ناحیه 15","Polling_Center_Location":"District-15","Verification_Note":"Building","PS_Male":2,"PS_Female":1,"Map_Accuracy":"تعمیر"},"geometry":{"x":7698863.5323940739,"y":4105903.087240085}},{"attributes":{"OBJECTID":312,"ولایت":"کابل","Province":"KABUL","PC_Code":"0101530","ولسوالي":"ناحیه_15","District":"Nahia_15","د_مرکز_نوم__نام_مرکز":"مسجد جامع خواجه بغرا","Polling_Center_Name":"Khoja bughra Mosque","د_مرکز_ځای__موقعیت_مرکز":"کوچه برج برق","Polling_Center_Location":"Pawar station street","Verification_Note":"Building","PS_Male":2,"PS_Female":1,"Map_Accuracy":"تعمیر"},"geometry":{"x":7699259.09340287,"y":4107192.8521122262}},{"attributes":{"OBJECTID":313,"ولایت":"کابل","Province":"KABUL","PC_Code":"0101531","ولسوالي":"ناحیه_17","District":"Nahia_17","د_مرکز_نوم__نام_مرکز":"لیسه خصوصی صدیق اکبر","Polling_Center_Name":"Sedeq akbar High school","د_مرکز_ځای__موقعیت_مرکز":"شهرک نجات","Polling_Center_Location":"Nejat town","Verification_Note":"Building","PS_Male":2,"PS_Female":1,"Map_Accuracy":"تعمیر"},"geometry":{"x":7688646.3327513114,"y":4110568.5869590193}},{"attributes":{"OBJECTID":314,"ولایت":"ننگرهار","Province":"NANGARHAR","PC_Code":"0611302","ولسوالي":"پچیر و اګام","District":"PACHIR WAGAM","د_مرکز_نوم__نام_مرکز":"لوړه مينه جومات","Polling_Center_Name":"Lowara Mena Mosque","د_مرکز_ځای__موقعیت_مرکز":"دو ابه","Polling_Center_Location":"Du Aaba","Verification_Note":"Village","PS_Male":1,"PS_Female":1,"Map_Accuracy":"قریه"},"geometry":{"x":7836587.1494660676,"y":4037790.4635679796}},{"attributes":{"OBJECTID":315,"ولایت":"کابل","Province":"KABUL","PC_Code":"0105533","ولسوالي":"ده سبز","District":"Dehsabz","د_مرکز_نوم__نام_مرکز":"مسجد حاجی عبدالله خان","Polling_Center_Name":"Haji abdullah khan Mosque","د_مرکز_ځای__موقعیت_مرکز":"اده تورخم","Polling_Center_Location":"Torkham transportation station","Verification_Note":"Building","PS_Male":2,"PS_Female":1,"Map_Accuracy":"تعمیر"},"geometry":{"x":7724566.4851414859,"y":4105169.1257469133}},{"attributes":{"OBJECTID":316,"ولایت":"کابل","Province":"KABUL","PC_Code":"0105541","ولسوالي":"ده سبز","District":"Dehsabz","د_مرکز_نوم__نام_مرکز":"مسجد قیس و لونگ","Polling_Center_Name":"Qais wa lang Mosque","د_مرکز_ځای__موقعیت_مرکز":"جیران","Polling_Center_Location":"Jeeran","Verification_Note":"Village","PS_Male":2,"PS_Female":1,"Map_Accuracy":"قریه"},"geometry":{"x":7722526.7813399434,"y":4110174.90110787}},{"attributes":{"OBJECTID":317,"ولایت":"کابل","Province":"KABUL","PC_Code":"0106542","ولسوالي":"شکردره","District":"Shakar Dara","د_مرکز_نوم__نام_مرکز":"مسجد شهرک الغوی","Polling_Center_Name":"Shahrak alghawi Mosque","د_مرکز_ځای__موقعیت_مرکز":"شهرک الغوی","Polling_Center_Location":"Alghawi town","Verification_Note":"Building","PS_Male":2,"PS_Female":1,"Map_Accuracy":"تعمیر"},"geometry":{"x":7699888.894553978,"y":4112047.7480315417}},{"attributes":{"OBJECTID":318,"ولایت":"ننگرهار","Province":"NANGARHAR","PC_Code":"0605511","ولسوالي":"کامه","District":"KAMA","د_مرکز_نوم__نام_مرکز":"ښوونځی","Polling_Center_Name":"School","د_مرکز_ځای__موقعیت_مرکز":" ده طاهر","Polling_Center_Location":"Deh taher","Verification_Note":"Building","PS_Male":2,"PS_Female":1,"Map_Accuracy":"تعمیر"},"geometry":{"x":7861652.5061376616,"y":4083056.0237895995}},{"attributes":{"OBJECTID":319,"ولایت":"ننگرهار","Province":"NANGARHAR","PC_Code":"0602509","ولسوالي":"بهسود","District":"BEHSUD","د_مرکز_نوم__نام_مرکز":"مکتب ابتدایه","Polling_Center_Name":"Primary School","د_مرکز_ځای__موقعیت_مرکز":"ګردیکس","Polling_Center_Location":"Gardiks","Verification_Note":"Village","PS_Male":2,"PS_Female":1,"Map_Accuracy":"قریه"},"geometry":{"x":7866271.2495491952,"y":4080951.6933992058}},{"attributes":{"OBJECTID":320,"ولایت":"ننگرهار","Province":"NANGARHAR","PC_Code":"0603510","ولسوالي":"سرخ رود","District":"SURKH RUD","د_مرکز_نوم__نام_مرکز":"مکتب سیدوخیل","Polling_Center_Name":"Saido khil School","د_مرکز_ځای__موقعیت_مرکز":"سیدو خیل","Polling_Center_Location":"Saido khil","Verification_Note":"Building","PS_Male":2,"PS_Female":1,"Map_Accuracy":"تعمیر"},"geometry":{"x":7828362.2334142029,"y":4085886.0136498362}},{"attributes":{"OBJECTID":321,"ولایت":"ننگرهار","Province":"NANGARHAR","PC_Code":"0605514","ولسوالي":"کامه","District":"KAMA","د_مرکز_نوم__نام_مرکز":"جومات ","Polling_Center_Name":"Mosque","د_مرکز_ځای__موقعیت_مرکز":"بازید خیل","Polling_Center_Location":"Bazid khil","Verification_Note":"Building","PS_Male":2,"PS_Female":1,"Map_Accuracy":"تعمیر"},"geometry":{"x":7864747.4176338315,"y":4086838.7360135764}},{"attributes":{"OBJECTID":322,"ولایت":"ننگرهار","Province":"NANGARHAR","PC_Code":"0606515","ولسوالي":"کوز کنر","District":"KUZ KUNAR","د_مرکز_نوم__نام_مرکز":"مکتب گمبیری","Polling_Center_Name":"Gambiri School","د_مرکز_ځای__موقعیت_مرکز":"گمبیری","Polling_Center_Location":"Gambiri","Verification_Note":"Building","PS_Male":2,"PS_Female":1,"Map_Accuracy":"تعمیر"},"geometry":{"x":7851364.7591034435,"y":4104752.1649978533}},{"attributes":{"OBJECTID":323,"ولایت":"ننگرهار","Province":"NANGARHAR","PC_Code":"0608516","ولسوالي":"خوگیانی","District":"KHUGYANI","د_مرکز_نوم__نام_مرکز":"لیسه","Polling_Center_Name":"High school","د_مرکز_ځای__موقعیت_مرکز":"چمتله","Polling_Center_Location":"Chemtala","Verification_Note":"Building","PS_Male":2,"PS_Female":1,"Map_Accuracy":"تعمیر"},"geometry":{"x":7813500.9549343586,"y":4075540.1821247339}},{"attributes":{"OBJECTID":324,"ولایت":"پنجشیر","Province":"PANJSHIR","PC_Code":"0801097","ولسوالي":"بازارک","District":"BAZARAK","د_مرکز_نوم__نام_مرکز":"مکتب متوسطه کوه منجهور ","Polling_Center_Name":"Koh manjahoor Secondary School","د_مرکز_ځای__موقعیت_مرکز":"دشتک","Polling_Center_Location":"Dashtak","Verification_Note":"Building","PS_Male":2,"PS_Female":1,"Map_Accuracy":"تعمیر"},"geometry":{"x":7741916.1319475919,"y":4206055.316605702}},{"attributes":{"OBJECTID":325,"ولایت":"پنجشیر","Province":"PANJSHIR","PC_Code":"0801098","ولسوالي":"بازارک","District":"BAZARAK","د_مرکز_نوم__نام_مرکز":"مسجد مارشال فهیم","Polling_Center_Name":"Marshal faheem Mosque","د_مرکز_ځای__موقعیت_مرکز":"مرکزولایت،بازارک","Polling_Center_Location":"Province center_Bazarak","Verification_Note":"Building","PS_Male":2,"PS_Female":1,"Map_Accuracy":"تعمیر"},"geometry":{"x":7734430.1959751323,"y":4201689.1331146583}},{"attributes":{"OBJECTID":326,"ولایت":"بغلان","Province":"BAGHLAN","PC_Code":"0903262","ولسوالي":"دوشی","District":"Doshi","د_مرکز_نوم__نام_مرکز":"مکتب متوسطه سنگ سوراخ","Polling_Center_Name":"Sang sorakh Secondary School","د_مرکز_ځای__موقعیت_مرکز":"سنگ سوراخ","Polling_Center_Location":"Sang sorakh","Verification_Note":"Building","PS_Male":2,"PS_Female":1,"Map_Accuracy":"تعمیر"},"geometry":{"x":7655351.9832854494,"y":4267498.34201543}},{"attributes":{"OBJECTID":327,"ولایت":"بغلان","Province":"BAGHLAN","PC_Code":"0903263","ولسوالي":"دوشی","District":"Doshi","د_مرکز_نوم__نام_مرکز":"مکتب متوسطه ناصری","Polling_Center_Name":"Nasri Secondary school","د_مرکز_ځای__موقعیت_مرکز":"ناصری ها","Polling_Center_Location":"Naseri ha","Verification_Note":"Building","PS_Male":2,"PS_Female":1,"Map_Accuracy":"تعمیر"},"geometry":{"x":7659346.11603976,"y":4278219.6017185822}},{"attributes":{"OBJECTID":328,"ولایت":"بغلان","Province":"BAGHLAN","PC_Code":"0903264","ولسوالي":"دوشی","District":"Doshi","د_مرکز_نوم__نام_مرکز":"مکتب ","Polling_Center_Name":"School","د_مرکز_ځای__موقعیت_مرکز":"دره گی ","Polling_Center_Location":"Dara gai","Verification_Note":"Building","PS_Male":2,"PS_Female":1,"Map_Accuracy":"تعمیر"},"geometry":{"x":7641847.4236787483,"y":4245464.2357919365}},{"attributes":{"OBJECTID":329,"ولایت":"بدخشان","Province":"BADAKHSHAN","PC_Code":"1701284","ولسوالي":"فیض آباد","District":"FAIZ ABAD","د_مرکز_نوم__نام_مرکز":"لیسه ذکور تجربوی الجهاد ","Polling_Center_Name":"Al jahad High school","د_مرکز_ځای__موقعیت_مرکز":"دشت شهداء","Polling_Center_Location":"Dasht shhada","Verification_Note":"Building","PS_Male":2,"PS_Female":1,"Map_Accuracy":"تعمیر"},"geometry":{"x":7852102.9622841328,"y":4453836.9475950152}},{"attributes":{"OBJECTID":330,"ولایت":"بدخشان","Province":"BADAKHSHAN","PC_Code":"1704292","ولسوالي":"یفتل سفلی","District":"YAFTAL-E-SUFLA","د_مرکز_نوم__نام_مرکز":" لیسه ورینگ","Polling_Center_Name":"Warig High school","د_مرکز_ځای__موقعیت_مرکز":"ورنگ","Polling_Center_Location":"Warang","Verification_Note":"Building","PS_Male":2,"PS_Female":1,"Map_Accuracy":"تعمیر"},"geometry":{"x":7843102.7222315334,"y":4480802.80452963}},{"attributes":{"OBJECTID":331,"ولایت":"بدخشان","Province":"BADAKHSHAN","PC_Code":"1704293","ولسوالي":"یفتل سفلی","District":"YAFTAL-E-SUFLA","د_مرکز_نوم__نام_مرکز":"مکتب متوسطه پهندره","Polling_Center_Name":"Pahn dara Secondary school","د_مرکز_ځای__موقعیت_مرکز":"پهن دره","Polling_Center_Location":"Pahn dara","Verification_Note":"Building","PS_Male":2,"PS_Female":1,"Map_Accuracy":"تعمیر"},"geometry":{"x":7839879.8864953667,"y":4490083.0176161081}},{"attributes":{"OBJECTID":332,"ولایت":"بدخشان","Province":"BADAKHSHAN","PC_Code":"1707294","ولسوالي":"درایم","District":"DARAYIM","د_مرکز_نوم__نام_مرکز":" مدرسه ترگنی پاین","Polling_Center_Name":"Targani payan Madrasa","د_مرکز_ځای__موقعیت_مرکز":"ترگنی پایان","Polling_Center_Location":"Trangai paian","Verification_Note":"Building","PS_Male":2,"PS_Female":1,"Map_Accuracy":"تعمیر"},"geometry":{"x":7841041.8644984774,"y":4420212.9577407017}},{"attributes":{"OBJECTID":333,"ولایت":"خوست","Province":"KHOST","PC_Code":"1404182","ولسوالي":"تنی","District":"TANAY","د_مرکز_نوم__نام_مرکز":"شاعر کلي جومات","Polling_Center_Name":"Shahr kli Mosque","د_مرکز_ځای__موقعیت_مرکز":"شاعر کلى","Polling_Center_Location":"Shaher village","Verification_Note":"District","PS_Male":2,"PS_Female":1,"Map_Accuracy":"ولسوالی"},"geometry":{"x":7777580.846181415,"y":3933689.0707196742}},{"attributes":{"OBJECTID":334,"ولایت":"بدخشان","Province":"BADAKHSHAN","PC_Code":"1715310","ولسوالي":"کشم","District":"KHASH","د_مرکز_نوم__نام_مرکز":"مسجد جامع حضرت سرور کاینات","Polling_Center_Name":"Hazrat sarwar kainat Mosque","د_مرکز_ځای__موقعیت_مرکز":"گنگورچی","Polling_Center_Location":"Gangor chi","Verification_Note":"District","PS_Male":2,"PS_Female":1,"Map_Accuracy":"ولسوالی"},"geometry":{"x":7808065.5484725945,"y":4398625.9048319906}},{"attributes":{"OBJECTID":335,"ولایت":"تخار","Province":"TAKHAR","PC_Code":"1815214","ولسوالي":"درقد","District":"DARQAD","د_مرکز_نوم__نام_مرکز":"مکتب نسوان دروازه","Polling_Center_Name":"Darwaza Female School","د_مرکز_ځای__موقعیت_مرکز":"شور عرب","Polling_Center_Location":"Shor arab","Verification_Note":"Building","PS_Male":2,"PS_Female":1,"Map_Accuracy":"تعمیر"},"geometry":{"x":7737689.6458050087,"y":4496252.9315287247}},{"attributes":{"OBJECTID":336,"ولایت":"تخار","Province":"TAKHAR","PC_Code":"1816215","ولسوالي":"چا آب","District":"CHAH AB","د_مرکز_نوم__نام_مرکز":"مسجد جامع","Polling_Center_Name":"Mosque","د_مرکز_ځای__موقعیت_مرکز":"درۀ بشیر","Polling_Center_Location":"Dara bashir","Verification_Note":"Building","PS_Male":2,"PS_Female":1,"Map_Accuracy":"تعمیر"},"geometry":{"x":7788967.959348511,"y":4483642.2473790646}},{"attributes":{"OBJECTID":337,"ولایت":"کندز","Province":"KUNDUZ","PC_Code":"1903218","ولسوالي":"علی آباد","District":"ALI ABAD","د_مرکز_نوم__نام_مرکز":"مکتب متوسطه","Polling_Center_Name":"Secondary School","د_مرکز_ځای__موقعیت_مرکز":"چیپ","Polling_Center_Location":"Cheep","Verification_Note":"Building","PS_Male":2,"PS_Female":1,"Map_Accuracy":"تعمیر"},"geometry":{"x":7672113.5671816319,"y":4367269.4949509948}},{"attributes":{"OBJECTID":338,"ولایت":"سمنگان","Province":"SAMANGAN","PC_Code":"2003097","ولسوالي":"خرم وسارباغ","District":"HAZRAT-E-SULTAN","د_مرکز_نوم__نام_مرکز":"مکتب متوسطه خواجه قچقار","Polling_Center_Name":"Khwaja quch qar Secondary School","د_مرکز_ځای__موقعیت_مرکز":"خواجه قچقار","Polling_Center_Location":"Khwaja quch qar","Verification_Note":"Building","PS_Male":2,"PS_Female":1,"Map_Accuracy":"تعمیر"},"geometry":{"x":7601332.6517012492,"y":4306647.0161135346}},{"attributes":{"OBJECTID":339,"ولایت":"دایکندی","Province":"DAYKUNDI","PC_Code":"2404178","ولسوالي":"اشترلی","District":"ASHTARLAY","د_مرکز_نوم__نام_مرکز":"مسجد","Polling_Center_Name":"Mosque","د_مرکز_ځای__موقعیت_مرکز":"میدان آهنگران ","Polling_Center_Location":"Maidan ahangaran","Verification_Note":"Building","PS_Male":2,"PS_Female":1,"Map_Accuracy":"تعمیر"},"geometry":{"x":7394831.04132086,"y":4031726.6308050752}},{"attributes":{"OBJECTID":340,"ولایت":"دایکندی","Province":"DAYKUNDI","PC_Code":"2404179","ولسوالي":"اشترلی","District":"ASHTARLAY","د_مرکز_نوم__نام_مرکز":"مسجد","Polling_Center_Name":"Mosque","د_مرکز_ځای__موقعیت_مرکز":"نوجوک","Polling_Center_Location":"Now jok","Verification_Note":"Building","PS_Male":2,"PS_Female":1,"Map_Accuracy":"تعمیر"},"geometry":{"x":7375038.4715913795,"y":4030233.8031958565}},{"attributes":{"OBJECTID":341,"ولایت":"دایکندی","Province":"DAYKUNDI","PC_Code":"2401169","ولسوالي":"نیلی","District":"NILI","د_مرکز_نوم__نام_مرکز":"منبر","Polling_Center_Name":"Mosque","د_مرکز_ځای__موقعیت_مرکز":"جو قل ","Polling_Center_Location":"Jaw qul","Verification_Note":"Building","PS_Male":2,"PS_Female":1,"Map_Accuracy":"تعمیر"},"geometry":{"x":7353967.4285682663,"y":4008591.4726573825}},{"attributes":{"OBJECTID":342,"ولایت":"دایکندی","Province":"DAYKUNDI","PC_Code":"2401170","ولسوالي":"نیلی","District":"NILI","د_مرکز_نوم__نام_مرکز":"مسجد","Polling_Center_Name":"Mosque","د_مرکز_ځای__موقعیت_مرکز":"میش علیا ","Polling_Center_Location":"Mish hulia","Verification_Note":"Building","PS_Male":2,"PS_Female":1,"Map_Accuracy":"تعمیر"},"geometry":{"x":7356055.9837038256,"y":3995002.9740821868}},{"attributes":{"OBJECTID":343,"ولایت":"دایکندی","Province":"DAYKUNDI","PC_Code":"2402171","ولسوالي":"شهرستان","District":"SHAHRISTAN","د_مرکز_نوم__نام_مرکز":"مسجد","Polling_Center_Name":"Mosque","د_مرکز_ځای__موقعیت_مرکز":"پیتاب لرگر","Polling_Center_Location":"Pitab largar","Verification_Note":"Building","PS_Male":2,"PS_Female":1,"Map_Accuracy":"تعمیر"},"geometry":{"x":7395654.1653543413,"y":4021007.7048562244}},{"attributes":{"OBJECTID":344,"ولایت":"دایکندی","Province":"DAYKUNDI","PC_Code":"2407188","ولسوالي":"میرامور","District":"MIRAMOR","د_مرکز_نوم__نام_مرکز":"منبر","Polling_Center_Name":"Mosque","د_مرکز_ځای__موقعیت_مرکز":"اونه برگر ","Polling_Center_Location":"Aona bargar","Verification_Note":"Building","PS_Male":2,"PS_Female":1,"Map_Accuracy":"تعمیر"},"geometry":{"x":7413677.0935914665,"y":4010269.0372092277}},{"attributes":{"OBJECTID":345,"ولایت":"دایکندی","Province":"DAYKUNDI","PC_Code":"2407189","ولسوالي":"میرامور","District":"MIRAMOR","د_مرکز_نوم__نام_مرکز":"مسجد","Polling_Center_Name":"Mosque","د_مرکز_ځای__موقعیت_مرکز":"بردیز برکر","Polling_Center_Location":"Bardiz bargar","Verification_Note":"Building","PS_Male":2,"PS_Female":1,"Map_Accuracy":"تعمیر"},"geometry":{"x":7458263.22421626,"y":3995708.47514794}},{"attributes":{"OBJECTID":346,"ولایت":"دایکندی","Province":"DAYKUNDI","PC_Code":"2407190","ولسوالي":"میرامور","District":"MIRAMOR","د_مرکز_نوم__نام_مرکز":"مکتب","Polling_Center_Name":"School","د_مرکز_ځای__موقعیت_مرکز":"دهن درراه ","Polling_Center_Location":"Dahan dar ra","Verification_Note":"Building","PS_Male":2,"PS_Female":1,"Map_Accuracy":"تعمیر"},"geometry":{"x":7464058.2695550509,"y":3998953.31809932}},{"attributes":{"OBJECTID":347,"ولایت":"دایکندی","Province":"DAYKUNDI","PC_Code":"2408193","ولسوالي":"سنگ تخت","District":"SANG-E-TAKHT","د_مرکز_نوم__نام_مرکز":"مسجد","Polling_Center_Name":"Mosque","د_مرکز_ځای__موقعیت_مرکز":"ایل غلام کلیکان","Polling_Center_Location":"Ail ghulam kaligan","Verification_Note":"Building","PS_Male":2,"PS_Female":1,"Map_Accuracy":"تعمیر"},"geometry":{"x":7375774.5038193576,"y":4061319.3267407864}},{"attributes":{"OBJECTID":348,"ولایت":"دایکندی","Province":"DAYKUNDI","PC_Code":"2409194","ولسوالي":"کجران","District":"KEJRAN","د_مرکز_نوم__نام_مرکز":"مسجد","Polling_Center_Name":"Mosque","د_مرکز_ځای__موقعیت_مرکز":"قاسم آباد ","Polling_Center_Location":"Qasem abad","Verification_Note":"District","PS_Male":2,"PS_Female":1,"Map_Accuracy":"ولسوالی"},"geometry":{"x":7313626.67500364,"y":3922614.8955841735}},{"attributes":{"OBJECTID":349,"ولایت":"زابل","Province":"ZABUL","PC_Code":"2601045","ولسوالي":"قلات","District":"QALAT","د_مرکز_نوم__نام_مرکز":"مکتب چهل دختران","Polling_Center_Name":"Chel dokhtaran School","د_مرکز_ځای__موقعیت_مرکز":"نوی کلی","Polling_Center_Location":"Nawi kali village","Verification_Note":"Building","PS_Male":2,"PS_Female":1,"Map_Accuracy":"تعمیر"},"geometry":{"x":7446329.6260803789,"y":3776578.8237177879}},{"attributes":{"OBJECTID":350,"ولایت":"زابل","Province":"ZABUL","PC_Code":"2606067","ولسوالي":"شاه جوی","District":"SHAH JOI","د_مرکز_نوم__نام_مرکز":"مدرسه سرخکان","Polling_Center_Name":"Sorkhakan Madrasa","د_مرکز_ځای__موقعیت_مرکز":"سرخکان","Polling_Center_Location":"Surkhakan ","Verification_Note":"Village","PS_Male":2,"PS_Female":1,"Map_Accuracy":"قریه"},"geometry":{"x":7492795.23424479,"y":3791529.9910715446}},{"attributes":{"OBJECTID":351,"ولایت":"زابل","Province":"ZABUL","PC_Code":"2606068","ولسوالي":"شاه جوی","District":"SHAH JOI","د_مرکز_نوم__نام_مرکز":"مکتب خاکه","Polling_Center_Name":"Khaka School","د_مرکز_ځای__موقعیت_مرکز":"خاکه","Polling_Center_Location":"Khaka","Verification_Note":"Village","PS_Male":2,"PS_Female":1,"Map_Accuracy":"قریه"},"geometry":{"x":7501304.2079148665,"y":3812792.9905967489}},{"attributes":{"OBJECTID":352,"ولایت":"زابل","Province":"ZABUL","PC_Code":"2604058","ولسوالي":"میزان","District":"MIZAN","د_مرکز_نوم__نام_مرکز":"مسجد","Polling_Center_Name":"Moque","د_مرکز_ځای__موقعیت_مرکز":"شیکان بکوان","Polling_Center_Location":"Shikan bakwan","Verification_Note":"Village","PS_Male":2,"PS_Female":1,"Map_Accuracy":"قریه"},"geometry":{"x":7403119.2941554971,"y":3794488.3854094595}},{"attributes":{"OBJECTID":353,"ولایت":"زابل","Province":"ZABUL","PC_Code":"2604059","ولسوالي":"میزان","District":"MIZAN","د_مرکز_نوم__نام_مرکز":"مکتب تاخوم","Polling_Center_Name":"Takhom School","د_مرکز_ځای__موقعیت_مرکز":"سرکلی","Polling_Center_Location":"Sar kali village","Verification_Note":"Village","PS_Male":2,"PS_Female":1,"Map_Accuracy":"قریه"},"geometry":{"x":7405877.336285919,"y":3782118.0948364586}},{"attributes":{"OBJECTID":354,"ولایت":"زابل","Province":"ZABUL","PC_Code":"2605060","ولسوالي":"ارغنداب","District":"ARGHANDAB","د_مرکز_نوم__نام_مرکز":"مسجد","Polling_Center_Name":"Moque","د_مرکز_ځای__موقعیت_مرکز":"چینه","Polling_Center_Location":"China","Verification_Note":"Village","PS_Male":2,"PS_Female":1,"Map_Accuracy":"قریه"},"geometry":{"x":7456485.6728061624,"y":3822682.0702798143}},{"attributes":{"OBJECTID":355,"ولایت":"زابل","Province":"ZABUL","PC_Code":"2609077","ولسوالي":"نوبهار","District":"NAW BAHAR","د_مرکز_نوم__نام_مرکز":"مسجد سهاک","Polling_Center_Name":"Sahak Mosque","د_مرکز_ځای__موقعیت_مرکز":"قلعه سهاک","Polling_Center_Location":"Qala sahak","Verification_Note":"Village","PS_Male":2,"PS_Female":1,"Map_Accuracy":"قریه"},"geometry":{"x":7517217.2624433935,"y":3784155.5044109672}},{"attributes":{"OBJECTID":356,"ولایت":"زابل","Province":"ZABUL","PC_Code":"2610078","ولسوالي":"شملزائی","District":"SHEMEL ZAYI","د_مرکز_نوم__نام_مرکز":"مسجد","Polling_Center_Name":"Mosque","د_مرکز_ځای__موقعیت_مرکز":"حیدری","Polling_Center_Location":"Haidari","Verification_Note":"Building","PS_Male":2,"PS_Female":1,"Map_Accuracy":"تعمیر"},"geometry":{"x":7544082.028663706,"y":3772490.763793394}},{"attributes":{"OBJECTID":357,"ولایت":"زابل","Province":"ZABUL","PC_Code":"2610079","ولسوالي":"شملزائی","District":"SHEMEL ZAYI","د_مرکز_نوم__نام_مرکز":"مسجد","Polling_Center_Name":"Mosque","د_مرکز_ځای__موقعیت_مرکز":"جهانگیر","Polling_Center_Location":"Jahangir","Verification_Note":"Building","PS_Male":2,"PS_Female":1,"Map_Accuracy":"تعمیر"},"geometry":{"x":7529582.5006803088,"y":3767879.9233074784}},{"attributes":{"OBJECTID":358,"ولایت":"جوزجان","Province":"JAWZJAN","PC_Code":"2802123","ولسوالي":"خواجه دوکوه","District":"KHWAJA DUKOH","د_مرکز_نوم__نام_مرکز":"منزل حاجی صالح","Polling_Center_Name":"Haji saleh House","د_مرکز_ځای__موقعیت_مرکز":"چوب باش افغانیه","Polling_Center_Location":"Chob bash Afghania","Verification_Note":"Village","PS_Male":2,"PS_Female":1,"Map_Accuracy":"قریه"},"geometry":{"x":7303666.2297588885,"y":4410017.0384530723}},{"attributes":{"OBJECTID":359,"ولایت":"جوزجان","Province":"JAWZJAN","PC_Code":"2805124","ولسوالي":"قوش تیپه","District":"QUSH TEPA","د_مرکز_نوم__نام_مرکز":"مکتب","Polling_Center_Name":"School","د_مرکز_ځای__موقعیت_مرکز":"شورقدوق","Polling_Center_Location":"Shor qoduq","Verification_Note":"Building","PS_Male":2,"PS_Female":1,"Map_Accuracy":"تعمیر"},"geometry":{"x":7268087.3331676647,"y":4310221.2867002487}},{"attributes":{"OBJECTID":360,"ولایت":"هلمند","Province":"HELMAND","PC_Code":"3002223","ولسوالي":"نادعلی","District":"NAD ALI","د_مرکز_نوم__نام_مرکز":"چا انجیر","Polling_Center_Name":"Cha anjeer","د_مرکز_ځای__موقعیت_مرکز":"چا انجیر","Polling_Center_Location":"Cha angeer","Verification_Note":"Building","PS_Male":2,"PS_Female":1,"Map_Accuracy":"تعمیر"},"geometry":{"x":7158536.6054446474,"y":3720592.5806298256}},{"attributes":{"OBJECTID":361,"ولایت":"هلمند","Province":"HELMAND","PC_Code":"3002224","ولسوالي":"نادعلی","District":"NAD ALI","د_مرکز_نوم__نام_مرکز":"دوراهی","Polling_Center_Name":"Dorahi","د_مرکز_ځای__موقعیت_مرکز":"زابراباد","Polling_Center_Location":"Zabur abad","Verification_Note":"Building","PS_Male":2,"PS_Female":1,"Map_Accuracy":"تعمیر"},"geometry":{"x":7154115.0578319021,"y":3707435.4461111426}},{"attributes":{"OBJECTID":362,"ولایت":"هلمند","Province":"HELMAND","PC_Code":"3006225","ولسوالي":"گرم سیر","District":"GARM SER","د_مرکز_نوم__نام_مرکز":"مکتب","Polling_Center_Name":"School","د_مرکز_ځای__موقعیت_مرکز":"کوچنی درویشان","Polling_Center_Location":"Kochinai darwishian","Verification_Note":"Building","PS_Male":2,"PS_Female":1,"Map_Accuracy":"تعمیر"},"geometry":{"x":7151113.9128579013,"y":3523596.9372514337}},{"attributes":{"OBJECTID":363,"ولایت":"هلمند","Province":"HELMAND","PC_Code":"3011227","ولسوالي":"ریگ خانشین","District":"REG-E-KHAN NISHIN","د_مرکز_نوم__نام_مرکز":"مسجد","Polling_Center_Name":"Mosque","د_مرکز_ځای__موقعیت_مرکز":"دیوارک","Polling_Center_Location":"Diwarak","Verification_Note":"Building","PS_Male":2,"PS_Female":1,"Map_Accuracy":"تعمیر"},"geometry":{"x":7118530.0835304447,"y":3575802.4128858149}},{"attributes":{"OBJECTID":364,"ولایت":"بادغيس","Province":"BADGHIS","PC_Code":"3102190","ولسوالي":"آبکمری","District":"AB KAMARI","د_مرکز_نوم__نام_مرکز":"مکتب سفیدلک","Polling_Center_Name":"Safidlak School","د_مرکز_ځای__موقعیت_مرکز":"سفیدلک","Polling_Center_Location":"Safid lak","Verification_Note":"Building","PS_Male":2,"PS_Female":1,"Map_Accuracy":"تعمیر"},"geometry":{"x":6993728.9080613106,"y":4138579.6048922837}},{"attributes":{"OBJECTID":365,"ولایت":"بادغيس","Province":"BADGHIS","PC_Code":"3102191","ولسوالي":"آبکمری","District":"AB KAMARI","د_مرکز_نوم__نام_مرکز":"مکتب چالانک","Polling_Center_Name":"Chalanak School","د_مرکز_ځای__موقعیت_مرکز":"چالانک","Polling_Center_Location":"Chalanak","Verification_Note":"Building","PS_Male":2,"PS_Female":1,"Map_Accuracy":"تعمیر"},"geometry":{"x":7002974.9995470457,"y":4129767.7422146723}},{"attributes":{"OBJECTID":366,"ولایت":"ننگرهار","Province":"NANGARHAR","PC_Code":"0615383","ولسوالي":"اچین","District":"ACHIN","د_مرکز_نوم__نام_مرکز":"ګړوکو زیارت مدرسه","Polling_Center_Name":"Garoko Ziarat Madrassa","د_مرکز_ځای__موقعیت_مرکز":"ګړوکو","Polling_Center_Location":"Garoko","Verification_Note":"Village","PS_Male":0,"PS_Female":2,"Map_Accuracy":"قریه"},"geometry":{"x":7908493.2603181377,"y":4061273.9475827813}},{"attributes":{"OBJECTID":367,"ولایت":"ننگرهار","Province":"NANGARHAR","PC_Code":"0622413","ولسوالي":"در بابا","District":"DUR BABA","د_مرکز_نوم__نام_مرکز":"زيارت کلي مسجد","Polling_Center_Name":"Ziarat Village Mosque","د_مرکز_ځای__موقعیت_مرکز":"زيارت کلي مسجد","Polling_Center_Location":"Ziarat Kaley Mosque","Verification_Note":"Village","PS_Male":2,"PS_Female":1,"Map_Accuracy":"قریه"},"geometry":{"x":7895773.1359898448,"y":4034063.3347979113}},{"attributes":{"OBJECTID":368,"ولایت":"ننگرهار","Province":"NANGARHAR","PC_Code":"0622414","ولسوالي":"در بابا","District":"DUR BABA","د_مرکز_نوم__نام_مرکز":"سورکنډو داک ","Polling_Center_Name":"Soor Kandaw Daag","د_مرکز_ځای__موقعیت_مرکز":"سورکنډاو کلی","Polling_Center_Location":"Soor Kandaw Daag","Verification_Note":"Village","PS_Male":2,"PS_Female":1,"Map_Accuracy":"قریه"},"geometry":{"x":7892261.6361236423,"y":4036212.6978964806}},{"attributes":{"OBJECTID":369,"ولایت":"ننگرهار","Province":"NANGARHAR","PC_Code":"0622416","ولسوالي":"در بابا","District":"DUR BABA","د_مرکز_نوم__نام_مرکز":"شګي دیره","Polling_Center_Name":"Shagay Dera","د_مرکز_ځای__موقعیت_مرکز":"شاګي","Polling_Center_Location":"Shagay","Verification_Note":"Village","PS_Male":2,"PS_Female":1,"Map_Accuracy":"قریه"},"geometry":{"x":7894505.7034746446,"y":4035803.1456430256}},{"attributes":{"OBJECTID":370,"ولایت":"ننگرهار","Province":"NANGARHAR","PC_Code":"0622417","ولسوالي":"در بابا","District":"DUR BABA","د_مرکز_نوم__نام_مرکز":"مکتب څڅوبۍ","Polling_Center_Name":"Sosobi School","د_مرکز_ځای__موقعیت_مرکز":"څڅوبۍ","Polling_Center_Location":"Sasobi","Verification_Note":"Village","PS_Male":2,"PS_Female":1,"Map_Accuracy":"قریه"},"geometry":{"x":7906555.6665459163,"y":4037967.3317122906}},{"attributes":{"OBJECTID":371,"ولایت":" فراه","Province":"FARAH","PC_Code":"3304249","ولسوالي":"قلعه کاه","District":"QALA-E-KAH","د_مرکز_نوم__نام_مرکز":"مسجد گیست","Polling_Center_Name":"Guest Mosque","د_مرکز_ځای__موقعیت_مرکز":"گیست","Polling_Center_Location":"Guest","Verification_Note":"Building","PS_Male":2,"PS_Female":1,"Map_Accuracy":"تعمیر"},"geometry":{"x":6842625.1594113708,"y":3801120.3524038792}},{"attributes":{"OBJECTID":372,"ولایت":" فراه","Province":"FARAH","PC_Code":"3305250","ولسوالي":"َشیب کوه","District":"SHIB KOH","د_مرکز_نوم__نام_مرکز":"مکتب ابتدائ چکه ","Polling_Center_Name":"Chaka Primary School","د_مرکز_ځای__موقعیت_مرکز":"چکه","Polling_Center_Location":"Chaka","Verification_Note":"Building","PS_Male":2,"PS_Female":1,"Map_Accuracy":"تعمیر"},"geometry":{"x":6863631.1696992777,"y":3782700.8148430809}},{"attributes":{"OBJECTID":373,"ولایت":" فراه","Province":"FARAH","PC_Code":"3305251","ولسوالي":"َشیب کوه","District":"SHIB KOH","د_مرکز_نوم__نام_مرکز":"مکتب ابتدائ فریب","Polling_Center_Name":"Farib Primary School","د_مرکز_ځای__موقعیت_مرکز":"فریب","Polling_Center_Location":"Farib","Verification_Note":"Building","PS_Male":2,"PS_Female":1,"Map_Accuracy":"تعمیر"},"geometry":{"x":6844350.9650693648,"y":3780770.7945264131}},{"attributes":{"OBJECTID":374,"ولایت":"خوست","Province":"KHOST","PC_Code":"1412158","ولسوالي":"شمل","District":"SHAMUL","د_مرکز_نوم__نام_مرکز":" د امير ګلستان جومات","Polling_Center_Name":"Amir Gulistan Mosque","د_مرکز_ځای__موقعیت_مرکز":"علاو الدين کلى","Polling_Center_Location":"Alauddin Village","Verification_Note":"Building","PS_Male":1,"PS_Female":1,"Map_Accuracy":"تعمیر"},"geometry":{"x":7741568.409154132,"y":3936974.8666196018}},{"attributes":{"OBJECTID":375,"ولایت":"بادغيس","Province":"BADGHIS","PC_Code":"3107141","ولسوالي":"غورماچ","District":"GHORMACH","د_مرکز_نوم__نام_مرکز":"قریه شرشر","Polling_Center_Name":"Sharshar Village ","د_مرکز_ځای__موقعیت_مرکز":"قریه شرشر","Polling_Center_Location":"Sharshar Village","Verification_Note":"Village","PS_Male":1,"PS_Female":1,"Map_Accuracy":"قریه"},"geometry":{"x":7098673.9263267033,"y":4241748.5295996666}},{"attributes":{"OBJECTID":376,"ولایت":"هرات","Province":"HERAT","PC_Code":"3208220","ولسوالي":"گلران ","District":"GULRAN","د_مرکز_نوم__نام_مرکز":"مکتب زیره گی کلان","Polling_Center_Name":"Zeeragee kalan School","د_مرکز_ځای__موقعیت_مرکز":"زیره گی کلان","Polling_Center_Location":"Zeeragee Kalan","Verification_Note":"Building","PS_Male":2,"PS_Female":1,"Map_Accuracy":"تعمیر"},"geometry":{"x":6874659.6447515562,"y":4149477.21743878}},{"attributes":{"OBJECTID":377,"ولایت":"هرات","Province":"HERAT","PC_Code":"3208221","ولسوالي":"گلران ","District":"GULRAN","د_مرکز_نوم__نام_مرکز":"مسجد شکرآب","Polling_Center_Name":"Shakar Aab Mosque","د_مرکز_ځای__موقعیت_مرکز":" شکرآب","Polling_Center_Location":"Shakar Aab","Verification_Note":"Building","PS_Male":2,"PS_Female":1,"Map_Accuracy":"تعمیر"},"geometry":{"x":6885626.6049872,"y":4137812.8998525217}},{"attributes":{"OBJECTID":378,"ولایت":"ننگرهار","Province":"NANGARHAR","PC_Code":"0616421","ولسوالي":"شینوار","District":"SHINWAR","د_مرکز_نوم__نام_مرکز":"حضرت بلال جومات","Polling_Center_Name":"Hazrat Bilal Mosque","د_مرکز_ځای__موقعیت_مرکز":"٢٥ وياله","Polling_Center_Location":"25 Viyala","Verification_Note":"Village","PS_Male":0,"PS_Female":3,"Map_Accuracy":"قریه"},"geometry":{"x":7879482.4446716644,"y":4059739.9100446552}},{"attributes":{"OBJECTID":379,"ولایت":"ننگرهار","Province":"NANGARHAR","PC_Code":"0616422","ولسوالي":"شینوار","District":"SHINWAR","د_مرکز_نوم__نام_مرکز":"حيات خان جومات","Polling_Center_Name":"Hayat Khan Mosque","د_مرکز_ځای__موقعیت_مرکز":"٢٧ وياله","Polling_Center_Location":"27 Viyala","Verification_Note":"Village","PS_Male":0,"PS_Female":3,"Map_Accuracy":"قریه"},"geometry":{"x":7884702.2701415084,"y":4058437.9220398664}},{"attributes":{"OBJECTID":380,"ولایت":"سرپل","Province":"SAR-E-PUL","PC_Code":"2206135","ولسوالي":"گوسفندی ","District":"GOSFANDI","د_مرکز_نوم__نام_مرکز":"مکتب متوسطهَ قریه آبخور","Polling_Center_Name":"Qarya Aabkhor Secondary School","د_مرکز_ځای__موقعیت_مرکز":"قریه آبخور","Polling_Center_Location":"Aabkhor Village","Verification_Note":"Building","PS_Male":1,"PS_Female":1,"Map_Accuracy":"تعمیر"},"geometry":{"x":7410296.626005441,"y":4281751.545621343}},{"attributes":{"OBJECTID":381,"ولایت":"پروان","Province":"PARWAN","PC_Code":"0306065","ولسوالي":"سالنگ ","District":"SALANG","د_مرکز_نوم__نام_مرکز":"مکتب اولنگ","Polling_Center_Name":"Awlang School","د_مرکز_ځای__موقعیت_مرکز":"جوار قمر","Polling_Center_Location":"Jawar-e-Qamar","Verification_Note":"Building","PS_Male":1,"PS_Female":1,"Map_Accuracy":"تعمیر"},"geometry":{"x":7692006.276808098,"y":4202598.624914661}},{"attributes":{"OBJECTID":382,"ولایت":"پکتيکا","Province":"PAKTIKA","PC_Code":"1214306","ولسوالي":"برمل","District":"BARMAL","د_مرکز_نوم__نام_مرکز":"ابتدائيه ښوونځي ادم خان كلي","Polling_Center_Name":"Adam Khan Village Primary School","د_مرکز_ځای__موقعیت_مرکز":"آدم خان کلی","Polling_Center_Location":"Adam Khan Village","Verification_Note":"Village","PS_Male":3,"PS_Female":0,"Map_Accuracy":"قریه"},"geometry":{"x":7713073.6741178818,"y":3869658.1200992316}},{"attributes":{"OBJECTID":383,"ولایت":"پکتيکا","Province":"PAKTIKA","PC_Code":"1215267","ولسوالي":"گیان","District":"GIYAN","د_مرکز_نوم__نام_مرکز":"کمال کلی جومات","Polling_Center_Name":"Kamal Village Mosque","د_مرکز_ځای__موقعیت_مرکز":"کمال کلی","Polling_Center_Location":"Kamal Village ","Verification_Note":"Building","PS_Male":3,"PS_Female":0,"Map_Accuracy":"تعمیر"},"geometry":{"x":7719918.25319685,"y":3896179.2379898652}},{"attributes":{"OBJECTID":384,"ولایت":"هرات","Province":"HERAT","PC_Code":"3202069","ولسوالي":"انجیل","District":"ENJIL","د_مرکز_نوم__نام_مرکز":"مسجد جامع کشک باد صبا","Polling_Center_Name":"Kashak Bad-e- Saba Mosque ","د_مرکز_ځای__موقعیت_مرکز":"قریه کشک باد صبا","Polling_Center_Location":"Kashak Bad-e-Saba Village ","Verification_Note":"Building","PS_Male":2,"PS_Female":1,"Map_Accuracy":"تعمیر"},"geometry":{"x":6898004.8770666905,"y":4078563.69134859}},{"attributes":{"OBJECTID":385,"ولایت":"هرات","Province":"HERAT","PC_Code":"3202070","ولسوالي":"انجیل","District":"ENJIL","د_مرکز_نوم__نام_مرکز":"كوپراتيف زراعتي","Polling_Center_Name":"Ab jalil Mosque and School","د_مرکز_ځای__موقعیت_مرکز":"قریه  آبجليل ","Polling_Center_Location":"Aab Jalil Village ","Verification_Note":"Village","PS_Male":2,"PS_Female":1,"Map_Accuracy":"قریه"},"geometry":{"x":6905729.254156407,"y":4077211.1916211173}},{"attributes":{"OBJECTID":386,"ولایت":"هرات","Province":"HERAT","PC_Code":"3208217","ولسوالي":"گلران ","District":"GULRAN","د_مرکز_نوم__نام_مرکز":"مكتب ميش مست","Polling_Center_Name":"Maishmast School","د_مرکز_ځای__موقعیت_مرکز":" ميش مست","Polling_Center_Location":"Maishmast","Verification_Note":"Building","PS_Male":2,"PS_Female":1,"Map_Accuracy":"تعمیر"},"geometry":{"x":6870926.9174349084,"y":4151262.4178381786}},{"attributes":{"OBJECTID":387,"ولایت":"هرات","Province":"HERAT","PC_Code":"3208218","ولسوالي":"گلران ","District":"GULRAN","د_مرکز_نوم__نام_مرکز":"مسجد چاه تخته","Polling_Center_Name":"Chah takhta Mosque","د_مرکز_ځای__موقعیت_مرکز":" چاه تخته","Polling_Center_Location":"Chah takhta","Verification_Note":"Village","PS_Male":1,"PS_Female":1,"Map_Accuracy":"قریه"},"geometry":{"x":6898664.1066383868,"y":4214103.0653530285}},{"attributes":{"OBJECTID":388,"ولایت":"ننگرهار","Province":"NANGARHAR","PC_Code":"0601043","ولسوالي":"جلال آباد","District":"JALALABAD","د_مرکز_نوم__نام_مرکز":"زراعت ليسه","Polling_Center_Name":"Agriculture School","د_مرکز_ځای__موقعیت_مرکز":"څلورمه ناحیه","Polling_Center_Location":"D04-Nahia 4","Verification_Note":"Building","PS_Male":4,"PS_Female":0,"Map_Accuracy":"تعمیر"},"geometry":{"x":7844929.4453531392,"y":4085757.6410423219}},{"attributes":{"OBJECTID":389,"ولایت":"کندز","Province":"KUNDUZ","PC_Code":"1904166","ولسوالي":"خان آباد","District":"KHAN ABAD","د_مرکز_نوم__نام_مرکز":"مکتب ابراهیم خیل","Polling_Center_Name":"Ibrahim Khel School","د_مرکز_ځای__موقعیت_مرکز":"قریه ابراهیم خیل","Polling_Center_Location":"Ibrahim Khel Village","Verification_Note":"Building","PS_Male":1,"PS_Female":1,"Map_Accuracy":"تعمیر"},"geometry":{"x":7683557.22653123,"y":4409220.2425657883}},{"attributes":{"OBJECTID":390,"ولایت":"لغمان","Province":"LAGHMAN","PC_Code":"0704055","ولسوالي":"علینګار","District":"ALINGAR","د_مرکز_نوم__نام_مرکز":"د کندې جومات ","Polling_Center_Name":"Kandi Mosque","د_مرکز_ځای__موقعیت_مرکز":"کنده","Polling_Center_Location":"Kanda","Verification_Note":"Village","PS_Male":1,"PS_Female":1,"Map_Accuracy":"قریه"},"geometry":{"x":7827966.1309474,"y":4134554.9026887789}},{"attributes":{"OBJECTID":391,"ولایت":"کابل","Province":"KABUL","PC_Code":"0101058","ولسوالي":"کابل - ناحیه 04","District":"KABUL-D04","د_مرکز_نوم__نام_مرکز":" ليسه نادريه","Polling_Center_Name":"Naderia High School","د_مرکز_ځای__موقعیت_مرکز":"کارته پروان","Polling_Center_Location":"Kart-e-Parwan","Verification_Note":"Building","PS_Male":4,"PS_Female":3,"Map_Accuracy":"تعمیر"},"geometry":{"x":7696654.7906136811,"y":4100806.1750542894}},{"attributes":{"OBJECTID":392,"ولایت":"کابل","Province":"KABUL","PC_Code":"0101061","ولسوالي":"کابل - ناحیه 04","District":"KABUL-D04","د_مرکز_نوم__نام_مرکز":" کودکستان نمبر١","Polling_Center_Name":"Number One Kindergarten ","د_مرکز_ځای__موقعیت_مرکز":"پروژه وزير آباد","Polling_Center_Location":"Proja-e- Wazir Abad","Verification_Note":"Building","PS_Male":2,"PS_Female":2,"Map_Accuracy":"تعمیر"},"geometry":{"x":7698539.8481540978,"y":4104326.4269037545}},{"attributes":{"OBJECTID":393,"ولایت":"کابل","Province":"KABUL","PC_Code":"0101062","ولسوالي":"کابل - ناحیه 04","District":"KABUL-D04","د_مرکز_نوم__نام_مرکز":"مکتب نسوان ملکه ثریا","Polling_Center_Name":"Malika Soraia Girls High School","د_مرکز_ځای__موقعیت_مرکز":"پروژه تايمني","Polling_Center_Location":"Proja-e-Taimani","Verification_Note":"Building","PS_Male":5,"PS_Female":4,"Map_Accuracy":"تعمیر"},"geometry":{"x":7698598.9732752442,"y":4104197.5120985806}},{"attributes":{"OBJECTID":394,"ولایت":"کابل","Province":"KABUL","PC_Code":"0101165","ولسوالي":"کابل - ناحیه 08","District":"KABUL-D08","د_مرکز_نوم__نام_مرکز":" مسجد غوث اعظم دستگير","Polling_Center_Name":"Ghaws Azam Dastger Mosque","د_مرکز_ځای__موقعیت_مرکز":"آب رساني","Polling_Center_Location":"Aab Rasani","Verification_Note":"Building","PS_Male":3,"PS_Female":2,"Map_Accuracy":"تعمیر"},"geometry":{"x":7708019.2883356661,"y":4097366.8746732995}},{"attributes":{"OBJECTID":395,"ولایت":"کابل","Province":"KABUL","PC_Code":"0101167","ولسوالي":"کابل - ناحیه 08","District":"KABUL-D08","د_مرکز_نوم__نام_مرکز":" مسجد تپه بلخ","Polling_Center_Name":"Tap-e- Balkh Mosque","د_مرکز_ځای__موقعیت_مرکز":"شاه شهيد","Polling_Center_Location":"Shah Shaheed ","Verification_Note":"Building","PS_Male":2,"PS_Female":2,"Map_Accuracy":"تعمیر"},"geometry":{"x":7703555.7496751547,"y":4097459.3890904263}},{"attributes":{"OBJECTID":396,"ولایت":"کابل","Province":"KABUL","PC_Code":"0101168","ولسوالي":"کابل - ناحیه 08","District":"KABUL-D08","د_مرکز_نوم__نام_مرکز":" مسجد عبد القادر جیلانی","Polling_Center_Name":"Abdul Qader Jilani Mosque","د_مرکز_ځای__موقعیت_مرکز":"سر تپه مارکیت","Polling_Center_Location":"Sar-e-Tapa, Market","Verification_Note":"Building","PS_Male":4,"PS_Female":1,"Map_Accuracy":"تعمیر"},"geometry":{"x":7707195.3949731886,"y":4097916.8902259916}},{"attributes":{"OBJECTID":397,"ولایت":"کابل","Province":"KABUL","PC_Code":"0101272","ولسوالي":"کابل - ناحیه 13","District":"KABUL-D13","د_مرکز_نوم__نام_مرکز":" مسجد محمدیه ","Polling_Center_Name":"Mohammadia Mosque","د_مرکز_ځای__موقعیت_مرکز":"شهرک مهدیه   ","Polling_Center_Location":"Shahrak-e-Mahdia","Verification_Note":"Building","PS_Male":1,"PS_Female":1,"Map_Accuracy":"تعمیر"},"geometry":{"x":7690027.728706535,"y":4096656.8424064368}},{"attributes":{"OBJECTID":398,"ولایت":"کابل","Province":"KABUL","PC_Code":"0101273","ولسوالي":"کابل - ناحیه 13","District":"KABUL-D13","د_مرکز_نوم__نام_مرکز":" ليسه همايون شهيد","Polling_Center_Name":"Homayoon Shaheed Mosque","د_مرکز_ځای__موقعیت_مرکز":"پل خشک","Polling_Center_Location":"Pul-e-Khushk","Verification_Note":"Building","PS_Male":4,"PS_Female":4,"Map_Accuracy":"تعمیر"},"geometry":{"x":7687498.3027464449,"y":4095276.0891882256}},{"attributes":{"OBJECTID":399,"ولایت":"وردک","Province":"WARDAK","PC_Code":"0404093","ولسوالي":"چک وردک","District":"CHAKI WARDAK","د_مرکز_نوم__نام_مرکز":"خانه شخصی ملک قریه ","Polling_Center_Name":"Malik Qarya House","د_مرکز_ځای__موقعیت_مرکز":"مونگیار خیل","Polling_Center_Location":"Mongiar Khel","Verification_Note":"District","PS_Male":2,"PS_Female":1,"Map_Accuracy":"ولسوالی"},"geometry":{"x":7629309.5276870951,"y":4047470.3408997729}}]}