{"objectIdFieldName":"OBJECTID","globalIdFieldName":"","geometryType":"esriGeometryPoint","spatialReference":{"wkid":102100,"latestWkid":3857},"fields":[{"name":"OBJECTID","type":"esriFieldTypeOID","alias":"OBJECTID","sqlType":"sqlTypeOther","domain":null,"defaultValue":null},{"name":"ولایت","type":"esriFieldTypeString","alias":"ولایت","sqlType":"sqlTypeOther","length":255,"domain":null,"defaultValue":null},{"name":"Province","type":"esriFieldTypeString","alias":"Province","sqlType":"sqlTypeOther","length":255,"domain":null,"defaultValue":null},{"name":"PC_Code","type":"esriFieldTypeString","alias":"PC_Code","sqlType":"sqlTypeOther","length":255,"domain":null,"defaultValue":null},{"name":"ولسوالي","type":"esriFieldTypeString","alias":"ولسوالي","sqlType":"sqlTypeOther","length":255,"domain":null,"defaultValue":null},{"name":"District","type":"esriFieldTypeString","alias":"District","sqlType":"sqlTypeOther","length":255,"domain":null,"defaultValue":null},{"name":"د_مرکز_نوم__نام_مرکز","type":"esriFieldTypeString","alias":"د_مرکز_نوم__نام_مرکز","sqlType":"sqlTypeOther","length":255,"domain":null,"defaultValue":null},{"name":"Polling_Center_Name","type":"esriFieldTypeString","alias":"Polling_Center_Name","sqlType":"sqlTypeOther","length":255,"domain":null,"defaultValue":null},{"name":"د_مرکز_ځای__موقعیت_مرکز","type":"esriFieldTypeString","alias":"د_مرکز_ځای__موقعیت_مرکز","sqlType":"sqlTypeOther","length":255,"domain":null,"defaultValue":null},{"name":"Polling_Center_Location","type":"esriFieldTypeString","alias":"Polling_Center_Location","sqlType":"sqlTypeOther","length":255,"domain":null,"defaultValue":null},{"name":"Verification_Note","type":"esriFieldTypeString","alias":"Verification_Note","sqlType":"sqlTypeOther","length":250,"domain":null,"defaultValue":null},{"name":"PS_Male","type":"esriFieldTypeSmallInteger","alias":"PS_Male","sqlType":"sqlTypeOther","domain":null,"defaultValue":null},{"name":"PS_Female","type":"esriFieldTypeSmallInteger","alias":"PS_Female","sqlType":"sqlTypeOther","domain":null,"defaultValue":null},{"name":"Map_Accuracy","type":"esriFieldTypeString","alias":"Map_Accuracy","sqlType":"sqlTypeOther","length":10,"domain":null,"defaultValue":null}],"features":[{"attributes":{"OBJECTID":2101,"ولایت":"کندز","Province":"KUNDUZ","PC_Code":"1904169","ولسوالي":"خان آباد","District":"KHAN ABAD","د_مرکز_نوم__نام_مرکز":"مکتب متوسطه ده کلان","Polling_Center_Name":"Deh Kalan Secondary School","د_مرکز_ځای__موقعیت_مرکز":"قریه دهکلان","Polling_Center_Location":"Deh Kalan Village","Verification_Note":"Building","PS_Male":1,"PS_Female":1,"Map_Accuracy":"تعمیر"},"geometry":{"x":7681663.8144630305,"y":4386457.2873455584}},{"attributes":{"OBJECTID":2199,"ولایت":"بلخ","Province":"BALKH","PC_Code":"2115306","ولسوالي":"زاری","District":"ZARI","د_مرکز_نوم__نام_مرکز":"مسجد بخت گان","Polling_Center_Name":"Bakhtgaan Mosque","د_مرکز_ځای__موقعیت_مرکز":"قریه بخت گان","Polling_Center_Location":"Bakhtgaan Village","Verification_Note":"Building","PS_Male":1,"PS_Female":1,"Map_Accuracy":"تعمیر"},"geometry":{"x":7419360.1899277419,"y":4275823.7838485613}},{"attributes":{"OBJECTID":2198,"ولایت":"بلخ","Province":"BALKH","PC_Code":"2114296","ولسوالي":"کشنده","District":"KISHINDEH","د_مرکز_نوم__نام_مرکز":"مسجد قره بای ","Polling_Center_Name":"Qara Bay Mosque","د_مرکز_ځای__موقعیت_مرکز":"قریه قره بای ","Polling_Center_Location":"Qara Bay Village","Verification_Note":"Building","PS_Male":2,"PS_Female":1,"Map_Accuracy":"تعمیر"},"geometry":{"x":7445426.8353627585,"y":4296033.9875473306}},{"attributes":{"OBJECTID":2197,"ولایت":"بلخ","Province":"BALKH","PC_Code":"2114295","ولسوالي":"کشنده","District":"KISHINDEH","د_مرکز_نوم__نام_مرکز":"مکتب واخشک","Polling_Center_Name":"Qara Bay School","د_مرکز_ځای__موقعیت_مرکز":"قریه واخشک","Polling_Center_Location":"Wakheshk Village","Verification_Note":"Building","PS_Male":1,"PS_Female":1,"Map_Accuracy":"تعمیر"},"geometry":{"x":7453870.2643392943,"y":4269555.94666823}},{"attributes":{"OBJECTID":2196,"ولایت":"بلخ","Province":"BALKH","PC_Code":"2112115","ولسوالي":"شور تیپه","District":"SHORTEPA","د_مرکز_نوم__نام_مرکز":"کلینیک جوی وکیل","Polling_Center_Name":"Joy Wakil Clinic","د_مرکز_ځای__موقعیت_مرکز":"قریه جوی وکیل","Polling_Center_Location":"Joy Wakeel Village","Verification_Note":"Building","PS_Male":2,"PS_Female":1,"Map_Accuracy":"تعمیر"},"geometry":{"x":7455318.20664084,"y":4487786.5324974954}},{"attributes":{"OBJECTID":2195,"ولایت":"بلخ","Province":"BALKH","PC_Code":"2112114","ولسوالي":"شور تیپه","District":"SHORTEPA","د_مرکز_نوم__نام_مرکز":"مکتب اسلام علیا","Polling_Center_Name":"Islam Ulya School","د_مرکز_ځای__موقعیت_مرکز":"قریه اسلام علیا","Polling_Center_Location":"Islam Ulya Village","Verification_Note":"Building","PS_Male":2,"PS_Female":1,"Map_Accuracy":"تعمیر"},"geometry":{"x":7399832.5805125348,"y":4480806.866244562}},{"attributes":{"OBJECTID":2194,"ولایت":"بلخ","Province":"BALKH","PC_Code":"2111195","ولسوالي":"چار بولک","District":"CHAR BOLAK","د_مرکز_نوم__نام_مرکز":"مکتب سکندر خیل ژنگوره","Polling_Center_Name":"Sikandar Khel Zhangora School","د_مرکز_ځای__موقعیت_مرکز":"ژنگورۀ وطنی","Polling_Center_Location":"Zhangora Watani","Verification_Note":"Building","PS_Male":1,"PS_Female":1,"Map_Accuracy":"تعمیر"},"geometry":{"x":7430499.4471316412,"y":4404888.6440045759}},{"attributes":{"OBJECTID":2193,"ولایت":"بلخ","Province":"BALKH","PC_Code":"2110096","ولسوالي":"خلم","District":"KHULM","د_مرکز_نوم__نام_مرکز":"مکتب متوسطه خوشتوت ","Polling_Center_Name":"Khoshtoot Secondary School","د_مرکز_ځای__موقعیت_مرکز":"قریه خوشتوت","Polling_Center_Location":"Khoshtoot Village","Verification_Note":"Building","PS_Male":1,"PS_Female":1,"Map_Accuracy":"تعمیر"},"geometry":{"x":7576956.999759119,"y":4381600.6892484277}},{"attributes":{"OBJECTID":2192,"ولایت":"بلخ","Province":"BALKH","PC_Code":"2110094","ولسوالي":"خلم","District":"KHULM","د_مرکز_نوم__نام_مرکز":"مسجد قریه ده ورده","Polling_Center_Name":"Deh Warda Village Mosque","د_مرکز_ځای__موقعیت_مرکز":"قریه ده ورده","Polling_Center_Location":"Deh Warda Village","Verification_Note":"Building","PS_Male":1,"PS_Female":1,"Map_Accuracy":"تعمیر"},"geometry":{"x":7535086.5700058676,"y":4409189.5106907412}},{"attributes":{"OBJECTID":2191,"ولایت":"بلخ","Province":"BALKH","PC_Code":"2110084","ولسوالي":"خلم","District":"KHULM","د_مرکز_نوم__نام_مرکز":"مکتب متوسطه غازی آباد ","Polling_Center_Name":"Ghazi Abad Secondary School","د_مرکز_ځای__موقعیت_مرکز":"قریه غازی آباد","Polling_Center_Location":"Ghazi Abad Village","Verification_Note":"Building","PS_Male":1,"PS_Female":1,"Map_Accuracy":"تعمیر"},"geometry":{"x":7544564.2992068641,"y":4401899.0305222794}},{"attributes":{"OBJECTID":2190,"ولایت":"بلخ","Province":"BALKH","PC_Code":"2110083","ولسوالي":"خلم","District":"KHULM","د_مرکز_نوم__نام_مرکز":"لیسه شهید احمد شاه مسعود ","Polling_Center_Name":"Shahee Ahmad Shah Masood High School","د_مرکز_ځای__موقعیت_مرکز":"قریه امین حسین ","Polling_Center_Location":"Ameen Hussain Village","Verification_Note":"Building","PS_Male":2,"PS_Female":1,"Map_Accuracy":"تعمیر"},"geometry":{"x":7534854.2117195316,"y":4399412.4985400289}},{"attributes":{"OBJECTID":2189,"ولایت":"بلخ","Province":"BALKH","PC_Code":"2109145","ولسوالي":"دولت آباد","District":"DAWLAT ABAD","د_مرکز_نوم__نام_مرکز":"مسجد جامع افغانیه ","Polling_Center_Name":"Afghania Mosque","د_مرکز_ځای__موقعیت_مرکز":"پای مشهد افغانیه","Polling_Center_Location":"Pay Mashhad Afghania ","Verification_Note":"Building","PS_Male":1,"PS_Female":1,"Map_Accuracy":"تعمیر"},"geometry":{"x":7441111.2848333046,"y":4433136.644140318}},{"attributes":{"OBJECTID":2188,"ولایت":"بلخ","Province":"BALKH","PC_Code":"2109144","ولسوالي":"دولت آباد","District":"DAWLAT ABAD","د_مرکز_نوم__نام_مرکز":"مسجد یخدان","Polling_Center_Name":"Yakhdan Mosque","د_مرکز_ځای__موقعیت_مرکز":"قریه یخدان","Polling_Center_Location":"Yakhdan Village","Verification_Note":"Building","PS_Male":1,"PS_Female":1,"Map_Accuracy":"تعمیر"},"geometry":{"x":7437983.1748593636,"y":4433504.8265626878}},{"attributes":{"OBJECTID":2187,"ولایت":"بلخ","Province":"BALKH","PC_Code":"2109130","ولسوالي":"دولت آباد","District":"DAWLAT ABAD","د_مرکز_نوم__نام_مرکز":"مکتب حیاتان","Polling_Center_Name":"Hayatan School","د_مرکز_ځای__موقعیت_مرکز":"قریه حیاتان","Polling_Center_Location":"Hayatan Village","Verification_Note":"Building","PS_Male":1,"PS_Female":1,"Map_Accuracy":"تعمیر"},"geometry":{"x":7431304.3783320561,"y":4439150.1715754792}},{"attributes":{"OBJECTID":2186,"ولایت":"بلخ","Province":"BALKH","PC_Code":"2109129","ولسوالي":"دولت آباد","District":"DAWLAT ABAD","د_مرکز_نوم__نام_مرکز":"مکتب خواله بچگان","Polling_Center_Name":"Khowala Bachgan School","د_مرکز_ځای__موقعیت_مرکز":"قریه خواله بچگان","Polling_Center_Location":"Khowala Bachgan Village","Verification_Note":"Building","PS_Male":1,"PS_Female":1,"Map_Accuracy":"تعمیر"},"geometry":{"x":7432098.6161821857,"y":4426506.537476033}},{"attributes":{"OBJECTID":2185,"ولایت":"بلخ","Province":"BALKH","PC_Code":"2109126","ولسوالي":"دولت آباد","District":"DAWLAT ABAD","د_مرکز_نوم__نام_مرکز":"مکتب دلبرجین ","Polling_Center_Name":"Delbar Jeen School","د_مرکز_ځای__موقعیت_مرکز":"قریه دلبرجین","Polling_Center_Location":"Delbar Jeen Village","Verification_Note":"Building","PS_Male":2,"PS_Female":1,"Map_Accuracy":"تعمیر"},"geometry":{"x":7408561.9020977542,"y":4438472.7830640078}},{"attributes":{"OBJECTID":2184,"ولایت":"بلخ","Province":"BALKH","PC_Code":"2109125","ولسوالي":"دولت آباد","District":"DAWLAT ABAD","د_مرکز_نوم__نام_مرکز":"مکتب صدر آباد","Polling_Center_Name":"Sadr Abad School","د_مرکز_ځای__موقعیت_مرکز":"قریه صدر آباد","Polling_Center_Location":"Sadr Abad Village","Verification_Note":"Building","PS_Male":1,"PS_Female":1,"Map_Accuracy":"تعمیر"},"geometry":{"x":7428565.27543189,"y":4434844.7000717}},{"attributes":{"OBJECTID":2183,"ولایت":"بلخ","Province":"BALKH","PC_Code":"2109123","ولسوالي":"دولت آباد","District":"DAWLAT ABAD","د_مرکز_نوم__نام_مرکز":"مکتب آناث واعظی","Polling_Center_Name":"Wazyezi Girls High School","د_مرکز_ځای__موقعیت_مرکز":"قریه قره غجله","Polling_Center_Location":"Qara Ghajla Village","Verification_Note":"Building","PS_Male":1,"PS_Female":1,"Map_Accuracy":"تعمیر"},"geometry":{"x":7458757.6605326086,"y":4436454.7134927213}},{"attributes":{"OBJECTID":2182,"ولایت":"بلخ","Province":"BALKH","PC_Code":"2109122","ولسوالي":"دولت آباد","District":"DAWLAT ABAD","د_مرکز_نوم__نام_مرکز":"لیسه ذکور مولانا واعظی ","Polling_Center_Name":"Maulana Wayezi Boys High School","د_مرکز_ځای__موقعیت_مرکز":"قریه قره غجله","Polling_Center_Location":"Qara Ghajla Village","Verification_Note":"Building","PS_Male":2,"PS_Female":0,"Map_Accuracy":"تعمیر"},"geometry":{"x":7459094.1470706239,"y":4435321.4836316258}},{"attributes":{"OBJECTID":2181,"ولایت":"بلخ","Province":"BALKH","PC_Code":"2109119","ولسوالي":"دولت آباد","District":"DAWLAT ABAD","د_مرکز_نوم__نام_مرکز":"مکتب رابعه بلخی","Polling_Center_Name":"Rabia Balkhi School","د_مرکز_ځای__موقعیت_مرکز":"مرکز دولت آباد","Polling_Center_Location":"Dawlat Abad Center","Verification_Note":"Building","PS_Male":1,"PS_Female":1,"Map_Accuracy":"تعمیر"},"geometry":{"x":7438387.87909453,"y":4437284.5355766341}},{"attributes":{"OBJECTID":2180,"ولایت":"بلخ","Province":"BALKH","PC_Code":"2109118","ولسوالي":"دولت آباد","District":"DAWLAT ABAD","د_مرکز_نوم__نام_مرکز":"تعمیر شاروالی دولت آباد","Polling_Center_Name":"Dawlat Abad Municipality Building","د_مرکز_ځای__موقعیت_مرکز":"مرکز دولت آباد","Polling_Center_Location":"Dawlat Abad Center","Verification_Note":"Building","PS_Male":2,"PS_Female":1,"Map_Accuracy":"تعمیر"},"geometry":{"x":7438557.474338755,"y":4437440.0590171814}},{"attributes":{"OBJECTID":2179,"ولایت":"بلخ","Province":"BALKH","PC_Code":"2108222","ولسوالي":"چمتال","District":"CHIMTAL","د_مرکز_نوم__نام_مرکز":"مسجد نوشار علی زائی","Polling_Center_Name":"Nawshahr Alizai Mosque","د_مرکز_ځای__موقعیت_مرکز":"قریه علی زایئ","Polling_Center_Location":"Alizai Village","Verification_Note":"Village","PS_Male":1,"PS_Female":1,"Map_Accuracy":"قریه"},"geometry":{"x":7419059.2610614784,"y":4399976.3289640322}},{"attributes":{"OBJECTID":2178,"ولایت":"بلخ","Province":"BALKH","PC_Code":"2108221","ولسوالي":"چمتال","District":"CHIMTAL","د_مرکز_نوم__نام_مرکز":"مکتب قلعه رزاق","Polling_Center_Name":"Qala-e-Raziq School","د_مرکز_ځای__موقعیت_مرکز":"قریه قلعه رزاق","Polling_Center_Location":"Qala-e-Raziq Village","Verification_Note":"Village","PS_Male":2,"PS_Female":1,"Map_Accuracy":"قریه"},"geometry":{"x":7422569.7122980841,"y":4395940.1632791162}},{"attributes":{"OBJECTID":2177,"ولایت":"بلخ","Province":"BALKH","PC_Code":"2108214","ولسوالي":"چمتال","District":"CHIMTAL","د_مرکز_نوم__نام_مرکز":"مکتب سر آسیاب","Polling_Center_Name":"Sar Asyab School","د_مرکز_ځای__موقعیت_مرکز":"قریه سر آسیا ب","Polling_Center_Location":"Sar Asyab Village","Verification_Note":"Building","PS_Male":2,"PS_Female":1,"Map_Accuracy":"تعمیر"},"geometry":{"x":7444567.3030653037,"y":4389773.7437370569}},{"attributes":{"OBJECTID":2176,"ولایت":"بلخ","Province":"BALKH","PC_Code":"2108213","ولسوالي":"چمتال","District":"CHIMTAL","د_مرکز_نوم__نام_مرکز":"مکتب چمتال","Polling_Center_Name":"Chamtal School","د_مرکز_ځای__موقعیت_مرکز":"قریه چمتال","Polling_Center_Location":"Chamtaal Village","Verification_Note":"Village","PS_Male":2,"PS_Female":1,"Map_Accuracy":"قریه"},"geometry":{"x":7436967.4446184,"y":4394492.2352313027}},{"attributes":{"OBJECTID":2175,"ولایت":"بلخ","Province":"BALKH","PC_Code":"2107262","ولسوالي":"شولگره","District":"SHOLGARA","د_مرکز_نوم__نام_مرکز":"مسجد زوار ها","Polling_Center_Name":"Zowarha Mosque","د_مرکز_ځای__موقعیت_مرکز":"قریه زوار ها","Polling_Center_Location":"Zowarha Village","Verification_Note":"Building","PS_Male":2,"PS_Female":1,"Map_Accuracy":"تعمیر"},"geometry":{"x":7448810.217627015,"y":4350151.4917390943}},{"attributes":{"OBJECTID":2174,"ولایت":"بلخ","Province":"BALKH","PC_Code":"2107261","ولسوالي":"شولگره","District":"SHOLGARA","د_مرکز_نوم__نام_مرکز":"مکتب سیاب","Polling_Center_Name":"Siyab School","د_مرکز_ځای__موقعیت_مرکز":"قریه سیاب","Polling_Center_Location":"Siyab Village","Verification_Note":"Building","PS_Male":2,"PS_Female":1,"Map_Accuracy":"تعمیر"},"geometry":{"x":7449286.2876745313,"y":4356550.0943191871}},{"attributes":{"OBJECTID":2173,"ولایت":"بلخ","Province":"BALKH","PC_Code":"2107241","ولسوالي":"شولگره","District":"SHOLGARA","د_مرکز_نوم__نام_مرکز":"مکتب کاندلی","Polling_Center_Name":"Kandali School","د_مرکز_ځای__موقعیت_مرکز":"قریه کاندلی","Polling_Center_Location":"Kandali Village","Verification_Note":"Building","PS_Male":2,"PS_Female":1,"Map_Accuracy":"تعمیر"},"geometry":{"x":7422399.2587805912,"y":4316632.8526314273}},{"attributes":{"OBJECTID":2172,"ولایت":"بلخ","Province":"BALKH","PC_Code":"2107240","ولسوالي":"شولگره","District":"SHOLGARA","د_مرکز_نوم__نام_مرکز":"مکتب تبیاق","Polling_Center_Name":"Tabyaq School","د_مرکز_ځای__موقعیت_مرکز":"قریه تبیاق","Polling_Center_Location":"Tabyaq Village","Verification_Note":"Building","PS_Male":1,"PS_Female":1,"Map_Accuracy":"تعمیر"},"geometry":{"x":7434860.2111854777,"y":4347234.18448773}},{"attributes":{"OBJECTID":2171,"ولایت":"بلخ","Province":"BALKH","PC_Code":"2107238","ولسوالي":"شولگره","District":"SHOLGARA","د_مرکز_نوم__نام_مرکز":"تعمیر جدید ولسوالی","Polling_Center_Name":"Districts New Building","د_مرکز_ځای__موقعیت_مرکز":"قریه قدیم ","Polling_Center_Location":"Qadeem Village","Verification_Note":"Building","PS_Male":2,"PS_Female":1,"Map_Accuracy":"تعمیر"},"geometry":{"x":7445676.00734498,"y":4344580.2041831613}},{"attributes":{"OBJECTID":2170,"ولایت":"بلخ","Province":"BALKH","PC_Code":"2107237","ولسوالي":"شولگره","District":"SHOLGARA","د_مرکز_نوم__نام_مرکز":"لیسه عالی قدیم","Polling_Center_Name":"Qadeem High School","د_مرکز_ځای__موقعیت_مرکز":"قریه قدیم ","Polling_Center_Location":"Qadeem Village","Verification_Note":"Building","PS_Male":2,"PS_Female":2,"Map_Accuracy":"تعمیر"},"geometry":{"x":7445574.4928749315,"y":4344321.3219110444}},{"attributes":{"OBJECTID":2169,"ولایت":"بلخ","Province":"BALKH","PC_Code":"2106168","ولسوالي":"بلخ","District":"BALKH","د_مرکز_نوم__نام_مرکز":"مسجد شهاب","Polling_Center_Name":"Shahab Mosque","د_مرکز_ځای__موقعیت_مرکز":"قریه شهاب","Polling_Center_Location":"Shahab Village","Verification_Note":"Building","PS_Male":2,"PS_Female":1,"Map_Accuracy":"تعمیر"},"geometry":{"x":7442498.5427615941,"y":4422502.65912158}},{"attributes":{"OBJECTID":2168,"ولایت":"بلخ","Province":"BALKH","PC_Code":"2106167","ولسوالي":"بلخ","District":"BALKH","د_مرکز_نوم__نام_مرکز":"مکتب مهمندان ","Polling_Center_Name":"Muhmandan School","د_مرکز_ځای__موقعیت_مرکز":"قریه مهمندان","Polling_Center_Location":"Muhmandan Village","Verification_Note":"Building","PS_Male":3,"PS_Female":2,"Map_Accuracy":"تعمیر"},"geometry":{"x":7442375.5525353886,"y":4416757.8458209932}},{"attributes":{"OBJECTID":2167,"ولایت":"بلخ","Province":"BALKH","PC_Code":"2106156","ولسوالي":"بلخ","District":"BALKH","د_مرکز_نوم__نام_مرکز":"مکتب نسوان ثمر قندیان ","Polling_Center_Name":"Samar Qandiyan Girls School","د_مرکز_ځای__موقعیت_مرکز":"قریه ثمر قندیان","Polling_Center_Location":"Samar Qandiyan Village","Verification_Note":"Building","PS_Male":2,"PS_Female":2,"Map_Accuracy":"تعمیر"},"geometry":{"x":7440238.9296437018,"y":4395438.97144603}},{"attributes":{"OBJECTID":2166,"ولایت":"بلخ","Province":"BALKH","PC_Code":"2106155","ولسوالي":"بلخ","District":"BALKH","د_مرکز_نوم__نام_مرکز":"مکتب نسوان  حصارک","Polling_Center_Name":"Hesarak Girls School","د_مرکز_ځای__موقعیت_مرکز":"قریه حصارک","Polling_Center_Location":"Hesarak Village","Verification_Note":"Building","PS_Male":2,"PS_Female":1,"Map_Accuracy":"تعمیر"},"geometry":{"x":7442671.5132127851,"y":4397780.9592748731}},{"attributes":{"OBJECTID":2165,"ولایت":"بلخ","Province":"BALKH","PC_Code":"2104279","ولسوالي":"چارکنت","District":"CHAR KENT","د_مرکز_نوم__نام_مرکز":"مکتب جان بلاق","Polling_Center_Name":"Jaan Balaq School","د_مرکز_ځای__موقعیت_مرکز":"قریه جان بلاق","Polling_Center_Location":"Jaan Balaq Village","Verification_Note":"Building","PS_Male":1,"PS_Female":1,"Map_Accuracy":"تعمیر"},"geometry":{"x":7492676.8095648587,"y":4356407.51672858}},{"attributes":{"OBJECTID":2164,"ولایت":"بلخ","Province":"BALKH","PC_Code":"2104278","ولسوالي":"چارکنت","District":"CHAR KENT","د_مرکز_نوم__نام_مرکز":"مکتب تندورک","Polling_Center_Name":"Tandoorak School","د_مرکز_ځای__موقعیت_مرکز":"قریه تندورک","Polling_Center_Location":"Tandoorak Village","Verification_Note":"Village","PS_Male":2,"PS_Female":1,"Map_Accuracy":"قریه"},"geometry":{"x":7469645.2555372752,"y":4360130.6162570119}},{"attributes":{"OBJECTID":2163,"ولایت":"بلخ","Province":"BALKH","PC_Code":"2102069","ولسوالي":"نهر شاهی ","District":"NAHR-E-SHAHI","د_مرکز_نوم__نام_مرکز":"مکتب شهر ک افغانیه","Polling_Center_Name":"Shahrak Afghania School","د_مرکز_ځای__موقعیت_مرکز":"شهرک افغانیه","Polling_Center_Location":"Shahrak Afghania","Verification_Note":"Village","PS_Male":2,"PS_Female":2,"Map_Accuracy":"قریه"},"geometry":{"x":7476831.302701477,"y":4425102.6633785442}},{"attributes":{"OBJECTID":2162,"ولایت":"بلخ","Province":"BALKH","PC_Code":"2102068","ولسوالي":"نهر شاهی ","District":"NAHR-E-SHAHI","د_مرکز_نوم__نام_مرکز":"مکتب سیاه گرد","Polling_Center_Name":"Siyah Gerd School","د_مرکز_ځای__موقعیت_مرکز":"قریه سیاه گرد","Polling_Center_Location":"Siyah Gerd Village","Verification_Note":"Village","PS_Male":2,"PS_Female":1,"Map_Accuracy":"قریه"},"geometry":{"x":7467658.170343969,"y":4429574.0461445078}},{"attributes":{"OBJECTID":2161,"ولایت":"بلخ","Province":"BALKH","PC_Code":"2101017","ولسوالي":"مزار شریف","District":"MAZAR-E-SHARIF","د_مرکز_نوم__نام_مرکز":"دار الحفاظ اسدیه","Polling_Center_Name":"Asadya Darul Hefaaz","د_مرکز_ځای__موقعیت_مرکز":"ناحیه دوم مزار شاروالی ","Polling_Center_Location":"D02 - Nahia 2","Verification_Note":"Building","PS_Male":1,"PS_Female":1,"Map_Accuracy":"تعمیر"},"geometry":{"x":7468078.5750801228,"y":4398773.9510077834}},{"attributes":{"OBJECTID":2160,"ولایت":"بلخ","Province":"BALKH","PC_Code":"2101016","ولسوالي":"مزار شریف","District":"MAZAR-E-SHARIF","د_مرکز_نوم__نام_مرکز":"مکتب ابو مسلم خراسانی","Polling_Center_Name":"Abu Muslim Khurasani School","د_مرکز_ځای__موقعیت_مرکز":"ناحیه چهارم شهرداری مزار","Polling_Center_Location":"D04 - Nahia 4","Verification_Note":"Building","PS_Male":2,"PS_Female":2,"Map_Accuracy":"تعمیر"},"geometry":{"x":7468775.5898265764,"y":4396717.2980710566}},{"attributes":{"OBJECTID":2159,"ولایت":"بلخ","Province":"BALKH","PC_Code":"2101008","ولسوالي":"مزار شریف","District":"MAZAR-E-SHARIF","د_مرکز_نوم__نام_مرکز":"مکتب بکتاش","Polling_Center_Name":"Baktash School","د_مرکز_ځای__موقعیت_مرکز":"ناحیه سوم مزار شاروالی ","Polling_Center_Location":"D03 - Nahia 3","Verification_Note":"Building","PS_Male":5,"PS_Female":3,"Map_Accuracy":"تعمیر"},"geometry":{"x":7471397.0491756871,"y":4399588.6703876927}},{"attributes":{"OBJECTID":2158,"ولایت":"بلخ","Province":"BALKH","PC_Code":"2101007","ولسوالي":"مزار شریف","District":"MAZAR-E-SHARIF","د_مرکز_نوم__نام_مرکز":"متوسطه طبی","Polling_Center_Name":"Tebi Medical School","د_مرکز_ځای__موقعیت_مرکز":"ناحیه دوم کارته شفاخانه ","Polling_Center_Location":"D02 - Nahia 2 Karta-e-Shafakhana","Verification_Note":"Building","PS_Male":4,"PS_Female":3,"Map_Accuracy":"تعمیر"},"geometry":{"x":7470400.5705274567,"y":4399635.108628042}},{"attributes":{"OBJECTID":2157,"ولایت":"سمنگان","Province":"SAMANGAN","PC_Code":"2005099","ولسوالي":"روی دو آب","District":"ROI-DO-AB","د_مرکز_نوم__نام_مرکز":"مدرسه خواجه زاحد","Polling_Center_Name":"Khwaja zahed Madrasa","د_مرکز_ځای__موقعیت_مرکز":"خواجه زاهد","Polling_Center_Location":"Khwaja zahed","Verification_Note":"Building","PS_Male":2,"PS_Female":1,"Map_Accuracy":"تعمیر"},"geometry":{"x":7545446.7120011374,"y":4249542.1265974641}},{"attributes":{"OBJECTID":2156,"ولایت":"سمنگان","Province":"SAMANGAN","PC_Code":"2003098","ولسوالي":"خرم وسارباغ","District":"HAZRAT-E-SULTAN","د_مرکز_نوم__نام_مرکز":"ابتدایه مکتب","Polling_Center_Name":"Primary School","د_مرکز_ځای__موقعیت_مرکز":"سرخک چشمه","Polling_Center_Location":"Surkhak chashma","Verification_Note":"Building","PS_Male":2,"PS_Female":1,"Map_Accuracy":"تعمیر"},"geometry":{"x":7605559.1507568955,"y":4312218.3709141091}},{"attributes":{"OBJECTID":2155,"ولایت":"سمنگان","Province":"SAMANGAN","PC_Code":"2007045","ولسوالي":"دره صوف بالا","District":"DARA-E-SOOF-E-BALA","د_مرکز_نوم__نام_مرکز":"منبر چهار ده","Polling_Center_Name":"Menbar Chahar Deh","د_مرکز_ځای__موقعیت_مرکز":"قریه چهار ده","Polling_Center_Location":"Chahar Deh Village","Verification_Note":"Building","PS_Male":2,"PS_Female":2,"Map_Accuracy":"تعمیر"},"geometry":{"x":7484144.8763611279,"y":4236562.407181412}},{"attributes":{"OBJECTID":2154,"ولایت":"سمنگان","Province":"SAMANGAN","PC_Code":"2007043","ولسوالي":"دره صوف بالا","District":"DARA-E-SOOF-E-BALA","د_مرکز_نوم__نام_مرکز":"منبر سرخ ده","Polling_Center_Name":"Surkh Deh Menbar","د_مرکز_ځای__موقعیت_مرکز":"قریه سرخ ده","Polling_Center_Location":"Surkh Deh Village","Verification_Note":"Building","PS_Male":1,"PS_Female":1,"Map_Accuracy":"تعمیر"},"geometry":{"x":7462846.9308199286,"y":4246495.119439438}},{"attributes":{"OBJECTID":2153,"ولایت":"سمنگان","Province":"SAMANGAN","PC_Code":"2007042","ولسوالي":"دره صوف بالا","District":"DARA-E-SOOF-E-BALA","د_مرکز_نوم__نام_مرکز":"منبر بینی منگ","Polling_Center_Name":"Beni Mang Menbar","د_مرکز_ځای__موقعیت_مرکز":"قریه بینی منگ","Polling_Center_Location":"Beni Mang Village","Verification_Note":"Building","PS_Male":3,"PS_Female":2,"Map_Accuracy":"تعمیر"},"geometry":{"x":7480259.8372643888,"y":4252437.1157461852}},{"attributes":{"OBJECTID":2152,"ولایت":"سمنگان","Province":"SAMANGAN","PC_Code":"2007039","ولسوالي":"دره صوف بالا","District":"DARA-E-SOOF-E-BALA","د_مرکز_نوم__نام_مرکز":"منبر سرخ شهر","Polling_Center_Name":"Menbar Surkh Shahr","د_مرکز_ځای__موقعیت_مرکز":" قریه سرخ شهر","Polling_Center_Location":"Surkh Shahr Village","Verification_Note":"Building","PS_Male":2,"PS_Female":1,"Map_Accuracy":"تعمیر"},"geometry":{"x":7499649.8279591091,"y":4274846.3924417645}},{"attributes":{"OBJECTID":2151,"ولایت":"سمنگان","Province":"SAMANGAN","PC_Code":"2007038","ولسوالي":"دره صوف بالا","District":"DARA-E-SOOF-E-BALA","د_مرکز_نوم__نام_مرکز":"منبر خمی حوض ","Polling_Center_Name":"Menbar Khami Hawz","د_مرکز_ځای__موقعیت_مرکز":"قریه خمی حوض","Polling_Center_Location":"Khami Hawz Village","Verification_Note":"Building","PS_Male":1,"PS_Female":1,"Map_Accuracy":"تعمیر"},"geometry":{"x":7515642.4312844351,"y":4276128.8835494518}},{"attributes":{"OBJECTID":2150,"ولایت":"سمنگان","Province":"SAMANGAN","PC_Code":"2007037","ولسوالي":"دره صوف بالا","District":"DARA-E-SOOF-E-BALA","د_مرکز_نوم__نام_مرکز":"منبر کته قشلاق ","Polling_Center_Name":"Menbar Kata Qeshlaq","د_مرکز_ځای__موقعیت_مرکز":"قریه کته قشلاق","Polling_Center_Location":"Kata Qashlaq Village","Verification_Note":"Building","PS_Male":1,"PS_Female":1,"Map_Accuracy":"تعمیر"},"geometry":{"x":7503138.4561227411,"y":4277577.4353089035}},{"attributes":{"OBJECTID":2149,"ولایت":"سمنگان","Province":"SAMANGAN","PC_Code":"2007036","ولسوالي":"دره صوف بالا","District":"DARA-E-SOOF-E-BALA","د_مرکز_نوم__نام_مرکز":"منبر حسنی ","Polling_Center_Name":"Menbar Hasani","د_مرکز_ځای__موقعیت_مرکز":"قریه حسنی","Polling_Center_Location":"Hasani Village","Verification_Note":"Building","PS_Male":2,"PS_Female":1,"Map_Accuracy":"تعمیر"},"geometry":{"x":7489433.5885582678,"y":4264711.3572319224}},{"attributes":{"OBJECTID":2148,"ولایت":"سمنگان","Province":"SAMANGAN","PC_Code":"2006063","ولسوالي":"دره صوف پائین","District":"DARA-E-SOOF-E-PAYIN","د_مرکز_نوم__نام_مرکز":"مسجد نی زار","Polling_Center_Name":"Nai Zaar Mosque","د_مرکز_ځای__موقعیت_مرکز":"قریه نی زار","Polling_Center_Location":"Nai Zaar Village","Verification_Note":"Building","PS_Male":2,"PS_Female":1,"Map_Accuracy":"تعمیر"},"geometry":{"x":7514433.3145976774,"y":4299814.7764702886}},{"attributes":{"OBJECTID":2147,"ولایت":"سمنگان","Province":"SAMANGAN","PC_Code":"2006062","ولسوالي":"دره صوف پائین","District":"DARA-E-SOOF-E-PAYIN","د_مرکز_نوم__نام_مرکز":"مسجد تولی غازی","Polling_Center_Name":"Tolai Ghazi Mosque","د_مرکز_ځای__موقعیت_مرکز":"قریه تولی غازی","Polling_Center_Location":"Tolai Ghazi Village","Verification_Note":"Building","PS_Male":2,"PS_Female":2,"Map_Accuracy":"تعمیر"},"geometry":{"x":7491665.982947465,"y":4305778.7670565248}},{"attributes":{"OBJECTID":2146,"ولایت":"سمنگان","Province":"SAMANGAN","PC_Code":"2006061","ولسوالي":"دره صوف پائین","District":"DARA-E-SOOF-E-PAYIN","د_مرکز_نوم__نام_مرکز":"مدرسه لبابی","Polling_Center_Name":"Lababi Madrassa","د_مرکز_ځای__موقعیت_مرکز":"قریه لبابی","Polling_Center_Location":"Lababi Village","Verification_Note":"Building","PS_Male":2,"PS_Female":2,"Map_Accuracy":"تعمیر"},"geometry":{"x":7503698.574612204,"y":4307065.3056716993}},{"attributes":{"OBJECTID":2145,"ولایت":"سمنگان","Province":"SAMANGAN","PC_Code":"2006060","ولسوالي":"دره صوف پائین","District":"DARA-E-SOOF-E-PAYIN","د_مرکز_نوم__نام_مرکز":"مدرسه کته قاق ","Polling_Center_Name":"Kata Qaq Madrassa","د_مرکز_ځای__موقعیت_مرکز":"قریه کته قاق","Polling_Center_Location":"Kata Qaq Village","Verification_Note":"Building","PS_Male":2,"PS_Female":2,"Map_Accuracy":"تعمیر"},"geometry":{"x":7503474.5129675269,"y":4319435.28404966}},{"attributes":{"OBJECTID":2144,"ولایت":"سمنگان","Province":"SAMANGAN","PC_Code":"2002025","ولسوالي":"حضرت سلطان","District":"HAZRAT-E-SULTAN","د_مرکز_نوم__نام_مرکز":"مکتب ابتدایئ چوچمن","Polling_Center_Name":"Chochman Primary School","د_مرکز_ځای__موقعیت_مرکز":"قریه چوچمن","Polling_Center_Location":"Chochman Village","Verification_Note":"Building","PS_Male":2,"PS_Female":1,"Map_Accuracy":"تعمیر"},"geometry":{"x":7516408.4674547687,"y":4332668.6742843166}},{"attributes":{"OBJECTID":2143,"ولایت":"سمنگان","Province":"SAMANGAN","PC_Code":"2001007","ولسوالي":"ایبک","District":"AYBAK","د_مرکز_نوم__نام_مرکز":"لیسه نسوان اجانی ملکی ","Polling_Center_Name":"Ajani Malki Girls High School","د_مرکز_ځای__موقعیت_مرکز":"شهر ایبک","Polling_Center_Location":"Aibak City","Verification_Note":"Building","PS_Male":2,"PS_Female":6,"Map_Accuracy":"تعمیر"},"geometry":{"x":7571324.1344506331,"y":4337472.5905581787}},{"attributes":{"OBJECTID":2142,"ولایت":"سمنگان","Province":"SAMANGAN","PC_Code":"2001006","ولسوالي":"ایبک","District":"AYBAK","د_مرکز_نوم__نام_مرکز":"مکتب متوسطه نسوان کارته خراسان","Polling_Center_Name":"Karte Khorasan Girls Secondary School","د_مرکز_ځای__موقعیت_مرکز":"شهر ایبک","Polling_Center_Location":"Aibak City","Verification_Note":"Building","PS_Male":3,"PS_Female":1,"Map_Accuracy":"تعمیر"},"geometry":{"x":7570240.43586817,"y":4342128.5244034082}},{"attributes":{"OBJECTID":2141,"ولایت":"سمنگان","Province":"SAMANGAN","PC_Code":"2006054","ولسوالي":"دره صوف پائین","District":"DARA-E-SOOF-E-PAYIN","د_مرکز_نوم__نام_مرکز":"مدرسه بازارک","Polling_Center_Name":"Bazarak Madrassa","د_مرکز_ځای__موقعیت_مرکز":"قریه بازارک","Polling_Center_Location":"Bazarak Village","Verification_Note":"Building","PS_Male":2,"PS_Female":1,"Map_Accuracy":"تعمیر"},"geometry":{"x":7468082.9370230474,"y":4267452.4457013458}},{"attributes":{"OBJECTID":2140,"ولایت":"سمنگان","Province":"SAMANGAN","PC_Code":"2006048","ولسوالي":"دره صوف پائین","District":"DARA-E-SOOF-E-PAYIN","د_مرکز_نوم__نام_مرکز":"مکتب ابتدائیه بغک","Polling_Center_Name":"Baghak Primary School","د_مرکز_ځای__موقعیت_مرکز":"قریه بفک","Polling_Center_Location":"Bafak Village","Verification_Note":"Building","PS_Male":3,"PS_Female":1,"Map_Accuracy":"تعمیر"},"geometry":{"x":7508050.7370089851,"y":4292232.9473771229}},{"attributes":{"OBJECTID":2139,"ولایت":"سمنگان","Province":"SAMANGAN","PC_Code":"2005095","ولسوالي":"روی دوآب","District":"ROI-DO-AB","د_مرکز_نوم__نام_مرکز":"منبر بلغلی ","Polling_Center_Name":"Balghali Menbar","د_مرکز_ځای__موقعیت_مرکز":"قریه بلغلی","Polling_Center_Location":"Balghali Village","Verification_Note":"Building","PS_Male":2,"PS_Female":1,"Map_Accuracy":"تعمیر"},"geometry":{"x":7521580.1962254234,"y":4246668.1072868183}},{"attributes":{"OBJECTID":2138,"ولایت":"سمنگان","Province":"SAMANGAN","PC_Code":"2005065","ولسوالي":"روی دوآب","District":"ROI-DO-AB","د_مرکز_نوم__نام_مرکز":"لیسه عبدالعزیز ","Polling_Center_Name":"Abdul Aziz High School","د_مرکز_ځای__موقعیت_مرکز":"قریه روئی","Polling_Center_Location":"Royee Village","Verification_Note":"Building","PS_Male":3,"PS_Female":2,"Map_Accuracy":"تعمیر"},"geometry":{"x":7554697.86384828,"y":4269564.1487184316}},{"attributes":{"OBJECTID":2137,"ولایت":"سمنگان","Province":"SAMANGAN","PC_Code":"2004032","ولسوالي":"فیروز نخچیر","District":"FEROZ NAKHCHEER","د_مرکز_نوم__نام_مرکز":"مکتب ابتدائیه نو آباد","Polling_Center_Name":"Naw Abad Primary School","د_مرکز_ځای__موقعیت_مرکز":"قریه نو آباد","Polling_Center_Location":"Naw Abad Village","Verification_Note":"Building","PS_Male":1,"PS_Female":1,"Map_Accuracy":"تعمیر"},"geometry":{"x":7535884.9533938318,"y":4370486.7338991016}},{"attributes":{"OBJECTID":2136,"ولایت":"سمنگان","Province":"SAMANGAN","PC_Code":"2003081","ولسوالي":"خرم و سارباغ","District":"KHURAM WA SARBAGH","د_مرکز_نوم__نام_مرکز":"مکتب متوسطه بابه قمبر","Polling_Center_Name":"Baba Qambar Secondary School","د_مرکز_ځای__موقعیت_مرکز":"قریه بابه قمبر","Polling_Center_Location":"Baba Qambar Village","Verification_Note":"Building","PS_Male":2,"PS_Female":1,"Map_Accuracy":"تعمیر"},"geometry":{"x":7590433.2961263359,"y":4307441.2054064944}},{"attributes":{"OBJECTID":2135,"ولایت":"سمنگان","Province":"SAMANGAN","PC_Code":"2003080","ولسوالي":"خرم و سارباغ","District":"KHURAM WA SARBAGH","د_مرکز_نوم__نام_مرکز":"مکتب متوسطه حضرت نعمان ","Polling_Center_Name":"Hazrat Numan Secondary School","د_مرکز_ځای__موقعیت_مرکز":"قریه داخل زو","Polling_Center_Location":"Dakhil Zo Village","Verification_Note":"Building","PS_Male":2,"PS_Female":1,"Map_Accuracy":"تعمیر"},"geometry":{"x":7576673.3599229641,"y":4304284.9330512956}},{"attributes":{"OBJECTID":2134,"ولایت":"سمنگان","Province":"SAMANGAN","PC_Code":"2001015","ولسوالي":"ایبک","District":"AYBAK","د_مرکز_نوم__نام_مرکز":"مکتب متوسطه شریکیار","Polling_Center_Name":"Sherekyaar Secondary School","د_مرکز_ځای__موقعیت_مرکز":"قریه شریکیار","Polling_Center_Location":"Sherekyaar Village","Verification_Note":"Building","PS_Male":1,"PS_Female":2,"Map_Accuracy":"تعمیر"},"geometry":{"x":7594568.0660291351,"y":4344308.7248696834}},{"attributes":{"OBJECTID":2133,"ولایت":"سمنگان","Province":"SAMANGAN","PC_Code":"2001014","ولسوالي":"ایبک","District":"AYBAK","د_مرکز_نوم__نام_مرکز":"لیسه شلکتو","Polling_Center_Name":"Shalkato High School","د_مرکز_ځای__موقعیت_مرکز":"قریه شلکتو","Polling_Center_Location":"Shalkato Village","Verification_Note":"Building","PS_Male":1,"PS_Female":1,"Map_Accuracy":"تعمیر"},"geometry":{"x":7573034.729858689,"y":4345042.6507581472}},{"attributes":{"OBJECTID":2132,"ولایت":"سمنگان","Province":"SAMANGAN","PC_Code":"2001011","ولسوالي":"ایبک","District":"AYBAK","د_مرکز_نوم__نام_مرکز":"مکتب متوسطه ظهرابی ","Polling_Center_Name":"Zahrabi Secondary School","د_مرکز_ځای__موقعیت_مرکز":"قریه ظهرابی ","Polling_Center_Location":"Zahrabi Village","Verification_Note":"Building","PS_Male":1,"PS_Female":1,"Map_Accuracy":"تعمیر"},"geometry":{"x":7574078.1296722777,"y":4335803.3044492975}},{"attributes":{"OBJECTID":2131,"ولایت":"سمنگان","Province":"SAMANGAN","PC_Code":"2001010","ولسوالي":"ایبک","District":"AYBAK","د_مرکز_نوم__نام_مرکز":"لیسه آئینچه ","Polling_Center_Name":"Aayencha High School","د_مرکز_ځای__موقعیت_مرکز":"شهر ایبک","Polling_Center_Location":"Aibak City","Verification_Note":"Building","PS_Male":3,"PS_Female":2,"Map_Accuracy":"تعمیر"},"geometry":{"x":7573126.7242858745,"y":4337394.4746991694}},{"attributes":{"OBJECTID":2130,"ولایت":"سمنگان","Province":"SAMANGAN","PC_Code":"2001005","ولسوالي":"ایبک","District":"AYBAK","د_مرکز_نوم__نام_مرکز":"مکتب متوسطه لرغان","Polling_Center_Name":"Larghan Secondary School","د_مرکز_ځای__موقعیت_مرکز":"قریه لرغان","Polling_Center_Location":"Larghan Village","Verification_Note":"Building","PS_Male":2,"PS_Female":1,"Map_Accuracy":"تعمیر"},"geometry":{"x":7570260.9442579634,"y":4342148.6371979192}},{"attributes":{"OBJECTID":2129,"ولایت":"سمنگان","Province":"SAMANGAN","PC_Code":"2001004","ولسوالي":"ایبک","District":"AYBAK","د_مرکز_نوم__نام_مرکز":"مکتب متوسطه دلخکی","Polling_Center_Name":"Dalkhaky Secondary School","د_مرکز_ځای__موقعیت_مرکز":"قریه دلخکی ","Polling_Center_Location":"Dalkhalky Village","Verification_Note":"Building","PS_Male":2,"PS_Female":1,"Map_Accuracy":"تعمیر"},"geometry":{"x":7562616.6871453486,"y":4347691.9537162557}},{"attributes":{"OBJECTID":2128,"ولایت":"سمنگان","Province":"SAMANGAN","PC_Code":"2006057","ولسوالي":"دره صوف پائین","District":"DARA-E-SOOF-E-PAYIN","د_مرکز_نوم__نام_مرکز":"مسجد اویمتان ","Polling_Center_Name":"Oyemtan Mosque","د_مرکز_ځای__موقعیت_مرکز":"قریه اویمتان","Polling_Center_Location":"Oyemtan Village","Verification_Note":"Building","PS_Male":2,"PS_Female":1,"Map_Accuracy":"تعمیر"},"geometry":{"x":7473855.819541771,"y":4312626.0043256432}},{"attributes":{"OBJECTID":2127,"ولایت":"سمنگان","Province":"SAMANGAN","PC_Code":"2006056","ولسوالي":"دره صوف پائین","District":"DARA-E-SOOF-E-PAYIN","د_مرکز_نوم__نام_مرکز":"مدرسه زاغ پایان","Polling_Center_Name":"Zaagh Payan Madrassa","د_مرکز_ځای__موقعیت_مرکز":"قریه زاغ پایان","Polling_Center_Location":"Zaagh Payan Village","Verification_Note":"Village","PS_Male":1,"PS_Female":1,"Map_Accuracy":"قریه"},"geometry":{"x":7475524.8081769459,"y":4299996.6627562419}},{"attributes":{"OBJECTID":2126,"ولایت":"سمنگان","Province":"SAMANGAN","PC_Code":"2006052","ولسوالي":"دره صوف پائین","District":"DARA-E-SOOF-E-PAYIN","د_مرکز_نوم__نام_مرکز":"مکتب ابتدائیه علی خیل","Polling_Center_Name":"Ali Khel Primary School","د_مرکز_ځای__موقعیت_مرکز":"قریه علی خیل","Polling_Center_Location":"Ali Khel Village","Verification_Note":"Building","PS_Male":2,"PS_Female":2,"Map_Accuracy":"تعمیر"},"geometry":{"x":7475525.7388078906,"y":4300245.9191316366}},{"attributes":{"OBJECTID":2125,"ولایت":"سمنگان","Province":"SAMANGAN","PC_Code":"2006051","ولسوالي":"دره صوف پائین","District":"DARA-E-SOOF-E-PAYIN","د_مرکز_نوم__نام_مرکز":"مکتب متوسطه چوبکی","Polling_Center_Name":"Chobaki Secondary School","د_مرکز_ځای__موقعیت_مرکز":"قریه چوبکی","Polling_Center_Location":"Chobaki Village","Verification_Note":"Building","PS_Male":1,"PS_Female":1,"Map_Accuracy":"تعمیر"},"geometry":{"x":7484342.0844050385,"y":4299310.4282596111}},{"attributes":{"OBJECTID":2124,"ولایت":"سمنگان","Province":"SAMANGAN","PC_Code":"2005068","ولسوالي":"روی دوآب","District":"ROI-DO-AB","د_مرکز_نوم__نام_مرکز":"مکتب ابتدائیه موهو ","Polling_Center_Name":"Moho Primary School","د_مرکز_ځای__موقعیت_مرکز":"قریه موهو","Polling_Center_Location":"Moho Village","Verification_Note":"Building","PS_Male":1,"PS_Female":2,"Map_Accuracy":"تعمیر"},"geometry":{"x":7557316.1817613505,"y":4259794.4632070586}},{"attributes":{"OBJECTID":2123,"ولایت":"سمنگان","Province":"SAMANGAN","PC_Code":"2005067","ولسوالي":"روی دوآب","District":"ROI-DO-AB","د_مرکز_نوم__نام_مرکز":"مکتب ابتدائیه چهار چشمه","Polling_Center_Name":"Chahar Chashma Primary School","د_مرکز_ځای__موقعیت_مرکز":"قریه چهار چشمه","Polling_Center_Location":"Chahar Chashma Village","Verification_Note":"Building","PS_Male":1,"PS_Female":1,"Map_Accuracy":"تعمیر"},"geometry":{"x":7536946.0786099434,"y":4277667.4267835841}},{"attributes":{"OBJECTID":2122,"ولایت":"سمنگان","Province":"SAMANGAN","PC_Code":"2004031","ولسوالي":"فیروز نخچیر","District":"FEROZ NAKHCHEER","د_مرکز_نوم__نام_مرکز":"مکتب ذکور فیروز نخچیر","Polling_Center_Name":"Feroz Nakhchir Boys School","د_مرکز_ځای__موقعیت_مرکز":"مرکز ولسوالی","Polling_Center_Location":"District Compound","Verification_Note":"Building","PS_Male":2,"PS_Female":1,"Map_Accuracy":"تعمیر"},"geometry":{"x":7535561.0882596858,"y":4373535.9270093143}},{"attributes":{"OBJECTID":2121,"ولایت":"سمنگان","Province":"SAMANGAN","PC_Code":"2004030","ولسوالي":"فیروز نخچیر","District":"FEROZ NAKHCHEER","د_مرکز_نوم__نام_مرکز":"مسجد قوش موله","Polling_Center_Name":"Qosh Mola Mosque","د_مرکز_ځای__موقعیت_مرکز":"فیروز نخچیر ","Polling_Center_Location":"Nakhchir Feroz","Verification_Note":"Building","PS_Male":1,"PS_Female":1,"Map_Accuracy":"تعمیر"},"geometry":{"x":7517221.3312821016,"y":4358998.3812926859}},{"attributes":{"OBJECTID":2120,"ولایت":"سمنگان","Province":"SAMANGAN","PC_Code":"2003085","ولسوالي":"خرم و سارباغ","District":"KHURAM WA SARBAGH","د_مرکز_نوم__نام_مرکز":"لیسه آق چشمه","Polling_Center_Name":"Aaq Chashma High School","د_مرکز_ځای__موقعیت_مرکز":"قریه آق چشمه","Polling_Center_Location":"Aaq Chashma Village","Verification_Note":"Building","PS_Male":2,"PS_Female":1,"Map_Accuracy":"تعمیر"},"geometry":{"x":7603985.8786274046,"y":4282137.8493835181}},{"attributes":{"OBJECTID":2119,"ولایت":"سمنگان","Province":"SAMANGAN","PC_Code":"2003084","ولسوالي":"خرم و سارباغ","District":"KHURAM WA SARBAGH","د_مرکز_نوم__نام_مرکز":"مکتب ابتدائی شاخ سفید","Polling_Center_Name":"Shaakh Safid Primary School","د_مرکز_ځای__موقعیت_مرکز":"قریه شاخ سفید","Polling_Center_Location":"Shaakh Safid Village","Verification_Note":"Building","PS_Male":1,"PS_Female":1,"Map_Accuracy":"تعمیر"},"geometry":{"x":7594700.314697396,"y":4292975.9325405359}},{"attributes":{"OBJECTID":2118,"ولایت":"سمنگان","Province":"SAMANGAN","PC_Code":"2002028","ولسوالي":"حضرت سلطان","District":"HAZRAT-E-SULTAN","د_مرکز_نوم__نام_مرکز":"مسجد بابه مراد","Polling_Center_Name":"Baba Murad Mosque","د_مرکز_ځای__موقعیت_مرکز":"قریه نیمان","Polling_Center_Location":"Neman Village","Verification_Note":"Village","PS_Male":1,"PS_Female":1,"Map_Accuracy":"قریه"},"geometry":{"x":7529797.7765454948,"y":4315056.4582952037}},{"attributes":{"OBJECTID":2117,"ولایت":"سمنگان","Province":"SAMANGAN","PC_Code":"2002027","ولسوالي":"حضرت سلطان","District":"HAZRAT-E-SULTAN","د_مرکز_نوم__نام_مرکز":"مسجد بایلر","Polling_Center_Name":"Boylar Mosque","د_مرکز_ځای__موقعیت_مرکز":"قریه بایلر","Polling_Center_Location":"Boylar Village","Verification_Note":"Village","PS_Male":1,"PS_Female":1,"Map_Accuracy":"قریه"},"geometry":{"x":7560295.5288205855,"y":4350214.695139803}},{"attributes":{"OBJECTID":2116,"ولایت":"سمنگان","Province":"SAMANGAN","PC_Code":"2002019","ولسوالي":"حضرت سلطان","District":"HAZRAT-E-SULTAN","د_مرکز_نوم__نام_مرکز":"مسجد اوملی","Polling_Center_Name":"Omli Mosque","د_مرکز_ځای__موقعیت_مرکز":"قریه اوملی","Polling_Center_Location":"Omli Village","Verification_Note":"Building","PS_Male":1,"PS_Female":1,"Map_Accuracy":"تعمیر"},"geometry":{"x":7607666.4683473483,"y":4368758.08735051}},{"attributes":{"OBJECTID":2115,"ولایت":"سمنگان","Province":"SAMANGAN","PC_Code":"2001089","ولسوالي":"ایبک","District":"AYBAK","د_مرکز_نوم__نام_مرکز":"مکتب متوسطه خواجه برهان","Polling_Center_Name":"Khwaja Burhan Secondary Schoo","د_مرکز_ځای__موقعیت_مرکز":"قریه قره غاج","Polling_Center_Location":"Qara Ghaj Village","Verification_Note":"District","PS_Male":2,"PS_Female":1,"Map_Accuracy":"ولسوالی"},"geometry":{"x":7574643.6401439123,"y":4337632.4218041226}},{"attributes":{"OBJECTID":2114,"ولایت":"سمنگان","Province":"SAMANGAN","PC_Code":"2001001","ولسوالي":"ایبک","District":"AYBAK","د_مرکز_نوم__نام_مرکز":"مدرسه منغر","Polling_Center_Name":"Manghar Madrassa","د_مرکز_ځای__موقعیت_مرکز":"قریه منغر","Polling_Center_Location":"Manghar Village","Verification_Note":"Building","PS_Male":1,"PS_Female":1,"Map_Accuracy":"تعمیر"},"geometry":{"x":7565387.0307474136,"y":4337131.7031672}},{"attributes":{"OBJECTID":2113,"ولایت":"کندز","Province":"KUNDUZ","PC_Code":"1907206","ولسوالي":"قلعه ذال","District":"QALA-E-ZAL","د_مرکز_نوم__نام_مرکز":"مکتب سخسه کول","Polling_Center_Name":"Sakhsa Kol School","د_مرکز_ځای__موقعیت_مرکز":"سخسه کول","Polling_Center_Location":"Sakhsa Kol","Verification_Note":"Building","PS_Male":1,"PS_Female":1,"Map_Accuracy":"تعمیر"},"geometry":{"x":7623103.6041115373,"y":4444130.7771431655}},{"attributes":{"OBJECTID":2112,"ولایت":"کندز","Province":"KUNDUZ","PC_Code":"1906192","ولسوالي":"دشت ارچی","District":"DASHT-E-ARCHI","د_مرکز_نوم__نام_مرکز":"مسجد حاجی پاینده","Polling_Center_Name":"Haji Payenda Mosque","د_مرکز_ځای__موقعیت_مرکز":"قریه داویان","Polling_Center_Location":"Daweyan Village","Verification_Note":"Building","PS_Male":1,"PS_Female":1,"Map_Accuracy":"تعمیر"},"geometry":{"x":7693840.2554001622,"y":4436619.1490125954}},{"attributes":{"OBJECTID":2111,"ولایت":"کندز","Province":"KUNDUZ","PC_Code":"1906191","ولسوالي":"دشت ارچی","District":"DASHT-E-ARCHI","د_مرکز_نوم__نام_مرکز":"مکتب شهید عبدالواحد","Polling_Center_Name":"Shahid Abdul Wahid School","د_مرکز_ځای__موقعیت_مرکز":"قریه حاجی غفور","Polling_Center_Location":"Haji Ghafoor Village","Verification_Note":"Building","PS_Male":1,"PS_Female":1,"Map_Accuracy":"تعمیر"},"geometry":{"x":7704192.6518965811,"y":4436145.6556407213}},{"attributes":{"OBJECTID":2110,"ولایت":"کندز","Province":"KUNDUZ","PC_Code":"1905096","ولسوالي":"حضرت امام صاحب","District":"HAZRAT-E-IMAM SAHIB","د_مرکز_نوم__نام_مرکز":"مکتب ابتدائیه جیهون","Polling_Center_Name":"Jaihoon Primary School","د_مرکز_ځای__موقعیت_مرکز":"حلقه کول","Polling_Center_Location":"Halqa Kol","Verification_Note":"Building","PS_Male":3,"PS_Female":1,"Map_Accuracy":"تعمیر"},"geometry":{"x":7668915.6867149621,"y":4469853.24650538}},{"attributes":{"OBJECTID":2109,"ولایت":"کندز","Province":"KUNDUZ","PC_Code":"1905095","ولسوالي":"حضرت امام صاحب","District":"HAZRAT-E-IMAM SAHIB","د_مرکز_نوم__نام_مرکز":"مکتب آب فروشان","Polling_Center_Name":"Aab Froshan School","د_مرکز_ځای__موقعیت_مرکز":"آب فروشان","Polling_Center_Location":"Aab Froshan","Verification_Note":"Building","PS_Male":3,"PS_Female":1,"Map_Accuracy":"تعمیر"},"geometry":{"x":7670652.6581631638,"y":4470424.9892342761}},{"attributes":{"OBJECTID":2108,"ولایت":"کندز","Province":"KUNDUZ","PC_Code":"1905086","ولسوالي":"حضرت امام صاحب","District":"HAZRAT-E-IMAM SAHIB","د_مرکز_نوم__نام_مرکز":"مکتب متوسطه بیش کپه","Polling_Center_Name":"Besh Kapa Secondary School","د_مرکز_ځای__موقعیت_مرکز":"بیش کپه","Polling_Center_Location":"Besh Kapa","Verification_Note":"Building","PS_Male":4,"PS_Female":2,"Map_Accuracy":"تعمیر"},"geometry":{"x":7663189.08928204,"y":4458527.6619685367}},{"attributes":{"OBJECTID":2107,"ولایت":"کندز","Province":"KUNDUZ","PC_Code":"1905085","ولسوالي":"حضرت امام صاحب","District":"HAZRAT-E-IMAM SAHIB","د_مرکز_نوم__نام_مرکز":"لیسه قره کوترمه","Polling_Center_Name":"Kotrama High School","د_مرکز_ځای__موقعیت_مرکز":"قره کوترمه بارزنگی","Polling_Center_Location":"Kotrama Barzangi Village","Verification_Note":"Building","PS_Male":3,"PS_Female":1,"Map_Accuracy":"تعمیر"},"geometry":{"x":7646262.1547538042,"y":4460611.375749059}},{"attributes":{"OBJECTID":2106,"ولایت":"کندز","Province":"KUNDUZ","PC_Code":"1905067","ولسوالي":"حضرت امام صاحب","District":"HAZRAT-E-IMAM SAHIB","د_مرکز_نوم__نام_مرکز":"مکتب متوسطه قرغان تیپه","Polling_Center_Name":"Qarghan Tapa Secondary School","د_مرکز_ځای__موقعیت_مرکز":"قورغان تپه","Polling_Center_Location":"Qorghan Tapa","Verification_Note":"Building","PS_Male":3,"PS_Female":1,"Map_Accuracy":"تعمیر"},"geometry":{"x":7674860.4480859488,"y":4469505.828625083}},{"attributes":{"OBJECTID":2105,"ولایت":"کندز","Province":"KUNDUZ","PC_Code":"1905066","ولسوالي":"حضرت امام صاحب","District":"HAZRAT-E-IMAM SAHIB","د_مرکز_نوم__نام_مرکز":"لیسه قلم گذر","Polling_Center_Name":"Qalam Guzar High School","د_مرکز_ځای__موقعیت_مرکز":"قلم گذر","Polling_Center_Location":"Qalam Guzar","Verification_Note":"Building","PS_Male":2,"PS_Female":1,"Map_Accuracy":"تعمیر"},"geometry":{"x":7685953.0880266875,"y":4469685.1857811064}},{"attributes":{"OBJECTID":2104,"ولایت":"کندز","Province":"KUNDUZ","PC_Code":"1904172","ولسوالي":"خان آباد","District":"KHAN ABAD","د_مرکز_نوم__نام_مرکز":"مکتب  ماف علی","Polling_Center_Name":"Maaf Ali School","د_مرکز_ځای__موقعیت_مرکز":"قریه ماف علی","Polling_Center_Location":"Maaf Ali Village","Verification_Note":"Building","PS_Male":1,"PS_Female":1,"Map_Accuracy":"تعمیر"},"geometry":{"x":7690418.2341406532,"y":4391677.0071948767}},{"attributes":{"OBJECTID":2103,"ولایت":"کندز","Province":"KUNDUZ","PC_Code":"1904171","ولسوالي":"خان آباد","District":"KHAN ABAD","د_مرکز_نوم__نام_مرکز":"مسجد جمعه خوانی صندوق سای","Polling_Center_Name":"Sondoq Say Juma Khowani Mosque","د_مرکز_ځای__موقعیت_مرکز":"قریه صندوق سای","Polling_Center_Location":"Sondoq Say Village","Verification_Note":"Building","PS_Male":1,"PS_Female":1,"Map_Accuracy":"تعمیر"},"geometry":{"x":7691895.67310163,"y":4380643.7468789071}},{"attributes":{"OBJECTID":2102,"ولایت":"کندز","Province":"KUNDUZ","PC_Code":"1904170","ولسوالي":"خان آباد","District":"KHAN ABAD","د_مرکز_نوم__نام_مرکز":"مسجد جمعه خوانی اوچقدق","Polling_Center_Name":"Ochqadaq Juma Khowani Mosque","د_مرکز_ځای__موقعیت_مرکز":"قریه اوچ قدق","Polling_Center_Location":"Ochqadaq Village","Verification_Note":"Building","PS_Male":1,"PS_Female":1,"Map_Accuracy":"تعمیر"},"geometry":{"x":7704279.2673659772,"y":4374710.7807459384}},{"attributes":{"OBJECTID":2100,"ولایت":"کندز","Province":"KUNDUZ","PC_Code":"1904163","ولسوالي":"خان آباد","District":"KHAN ABAD","د_مرکز_نوم__نام_مرکز":"کلینیک بوهین ","Polling_Center_Name":"Boheen Clinic","د_مرکز_ځای__موقعیت_مرکز":"قریه بوهین علیا","Polling_Center_Location":"Boheen Ulya Village","Verification_Note":"Building","PS_Male":1,"PS_Female":1,"Map_Accuracy":"تعمیر"},"geometry":{"x":7686472.73297568,"y":4399146.3312844187}},{"attributes":{"OBJECTID":2099,"ولایت":"کندز","Province":"KUNDUZ","PC_Code":"1904158","ولسوالي":"خان آباد","District":"KHAN ABAD","د_مرکز_نوم__نام_مرکز":"لیسه ذکور صدر رمضان","Polling_Center_Name":"Sadr Ramazan Boys High School","د_مرکز_ځای__موقعیت_مرکز":"قریه صدر رمضان","Polling_Center_Location":"Sadr Ramazan Village","Verification_Note":"Building","PS_Male":1,"PS_Female":1,"Map_Accuracy":"تعمیر"},"geometry":{"x":7683226.2848170549,"y":4396413.0061822012}},{"attributes":{"OBJECTID":2098,"ولایت":"کندز","Province":"KUNDUZ","PC_Code":"1903134","ولسوالي":"علی آباد","District":"ALI ABAD","د_مرکز_نوم__نام_مرکز":"مکتب متوسطه قزل سای","Polling_Center_Name":"Qazal Say Secondary School","د_مرکز_ځای__موقعیت_مرکز":"قریه قزل سای","Polling_Center_Location":"Qazal Say Village","Verification_Note":"Building","PS_Male":1,"PS_Female":1,"Map_Accuracy":"تعمیر"},"geometry":{"x":7667797.2709229067,"y":4361812.74182862}},{"attributes":{"OBJECTID":2097,"ولایت":"کندز","Province":"KUNDUZ","PC_Code":"1903133","ولسوالي":"علی آباد","District":"ALI ABAD","د_مرکز_نوم__نام_مرکز":"لیسه ذکور لرخابی","Polling_Center_Name":"Larkhabi Boys High School","د_مرکز_ځای__موقعیت_مرکز":"قریه ارباب رمضانی","Polling_Center_Location":"Arbab Ramazani Village","Verification_Note":"Building","PS_Male":1,"PS_Female":1,"Map_Accuracy":"تعمیر"},"geometry":{"x":7670679.6709508,"y":4376645.8164486811}},{"attributes":{"OBJECTID":2096,"ولایت":"کندز","Province":"KUNDUZ","PC_Code":"1901033","ولسوالي":"کندز","District":"KUNDUZ","د_مرکز_نوم__نام_مرکز":"مکتب انگور باغ","Polling_Center_Name":"Angoor Bagh School","د_مرکز_ځای__موقعیت_مرکز":"انگور باغ","Polling_Center_Location":"Angoor Bagh","Verification_Note":"Building","PS_Male":2,"PS_Female":2,"Map_Accuracy":"تعمیر"},"geometry":{"x":7668704.258719299,"y":4392833.0473350734}},{"attributes":{"OBJECTID":2095,"ولایت":"کندز","Province":"KUNDUZ","PC_Code":"1901032","ولسوالي":"کندز","District":"KUNDUZ","د_مرکز_نوم__نام_مرکز":"لیسه کوبهی","Polling_Center_Name":"Kobahi High School","د_مرکز_ځای__موقعیت_مرکز":"کوبهی","Polling_Center_Location":"Kobahi","Verification_Note":"Building","PS_Male":2,"PS_Female":2,"Map_Accuracy":"تعمیر"},"geometry":{"x":7680148.1238986291,"y":4400690.0207647011}},{"attributes":{"OBJECTID":2094,"ولایت":"کندز","Province":"KUNDUZ","PC_Code":"1907105","ولسوالي":"قلعه ذال","District":"QALA-E-ZAL","د_مرکز_نوم__نام_مرکز":"مکتب ینگی آرق","Polling_Center_Name":"Yangee Aaraq School","د_مرکز_ځای__موقعیت_مرکز":"ینگی آرق","Polling_Center_Location":"Yangee Aaraq","Verification_Note":"Building","PS_Male":1,"PS_Female":1,"Map_Accuracy":"تعمیر"},"geometry":{"x":7639083.9878963567,"y":4425780.19280757}},{"attributes":{"OBJECTID":2093,"ولایت":"کندز","Province":"KUNDUZ","PC_Code":"1907104","ولسوالي":"قلعه ذال","District":"QALA-E-ZAL","د_مرکز_نوم__نام_مرکز":"مکتب کلوخ تپه ","Polling_Center_Name":"Kolokh Tapa School","د_مرکز_ځای__موقعیت_مرکز":"کلوخ تپه","Polling_Center_Location":"Kolokh Tapa ","Verification_Note":"Building","PS_Male":3,"PS_Female":1,"Map_Accuracy":"تعمیر"},"geometry":{"x":7591654.2037735581,"y":4437411.0209264234}},{"attributes":{"OBJECTID":2092,"ولایت":"کندز","Province":"KUNDUZ","PC_Code":"1907099","ولسوالي":"قلعه ذال","District":"QALA-E-ZAL","د_مرکز_نوم__نام_مرکز":"لیسه مرکزی قلعه ذال","Polling_Center_Name":"Markazi Qala Zaal High School","د_مرکز_ځای__موقعیت_مرکز":"آرساری","Polling_Center_Location":"Aarsari","Verification_Note":"Building","PS_Male":3,"PS_Female":1,"Map_Accuracy":"تعمیر"},"geometry":{"x":7618253.4294824079,"y":4440257.7885847241}},{"attributes":{"OBJECTID":2091,"ولایت":"کندز","Province":"KUNDUZ","PC_Code":"1906216","ولسوالي":"دشت ارچی","District":"DASHT-E-ARCHI","د_مرکز_نوم__نام_مرکز":"مسجد شیرین","Polling_Center_Name":"Shereen Mosque","د_مرکز_ځای__موقعیت_مرکز":"قریه قزم بلاق","Polling_Center_Location":"Qozm Blaq Village","Verification_Note":"Building","PS_Male":1,"PS_Female":1,"Map_Accuracy":"تعمیر"},"geometry":{"x":7710441.1484982,"y":4421731.0050636008}},{"attributes":{"OBJECTID":2090,"ولایت":"کندز","Province":"KUNDUZ","PC_Code":"1906185","ولسوالي":"دشت ارچی","District":"DASHT-E-ARCHI","د_مرکز_نوم__نام_مرکز":"لیسه ملاقلی","Polling_Center_Name":"Mula Qali High School","د_مرکز_ځای__موقعیت_مرکز":"قریه ملا قلی","Polling_Center_Location":"Mula Qali Village","Verification_Note":"Building","PS_Male":2,"PS_Female":1,"Map_Accuracy":"تعمیر"},"geometry":{"x":7700474.2948129959,"y":4451303.699189432}},{"attributes":{"OBJECTID":2089,"ولایت":"کندز","Province":"KUNDUZ","PC_Code":"1906184","ولسوالي":"دشت ارچی","District":"DASHT-E-ARCHI","د_مرکز_نوم__نام_مرکز":"مکتب زرغون","Polling_Center_Name":"Zarghoon School","د_مرکز_ځای__موقعیت_مرکز":"قریه زرغون","Polling_Center_Location":"Zarghoon Village","Verification_Note":"Building","PS_Male":2,"PS_Female":2,"Map_Accuracy":"تعمیر"},"geometry":{"x":7701636.242091924,"y":4439722.75536909}},{"attributes":{"OBJECTID":2088,"ولایت":"کندز","Province":"KUNDUZ","PC_Code":"1905090","ولسوالي":"حضرت امام صاحب","District":"HAZRAT-E-IMAM SAHIB","د_مرکز_نوم__نام_مرکز":"مکتب ابتدائیه نوری","Polling_Center_Name":"Noori Primary School","د_مرکز_ځای__موقعیت_مرکز":"عرب قشلاق","Polling_Center_Location":"Arab Qashlaq","Verification_Note":"Building","PS_Male":3,"PS_Female":1,"Map_Accuracy":"تعمیر"},"geometry":{"x":7659527.7756451145,"y":4466787.0020786449}},{"attributes":{"OBJECTID":2087,"ولایت":"کندز","Province":"KUNDUZ","PC_Code":"1905089","ولسوالي":"حضرت امام صاحب","District":"HAZRAT-E-IMAM SAHIB","د_مرکز_نوم__نام_مرکز":"مکتب قره ول","Polling_Center_Name":"Qara Wol School","د_مرکز_ځای__موقعیت_مرکز":"قره ول","Polling_Center_Location":"Qara Wol","Verification_Note":"Building","PS_Male":3,"PS_Female":1,"Map_Accuracy":"تعمیر"},"geometry":{"x":7656505.2533213831,"y":4469743.9288659617}},{"attributes":{"OBJECTID":2086,"ولایت":"کندز","Province":"KUNDUZ","PC_Code":"1905065","ولسوالي":"حضرت امام صاحب","District":"HAZRAT-E-IMAM SAHIB","د_مرکز_نوم__نام_مرکز":"مکتب ابتدائیه ایشان توپ","Polling_Center_Name":"Eshantop Primary School","د_مرکز_ځای__موقعیت_مرکز":"ایشان توپ","Polling_Center_Location":"Eshantop ","Verification_Note":"Building","PS_Male":1,"PS_Female":1,"Map_Accuracy":"تعمیر"},"geometry":{"x":7681470.2287553474,"y":4464935.3675033078}},{"attributes":{"OBJECTID":2085,"ولایت":"کندز","Province":"KUNDUZ","PC_Code":"1905064","ولسوالي":"حضرت امام صاحب","District":"HAZRAT-E-IMAM SAHIB","د_مرکز_نوم__نام_مرکز":"مکتب باسوس","Polling_Center_Name":"Basoos School","د_مرکز_ځای__موقعیت_مرکز":"باسوس","Polling_Center_Location":"Basoos","Verification_Note":"Building","PS_Male":3,"PS_Female":2,"Map_Accuracy":"تعمیر"},"geometry":{"x":7658497.1174604408,"y":4463291.4984490871}},{"attributes":{"OBJECTID":2084,"ولایت":"کندز","Province":"KUNDUZ","PC_Code":"1905061","ولسوالي":"حضرت امام صاحب","District":"HAZRAT-E-IMAM SAHIB","د_مرکز_نوم__نام_مرکز":"مکتب قطر بلاق","Polling_Center_Name":"Qotr Blaaq School","د_مرکز_ځای__موقعیت_مرکز":"قطر بلاق","Polling_Center_Location":"Qotr Blaaq","Verification_Note":"Building","PS_Male":1,"PS_Female":1,"Map_Accuracy":"تعمیر"},"geometry":{"x":7688550.3676692024,"y":4455701.6425516084}},{"attributes":{"OBJECTID":2083,"ولایت":"کندز","Province":"KUNDUZ","PC_Code":"1905060","ولسوالي":"حضرت امام صاحب","District":"HAZRAT-E-IMAM SAHIB","د_مرکز_نوم__نام_مرکز":"لیسه اجغن","Polling_Center_Name":"Ajghan high School","د_مرکز_ځای__موقعیت_مرکز":"قریه اجغن","Polling_Center_Location":"Ajghan Village","Verification_Note":"Building","PS_Male":3,"PS_Female":1,"Map_Accuracy":"تعمیر"},"geometry":{"x":7664821.9736667573,"y":4461282.250914596}},{"attributes":{"OBJECTID":2082,"ولایت":"کندز","Province":"KUNDUZ","PC_Code":"1904211","ولسوالي":"خان آباد","District":"KHAN ABAD","د_مرکز_نوم__نام_مرکز":"مکتب سجانی","Polling_Center_Name":"Sajjani School","د_مرکز_ځای__موقعیت_مرکز":"قریه سجانی","Polling_Center_Location":"Sajjani Village","Verification_Note":"Building","PS_Male":2,"PS_Female":1,"Map_Accuracy":"تعمیر"},"geometry":{"x":7687156.800152164,"y":4406491.8588596657}},{"attributes":{"OBJECTID":2081,"ولایت":"کندز","Province":"KUNDUZ","PC_Code":"1904210","ولسوالي":"خان آباد","District":"KHAN ABAD","د_مرکز_نوم__نام_مرکز":"مسجد میالی","Polling_Center_Name":"Miyali Mosque","د_مرکز_ځای__موقعیت_مرکز":"قریه دره میالی اول","Polling_Center_Location":"Dara-e-Miyali Awal Village","Verification_Note":"Building","PS_Male":1,"PS_Female":1,"Map_Accuracy":"تعمیر"},"geometry":{"x":7694525.7552584931,"y":4381638.4330854937}},{"attributes":{"OBJECTID":2080,"ولایت":"کندز","Province":"KUNDUZ","PC_Code":"1904146","ولسوالي":"خان آباد","District":"KHAN ABAD","د_مرکز_نوم__نام_مرکز":"لیسه ایشان توپ","Polling_Center_Name":"Ishantop High School","د_مرکز_ځای__موقعیت_مرکز":"قریه ایشان توپ","Polling_Center_Location":"Ishantop Village","Verification_Note":"Building","PS_Male":2,"PS_Female":1,"Map_Accuracy":"تعمیر"},"geometry":{"x":7687139.94415487,"y":4389793.1496595889}},{"attributes":{"OBJECTID":2079,"ولایت":"کندز","Province":"KUNDUZ","PC_Code":"1904145","ولسوالي":"خان آباد","District":"KHAN ABAD","د_مرکز_نوم__نام_مرکز":"مسجد قریه نیک پای","Polling_Center_Name":"Nikpay Village Mosque","د_مرکز_ځای__موقعیت_مرکز":"قریه نیک پای","Polling_Center_Location":"Nekpay Village","Verification_Note":"Building","PS_Male":2,"PS_Female":1,"Map_Accuracy":"تعمیر"},"geometry":{"x":7683208.599489551,"y":4397770.1570219845}},{"attributes":{"OBJECTID":2078,"ولایت":"کندز","Province":"KUNDUZ","PC_Code":"1903138","ولسوالي":"علی آباد","District":"ALI ABAD","د_مرکز_نوم__نام_مرکز":"مسجد خیل گدا","Polling_Center_Name":"Khel Gada Mosque","د_مرکز_ځای__موقعیت_مرکز":"قریه خیل گدا","Polling_Center_Location":"Khel Gada Village","Verification_Note":"Building","PS_Male":1,"PS_Female":1,"Map_Accuracy":"تعمیر"},"geometry":{"x":7669984.677766297,"y":4372281.688132368}},{"attributes":{"OBJECTID":2077,"ولایت":"کندز","Province":"KUNDUZ","PC_Code":"1903137","ولسوالي":"علی آباد","District":"ALI ABAD","د_مرکز_نوم__نام_مرکز":"لیسه شنه تیپه","Polling_Center_Name":"Shana Tipa High School","د_مرکز_ځای__موقعیت_مرکز":"شین تیپه","Polling_Center_Location":"Sheen Tipa","Verification_Note":"Building","PS_Male":2,"PS_Female":1,"Map_Accuracy":"تعمیر"},"geometry":{"x":7669088.6682980955,"y":4386545.1829028279}},{"attributes":{"OBJECTID":2076,"ولایت":"کندز","Province":"KUNDUZ","PC_Code":"1903129","ولسوالي":"علی آباد","District":"ALI ABAD","د_مرکز_نوم__نام_مرکز":"لیسه ذکور مرکزعلی آباد","Polling_Center_Name":"Ali Abad Boys High School","د_مرکز_ځای__موقعیت_مرکز":"لقی ها","Polling_Center_Location":"Laqi Ha","Verification_Note":"Building","PS_Male":2,"PS_Female":1,"Map_Accuracy":"تعمیر"},"geometry":{"x":7670689.2644645162,"y":4370157.3687835336}},{"attributes":{"OBJECTID":2075,"ولایت":"کندز","Province":"KUNDUZ","PC_Code":"1902207","ولسوالي":"چاردره","District":"CHAR DARA","د_مرکز_نوم__نام_مرکز":"مکتب متوسطه بغز قم","Polling_Center_Name":"Baghz Qum Secondary School","د_مرکز_ځای__موقعیت_مرکز":"قریه بغزقم","Polling_Center_Location":"Baghz Qum Village","Verification_Note":"Village","PS_Male":1,"PS_Female":1,"Map_Accuracy":"قریه"},"geometry":{"x":7639780.9291719571,"y":4414637.399030067}},{"attributes":{"OBJECTID":2074,"ولایت":"کندز","Province":"KUNDUZ","PC_Code":"1901198","ولسوالي":"کندز","District":"KUNDUZ","د_مرکز_نوم__نام_مرکز":"مکتب متوسطه قوچی خورد","Polling_Center_Name":"Qochi Khord Secondary School","د_مرکز_ځای__موقعیت_مرکز":"قریه قوچی خورد","Polling_Center_Location":"Qochi Khord Village","Verification_Note":"Building","PS_Male":2,"PS_Female":1,"Map_Accuracy":"تعمیر"},"geometry":{"x":7674623.929790251,"y":4404493.0042813942}},{"attributes":{"OBJECTID":2073,"ولایت":"کندز","Province":"KUNDUZ","PC_Code":"1901197","ولسوالي":"کندز","District":"KUNDUZ","د_مرکز_نوم__نام_مرکز":"مکتب متوسطه رستاق آباد","Polling_Center_Name":"Rostaq Abad Secondary School","د_مرکز_ځای__موقعیت_مرکز":"ناحیه پنجم","Polling_Center_Location":"D05 - Nahia 5","Verification_Note":"Building","PS_Male":2,"PS_Female":1,"Map_Accuracy":"تعمیر"},"geometry":{"x":7669165.7882149294,"y":4396500.1937471554}},{"attributes":{"OBJECTID":2072,"ولایت":"کندز","Province":"KUNDUZ","PC_Code":"1901055","ولسوالي":"کندز","District":"KUNDUZ","د_مرکز_نوم__نام_مرکز":"مسجد حاجی نصرالدین","Polling_Center_Name":"Haji Nasruddin Mosque","د_مرکز_ځای__موقعیت_مرکز":"قریه عسقلان","Polling_Center_Location":"Asqalan Village","Verification_Note":"Building","PS_Male":1,"PS_Female":2,"Map_Accuracy":"تعمیر"},"geometry":{"x":7665400.60904032,"y":4413153.1657845154}},{"attributes":{"OBJECTID":2071,"ولایت":"کندز","Province":"KUNDUZ","PC_Code":"1901054","ولسوالي":"کندز","District":"KUNDUZ","د_مرکز_نوم__نام_مرکز":"مسجد زرخرید ذاخیل","Polling_Center_Name":"Zarkhareed Zakhil Mosque","د_مرکز_ځای__موقعیت_مرکز":"زرخرید ذاخیل","Polling_Center_Location":"Zarkhareed Zakhil","Verification_Note":"Building","PS_Male":2,"PS_Female":1,"Map_Accuracy":"تعمیر"},"geometry":{"x":7662247.4210114852,"y":4405270.8333370015}},{"attributes":{"OBJECTID":2070,"ولایت":"کندز","Province":"KUNDUZ","PC_Code":"1901044","ولسوالي":"کندز","District":"KUNDUZ","د_مرکز_نوم__نام_مرکز":"مکتب متوسطه خزانی","Polling_Center_Name":"Khazani Secondary School","د_مرکز_ځای__موقعیت_مرکز":"قریه خزانی","Polling_Center_Location":"Khazani Village","Verification_Note":"Building","PS_Male":2,"PS_Female":2,"Map_Accuracy":"تعمیر"},"geometry":{"x":7672046.53848796,"y":4401654.5399508253}},{"attributes":{"OBJECTID":2069,"ولایت":"کندز","Province":"KUNDUZ","PC_Code":"1901043","ولسوالي":"کندز","District":"KUNDUZ","د_مرکز_نوم__نام_مرکز":"مسجد جامع قزاق ","Polling_Center_Name":"Qazaq Mosque","د_مرکز_ځای__موقعیت_مرکز":"قریه قراق","Polling_Center_Location":"Qaraq Village","Verification_Note":"Building","PS_Male":2,"PS_Female":2,"Map_Accuracy":"تعمیر"},"geometry":{"x":7669094.3267791346,"y":4391243.4137320444}},{"attributes":{"OBJECTID":2068,"ولایت":"کندز","Province":"KUNDUZ","PC_Code":"1901021","ولسوالي":"کندز","District":"KUNDUZ","د_مرکز_نوم__نام_مرکز":"ذاخیل خمدان","Polling_Center_Name":"Zakhil Khamdan","د_مرکز_ځای__موقعیت_مرکز":"ناحیه سوم","Polling_Center_Location":"D03 - Nahia 3","Verification_Note":"Building","PS_Male":3,"PS_Female":1,"Map_Accuracy":"تعمیر"},"geometry":{"x":7664189.5843374915,"y":4397812.8981850594}},{"attributes":{"OBJECTID":2067,"ولایت":"کندز","Province":"KUNDUZ","PC_Code":"1901020","ولسوالي":"کندز","District":"KUNDUZ","د_مرکز_نوم__نام_مرکز":"لیسه کهندژ","Polling_Center_Name":"Kuhan Duzh High School","د_مرکز_ځای__موقعیت_مرکز":"ناحیه سوم","Polling_Center_Location":"D03 - Nahia 3","Verification_Note":"Building","PS_Male":3,"PS_Female":1,"Map_Accuracy":"تعمیر"},"geometry":{"x":7666265.7574060857,"y":4403908.3127723634}},{"attributes":{"OBJECTID":2066,"ولایت":"کندز","Province":"KUNDUZ","PC_Code":"1901015","ولسوالي":"کندز","District":"KUNDUZ","د_مرکز_نوم__نام_مرکز":"ریاست شاروالی","Polling_Center_Name":"Municipality Office","د_مرکز_ځای__موقعیت_مرکز":"ناحیه اول","Polling_Center_Location":"D01 - Nahia 1","Verification_Note":"Building","PS_Male":2,"PS_Female":2,"Map_Accuracy":"تعمیر"},"geometry":{"x":7666684.1172031872,"y":4400496.6260299906}},{"attributes":{"OBJECTID":2065,"ولایت":"کندز","Province":"KUNDUZ","PC_Code":"1901014","ولسوالي":"کندز","District":"KUNDUZ","د_مرکز_نوم__نام_مرکز":"لیسه بی بی عایشه صدیقه","Polling_Center_Name":"Bibi Ayesha Sediqa High School","د_مرکز_ځای__موقعیت_مرکز":"ناحیه سوم","Polling_Center_Location":"D03 - Nahia 3","Verification_Note":"Building","PS_Male":1,"PS_Female":4,"Map_Accuracy":"تعمیر"},"geometry":{"x":7666168.8237330914,"y":4402632.8998138234}},{"attributes":{"OBJECTID":2064,"ولایت":"کندز","Province":"KUNDUZ","PC_Code":"1901011","ولسوالي":"کندز","District":"KUNDUZ","د_مرکز_نوم__نام_مرکز":"ریاست حقوق","Polling_Center_Name":"Law Department","د_مرکز_ځای__موقعیت_مرکز":"ناحیه دوم","Polling_Center_Location":"D02 - Nahia 2","Verification_Note":"Building","PS_Male":4,"PS_Female":2,"Map_Accuracy":"تعمیر"},"geometry":{"x":7666401.9133884758,"y":4400524.330218181}},{"attributes":{"OBJECTID":2063,"ولایت":"کندز","Province":"KUNDUZ","PC_Code":"1901010","ولسوالي":"کندز","District":"KUNDUZ","د_مرکز_نوم__نام_مرکز":"لیسه حضرت علی","Polling_Center_Name":"Hazrat Ali High School","د_مرکز_ځای__موقعیت_مرکز":"ناحیه دوم","Polling_Center_Location":"D02 - Nahia 2","Verification_Note":"Building","PS_Male":4,"PS_Female":2,"Map_Accuracy":"تعمیر"},"geometry":{"x":7665799.4356063716,"y":4399162.4826006144}},{"attributes":{"OBJECTID":2062,"ولایت":"کندز","Province":"KUNDUZ","PC_Code":"1907113","ولسوالي":"قلعه ذال","District":"QALA-E-ZAL","د_مرکز_نوم__نام_مرکز":"مکتب ظلم آباد","Polling_Center_Name":"Zulm Aabad School","د_مرکز_ځای__موقعیت_مرکز":"ظلم آباد","Polling_Center_Location":"Zulm Abad","Verification_Note":"Building","PS_Male":1,"PS_Female":1,"Map_Accuracy":"تعمیر"},"geometry":{"x":7630825.789320495,"y":4428444.6463820413}},{"attributes":{"OBJECTID":2061,"ولایت":"کندز","Province":"KUNDUZ","PC_Code":"1907112","ولسوالي":"قلعه ذال","District":"QALA-E-ZAL","د_مرکز_نوم__نام_مرکز":"مکتب متوسطه باغیچه","Polling_Center_Name":"Baghicha Secondary School","د_مرکز_ځای__موقعیت_مرکز":"باغیچه","Polling_Center_Location":"Baghicha","Verification_Note":"Building","PS_Male":1,"PS_Female":1,"Map_Accuracy":"تعمیر"},"geometry":{"x":7584505.596693702,"y":4431829.5150239617}},{"attributes":{"OBJECTID":2060,"ولایت":"کندز","Province":"KUNDUZ","PC_Code":"1907110","ولسوالي":"قلعه ذال","District":"QALA-E-ZAL","د_مرکز_نوم__نام_مرکز":"مکتب حلقه کول","Polling_Center_Name":"Halqa Kol School","د_مرکز_ځای__موقعیت_مرکز":"حلقه کول","Polling_Center_Location":"Halqa Kol","Verification_Note":"Building","PS_Male":1,"PS_Female":1,"Map_Accuracy":"تعمیر"},"geometry":{"x":7613936.0555396937,"y":4444285.2338699549}},{"attributes":{"OBJECTID":2059,"ولایت":"کندز","Province":"KUNDUZ","PC_Code":"1907109","ولسوالي":"قلعه ذال","District":"QALA-E-ZAL","د_مرکز_نوم__نام_مرکز":"لیسه اتحاد","Polling_Center_Name":"Etihaad High School","د_مرکز_ځای__موقعیت_مرکز":"قوق مسجد","Polling_Center_Location":"Qoq Masjid","Verification_Note":"Building","PS_Male":2,"PS_Female":1,"Map_Accuracy":"تعمیر"},"geometry":{"x":7627950.5070608445,"y":4440660.3899142221}},{"attributes":{"OBJECTID":2058,"ولایت":"کندز","Province":"KUNDUZ","PC_Code":"1906190","ولسوالي":"دشت ارچی","District":"DASHT-E-ARCHI","د_مرکز_نوم__نام_مرکز":"مکتب متوسطه گل بلاق","Polling_Center_Name":"Gul Balaq Secondary School","د_مرکز_ځای__موقعیت_مرکز":"گل بلاق","Polling_Center_Location":"Gul Balaq ","Verification_Note":"Building","PS_Male":3,"PS_Female":1,"Map_Accuracy":"تعمیر"},"geometry":{"x":7705442.3857259452,"y":4422122.90656434}},{"attributes":{"OBJECTID":2057,"ولایت":"کندز","Province":"KUNDUZ","PC_Code":"1906189","ولسوالي":"دشت ارچی","District":"DASHT-E-ARCHI","د_مرکز_نوم__نام_مرکز":"مسجد جامع","Polling_Center_Name":"Jaame Mosque","د_مرکز_ځای__موقعیت_مرکز":"قریه قره غوشی اوزبکیه","Polling_Center_Location":"Qara Ghoshi Uzbekya Village","Verification_Note":"Building","PS_Male":1,"PS_Female":1,"Map_Accuracy":"تعمیر"},"geometry":{"x":7712141.38228805,"y":4427617.1165846139}},{"attributes":{"OBJECTID":2056,"ولایت":"کندز","Province":"KUNDUZ","PC_Code":"1906179","ولسوالي":"دشت ارچی","District":"DASHT-E-ARCHI","د_مرکز_نوم__نام_مرکز":"مکتب متوسطه قشقری","Polling_Center_Name":"Qashqari Secondary School","د_مرکز_ځای__موقعیت_مرکز":"قریه تاجک قشلاق","Polling_Center_Location":"Tajik Qashlaq Village","Verification_Note":"Building","PS_Male":2,"PS_Female":1,"Map_Accuracy":"تعمیر"},"geometry":{"x":7710626.9284831844,"y":4446173.95560953}},{"attributes":{"OBJECTID":2055,"ولایت":"کندز","Province":"KUNDUZ","PC_Code":"1906178","ولسوالي":"دشت ارچی","District":"DASHT-E-ARCHI","د_مرکز_نوم__نام_مرکز":"لیسه جمهوریت","Polling_Center_Name":"Jamhoriat High School","د_مرکز_ځای__موقعیت_مرکز":"مرکز ارچی","Polling_Center_Location":"Markaz Archi","Verification_Note":"Building","PS_Male":2,"PS_Female":1,"Map_Accuracy":"تعمیر"},"geometry":{"x":7707809.560188625,"y":4443838.0660853386}},{"attributes":{"OBJECTID":2054,"ولایت":"کندز","Province":"KUNDUZ","PC_Code":"1905201","ولسوالي":"حضرت امام صاحب","District":"HAZRAT-E-IMAM SAHIB","د_مرکز_نوم__نام_مرکز":"مسجد جمعه خوانی پائین ","Polling_Center_Name":"Juma Khowani Payeen Mosque","د_مرکز_ځای__موقعیت_مرکز":"قریه چغر","Polling_Center_Location":"Qarya Chaghar ","Verification_Note":"Building","PS_Male":2,"PS_Female":1,"Map_Accuracy":"تعمیر"},"geometry":{"x":7685746.7361998,"y":4457267.0721193254}},{"attributes":{"OBJECTID":2053,"ولایت":"کندز","Province":"KUNDUZ","PC_Code":"1905200","ولسوالي":"حضرت امام صاحب","District":"HAZRAT-E-IMAM SAHIB","د_مرکز_نوم__نام_مرکز":"مکتب متوسطه مراد شیخ ","Polling_Center_Name":"Murad Shaikh Secondary School","د_مرکز_ځای__موقعیت_مرکز":"مراد شیخ ","Polling_Center_Location":"Murad Shaikh","Verification_Note":"Building","PS_Male":3,"PS_Female":1,"Map_Accuracy":"تعمیر"},"geometry":{"x":7655093.5663308389,"y":4466149.7430843115}},{"attributes":{"OBJECTID":2052,"ولایت":"کندز","Province":"KUNDUZ","PC_Code":"1905074","ولسوالي":"حضرت امام صاحب","District":"HAZRAT-E-IMAM SAHIB","د_مرکز_نوم__نام_مرکز":"مکتب الف بردی","Polling_Center_Name":"Alef Berdy School","د_مرکز_ځای__موقعیت_مرکز":"قریه الف بیردی","Polling_Center_Location":"Alef Berdy Village","Verification_Note":"Building","PS_Male":3,"PS_Female":1,"Map_Accuracy":"تعمیر"},"geometry":{"x":7678667.4266161546,"y":4467033.1146353185}},{"attributes":{"OBJECTID":2051,"ولایت":"کندز","Province":"KUNDUZ","PC_Code":"1905073","ولسوالي":"حضرت امام صاحب","District":"HAZRAT-E-IMAM SAHIB","د_مرکز_نوم__نام_مرکز":"لیسه نسوان مرکزی","Polling_Center_Name":"Naswan Markazi High School","د_مرکز_ځای__موقعیت_مرکز":"ناحیه سوم مرکز شهر","Polling_Center_Location":"D03 - Nahia 3","Verification_Note":"Building","PS_Male":2,"PS_Female":3,"Map_Accuracy":"تعمیر"},"geometry":{"x":7670303.0403780118,"y":4465070.0577183068}},{"attributes":{"OBJECTID":2050,"ولایت":"کندز","Province":"KUNDUZ","PC_Code":"1904161","ولسوالي":"خان آباد","District":"KHAN ABAD","د_مرکز_نوم__نام_مرکز":"لیسه ذکور جنگل باشی ","Polling_Center_Name":"Jangal Bashi Boys High School","د_مرکز_ځای__موقعیت_مرکز":"جنگل باشی","Polling_Center_Location":"Jangal Bashi","Verification_Note":"Building","PS_Male":1,"PS_Female":1,"Map_Accuracy":"تعمیر"},"geometry":{"x":7687559.095433563,"y":4396766.0423333645}},{"attributes":{"OBJECTID":2049,"ولایت":"کندز","Province":"KUNDUZ","PC_Code":"1904160","ولسوالي":"خان آباد","District":"KHAN ABAD","د_مرکز_نوم__نام_مرکز":"مکتب متوسطه کهنه قلعه","Polling_Center_Name":"Kuhna Qala Secondary School","د_مرکز_ځای__موقعیت_مرکز":"بندی برق","Polling_Center_Location":"Band-e-Barq","Verification_Note":"Building","PS_Male":1,"PS_Female":1,"Map_Accuracy":"تعمیر"},"geometry":{"x":7696087.70018452,"y":4398083.80308044}},{"attributes":{"OBJECTID":2048,"ولایت":"کندز","Province":"KUNDUZ","PC_Code":"1904151","ولسوالي":"خان آباد","District":"KHAN ABAD","د_مرکز_نوم__نام_مرکز":"لیسه چهار توت","Polling_Center_Name":"Chahar Toot High School","د_مرکز_ځای__موقعیت_مرکز":"چهار توت اوریا خیل","Polling_Center_Location":"Chahar Toot Oryakhel","Verification_Note":"Building","PS_Male":1,"PS_Female":1,"Map_Accuracy":"تعمیر"},"geometry":{"x":7693034.0996853523,"y":4392577.1929700226}},{"attributes":{"OBJECTID":2047,"ولایت":"کندز","Province":"KUNDUZ","PC_Code":"1904150","ولسوالي":"خان آباد","District":"KHAN ABAD","د_مرکز_نوم__نام_مرکز":"مکتب متوسطه چونی","Polling_Center_Name":"Chonai Secondary School","د_مرکز_ځای__موقعیت_مرکز":"قریه چونی","Polling_Center_Location":"Chonai Village","Verification_Note":"Building","PS_Male":1,"PS_Female":1,"Map_Accuracy":"تعمیر"},"geometry":{"x":7694173.6917841323,"y":4367909.9028368667}},{"attributes":{"OBJECTID":2046,"ولایت":"کندز","Province":"KUNDUZ","PC_Code":"1903217","ولسوالي":"علی آباد","District":"ALI ABAD","د_مرکز_نوم__نام_مرکز":"مکتب متوسطه چیپ","Polling_Center_Name":"Cheep Secondary School","د_مرکز_ځای__موقعیت_مرکز":"قریه چیپ","Polling_Center_Location":"Cheep Village","Verification_Note":"Building","PS_Male":1,"PS_Female":1,"Map_Accuracy":"تعمیر"},"geometry":{"x":7672124.5556398928,"y":4367272.1640120447}},{"attributes":{"OBJECTID":2045,"ولایت":"کندز","Province":"KUNDUZ","PC_Code":"1903209","ولسوالي":"علی آباد","District":"ALI ABAD","د_مرکز_نوم__نام_مرکز":"مکتب متوسطه میرشیخ","Polling_Center_Name":"Mir Shekh Secondary School","د_مرکز_ځای__موقعیت_مرکز":"قریه میر شیخ","Polling_Center_Location":"Mir Shekh Village","Verification_Note":"Building","PS_Male":1,"PS_Female":1,"Map_Accuracy":"تعمیر"},"geometry":{"x":7665086.6925290674,"y":4380307.29775279}},{"attributes":{"OBJECTID":2044,"ولایت":"کندز","Province":"KUNDUZ","PC_Code":"1903140","ولسوالي":"علی آباد","District":"ALI ABAD","د_مرکز_نوم__نام_مرکز":"لیسه پل خشتی","Polling_Center_Name":"Pul Kheshti High School","د_مرکز_ځای__موقعیت_مرکز":"قریه پل خشتی","Polling_Center_Location":"Pul Kheshti Village","Verification_Note":"Building","PS_Male":1,"PS_Female":1,"Map_Accuracy":"تعمیر"},"geometry":{"x":7670406.6175982207,"y":4380184.5715180412}},{"attributes":{"OBJECTID":2043,"ولایت":"کندز","Province":"KUNDUZ","PC_Code":"1903139","ولسوالي":"علی آباد","District":"ALI ABAD","د_مرکز_نوم__نام_مرکز":"مکتب زنگی سای","Polling_Center_Name":"Zangi Say School","د_مرکز_ځای__موقعیت_مرکز":"قریه زنگی سای","Polling_Center_Location":"Zangi Say Village","Verification_Note":"Village","PS_Male":1,"PS_Female":1,"Map_Accuracy":"قریه"},"geometry":{"x":7686058.6479583494,"y":4361204.6890136078}},{"attributes":{"OBJECTID":2042,"ولایت":"کندز","Province":"KUNDUZ","PC_Code":"1902126","ولسوالي":"چاردره","District":"CHAR DARA","د_مرکز_نوم__نام_مرکز":"مسجد نهر صوفی","Polling_Center_Name":"Nahr Sufi Mosque ","د_مرکز_ځای__موقعیت_مرکز":"نهر صوفی","Polling_Center_Location":"Nahr Sufi","Verification_Note":"Village","PS_Male":1,"PS_Female":1,"Map_Accuracy":"قریه"},"geometry":{"x":7658804.3247459792,"y":4398465.0807283744}},{"attributes":{"OBJECTID":2041,"ولایت":"کندز","Province":"KUNDUZ","PC_Code":"1902125","ولسوالي":"چاردره","District":"CHAR DARA","د_مرکز_نوم__نام_مرکز":"مسجد  جمعه بازار","Polling_Center_Name":"Juma Bazar Mosque","د_مرکز_ځای__موقعیت_مرکز":"جمعه بازار","Polling_Center_Location":"Juma Bazar","Verification_Note":"Building","PS_Male":2,"PS_Female":1,"Map_Accuracy":"تعمیر"},"geometry":{"x":7641802.2695989795,"y":4408823.2591711581}},{"attributes":{"OBJECTID":2040,"ولایت":"کندز","Province":"KUNDUZ","PC_Code":"1902123","ولسوالي":"چاردره","District":"CHAR DARA","د_مرکز_نوم__نام_مرکز":"مکتب ابتدائیه داغ آرق","Polling_Center_Name":"Dagh Aaraq Primary School","د_مرکز_ځای__موقعیت_مرکز":"داغ آرق","Polling_Center_Location":"Dagh Aaraq","Verification_Note":"Building","PS_Male":1,"PS_Female":1,"Map_Accuracy":"تعمیر"},"geometry":{"x":7641301.1894014589,"y":4403719.8525851145}},{"attributes":{"OBJECTID":2039,"ولایت":"کندز","Province":"KUNDUZ","PC_Code":"1902122","ولسوالي":"چاردره","District":"CHAR DARA","د_مرکز_نوم__نام_مرکز":"لیسه عین المجر","Polling_Center_Name":"Ainul Majar High School","د_مرکز_ځای__موقعیت_مرکز":"عین المجر","Polling_Center_Location":"Ainul Majar","Verification_Note":"Building","PS_Male":2,"PS_Female":2,"Map_Accuracy":"تعمیر"},"geometry":{"x":7646182.7494478263,"y":4408583.511795193}},{"attributes":{"OBJECTID":2038,"ولایت":"کندز","Province":"KUNDUZ","PC_Code":"1902114","ولسوالي":"چاردره","District":"CHAR DARA","د_مرکز_نوم__نام_مرکز":"لیسه جمعیت","Polling_Center_Name":"Jamiyat High School","د_مرکز_ځای__موقعیت_مرکز":"مرکز چاردره","Polling_Center_Location":"Chardara Markaz","Verification_Note":"Building","PS_Male":2,"PS_Female":1,"Map_Accuracy":"تعمیر"},"geometry":{"x":7658430.9113064855,"y":4396262.52663511}},{"attributes":{"OBJECTID":2037,"ولایت":"کندز","Province":"KUNDUZ","PC_Code":"1901049","ولسوالي":"کندز","District":"KUNDUZ","د_مرکز_نوم__نام_مرکز":"مرکز میدیوتیک","Polling_Center_Name":"Medyoteek Markaz","د_مرکز_ځای__موقعیت_مرکز":"ناحیه پنجم","Polling_Center_Location":"D05 - Nahia 5","Verification_Note":"Building","PS_Male":2,"PS_Female":1,"Map_Accuracy":"تعمیر"},"geometry":{"x":7668066.8666921146,"y":4397102.778109692}},{"attributes":{"OBJECTID":2036,"ولایت":"کندز","Province":"KUNDUZ","PC_Code":"1901048","ولسوالي":"کندز","District":"KUNDUZ","د_مرکز_نوم__نام_مرکز":"مکتب چقر قشلاق","Polling_Center_Name":"Choqor Qishlaq School","د_مرکز_ځای__موقعیت_مرکز":"قریه چقر قشلاق","Polling_Center_Location":"Choqor Qishlaq Village","Verification_Note":"Building","PS_Male":2,"PS_Female":2,"Map_Accuracy":"تعمیر"},"geometry":{"x":7679662.8844646551,"y":4404285.8863935471}},{"attributes":{"OBJECTID":2035,"ولایت":"کندز","Province":"KUNDUZ","PC_Code":"1901038","ولسوالي":"کندز","District":"KUNDUZ","د_مرکز_نوم__نام_مرکز":"مکتب متوسطه کته خیل","Polling_Center_Name":"Kata Khel Secondary School","د_مرکز_ځای__موقعیت_مرکز":"کته خیل","Polling_Center_Location":"Kata Khel","Verification_Note":"Building","PS_Male":3,"PS_Female":1,"Map_Accuracy":"تعمیر"},"geometry":{"x":7674815.915836852,"y":4394253.6023464054}},{"attributes":{"OBJECTID":2034,"ولایت":"کندز","Province":"KUNDUZ","PC_Code":"1901037","ولسوالي":"کندز","District":"KUNDUZ","د_مرکز_نوم__نام_مرکز":"مکتب ابتدائیه کنم کلان","Polling_Center_Name":"Kanam Kalan Primary School","د_مرکز_ځای__موقعیت_مرکز":"کنم کلان","Polling_Center_Location":"Kanam Kalan","Verification_Note":"Building","PS_Male":3,"PS_Female":1,"Map_Accuracy":"تعمیر"},"geometry":{"x":7675592.440529611,"y":4409948.7307244316}},{"attributes":{"OBJECTID":2033,"ولایت":"کندز","Province":"KUNDUZ","PC_Code":"1901029","ولسوالي":"کندز","District":"KUNDUZ","د_مرکز_نوم__نام_مرکز":"مکتب نسوان ملرغی","Polling_Center_Name":"Malraghi Girls High School","د_مرکز_ځای__موقعیت_مرکز":"ملرغی","Polling_Center_Location":"Malraghi","Verification_Note":"Building","PS_Male":2,"PS_Female":1,"Map_Accuracy":"تعمیر"},"geometry":{"x":7679194.1436924078,"y":4391756.8083211482}},{"attributes":{"OBJECTID":2032,"ولایت":"کندز","Province":"KUNDUZ","PC_Code":"1901028","ولسوالي":"کندز","District":"KUNDUZ","د_مرکز_نوم__نام_مرکز":"مکتب قوچی کلان","Polling_Center_Name":"Qochi Kalan School","د_مرکز_ځای__موقعیت_مرکز":"قوچی کلان","Polling_Center_Location":"Qochi Kalan","Verification_Note":"Building","PS_Male":4,"PS_Female":3,"Map_Accuracy":"تعمیر"},"geometry":{"x":7677236.8219913505,"y":4401781.8078022376}},{"attributes":{"OBJECTID":2031,"ولایت":"کندز","Province":"KUNDUZ","PC_Code":"1901026","ولسوالي":"کندز","District":"KUNDUZ","د_مرکز_نوم__نام_مرکز":"مکتب تیموری آلچین","Polling_Center_Name":"Taimori Alcheen School","د_مرکز_ځای__موقعیت_مرکز":"تیموری آلچین","Polling_Center_Location":"Taimori Alcheen","Verification_Note":"Building","PS_Male":3,"PS_Female":1,"Map_Accuracy":"تعمیر"},"geometry":{"x":7668622.8251721933,"y":4410518.5611219555}},{"attributes":{"OBJECTID":2030,"ولایت":"کندز","Province":"KUNDUZ","PC_Code":"1901025","ولسوالي":"کندز","District":"KUNDUZ","د_مرکز_نوم__نام_مرکز":"مکتب توبره کش","Polling_Center_Name":"Tobra Kash School","د_مرکز_ځای__موقعیت_مرکز":"قریه توبره کش","Polling_Center_Location":"Tobra Kash","Verification_Note":"Village","PS_Male":1,"PS_Female":2,"Map_Accuracy":"قریه"},"geometry":{"x":7649290.0337714292,"y":4418457.4337947071}},{"attributes":{"OBJECTID":2029,"ولایت":"کندز","Province":"KUNDUZ","PC_Code":"1901007","ولسوالي":"کندز","District":"KUNDUZ","د_مرکز_نوم__نام_مرکز":"لیسه عالی شیر خان","Polling_Center_Name":"Sher Khan High School","د_مرکز_ځای__موقعیت_مرکز":"ناحیه دوم","Polling_Center_Location":"D02 - Nahia 2","Verification_Note":"Building","PS_Male":5,"PS_Female":2,"Map_Accuracy":"تعمیر"},"geometry":{"x":7666392.57479639,"y":4400697.7205170542}},{"attributes":{"OBJECTID":2028,"ولایت":"کندز","Province":"KUNDUZ","PC_Code":"1901006","ولسوالي":"کندز","District":"KUNDUZ","د_مرکز_نوم__نام_مرکز":"لیسه خواجه مشهد","Polling_Center_Name":"Khwaja Mashhad High School","د_مرکز_ځای__موقعیت_مرکز":"ناحیه چهار","Polling_Center_Location":"D04 - Nahia 4","Verification_Note":"Building","PS_Male":3,"PS_Female":1,"Map_Accuracy":"تعمیر"},"geometry":{"x":7668163.0834675841,"y":4400703.4939461276}},{"attributes":{"OBJECTID":2027,"ولایت":"کندز","Province":"KUNDUZ","PC_Code":"1901004","ولسوالي":"کندز","District":"KUNDUZ","د_مرکز_نوم__نام_مرکز":"لیسه فاطمه زهرا","Polling_Center_Name":"Fatima Zahra High School","د_مرکز_ځای__موقعیت_مرکز":"ناحیه اول","Polling_Center_Location":"D01 - Nahia 1","Verification_Note":"Building","PS_Male":2,"PS_Female":3,"Map_Accuracy":"تعمیر"},"geometry":{"x":7666996.0733782165,"y":4400510.6683834791}},{"attributes":{"OBJECTID":2026,"ولایت":"کندز","Province":"KUNDUZ","PC_Code":"1901003","ولسوالي":"کندز","District":"KUNDUZ","د_مرکز_نوم__نام_مرکز":"لیسه غازی خان","Polling_Center_Name":"Ghazi Khan High School","د_مرکز_ځای__موقعیت_مرکز":"ناحیه پنجم","Polling_Center_Location":"D05 - Nahia 5","Verification_Note":"Building","PS_Male":5,"PS_Female":2,"Map_Accuracy":"تعمیر"},"geometry":{"x":7667555.8367584981,"y":4398190.9767261967}},{"attributes":{"OBJECTID":2025,"ولایت":"تخار","Province":"TAKHAR","PC_Code":"1810211","ولسوالي":"رستاق","District":"RUSTAQ","د_مرکز_نوم__نام_مرکز":"مکتب ابتدایه","Polling_Center_Name":"Primary School","د_مرکز_ځای__موقعیت_مرکز":"دشتک سفلا","Polling_Center_Location":"Dashtak sufla","Verification_Note":"Building","PS_Male":2,"PS_Female":1,"Map_Accuracy":"تعمیر"},"geometry":{"x":7766236.9825289249,"y":4442650.4238659516}},{"attributes":{"OBJECTID":2024,"ولایت":"تخار","Province":"TAKHAR","PC_Code":"1810210","ولسوالي":"رستاق","District":"RUSTAQ","د_مرکز_نوم__نام_مرکز":"مکتب متوسطه","Polling_Center_Name":"Secondary School","د_مرکز_ځای__موقعیت_مرکز":"خواجه خیراب","Polling_Center_Location":"Khwaja khirab","Verification_Note":"Building","PS_Male":2,"PS_Female":1,"Map_Accuracy":"تعمیر"},"geometry":{"x":7785551.1038699709,"y":4444532.9318947643}},{"attributes":{"OBJECTID":2023,"ولایت":"تخار","Province":"TAKHAR","PC_Code":"1814156","ولسوالي":"خواجه بهاوالدین","District":"KHWAJA BAHAWUDIN","د_مرکز_نوم__نام_مرکز":"لیسه امام ابو حنیفه","Polling_Center_Name":"Imam Abu Hanifa High School","د_مرکز_ځای__موقعیت_مرکز":"افغانیه","Polling_Center_Location":"Afghania","Verification_Note":"Building","PS_Male":2,"PS_Female":1,"Map_Accuracy":"تعمیر"},"geometry":{"x":7740093.9669138491,"y":4486167.9108435139}},{"attributes":{"OBJECTID":2022,"ولایت":"تخار","Province":"TAKHAR","PC_Code":"1814155","ولسوالي":"خواجه بهاوالدین","District":"KHWAJA BAHAWUDIN","د_مرکز_نوم__نام_مرکز":"لیسه ذکورخواجه بهاوالدین","Polling_Center_Name":"Khwaja Bahauddin Boys High School","د_مرکز_ځای__موقعیت_مرکز":"مرکز شهر","Polling_Center_Location":"Markaz Shahr","Verification_Note":"Building","PS_Male":2,"PS_Female":1,"Map_Accuracy":"تعمیر"},"geometry":{"x":7741149.2267059945,"y":4486364.0062697306}},{"attributes":{"OBJECTID":2021,"ولایت":"تخار","Province":"TAKHAR","PC_Code":"1812201","ولسوالي":"دشت قلعه","District":"DASHT-E-QALA","د_مرکز_نوم__نام_مرکز":"مکتب متوسطۀ عربکاکل","Polling_Center_Name":"Arabkakul Secondary School","د_مرکز_ځای__موقعیت_مرکز":"عربکاکل","Polling_Center_Location":"Arabkakul","Verification_Note":"Building","PS_Male":1,"PS_Female":1,"Map_Accuracy":"تعمیر"},"geometry":{"x":7734028.4884606563,"y":4473323.0572785139}},{"attributes":{"OBJECTID":2020,"ولایت":"تخار","Province":"TAKHAR","PC_Code":"1810197","ولسوالي":"رستاق","District":"RUSTAQ","د_مرکز_نوم__نام_مرکز":"مکتب متوسطۀ آبزان","Polling_Center_Name":"Aabzan Secondary School","د_مرکز_ځای__موقعیت_مرکز":"آبزان","Polling_Center_Location":"Aabzan","Verification_Note":"Building","PS_Male":1,"PS_Female":1,"Map_Accuracy":"تعمیر"},"geometry":{"x":7786323.08105021,"y":4429883.9437345862}},{"attributes":{"OBJECTID":2019,"ولایت":"تخار","Province":"TAKHAR","PC_Code":"1810127","ولسوالي":"رستاق","District":"RUSTAQ","د_مرکز_نوم__نام_مرکز":"مکتب متوسطه مولوی عبدالقدوس شهید","Polling_Center_Name":"Mawlawi Abdul Qudoos Shaheed Secondary School","د_مرکز_ځای__موقعیت_مرکز":"غنج","Polling_Center_Location":"Ghenj","Verification_Note":"Building","PS_Male":3,"PS_Female":1,"Map_Accuracy":"تعمیر"},"geometry":{"x":7786734.8676540256,"y":4450670.9499050453}},{"attributes":{"OBJECTID":2018,"ولایت":"تخار","Province":"TAKHAR","PC_Code":"1810126","ولسوالي":"رستاق","District":"RUSTAQ","د_مرکز_نوم__نام_مرکز":"مکتب متوسطۀ ابوهریره","Polling_Center_Name":"Abu Huraira Secondary School","د_مرکز_ځای__موقعیت_مرکز":"شینگر آب","Polling_Center_Location":"Shingar Aab","Verification_Note":"Building","PS_Male":1,"PS_Female":1,"Map_Accuracy":"تعمیر"},"geometry":{"x":7789085.6380765364,"y":4433507.39689672}},{"attributes":{"OBJECTID":2017,"ولایت":"تخار","Province":"TAKHAR","PC_Code":"1810117","ولسوالي":"رستاق","District":"RUSTAQ","د_مرکز_نوم__نام_مرکز":"مسجد قریه چنار","Polling_Center_Name":"Chenar Village Mosque","د_مرکز_ځای__موقعیت_مرکز":"قریه چنار","Polling_Center_Location":"Chenar Village","Verification_Note":"Building","PS_Male":1,"PS_Female":1,"Map_Accuracy":"تعمیر"},"geometry":{"x":7769223.4846484251,"y":4429975.8646736592}},{"attributes":{"OBJECTID":2016,"ولایت":"تخار","Province":"TAKHAR","PC_Code":"1810116","ولسوالي":"رستاق","District":"RUSTAQ","د_مرکز_نوم__نام_مرکز":"کلینیک قدق جوازخانه","Polling_Center_Name":"Qadaq Jawaz Khana Clinic","د_مرکز_ځای__موقعیت_مرکز":"قدق جوازخانه","Polling_Center_Location":"Qadaq Jawaz Khana","Verification_Note":"Building","PS_Male":3,"PS_Female":1,"Map_Accuracy":"تعمیر"},"geometry":{"x":7767187.204032544,"y":4434302.60177315}},{"attributes":{"OBJECTID":2015,"ولایت":"تخار","Province":"TAKHAR","PC_Code":"1810101","ولسوالي":"رستاق","District":"RUSTAQ","د_مرکز_نوم__نام_مرکز":"لیسه حضرت عمرفاروق","Polling_Center_Name":"Hazrat Omar Farooq High School","د_مرکز_ځای__موقعیت_مرکز":"شهرجدید رستاق","Polling_Center_Location":"Shahr Jadid Rostaq","Verification_Note":"Building","PS_Male":4,"PS_Female":2,"Map_Accuracy":"تعمیر"},"geometry":{"x":7769770.2503649592,"y":4458819.5537486151}},{"attributes":{"OBJECTID":2014,"ولایت":"تخار","Province":"TAKHAR","PC_Code":"1809190","ولسوالي":"خواجه غار","District":"KHWAJA GHAR","د_مرکز_نوم__نام_مرکز":"لیسه حسام الدین شهید","Polling_Center_Name":"Hasamuddin Shaheed High School","د_مرکز_ځای__موقعیت_مرکز":"کشوری","Polling_Center_Location":"Keshwari","Verification_Note":"Building","PS_Male":3,"PS_Female":1,"Map_Accuracy":"تعمیر"},"geometry":{"x":7721875.1908456609,"y":4440491.2411245331}},{"attributes":{"OBJECTID":2013,"ولایت":"تخار","Province":"TAKHAR","PC_Code":"1809055","ولسوالي":"خواجه غار","District":"KHWAJA GHAR","د_مرکز_نوم__نام_مرکز":"مکتب ابتدائیه هموارسای","Polling_Center_Name":"Hamwar Say Primary School","د_مرکز_ځای__موقعیت_مرکز":"هموارسای","Polling_Center_Location":"Hamwar Say","Verification_Note":"Building","PS_Male":2,"PS_Female":2,"Map_Accuracy":"تعمیر"},"geometry":{"x":7723804.294169005,"y":4428748.60759265}},{"attributes":{"OBJECTID":2012,"ولایت":"تخار","Province":"TAKHAR","PC_Code":"1809054","ولسوالي":"خواجه غار","District":"KHWAJA GHAR","د_مرکز_نوم__نام_مرکز":"مکتب متوسطه حاجی میزا محمد","Polling_Center_Name":"Haji Mirza Mohammad Secondary School","د_مرکز_ځای__موقعیت_مرکز":"جلوم خور","Polling_Center_Location":"Jalom Khor","Verification_Note":"Building","PS_Male":2,"PS_Female":1,"Map_Accuracy":"تعمیر"},"geometry":{"x":7727420.4688656032,"y":4458194.7886081189}},{"attributes":{"OBJECTID":2011,"ولایت":"تخار","Province":"TAKHAR","PC_Code":"1807100","ولسوالي":"کلفگان","District":"KALAFGAN","د_مرکز_نوم__نام_مرکز":"لیسه محمد حسین شهید","Polling_Center_Name":"Mohammad Hussain Shaheed High School","د_مرکز_ځای__موقعیت_مرکز":"زردالو دره سفلا","Polling_Center_Location":"Zardaalo Dara Sufla","Verification_Note":"Building","PS_Male":3,"PS_Female":1,"Map_Accuracy":"تعمیر"},"geometry":{"x":7786410.6362787485,"y":4404395.5995488092}},{"attributes":{"OBJECTID":2010,"ولایت":"تخار","Province":"TAKHAR","PC_Code":"1806082","ولسوالي":"نمک آب","District":"NAMAK AB","د_مرکز_نوم__نام_مرکز":"مکتب صد برگان","Polling_Center_Name":"Sad Bargan School","د_مرکز_ځای__موقعیت_مرکز":"صد برگان","Polling_Center_Location":"Sad Bargan","Verification_Note":"Building","PS_Male":2,"PS_Female":1,"Map_Accuracy":"تعمیر"},"geometry":{"x":7759326.53837892,"y":4380283.0658116639}},{"attributes":{"OBJECTID":2009,"ولایت":"تخار","Province":"TAKHAR","PC_Code":"1801030","ولسوالي":"تالقان","District":"TALUQAN","د_مرکز_نوم__نام_مرکز":"لیسه عبدالرحمن تالقانی","Polling_Center_Name":"Abdul Rahman Taloqani High School","د_مرکز_ځای__موقعیت_مرکز":"قزاق","Polling_Center_Location":"Qazaq","Verification_Note":"Building","PS_Male":2,"PS_Female":1,"Map_Accuracy":"تعمیر"},"geometry":{"x":7740538.2007001974,"y":4405909.7241874933}},{"attributes":{"OBJECTID":2008,"ولایت":"تخار","Province":"TAKHAR","PC_Code":"1801029","ولسوالي":"تالقان","District":"TALUQAN","د_مرکز_نوم__نام_مرکز":"مکتب ترمه بایی","Polling_Center_Name":"Tarma Baay School","د_مرکز_ځای__موقعیت_مرکز":"ترمه بای","Polling_Center_Location":"Tarma Baay","Verification_Note":"Building","PS_Male":2,"PS_Female":1,"Map_Accuracy":"تعمیر"},"geometry":{"x":7736412.2027732767,"y":4410909.6980750933}},{"attributes":{"OBJECTID":2007,"ولایت":"تخار","Province":"TAKHAR","PC_Code":"1801028","ولسوالي":"تالقان","District":"TALUQAN","د_مرکز_نوم__نام_مرکز":"مکتب چینزه یی","Polling_Center_Name":"Chenza Yee School","د_مرکز_ځای__موقعیت_مرکز":"چینزه یی","Polling_Center_Location":"Chenza Yee","Verification_Note":"Building","PS_Male":1,"PS_Female":1,"Map_Accuracy":"تعمیر"},"geometry":{"x":7714844.643651776,"y":4401074.0832440257}},{"attributes":{"OBJECTID":2006,"ولایت":"تخار","Province":"TAKHAR","PC_Code":"1801027","ولسوالي":"تالقان","District":"TALUQAN","د_مرکز_نوم__نام_مرکز":"مکتب جوی شیخ","Polling_Center_Name":"Joy Shekh School","د_مرکز_ځای__موقعیت_مرکز":"جوی شیخ","Polling_Center_Location":"Joy Shekh","Verification_Note":"Building","PS_Male":1,"PS_Female":1,"Map_Accuracy":"تعمیر"},"geometry":{"x":7751890.5612581037,"y":4392647.273743771}},{"attributes":{"OBJECTID":2005,"ولایت":"تخار","Province":"TAKHAR","PC_Code":"1801019","ولسوالي":"تالقان","District":"TALUQAN","د_مرکز_نوم__نام_مرکز":"لیسه فیاض شهید","Polling_Center_Name":"Fayaz Shaheed High School","د_مرکز_ځای__موقعیت_مرکز":"نهر چمن","Polling_Center_Location":"Nahr Chaman","Verification_Note":"Building","PS_Male":2,"PS_Female":2,"Map_Accuracy":"تعمیر"},"geometry":{"x":7743245.4717919789,"y":4398234.5707400292}},{"attributes":{"OBJECTID":2004,"ولایت":"تخار","Province":"TAKHAR","PC_Code":"1801018","ولسوالي":"تالقان","District":"TALUQAN","د_مرکز_نوم__نام_مرکز":"شعبه ملاریا","Polling_Center_Name":"Malaria Clinic","د_مرکز_ځای__موقعیت_مرکز":"ناحیه اول","Polling_Center_Location":"D01 - Nahia 1","Verification_Note":"Village","PS_Male":4,"PS_Female":2,"Map_Accuracy":"قریه"},"geometry":{"x":7744253.3523390479,"y":4401154.09757299}},{"attributes":{"OBJECTID":2003,"ولایت":"تخار","Province":"TAKHAR","PC_Code":"1801008","ولسوالي":"تالقان","District":"TALUQAN","د_مرکز_نوم__نام_مرکز":"لیسه قاری صدیق","Polling_Center_Name":"Qari Sediq High School","د_مرکز_ځای__موقعیت_مرکز":"قره پرچاو","Polling_Center_Location":"Parchaw Village","Verification_Note":"Building","PS_Male":2,"PS_Female":1,"Map_Accuracy":"تعمیر"},"geometry":{"x":7734526.6843701676,"y":4406210.20322331}},{"attributes":{"OBJECTID":2002,"ولایت":"تخار","Province":"TAKHAR","PC_Code":"1801007","ولسوالي":"تالقان","District":"TALUQAN","د_مرکز_نوم__نام_مرکز":"لیسه نسوان بی بی هاجره","Polling_Center_Name":"Bibi Hajera Girls High School","د_مرکز_ځای__موقعیت_مرکز":"ناحیه سوم","Polling_Center_Location":"D03 - Nahia 3","Verification_Note":"Building","PS_Male":2,"PS_Female":1,"Map_Accuracy":"تعمیر"},"geometry":{"x":7740805.3452142067,"y":4403078.0951714367}},{"attributes":{"OBJECTID":2001,"ولایت":"تخار","Province":"TAKHAR","PC_Code":"1817153","ولسوالي":"ینگی قلعه","District":"YANGI QALA","د_مرکز_نوم__نام_مرکز":"مکتب جرباشی","Polling_Center_Name":"Jarbashi School","د_مرکز_ځای__موقعیت_مرکز":"جرباشی","Polling_Center_Location":"Jarbashi","Verification_Note":"Building","PS_Male":2,"PS_Female":1,"Map_Accuracy":"تعمیر"},"geometry":{"x":7756757.8746360429,"y":4509934.7444573939}},{"attributes":{"OBJECTID":2000,"ولایت":"تخار","Province":"TAKHAR","PC_Code":"1817152","ولسوالي":"ینگی قلعه","District":"YANGI QALA","د_مرکز_نوم__نام_مرکز":"مکتب متوسطه مغلان","Polling_Center_Name":"Mughlan Secondary School","د_مرکز_ځای__موقعیت_مرکز":"مغلان","Polling_Center_Location":"Mughlan","Verification_Note":"Building","PS_Male":1,"PS_Female":1,"Map_Accuracy":"تعمیر"},"geometry":{"x":7763169.316255495,"y":4496379.4591851905}}]}