{"objectIdFieldName":"OBJECTID","globalIdFieldName":"","geometryType":"esriGeometryPoint","spatialReference":{"wkid":102100,"latestWkid":3857},"fields":[{"name":"OBJECTID","type":"esriFieldTypeOID","alias":"OBJECTID","sqlType":"sqlTypeOther","domain":null,"defaultValue":null},{"name":"ولایت","type":"esriFieldTypeString","alias":"ولایت","sqlType":"sqlTypeOther","length":255,"domain":null,"defaultValue":null},{"name":"Province","type":"esriFieldTypeString","alias":"Province","sqlType":"sqlTypeOther","length":255,"domain":null,"defaultValue":null},{"name":"PC_Code","type":"esriFieldTypeString","alias":"PC_Code","sqlType":"sqlTypeOther","length":255,"domain":null,"defaultValue":null},{"name":"ولسوالي","type":"esriFieldTypeString","alias":"ولسوالي","sqlType":"sqlTypeOther","length":255,"domain":null,"defaultValue":null},{"name":"District","type":"esriFieldTypeString","alias":"District","sqlType":"sqlTypeOther","length":255,"domain":null,"defaultValue":null},{"name":"د_مرکز_نوم__نام_مرکز","type":"esriFieldTypeString","alias":"د_مرکز_نوم__نام_مرکز","sqlType":"sqlTypeOther","length":255,"domain":null,"defaultValue":null},{"name":"Polling_Center_Name","type":"esriFieldTypeString","alias":"Polling_Center_Name","sqlType":"sqlTypeOther","length":255,"domain":null,"defaultValue":null},{"name":"د_مرکز_ځای__موقعیت_مرکز","type":"esriFieldTypeString","alias":"د_مرکز_ځای__موقعیت_مرکز","sqlType":"sqlTypeOther","length":255,"domain":null,"defaultValue":null},{"name":"Polling_Center_Location","type":"esriFieldTypeString","alias":"Polling_Center_Location","sqlType":"sqlTypeOther","length":255,"domain":null,"defaultValue":null},{"name":"Verification_Note","type":"esriFieldTypeString","alias":"Verification_Note","sqlType":"sqlTypeOther","length":250,"domain":null,"defaultValue":null},{"name":"PS_Male","type":"esriFieldTypeSmallInteger","alias":"PS_Male","sqlType":"sqlTypeOther","domain":null,"defaultValue":null},{"name":"PS_Female","type":"esriFieldTypeSmallInteger","alias":"PS_Female","sqlType":"sqlTypeOther","domain":null,"defaultValue":null},{"name":"Map_Accuracy","type":"esriFieldTypeString","alias":"Map_Accuracy","sqlType":"sqlTypeOther","length":10,"domain":null,"defaultValue":null}],"features":[{"attributes":{"OBJECTID":2200,"ولایت":"بلخ","Province":"BALKH","PC_Code":"2115307","ولسوالي":"زاری","District":"ZARI","د_مرکز_نوم__نام_مرکز":"مکتب بازار کهنه","Polling_Center_Name":"Bazar Kuhna Mosque","د_مرکز_ځای__موقعیت_مرکز":"قریه بازار کهنه همرخ","Polling_Center_Location":"Bazar Kuhna Hamrukh Village","Verification_Note":"Building","PS_Male":2,"PS_Female":1,"Map_Accuracy":"تعمیر"},"geometry":{"x":7420173.9665749,"y":4272951.0403215587}},{"attributes":{"OBJECTID":2201,"ولایت":"بلخ","Province":"BALKH","PC_Code":"2115308","ولسوالي":"زاری","District":"ZARI","د_مرکز_نوم__نام_مرکز":"مکتب میرهاشم","Polling_Center_Name":"Mir Hashim School","د_مرکز_ځای__موقعیت_مرکز":"قریه نوآباد بلوچ","Polling_Center_Location":"Naw Abad Baloch Village","Verification_Note":"Building","PS_Male":1,"PS_Female":1,"Map_Accuracy":"تعمیر"},"geometry":{"x":7426390.1626017429,"y":4297498.0764426291}},{"attributes":{"OBJECTID":2202,"ولایت":"بلخ","Province":"BALKH","PC_Code":"2115309","ولسوالي":"زاری","District":"ZARI","د_مرکز_نوم__نام_مرکز":"مکتب امام حسن ","Polling_Center_Name":"Imam Hassan School","د_مرکز_ځای__موقعیت_مرکز":"قریه مرغزار","Polling_Center_Location":"Murghzar Village","Verification_Note":"Building","PS_Male":2,"PS_Female":1,"Map_Accuracy":"تعمیر"},"geometry":{"x":7421085.3851096518,"y":4264581.810022898}},{"attributes":{"OBJECTID":2203,"ولایت":"بلخ","Province":"BALKH","PC_Code":"2115317","ولسوالي":"زاری","District":"ZARI","د_مرکز_نوم__نام_مرکز":"مسجد هزار پیمانه","Polling_Center_Name":"Hazar Paimana Mosque","د_مرکز_ځای__موقعیت_مرکز":"قریه فولاد","Polling_Center_Location":"Folad Village","Verification_Note":"Building","PS_Male":1,"PS_Female":1,"Map_Accuracy":"تعمیر"},"geometry":{"x":7435714.8209350519,"y":4282244.9146685377}},{"attributes":{"OBJECTID":2204,"ولایت":"بلخ","Province":"BALKH","PC_Code":"2115318","ولسوالي":"زاری","District":"ZARI","د_مرکز_نوم__نام_مرکز":"لیسه خاتم الانبیا","Polling_Center_Name":"Khatimul Anbiya High School","د_مرکز_ځای__موقعیت_مرکز":"قریه بام شاخ","Polling_Center_Location":"Baam Shakh Village","Verification_Note":"Building","PS_Male":1,"PS_Female":2,"Map_Accuracy":"تعمیر"},"geometry":{"x":7428681.6521671414,"y":4260951.93063686}},{"attributes":{"OBJECTID":2205,"ولایت":"بلخ","Province":"BALKH","PC_Code":"2101023","ولسوالي":"مزار شریف","District":"MAZAR-E-SHARIF","د_مرکز_نوم__نام_مرکز":"مکتب سید اسماعیل بلخی ","Polling_Center_Name":"Sayed Ismail Balkhi School","د_مرکز_ځای__موقعیت_مرکز":"ناحیه 5","Polling_Center_Location":"D05 - Nahia 5","Verification_Note":"Building","PS_Male":3,"PS_Female":2,"Map_Accuracy":"تعمیر"},"geometry":{"x":7468936.908466652,"y":4395007.3039110452}},{"attributes":{"OBJECTID":2206,"ولایت":"بلخ","Province":"BALKH","PC_Code":"2101024","ولسوالي":"مزار شریف","District":"MAZAR-E-SHARIF","د_مرکز_نوم__نام_مرکز":"نساجی","Polling_Center_Name":"Nasaji","د_مرکز_ځای__موقعیت_مرکز":"ناحیه پنجم مزار شاروالی ","Polling_Center_Location":"D05 - Nahia 5","Verification_Note":"Building","PS_Male":1,"PS_Female":1,"Map_Accuracy":"تعمیر"},"geometry":{"x":7467646.8658496812,"y":4394428.8604084253}},{"attributes":{"OBJECTID":2207,"ولایت":"بلخ","Province":"BALKH","PC_Code":"2101029","ولسوالي":"مزار شریف","District":"MAZAR-E-SHARIF","د_مرکز_نوم__نام_مرکز":"مکتب اناث خراسان ","Polling_Center_Name":"Khurasan Girls School","د_مرکز_ځای__موقعیت_مرکز":"کارته خراسان ناحیه هفتم مزار شاروالی ","Polling_Center_Location":"D07 - Nahia 7 Karta-e-Khurasan","Verification_Note":"Building","PS_Male":4,"PS_Female":3,"Map_Accuracy":"تعمیر"},"geometry":{"x":7472052.7766361982,"y":4396154.5505063534}},{"attributes":{"OBJECTID":2208,"ولایت":"بلخ","Province":"BALKH","PC_Code":"2101030","ولسوالي":"مزار شریف","District":"MAZAR-E-SHARIF","د_مرکز_نوم__نام_مرکز":"مکتب استاد جاهد","Polling_Center_Name":"Ustad Jaahed School","د_مرکز_ځای__موقعیت_مرکز":"کارته صلح ناحیه هفتم ","Polling_Center_Location":"D07 - Nahia 7 Karta-e-Sulh","Verification_Note":"Building","PS_Male":1,"PS_Female":1,"Map_Accuracy":"تعمیر"},"geometry":{"x":7473840.3594908938,"y":4399585.3791683987}},{"attributes":{"OBJECTID":2209,"ولایت":"بلخ","Province":"BALKH","PC_Code":"2101041","ولسوالي":"مزار شریف","District":"MAZAR-E-SHARIF","د_مرکز_نوم__نام_مرکز":"مکتب شهید عبد العلی مزاری  2","Polling_Center_Name":"Shaheed Abdul Ali Mazari Number 2 School","د_مرکز_ځای__موقعیت_مرکز":"گذر علی چوپان ناحیه دهم مزار شاروالی ","Polling_Center_Location":"D10 - Nahia 10 Guzar Ali Chopan","Verification_Note":"Building","PS_Male":4,"PS_Female":3,"Map_Accuracy":"تعمیر"},"geometry":{"x":7475873.3397065066,"y":4400039.5114798471}},{"attributes":{"OBJECTID":2210,"ولایت":"بلخ","Province":"BALKH","PC_Code":"2101042","ولسوالي":"مزار شریف","District":"MAZAR-E-SHARIF","د_مرکز_نوم__نام_مرکز":"انستیتیوت نفت وگاز ","Polling_Center_Name":"Neft o Gas Institute","د_مرکز_ځای__موقعیت_مرکز":"انستیتیوت نفت و گازناحیه ششم ","Polling_Center_Location":"D06 - Nahia 6 Gas Institute","Verification_Note":"Building","PS_Male":2,"PS_Female":2,"Map_Accuracy":"تعمیر"},"geometry":{"x":7472539.1760192737,"y":4398820.4065311551}},{"attributes":{"OBJECTID":2211,"ولایت":"بلخ","Province":"BALKH","PC_Code":"2103052","ولسوالي":"دهدادی ","District":"DEHDADI","د_مرکز_نوم__نام_مرکز":"مکتب بی بی زینب","Polling_Center_Name":"Bibi Zainab School","د_مرکز_ځای__موقعیت_مرکز":"کود و برق فامیلی ها","Polling_Center_Location":"Kod Wa Barq Familiha","Verification_Note":"Village","PS_Male":4,"PS_Female":3,"Map_Accuracy":"قریه"},"geometry":{"x":7450784.8339241631,"y":4392907.2863418087}},{"attributes":{"OBJECTID":2212,"ولایت":"بلخ","Province":"BALKH","PC_Code":"2103053","ولسوالي":"دهدادی ","District":"DEHDADI","د_مرکز_نوم__نام_مرکز":"مکتب کاکا کوت","Polling_Center_Name":"Kaka Kot School","د_مرکز_ځای__موقعیت_مرکز":"قریه کاکا کوت","Polling_Center_Location":"Kaka Kot Village","Verification_Note":"Building","PS_Male":2,"PS_Female":1,"Map_Accuracy":"تعمیر"},"geometry":{"x":7452959.8687193431,"y":4397962.3679457009}},{"attributes":{"OBJECTID":2213,"ولایت":"بلخ","Province":"BALKH","PC_Code":"2103056","ولسوالي":"دهدادی ","District":"DEHDADI","د_مرکز_نوم__نام_مرکز":"مکتب غلام محمد شهید","Polling_Center_Name":"Ghulam Mohammad Shaheed School","د_مرکز_ځای__موقعیت_مرکز":"قریه پل بابو ","Polling_Center_Location":"Pul Baboo Village","Verification_Note":"Building","PS_Male":3,"PS_Female":1,"Map_Accuracy":"تعمیر"},"geometry":{"x":7458977.6000165455,"y":4392621.3511036932}},{"attributes":{"OBJECTID":2214,"ولایت":"بلخ","Province":"BALKH","PC_Code":"2103057","ولسوالي":"دهدادی ","District":"DEHDADI","د_مرکز_نوم__نام_مرکز":"مکتب صالح محمد","Polling_Center_Name":"Saleh Mohammad School","د_مرکز_ځای__موقعیت_مرکز":"پشت باغ ","Polling_Center_Location":"Pusht Bagh ","Verification_Note":"Building","PS_Male":2,"PS_Female":2,"Map_Accuracy":"تعمیر"},"geometry":{"x":7454634.1027289256,"y":4391443.1912593693}},{"attributes":{"OBJECTID":2215,"ولایت":"بلخ","Province":"BALKH","PC_Code":"2103062","ولسوالي":"دهدادی ","District":"DEHDADI","د_مرکز_نوم__نام_مرکز":"مکتب شیخ آباد","Polling_Center_Name":"Shaikh Abad School","د_مرکز_ځای__موقعیت_مرکز":"قریه شیخ آباد","Polling_Center_Location":"Shekh Abad Village","Verification_Note":"Building","PS_Male":2,"PS_Female":2,"Map_Accuracy":"تعمیر"},"geometry":{"x":7456806.6161376312,"y":4393099.1488161534}},{"attributes":{"OBJECTID":2216,"ولایت":"بلخ","Province":"BALKH","PC_Code":"2104274","ولسوالي":"چارکنت","District":"CHAR KENT","د_مرکز_نوم__نام_مرکز":"مکتب شرشر سفلی ","Polling_Center_Name":"Shar Shar Sufla School","د_مرکز_ځای__موقعیت_مرکز":"قریه شرشر","Polling_Center_Location":"Shar Shar Village","Verification_Note":"Building","PS_Male":1,"PS_Female":1,"Map_Accuracy":"تعمیر"},"geometry":{"x":7479425.5032468662,"y":4357975.8276484236}},{"attributes":{"OBJECTID":2217,"ولایت":"بلخ","Province":"BALKH","PC_Code":"2106149","ولسوالي":"بلخ","District":"BALKH","د_مرکز_نوم__نام_مرکز":"مکتب امیر محمد توخی","Polling_Center_Name":"Amir Mohammad Tokhi School","د_مرکز_ځای__موقعیت_مرکز":"قریه رباط","Polling_Center_Location":"Rabat Village","Verification_Note":"Building","PS_Male":2,"PS_Female":1,"Map_Accuracy":"تعمیر"},"geometry":{"x":7446480.9841863886,"y":4402743.0099151134}},{"attributes":{"OBJECTID":2218,"ولایت":"بلخ","Province":"BALKH","PC_Code":"2106151","ولسوالي":"بلخ","District":"BALKH","د_مرکز_نوم__نام_مرکز":"کلینیک صحت عامه","Polling_Center_Name":"Sehat Aama Clinic","د_مرکز_ځای__موقعیت_مرکز":"مرکز ولسوالی","Polling_Center_Location":"District Compound","Verification_Note":"Building","PS_Male":2,"PS_Female":1,"Map_Accuracy":"تعمیر"},"geometry":{"x":7447084.2233937979,"y":4404477.6256975681}},{"attributes":{"OBJECTID":2219,"ولایت":"بلخ","Province":"BALKH","PC_Code":"2106162","ولسوالي":"بلخ","District":"BALKH","د_مرکز_نوم__نام_مرکز":"مکتب کولمبو","Polling_Center_Name":"Colombo School","د_مرکز_ځای__موقعیت_مرکز":"قریه کولمبو","Polling_Center_Location":"Colombo Village","Verification_Note":"Building","PS_Male":1,"PS_Female":1,"Map_Accuracy":"تعمیر"},"geometry":{"x":7451747.4146742523,"y":4415877.6521210968}},{"attributes":{"OBJECTID":2220,"ولایت":"بلخ","Province":"BALKH","PC_Code":"2106163","ولسوالي":"بلخ","District":"BALKH","د_مرکز_نوم__نام_مرکز":"مکتب دیوالی میدان","Polling_Center_Name":"Dewali Maidan School","د_مرکز_ځای__موقعیت_مرکز":"قریه دیوالی میدان ","Polling_Center_Location":"Dewali Maidan Village","Verification_Note":"Building","PS_Male":2,"PS_Female":1,"Map_Accuracy":"تعمیر"},"geometry":{"x":7448445.8878579587,"y":4426034.28026998}},{"attributes":{"OBJECTID":2221,"ولایت":"بلخ","Province":"BALKH","PC_Code":"2106173","ولسوالي":"بلخ","District":"BALKH","د_مرکز_نوم__نام_مرکز":"مسجد ارغنداب","Polling_Center_Name":"Arghandab Mosque","د_مرکز_ځای__موقعیت_مرکز":"قریه ارغنداب","Polling_Center_Location":"Arghandab Village","Verification_Note":"Building","PS_Male":1,"PS_Female":1,"Map_Accuracy":"تعمیر"},"geometry":{"x":7434845.1596771292,"y":4414874.9769991487}},{"attributes":{"OBJECTID":2222,"ولایت":"بلخ","Province":"BALKH","PC_Code":"2106174","ولسوالي":"بلخ","District":"BALKH","د_مرکز_نوم__نام_مرکز":"مکتب اوف ملیک","Polling_Center_Name":"Oof Maleek School","د_مرکز_ځای__موقعیت_مرکز":"قریه اوف ملیک","Polling_Center_Location":"Oof Maleek Village","Verification_Note":"Building","PS_Male":2,"PS_Female":1,"Map_Accuracy":"تعمیر"},"geometry":{"x":7445033.0382113047,"y":4395653.43189951}},{"attributes":{"OBJECTID":2223,"ولایت":"بلخ","Province":"BALKH","PC_Code":"2107244","ولسوالي":"شولگره","District":"SHOLGARA","د_مرکز_نوم__نام_مرکز":"مکتب بی بی آمنه","Polling_Center_Name":"Bibi Amena School","د_مرکز_ځای__موقعیت_مرکز":"قریه قور بقه خانه","Polling_Center_Location":"Qor Baqa Khana Village","Verification_Note":"Building","PS_Male":2,"PS_Female":1,"Map_Accuracy":"تعمیر"},"geometry":{"x":7445698.6530689932,"y":4353909.4751187339}},{"attributes":{"OBJECTID":2224,"ولایت":"بلخ","Province":"BALKH","PC_Code":"2107245","ولسوالي":"شولگره","District":"SHOLGARA","د_مرکز_نوم__نام_مرکز":"مکتب آغا جان","Polling_Center_Name":"Agha Jan School","د_مرکز_ځای__موقعیت_مرکز":"قریه آغا جان","Polling_Center_Location":"Agha Jan Village","Verification_Note":"Building","PS_Male":1,"PS_Female":1,"Map_Accuracy":"تعمیر"},"geometry":{"x":7445763.5155966878,"y":4355722.2262936309}},{"attributes":{"OBJECTID":2225,"ولایت":"بلخ","Province":"BALKH","PC_Code":"2107250","ولسوالي":"شولگره","District":"SHOLGARA","د_مرکز_نوم__نام_مرکز":"مکتب احمد الخضرویه","Polling_Center_Name":"Ahmad Alkhadroya School","د_مرکز_ځای__موقعیت_مرکز":"قریه بابه عوض","Polling_Center_Location":"Baba Ewaz Village","Verification_Note":"Building","PS_Male":2,"PS_Female":2,"Map_Accuracy":"تعمیر"},"geometry":{"x":7445105.6953297481,"y":4350830.3211867511}},{"attributes":{"OBJECTID":2226,"ولایت":"بلخ","Province":"BALKH","PC_Code":"2107251","ولسوالي":"شولگره","District":"SHOLGARA","د_مرکز_نوم__نام_مرکز":"مکتب بی بی مریم ","Polling_Center_Name":"Bibi Maryam School","د_مرکز_ځای__موقعیت_مرکز":"قریه سر آسیاب","Polling_Center_Location":"Sar Asyab Village","Verification_Note":"Building","PS_Male":2,"PS_Female":1,"Map_Accuracy":"تعمیر"},"geometry":{"x":7445105.0552426763,"y":4348754.8138733953}},{"attributes":{"OBJECTID":2227,"ولایت":"بلخ","Province":"BALKH","PC_Code":"2107256","ولسوالي":"شولگره","District":"SHOLGARA","د_مرکز_نوم__نام_مرکز":"مکتب قلند خلیلی","Polling_Center_Name":"Qaland Khalili School","د_مرکز_ځای__موقعیت_مرکز":"قریه قلند خلیلی","Polling_Center_Location":"Qaland Khalili Village","Verification_Note":"Building","PS_Male":2,"PS_Female":1,"Map_Accuracy":"تعمیر"},"geometry":{"x":7450947.1878355071,"y":4357616.6812846884}},{"attributes":{"OBJECTID":2228,"ولایت":"بلخ","Province":"BALKH","PC_Code":"2107257","ولسوالي":"شولگره","District":"SHOLGARA","د_مرکز_نوم__نام_مرکز":"مکتب ای لاتان","Polling_Center_Name":"Ai Latan School","د_مرکز_ځای__موقعیت_مرکز":"قریه ای لاتان","Polling_Center_Location":"Ai Latan Village","Verification_Note":"Building","PS_Male":2,"PS_Female":1,"Map_Accuracy":"تعمیر"},"geometry":{"x":7448871.1873121187,"y":4344193.6901653782}},{"attributes":{"OBJECTID":2229,"ولایت":"بلخ","Province":"BALKH","PC_Code":"2107273","ولسوالي":"شولگره","District":"SHOLGARA","د_مرکز_نوم__نام_مرکز":"منزل لعل محمد","Polling_Center_Name":"Lal Mohammad Private House","د_مرکز_ځای__موقعیت_مرکز":"قور بقه خانه","Polling_Center_Location":"Qor Baqa Khana","Verification_Note":"Building","PS_Male":1,"PS_Female":1,"Map_Accuracy":"تعمیر"},"geometry":{"x":7445891.3393151946,"y":4354792.8472837582}},{"attributes":{"OBJECTID":2230,"ولایت":"بلخ","Province":"BALKH","PC_Code":"2108211","ولسوالي":"چمتال","District":"CHIMTAL","د_مرکز_نوم__نام_مرکز":"مکتب مبر قاسم جان","Polling_Center_Name":"Mir Qasim Jan School","د_مرکز_ځای__موقعیت_مرکز":"قریه میر قاسم جان","Polling_Center_Location":"Mir Qasim Jan Village","Verification_Note":"Building","PS_Male":1,"PS_Female":1,"Map_Accuracy":"تعمیر"},"geometry":{"x":7448211.93992931,"y":4389243.4832920954}},{"attributes":{"OBJECTID":2231,"ولایت":"بلخ","Province":"BALKH","PC_Code":"2108232","ولسوالي":"چمتال","District":"CHIMTAL","د_مرکز_نوم__نام_مرکز":"مکتب رباط","Polling_Center_Name":"Rabat School","د_مرکز_ځای__موقعیت_مرکز":"قریه رباط","Polling_Center_Location":"Rabat Village","Verification_Note":"Building","PS_Male":1,"PS_Female":1,"Map_Accuracy":"تعمیر"},"geometry":{"x":7452168.9838122725,"y":4382981.6180811226}},{"attributes":{"OBJECTID":2232,"ولایت":"بلخ","Province":"BALKH","PC_Code":"2108233","ولسوالي":"چمتال","District":"CHIMTAL","د_مرکز_نوم__نام_مرکز":"مسجد نوشهری علی زایئ","Polling_Center_Name":"Nawshahr Alizai Mosque","د_مرکز_ځای__موقعیت_مرکز":"قریه نوشهرعلی زائ","Polling_Center_Location":"Nawshahr Alizai Village","Verification_Note":"Village","PS_Male":2,"PS_Female":1,"Map_Accuracy":"قریه"},"geometry":{"x":7411390.4880574048,"y":4401108.2792513371}},{"attributes":{"OBJECTID":2233,"ولایت":"بلخ","Province":"BALKH","PC_Code":"2109133","ولسوالي":"دولت آباد","District":"DAWLAT ABAD","د_مرکز_نوم__نام_مرکز":"مکتب تالی گک","Polling_Center_Name":"Tali Gag School","د_مرکز_ځای__موقعیت_مرکز":"قریه تالی گگ","Polling_Center_Location":"Tali Gag Village","Verification_Note":"Building","PS_Male":2,"PS_Female":1,"Map_Accuracy":"تعمیر"},"geometry":{"x":7433171.3731718957,"y":4442707.2450765073}},{"attributes":{"OBJECTID":2234,"ولایت":"بلخ","Province":"BALKH","PC_Code":"2109134","ولسوالي":"دولت آباد","District":"DAWLAT ABAD","د_مرکز_نوم__نام_مرکز":"مسجد هاشم آباد","Polling_Center_Name":"Hashim Abad Mosque","د_مرکز_ځای__موقعیت_مرکز":"قریه هاشم آباد وطنی ","Polling_Center_Location":"Hashim Abad Watani Village","Verification_Note":"Building","PS_Male":1,"PS_Female":1,"Map_Accuracy":"تعمیر"},"geometry":{"x":7444357.46471196,"y":4434185.5925850347}},{"attributes":{"OBJECTID":2235,"ولایت":"بلخ","Province":"BALKH","PC_Code":"2109139","ولسوالي":"دولت آباد","District":"DAWLAT ABAD","د_مرکز_نوم__نام_مرکز":"مکتب زادیان ","Polling_Center_Name":"Zadiyan School","د_مرکز_ځای__موقعیت_مرکز":"قریه زادیان ","Polling_Center_Location":"Zadiyan Village","Verification_Note":"Building","PS_Male":1,"PS_Female":1,"Map_Accuracy":"تعمیر"},"geometry":{"x":7452095.3760253824,"y":4443110.0663980916}},{"attributes":{"OBJECTID":2236,"ولایت":"بلخ","Province":"BALKH","PC_Code":"2109140","ولسوالي":"دولت آباد","District":"DAWLAT ABAD","د_مرکز_نوم__نام_مرکز":"مکتب بای مشهد ","Polling_Center_Name":"Bay Mashhad School","د_مرکز_ځای__موقعیت_مرکز":"قریه بای مشهد ","Polling_Center_Location":"Bay Mashhad Village","Verification_Note":"Building","PS_Male":1,"PS_Female":1,"Map_Accuracy":"تعمیر"},"geometry":{"x":7438973.8303850219,"y":4431492.1940202862}},{"attributes":{"OBJECTID":2237,"ولایت":"بلخ","Province":"BALKH","PC_Code":"2110079","ولسوالي":"خلم","District":"KHULM","د_مرکز_نوم__نام_مرکز":"مکتب نسوان خواجه برهان ","Polling_Center_Name":"Khwaja Burhan Girls School","د_مرکز_ځای__موقعیت_مرکز":"سرهنگ ","Polling_Center_Location":"Sarhang","Verification_Note":"Building","PS_Male":1,"PS_Female":2,"Map_Accuracy":"تعمیر"},"geometry":{"x":7539421.4923531041,"y":4397980.0184285194}},{"attributes":{"OBJECTID":2238,"ولایت":"بلخ","Province":"BALKH","PC_Code":"2110080","ولسوالي":"خلم","District":"KHULM","د_مرکز_نوم__نام_مرکز":"لیسه نسوان امین حسین ","Polling_Center_Name":"Amin Hussain Girls School","د_مرکز_ځای__موقعیت_مرکز":"خانقاه میزا خیرالدین ","Polling_Center_Location":"Khanqah Mirza Khairuddin","Verification_Note":"Building","PS_Male":1,"PS_Female":2,"Map_Accuracy":"تعمیر"},"geometry":{"x":7534871.66104972,"y":4398973.9854458869}},{"attributes":{"OBJECTID":2239,"ولایت":"بلخ","Province":"BALKH","PC_Code":"2111180","ولسوالي":"چار بولک","District":"CHAR BOLAK","د_مرکز_نوم__نام_مرکز":"مکتب ابو شکور بلخی","Polling_Center_Name":"Abu Shakoor Balkhi School","د_مرکز_ځای__موقعیت_مرکز":"آق تپه","Polling_Center_Location":"Aaq Tapa ","Verification_Note":"Building","PS_Male":1,"PS_Female":1,"Map_Accuracy":"تعمیر"},"geometry":{"x":7421733.2698894031,"y":4404846.3315839842}},{"attributes":{"OBJECTID":2240,"ولایت":"بلخ","Province":"BALKH","PC_Code":"2111181","ولسوالي":"چار بولک","District":"CHAR BOLAK","د_مرکز_نوم__نام_مرکز":"مکتب احمد آباد","Polling_Center_Name":"Ahmad Abad School","د_مرکز_ځای__موقعیت_مرکز":"قریه احمد آباد","Polling_Center_Location":"Ahmad Abad Village","Verification_Note":"Building","PS_Male":2,"PS_Female":1,"Map_Accuracy":"تعمیر"},"geometry":{"x":7416498.68790786,"y":4424605.68735756}},{"attributes":{"OBJECTID":2241,"ولایت":"بلخ","Province":"BALKH","PC_Code":"2111184","ولسوالي":"چار بولک","District":"CHAR BOLAK","د_مرکز_نوم__نام_مرکز":"مکتب ارناغه","Polling_Center_Name":"Arnagha School","د_مرکز_ځای__موقعیت_مرکز":"قریه ارناغه","Polling_Center_Location":"Arnagha Village","Verification_Note":"Building","PS_Male":2,"PS_Female":1,"Map_Accuracy":"تعمیر"},"geometry":{"x":7422822.3340713233,"y":4414806.5258638859}},{"attributes":{"OBJECTID":2242,"ولایت":"بلخ","Province":"BALKH","PC_Code":"2111185","ولسوالي":"چار بولک","District":"CHAR BOLAK","د_مرکز_نوم__نام_مرکز":"مسجد جامع آدینه","Polling_Center_Name":"Adeena Mosque","د_مرکز_ځای__موقعیت_مرکز":"قریه آ دینه مسجد","Polling_Center_Location":"Aadina Mosque Village","Verification_Note":"Building","PS_Male":1,"PS_Female":1,"Map_Accuracy":"تعمیر"},"geometry":{"x":7425292.8887187056,"y":4424393.259936057}},{"attributes":{"OBJECTID":2243,"ولایت":"بلخ","Province":"BALKH","PC_Code":"2111190","ولسوالي":"چار بولک","District":"CHAR BOLAK","د_مرکز_نوم__نام_مرکز":"مکتب بورلوک","Polling_Center_Name":"Borolok School","د_مرکز_ځای__موقعیت_مرکز":"قریه بورلوک","Polling_Center_Location":"Borolok Village","Verification_Note":"Building","PS_Male":1,"PS_Female":1,"Map_Accuracy":"تعمیر"},"geometry":{"x":7409965.4716710337,"y":4428689.0375501737}},{"attributes":{"OBJECTID":2244,"ولایت":"بلخ","Province":"BALKH","PC_Code":"2111191","ولسوالي":"چار بولک","District":"CHAR BOLAK","د_مرکز_نوم__نام_مرکز":"مکتب بدایع بلخی","Polling_Center_Name":"Badaye Bakhli School","د_مرکز_ځای__موقعیت_مرکز":"قریه تیمورک","Polling_Center_Location":"Taimorak Village","Verification_Note":"Building","PS_Male":1,"PS_Female":1,"Map_Accuracy":"تعمیر"},"geometry":{"x":7413250.9618014731,"y":4407450.2685948387}},{"attributes":{"OBJECTID":2245,"ولایت":"بلخ","Province":"BALKH","PC_Code":"2111201","ولسوالي":"چار بولک","District":"CHAR BOLAK","د_مرکز_نوم__نام_مرکز":"تعمیر ولسوالی","Polling_Center_Name":"Districts Building","د_مرکز_ځای__موقعیت_مرکز":"مرکز ولسوالی چهاربولک","Polling_Center_Location":"Chahar Bolak District Office","Verification_Note":"Building","PS_Male":1,"PS_Female":1,"Map_Accuracy":"تعمیر"},"geometry":{"x":7425631.066199787,"y":4406740.8974955305}},{"attributes":{"OBJECTID":2246,"ولایت":"بلخ","Province":"BALKH","PC_Code":"2111202","ولسوالي":"چار بولک","District":"CHAR BOLAK","د_مرکز_نوم__نام_مرکز":"مکتب منگولی","Polling_Center_Name":"Mangoli School","د_مرکز_ځای__موقعیت_مرکز":"قریه منگولی","Polling_Center_Location":"Mangoli Village","Verification_Note":"Building","PS_Male":1,"PS_Female":1,"Map_Accuracy":"تعمیر"},"geometry":{"x":7413115.0507219732,"y":4422090.2475540116}},{"attributes":{"OBJECTID":2247,"ولایت":"بلخ","Province":"BALKH","PC_Code":"2111206","ولسوالي":"چار بولک","District":"CHAR BOLAK","د_مرکز_نوم__نام_مرکز":"مسجد جامع","Polling_Center_Name":"Jame Mosque","د_مرکز_ځای__موقعیت_مرکز":"قریه شیخ تاش تیمور","Polling_Center_Location":"Shekh Tash Taimor Village","Verification_Note":"Building","PS_Male":1,"PS_Female":1,"Map_Accuracy":"تعمیر"},"geometry":{"x":7429852.9903583117,"y":4417174.681227468}},{"attributes":{"OBJECTID":2248,"ولایت":"بلخ","Province":"BALKH","PC_Code":"2111207","ولسوالي":"چار بولک","District":"CHAR BOLAK","د_مرکز_نوم__نام_مرکز":"منزل ملا شاهین","Polling_Center_Name":"Mula Shaheen Private House","د_مرکز_ځای__موقعیت_مرکز":"قریه ملا شاهین","Polling_Center_Location":"Mula Shaheen Village","Verification_Note":"Building","PS_Male":1,"PS_Female":1,"Map_Accuracy":"تعمیر"},"geometry":{"x":7430479.041155789,"y":4409282.3084362}},{"attributes":{"OBJECTID":2249,"ولایت":"بلخ","Province":"BALKH","PC_Code":"2112109","ولسوالي":"شور تیپه","District":"SHORTEPA","د_مرکز_نوم__نام_مرکز":"مکتب جیرتان","Polling_Center_Name":"Jirtan School","د_مرکز_ځای__موقعیت_مرکز":"قریه جیرتان","Polling_Center_Location":"Jirtan Village","Verification_Note":"Building","PS_Male":2,"PS_Female":1,"Map_Accuracy":"تعمیر"},"geometry":{"x":7494631.0644139461,"y":4463502.5141755939}},{"attributes":{"OBJECTID":2250,"ولایت":"بلخ","Province":"BALKH","PC_Code":"2112110","ولسوالي":"شور تیپه","District":"SHORTEPA","د_مرکز_نوم__نام_مرکز":"مکتب تاشگذر","Polling_Center_Name":"Tashguzar School","د_مرکز_ځای__موقعیت_مرکز":"قره هزاره توقی","Polling_Center_Location":"Hazara Toqi Village","Verification_Note":"Building","PS_Male":2,"PS_Female":1,"Map_Accuracy":"تعمیر"},"geometry":{"x":7481784.2419185415,"y":4467325.5463692322}},{"attributes":{"OBJECTID":2251,"ولایت":"بلخ","Province":"BALKH","PC_Code":"2113101","ولسوالي":"کلدار","District":"KALDAR","د_مرکز_نوم__نام_مرکز":"مکتب متوسطه تزلاق","Polling_Center_Name":"Tazlaq Secondary School","د_مرکز_ځای__موقعیت_مرکز":"قریه تزلاق","Polling_Center_Location":"Tazlaq Village","Verification_Note":"Building","PS_Male":2,"PS_Female":1,"Map_Accuracy":"تعمیر"},"geometry":{"x":7514677.1621686444,"y":4471697.4241870046}},{"attributes":{"OBJECTID":2252,"ولایت":"بلخ","Province":"BALKH","PC_Code":"2113102","ولسوالي":"کلدار","District":"KALDAR","د_مرکز_نوم__نام_مرکز":"منزل حاجی ولی","Polling_Center_Name":"Haji Wali Private House","د_مرکز_ځای__موقعیت_مرکز":"قریه تازه آریخ","Polling_Center_Location":"Taza Areekh Village","Verification_Note":"Building","PS_Male":1,"PS_Female":1,"Map_Accuracy":"تعمیر"},"geometry":{"x":7541192.2448139861,"y":4464929.2921340019}},{"attributes":{"OBJECTID":2253,"ولایت":"بلخ","Province":"BALKH","PC_Code":"2113105","ولسوالي":"کلدار","District":"KALDAR","د_مرکز_نوم__نام_مرکز":"مکتب متوسطه بوزآریخ","Polling_Center_Name":"Bozareekh Secondary School","د_مرکز_ځای__موقعیت_مرکز":"قریه بوز آریخ","Polling_Center_Location":"Boz Areekh Village","Verification_Note":"Building","PS_Male":1,"PS_Female":1,"Map_Accuracy":"تعمیر"},"geometry":{"x":7538560.2245847881,"y":4466364.0455206335}},{"attributes":{"OBJECTID":2254,"ولایت":"بلخ","Province":"BALKH","PC_Code":"2113106","ولسوالي":"کلدار","District":"KALDAR","د_مرکز_نوم__نام_مرکز":"منزل کریم قریه دار","Polling_Center_Name":"Kareem Qaryadar Private House","د_مرکز_ځای__موقعیت_مرکز":"قریه قره جه","Polling_Center_Location":"Qaraja Village","Verification_Note":"Building","PS_Male":1,"PS_Female":1,"Map_Accuracy":"تعمیر"},"geometry":{"x":7533899.5725019276,"y":4466851.3009875044}},{"attributes":{"OBJECTID":2255,"ولایت":"بلخ","Province":"BALKH","PC_Code":"2114290","ولسوالي":"کشنده","District":"KISHINDEH","د_مرکز_نوم__نام_مرکز":"مکتب کشنده بالا","Polling_Center_Name":"Kushenda Bala School","د_مرکز_ځای__موقعیت_مرکز":"قریه کشنده بالا","Polling_Center_Location":"Kushenda Bala Village","Verification_Note":"Building","PS_Male":2,"PS_Female":1,"Map_Accuracy":"تعمیر"},"geometry":{"x":7447360.2044489905,"y":4311592.0800734237}},{"attributes":{"OBJECTID":2256,"ولایت":"بلخ","Province":"BALKH","PC_Code":"2114291","ولسوالي":"کشنده","District":"KISHINDEH","د_مرکز_نوم__نام_مرکز":"مکتب کشنده پایان ","Polling_Center_Name":"Kushenda Payan School","د_مرکز_ځای__موقعیت_مرکز":"قریه کشنده پایان","Polling_Center_Location":"Kushenda Payan Village","Verification_Note":"Building","PS_Male":2,"PS_Female":1,"Map_Accuracy":"تعمیر"},"geometry":{"x":7449671.50543284,"y":4321706.0693070516}},{"attributes":{"OBJECTID":2257,"ولایت":"بلخ","Province":"BALKH","PC_Code":"2115313","ولسوالي":"زاری","District":"ZARI","د_مرکز_نوم__نام_مرکز":"مکتب متوسطه عبدالگان ","Polling_Center_Name":"Abdaalgan Secondary School","د_مرکز_ځای__موقعیت_مرکز":"قریه بنی گو","Polling_Center_Location":"Banigo Village","Verification_Note":"Building","PS_Male":2,"PS_Female":1,"Map_Accuracy":"تعمیر"},"geometry":{"x":7428681.3671892472,"y":4277489.6359817162}},{"attributes":{"OBJECTID":2258,"ولایت":"سرپل","Province":"SAR-E-PUL","PC_Code":"2201027","ولسوالي":"سرپل","District":"SAR-E-PUL","د_مرکز_نوم__نام_مرکز":"مکتب قریه قشقری","Polling_Center_Name":"Qashqari Village School","د_مرکز_ځای__موقعیت_مرکز":"قریه قشقری","Polling_Center_Location":"Qashqari Village","Verification_Note":"Building","PS_Male":2,"PS_Female":2,"Map_Accuracy":"تعمیر"},"geometry":{"x":7350241.3314404823,"y":4321171.9005318359}},{"attributes":{"OBJECTID":2259,"ولایت":"سرپل","Province":"SAR-E-PUL","PC_Code":"2201034","ولسوالي":"سرپل","District":"SAR-E-PUL","د_مرکز_نوم__نام_مرکز":"مسجدقریه سه توت","Polling_Center_Name":"Se Toot Village Mosque","د_مرکز_ځای__موقعیت_مرکز":"قریه سه توت","Polling_Center_Location":"Se Toot Village","Verification_Note":"Building","PS_Male":1,"PS_Female":1,"Map_Accuracy":"تعمیر"},"geometry":{"x":7351470.9409322962,"y":4305091.6876462623}},{"attributes":{"OBJECTID":2260,"ولایت":"سرپل","Province":"SAR-E-PUL","PC_Code":"2202051","ولسوالي":"صیاد","District":"SAYAD","د_مرکز_نوم__نام_مرکز":"مکتب متوسطه تربلاق","Polling_Center_Name":"Tarbalaq Secondary School","د_مرکز_ځای__موقعیت_مرکز":"تربلاق","Polling_Center_Location":"Tarbalaq ","Verification_Note":"Building","PS_Male":1,"PS_Female":1,"Map_Accuracy":"تعمیر"},"geometry":{"x":7336617.0736588836,"y":4314850.34135773}},{"attributes":{"OBJECTID":2261,"ولایت":"سرپل","Province":"SAR-E-PUL","PC_Code":"2202052","ولسوالي":"صیاد","District":"SAYAD","د_مرکز_نوم__نام_مرکز":"ملکیت مسجد دره بند","Polling_Center_Name":"Dara-e-Band Mosque Property","د_مرکز_ځای__موقعیت_مرکز":"قریه دره بند","Polling_Center_Location":"Dara-e-Band Village","Verification_Note":"Village","PS_Male":2,"PS_Female":2,"Map_Accuracy":"قریه"},"geometry":{"x":7314336.2204285786,"y":4313975.0873292908}},{"attributes":{"OBJECTID":2262,"ولایت":"سرپل","Province":"SAR-E-PUL","PC_Code":"2202057","ولسوالي":"صیاد","District":"SAYAD","د_مرکز_نوم__نام_مرکز":"مکتب متوسطه میرزا ولنگ","Polling_Center_Name":"Mirza Walang Secondary School","د_مرکز_ځای__موقعیت_مرکز":"میرزا ولنگ","Polling_Center_Location":"Mirza Walang ","Verification_Note":"Building","PS_Male":1,"PS_Female":2,"Map_Accuracy":"تعمیر"},"geometry":{"x":7324237.079466857,"y":4299614.9107671008}},{"attributes":{"OBJECTID":2263,"ولایت":"سرپل","Province":"SAR-E-PUL","PC_Code":"2203062","ولسوالي":"کوهستانات","District":"KOHISTANAT","د_مرکز_نوم__نام_مرکز":"مسجد جامع نگاله","Polling_Center_Name":"Nagala Mosque","د_مرکز_ځای__موقعیت_مرکز":"نگاله","Polling_Center_Location":"Nagala","Verification_Note":"Building","PS_Male":1,"PS_Female":1,"Map_Accuracy":"تعمیر"},"geometry":{"x":7334155.5002680048,"y":4288505.1486506313}},{"attributes":{"OBJECTID":2264,"ولایت":"سرپل","Province":"SAR-E-PUL","PC_Code":"2203063","ولسوالي":"کوهستانات","District":"KOHISTANAT","د_مرکز_نوم__نام_مرکز":"مسجد جامع سر ده","Polling_Center_Name":"Sar Deh Mosque","د_مرکز_ځای__موقعیت_مرکز":"سر ده","Polling_Center_Location":"Sar Deh","Verification_Note":"Building","PS_Male":2,"PS_Female":2,"Map_Accuracy":"تعمیر"},"geometry":{"x":7335547.3378801532,"y":4278064.5226989836}},{"attributes":{"OBJECTID":2265,"ولایت":"سرپل","Province":"SAR-E-PUL","PC_Code":"2205103","ولسوالي":"سنگ چارک","District":"SANG CHARAK","د_مرکز_نوم__نام_مرکز":"مسجد جامع مسجد قریه سبز","Polling_Center_Name":"Sabz Village Mosque","د_مرکز_ځای__موقعیت_مرکز":"قریه سبز","Polling_Center_Location":"Sabz Village","Verification_Note":"Building","PS_Male":2,"PS_Female":2,"Map_Accuracy":"تعمیر"},"geometry":{"x":7384588.3079925328,"y":4282231.912983954}},{"attributes":{"OBJECTID":2266,"ولایت":"سرپل","Province":"SAR-E-PUL","PC_Code":"2205104","ولسوالي":"سنگ چارک","District":"SANG CHARAK","د_مرکز_نوم__نام_مرکز":"مسجد جامع قریه توپخانه","Polling_Center_Name":"Topkhana Village Mosque","د_مرکز_ځای__موقعیت_مرکز":"قریه توپخانه","Polling_Center_Location":"Topkhana Village","Verification_Note":"Building","PS_Male":2,"PS_Female":1,"Map_Accuracy":"تعمیر"},"geometry":{"x":7386208.2325621434,"y":4286443.6927955151}},{"attributes":{"OBJECTID":2267,"ولایت":"سرپل","Province":"SAR-E-PUL","PC_Code":"2205113","ولسوالي":"سنگ چارک","District":"SANG CHARAK","د_مرکز_نوم__نام_مرکز":"مسجد جامع چارو","Polling_Center_Name":"Charoo Mosque","د_مرکز_ځای__موقعیت_مرکز":"چارو علیا","Polling_Center_Location":"Charoo Ulya ","Verification_Note":"Building","PS_Male":1,"PS_Female":1,"Map_Accuracy":"تعمیر"},"geometry":{"x":7396351.5131687149,"y":4281291.6720441058}},{"attributes":{"OBJECTID":2268,"ولایت":"سرپل","Province":"SAR-E-PUL","PC_Code":"2205119","ولسوالي":"سنگ چارک","District":"SANG CHARAK","د_مرکز_نوم__نام_مرکز":"مسجد فرشقان میانه","Polling_Center_Name":"Farshqan Miyana Mosque","د_مرکز_ځای__موقعیت_مرکز":"فرشقان میانه","Polling_Center_Location":"Farshaqan Miyana","Verification_Note":"Building","PS_Male":1,"PS_Female":1,"Map_Accuracy":"تعمیر"},"geometry":{"x":7398164.7206569947,"y":4291870.4277218729}},{"attributes":{"OBJECTID":2269,"ولایت":"سرپل","Province":"SAR-E-PUL","PC_Code":"2205120","ولسوالي":"سنگ چارک","District":"SANG CHARAK","د_مرکز_نوم__نام_مرکز":"مسجد رستم قریه‌دار","Polling_Center_Name":"Rostam Qaryadar Mosque","د_مرکز_ځای__موقعیت_مرکز":"لرک افغانیه ","Polling_Center_Location":"Larak Afghania","Verification_Note":"Building","PS_Male":1,"PS_Female":1,"Map_Accuracy":"تعمیر"},"geometry":{"x":7392697.38297854,"y":4308260.9799497053}},{"attributes":{"OBJECTID":2270,"ولایت":"سرپل","Province":"SAR-E-PUL","PC_Code":"2206129","ولسوالي":"گوسفندی ","District":"GOSFANDI","د_مرکز_نوم__نام_مرکز":"مدرسه قریه شاه مرد","Polling_Center_Name":"Shah Mard Village Madrassa","د_مرکز_ځای__موقعیت_مرکز":"قریه شاه مرد","Polling_Center_Location":"Shah Mard Village","Verification_Note":"Building","PS_Male":2,"PS_Female":1,"Map_Accuracy":"تعمیر"},"geometry":{"x":7401208.23894988,"y":4282711.1627314016}},{"attributes":{"OBJECTID":2271,"ولایت":"سرپل","Province":"SAR-E-PUL","PC_Code":"2206130","ولسوالي":"گوسفندی ","District":"GOSFANDI","د_مرکز_نوم__نام_مرکز":"مدرسه قریه کران","Polling_Center_Name":"Karan Village Madrassa","د_مرکز_ځای__موقعیت_مرکز":"قریه کران","Polling_Center_Location":"Karan Village","Verification_Note":"Building","PS_Male":2,"PS_Female":2,"Map_Accuracy":"تعمیر"},"geometry":{"x":7405382.3691982329,"y":4288363.6320086569}},{"attributes":{"OBJECTID":2272,"ولایت":"سرپل","Province":"SAR-E-PUL","PC_Code":"2206134","ولسوالي":"گوسفندی ","District":"GOSFANDI","د_مرکز_نوم__نام_مرکز":"مسجد جامع الغن افغانیه","Polling_Center_Name":"Alghan Afghania Mosque","د_مرکز_ځای__موقعیت_مرکز":"الغن افغانیه","Polling_Center_Location":"Alghan Afghania","Verification_Note":"Building","PS_Male":2,"PS_Female":2,"Map_Accuracy":"تعمیر"},"geometry":{"x":7406296.9423047192,"y":4300659.8240014538}},{"attributes":{"OBJECTID":2273,"ولایت":"سرپل","Province":"SAR-E-PUL","PC_Code":"2207097","ولسوالي":"بلخآب","District":"BALKHAB","د_مرکز_نوم__نام_مرکز":"مدرسه زوج","Polling_Center_Name":"Zawj Madrassa","د_مرکز_ځای__موقعیت_مرکز":"زوج","Polling_Center_Location":"Zawj","Verification_Note":"Building","PS_Male":2,"PS_Female":2,"Map_Accuracy":"تعمیر"},"geometry":{"x":7392000.9303955026,"y":4205941.4248211458}},{"attributes":{"OBJECTID":2274,"ولایت":"سرپل","Province":"SAR-E-PUL","PC_Code":"2207098","ولسوالي":"بلخآب","District":"BALKHAB","د_مرکز_نوم__نام_مرکز":"مدرسه باجگاه","Polling_Center_Name":"Bajgah Madrassa","د_مرکز_ځای__موقعیت_مرکز":"شیخ منگ","Polling_Center_Location":"Shekh Mang","Verification_Note":"Building","PS_Male":3,"PS_Female":1,"Map_Accuracy":"تعمیر"},"geometry":{"x":7414878.8078660481,"y":4255310.7803152949}},{"attributes":{"OBJECTID":2275,"ولایت":"سرپل","Province":"SAR-E-PUL","PC_Code":"2207100","ولسوالي":"بلخآب","District":"BALKHAB","د_مرکز_نوم__نام_مرکز":"مکتب متوسطه پیتاب","Polling_Center_Name":"Pitab Secondar School","د_مرکز_ځای__موقعیت_مرکز":"پیتاب","Polling_Center_Location":"Pitab","Verification_Note":"Building","PS_Male":2,"PS_Female":2,"Map_Accuracy":"تعمیر"},"geometry":{"x":7410479.8990754969,"y":4255098.1227688566}},{"attributes":{"OBJECTID":2276,"ولایت":"غور","Province":"GHOR","PC_Code":"2301001","ولسوالي":"چغچران","District":"CHIGHCHERAN","د_مرکز_نوم__نام_مرکز":"لیسه سلطان علا والدین غوری ","Polling_Center_Name":"Sultan Alauddin Ghori High School","د_مرکز_ځای__موقعیت_مرکز":"تحت شهر","Polling_Center_Location":"Taht Shahr","Verification_Note":"Building","PS_Male":4,"PS_Female":2,"Map_Accuracy":"تعمیر"},"geometry":{"x":7264564.5736689232,"y":4098996.3382088915}},{"attributes":{"OBJECTID":2277,"ولایت":"سرپل","Province":"SAR-E-PUL","PC_Code":"2201003","ولسوالي":"سرپل","District":"SAR-E-PUL","د_مرکز_نوم__نام_مرکز":"لیسه رحمت آباد","Polling_Center_Name":"Rahmat Abad High School","د_مرکز_ځای__موقعیت_مرکز":"قریه رحمت آ باد","Polling_Center_Location":"Rahmat Abad Village","Verification_Note":"Building","PS_Male":4,"PS_Female":2,"Map_Accuracy":"تعمیر"},"geometry":{"x":7339781.03741442,"y":4331734.1866683885}},{"attributes":{"OBJECTID":2278,"ولایت":"سرپل","Province":"SAR-E-PUL","PC_Code":"2201004","ولسوالي":"سرپل","District":"SAR-E-PUL","د_مرکز_نوم__نام_مرکز":"لیسه امام یحیی ","Polling_Center_Name":"Imam Yahya High School","د_مرکز_ځای__موقعیت_مرکز":"قریه امام خورد ","Polling_Center_Location":"Imam Khord Village","Verification_Note":"Building","PS_Male":3,"PS_Female":2,"Map_Accuracy":"تعمیر"},"geometry":{"x":7341442.9060549624,"y":4330231.6415715218}},{"attributes":{"OBJECTID":2279,"ولایت":"سرپل","Province":"SAR-E-PUL","PC_Code":"2203065","ولسوالي":"کوهستانات","District":"KOHISTANAT","د_مرکز_نوم__نام_مرکز":"لیسه همت ده سرخ وپس نی","Polling_Center_Name":"Himat Deh Surkh o Pas Nai High School","د_مرکز_ځای__موقعیت_مرکز":"قریه ده سرخ","Polling_Center_Location":"Deh Surkh Village","Verification_Note":"Building","PS_Male":2,"PS_Female":1,"Map_Accuracy":"تعمیر"},"geometry":{"x":7321682.45634003,"y":4268563.9828441367}},{"attributes":{"OBJECTID":2280,"ولایت":"سرپل","Province":"SAR-E-PUL","PC_Code":"2204036","ولسوالي":"سوزمه قلعه","District":"SOZMA QALA","د_مرکز_نوم__نام_مرکز":"مسجد جامع گورکاب علیا","Polling_Center_Name":"Gorkaab Ulya Mosque","د_مرکز_ځای__موقعیت_مرکز":"گورکاب علیا","Polling_Center_Location":"Gorkaab Ulya","Verification_Note":"Building","PS_Male":2,"PS_Female":1,"Map_Accuracy":"تعمیر"},"geometry":{"x":7373236.8235190213,"y":4303993.819294408}},{"attributes":{"OBJECTID":2281,"ولایت":"سرپل","Province":"SAR-E-PUL","PC_Code":"2204037","ولسوالي":"سوزمه قلعه","District":"SOZMA QALA","د_مرکز_نوم__نام_مرکز":"مسجد جامع تنزیل","Polling_Center_Name":"Tanzeel Mosque","د_مرکز_ځای__موقعیت_مرکز":"تنزیل","Polling_Center_Location":"Tanzeel","Verification_Note":"Building","PS_Male":1,"PS_Female":1,"Map_Accuracy":"تعمیر"},"geometry":{"x":7371845.1907347441,"y":4301269.9025884047}},{"attributes":{"OBJECTID":2282,"ولایت":"سرپل","Province":"SAR-E-PUL","PC_Code":"2204041","ولسوالي":"سوزمه قلعه","District":"SOZMA QALA","د_مرکز_نوم__نام_مرکز":"مکتب متوسطه نسوان خانقاه","Polling_Center_Name":"Khanqah Girls Secondary School","د_مرکز_ځای__موقعیت_مرکز":"خانقاه","Polling_Center_Location":"Khanqah","Verification_Note":"Building","PS_Male":3,"PS_Female":1,"Map_Accuracy":"تعمیر"},"geometry":{"x":7363059.8832380138,"y":4284747.6400982812}},{"attributes":{"OBJECTID":2283,"ولایت":"سرپل","Province":"SAR-E-PUL","PC_Code":"2206136","ولسوالي":"گوسفندی ","District":"GOSFANDI","د_مرکز_نوم__نام_مرکز":"مکتب متوسطه نسوان یولتراب","Polling_Center_Name":"Yoltarab Girls Secondary School","د_مرکز_ځای__موقعیت_مرکز":"قریه یولتراب","Polling_Center_Location":"Yoltarab Village","Verification_Note":"Building","PS_Male":2,"PS_Female":1,"Map_Accuracy":"تعمیر"},"geometry":{"x":7404820.4807288758,"y":4294409.6931573823}},{"attributes":{"OBJECTID":2284,"ولایت":"سرپل","Province":"SAR-E-PUL","PC_Code":"2207087","ولسوالي":"بلخآب","District":"BALKHAB","د_مرکز_نوم__نام_مرکز":"مدرسه تگاب تخت","Polling_Center_Name":"Tagab Takht Madrassa","د_مرکز_ځای__موقعیت_مرکز":"تگاب تخت","Polling_Center_Location":"Tagab Takht","Verification_Note":"Building","PS_Male":2,"PS_Female":1,"Map_Accuracy":"تعمیر"},"geometry":{"x":7449232.1274026781,"y":4253736.3313982263}},{"attributes":{"OBJECTID":2285,"ولایت":"سرپل","Province":"SAR-E-PUL","PC_Code":"2207090","ولسوالي":"بلخآب","District":"BALKHAB","د_مرکز_نوم__نام_مرکز":"مکتب دوشاخ ","Polling_Center_Name":"Doshakh School","د_مرکز_ځای__موقعیت_مرکز":"دو شاخ","Polling_Center_Location":"Doshakh","Verification_Note":"Building","PS_Male":3,"PS_Female":2,"Map_Accuracy":"تعمیر"},"geometry":{"x":7435635.3009699956,"y":4227070.0674074069}},{"attributes":{"OBJECTID":2286,"ولایت":"سرپل","Province":"SAR-E-PUL","PC_Code":"2207091","ولسوالي":"بلخآب","District":"BALKHAB","د_مرکز_نوم__نام_مرکز":"لیسه طلوع جورازی","Polling_Center_Name":"Tolo Jorazi High School","د_مرکز_ځای__موقعیت_مرکز":"جورازی ","Polling_Center_Location":"Jorazi","Verification_Note":"Building","PS_Male":2,"PS_Female":2,"Map_Accuracy":"تعمیر"},"geometry":{"x":7426874.6307029724,"y":4242606.4382938519}},{"attributes":{"OBJECTID":2287,"ولایت":"سرپل","Province":"SAR-E-PUL","PC_Code":"2207094","ولسوالي":"بلخآب","District":"BALKHAB","د_مرکز_نوم__نام_مرکز":"مسجد جامع پای زیارت","Polling_Center_Name":"Pay Ziarat Mosque","د_مرکز_ځای__موقعیت_مرکز":"پای زیارت","Polling_Center_Location":"Pay Ziarat","Verification_Note":"Building","PS_Male":3,"PS_Female":2,"Map_Accuracy":"تعمیر"},"geometry":{"x":7396223.5926022641,"y":4226481.77554515}},{"attributes":{"OBJECTID":2288,"ولایت":"سرپل","Province":"SAR-E-PUL","PC_Code":"2207095","ولسوالي":"بلخآب","District":"BALKHAB","د_مرکز_نوم__نام_مرکز":"مدرسه پیغوله ","Polling_Center_Name":"Peghola Madrassa","د_مرکز_ځای__موقعیت_مرکز":"پیغوله ","Polling_Center_Location":"Peghola","Verification_Note":"Building","PS_Male":2,"PS_Female":2,"Map_Accuracy":"تعمیر"},"geometry":{"x":7384014.2901514508,"y":4220510.6276039034}},{"attributes":{"OBJECTID":2289,"ولایت":"سرپل","Province":"SAR-E-PUL","PC_Code":"2203139","ولسوالي":"کوهستانات","District":"KOHISTANAT","د_مرکز_نوم__نام_مرکز":"مسجد","Polling_Center_Name":"Mosque","د_مرکز_ځای__موقعیت_مرکز":"نیمک","Polling_Center_Location":"Nimak","Verification_Note":"Village","PS_Male":2,"PS_Female":1,"Map_Accuracy":"قریه"},"geometry":{"x":7299145.1468253136,"y":4238359.297756888}},{"attributes":{"OBJECTID":2290,"ولایت":"سرپل","Province":"SAR-E-PUL","PC_Code":"2204140","ولسوالي":"سوزمه قلعه","District":"SOZMA QALA","د_مرکز_نوم__نام_مرکز":"مکتب ","Polling_Center_Name":"School","د_مرکز_ځای__موقعیت_مرکز":"قریه ملک ازبکیه","Polling_Center_Location":"Malek uzbakia village","Verification_Note":"Building","PS_Male":2,"PS_Female":1,"Map_Accuracy":"تعمیر"},"geometry":{"x":7360930.3979294412,"y":4283500.1183543652}},{"attributes":{"OBJECTID":2291,"ولایت":"سرپل","Province":"SAR-E-PUL","PC_Code":"2205142","ولسوالي":" سانچارك","District":"SANG CHARAK","د_مرکز_نوم__نام_مرکز":"مکتب خواجه سرخ","Polling_Center_Name":"Khwaja surkh School","د_مرکز_ځای__موقعیت_مرکز":"خواجه سرخ","Polling_Center_Location":"Khwaja sorkh","Verification_Note":"Village","PS_Male":2,"PS_Female":1,"Map_Accuracy":"قریه"},"geometry":{"x":7388712.2925951444,"y":4306105.8475163877}},{"attributes":{"OBJECTID":2292,"ولایت":"سرپل","Province":"SAR-E-PUL","PC_Code":"2206143","ولسوالي":"گوسفندی","District":"GOSFANDI","د_مرکز_نوم__نام_مرکز":"مسجد","Polling_Center_Name":"Mosque","د_مرکز_ځای__موقعیت_مرکز":"چغدان","Polling_Center_Location":"Chaghdan","Verification_Note":"Building","PS_Male":2,"PS_Female":1,"Map_Accuracy":"تعمیر"},"geometry":{"x":7421266.7392543294,"y":4313159.4142618775}},{"attributes":{"OBJECTID":2293,"ولایت":"سرپل","Province":"SAR-E-PUL","PC_Code":"2201008","ولسوالي":"سرپل","District":"SAR-E-PUL","د_مرکز_نوم__نام_مرکز":"مکتب متوسطه کورک اوزبیکیه","Polling_Center_Name":"Korak Uzbekya Secondary School","د_مرکز_ځای__موقعیت_مرکز":"قریه کورک اوزبیکیه ","Polling_Center_Location":"Korak Uzbekya Village","Verification_Note":"Building","PS_Male":2,"PS_Female":1,"Map_Accuracy":"تعمیر"},"geometry":{"x":7332865.6301962361,"y":4339425.78148482}},{"attributes":{"OBJECTID":2294,"ولایت":"سرپل","Province":"SAR-E-PUL","PC_Code":"2201009","ولسوالي":"سرپل","District":"SAR-E-PUL","د_مرکز_نوم__نام_مرکز":"مکتب متوسطه بغاوی اوزبیکیه","Polling_Center_Name":"Baghawi Uzbekya Secondary School","د_مرکز_ځای__موقعیت_مرکز":"قریه بغاوی اوزبیکیه","Polling_Center_Location":"Baghawi Uzbekya Village","Verification_Note":"Building","PS_Male":3,"PS_Female":2,"Map_Accuracy":"تعمیر"},"geometry":{"x":7355732.9312019572,"y":4325139.93635226}},{"attributes":{"OBJECTID":2295,"ولایت":"سرپل","Province":"SAR-E-PUL","PC_Code":"2201010","ولسوالي":"سرپل","District":"SAR-E-PUL","د_مرکز_نوم__نام_مرکز":"لیسه قوش تپه","Polling_Center_Name":"Qosh Tapa High School","د_مرکز_ځای__موقعیت_مرکز":"قریه قوش تپه ","Polling_Center_Location":"Qosh Tapa Village","Verification_Note":"Building","PS_Male":4,"PS_Female":1,"Map_Accuracy":"تعمیر"},"geometry":{"x":7334996.5334924869,"y":4347917.9945242032}},{"attributes":{"OBJECTID":2296,"ولایت":"سرپل","Province":"SAR-E-PUL","PC_Code":"2201020","ولسوالي":"سرپل","District":"SAR-E-PUL","د_مرکز_نوم__نام_مرکز":"مدرسه قدم جای","Polling_Center_Name":"Qadam Jay Madrassa","د_مرکز_ځای__موقعیت_مرکز":"قریه قدم جایی","Polling_Center_Location":"Qadam Jay Village","Verification_Note":"Village","PS_Male":1,"PS_Female":1,"Map_Accuracy":"قریه"},"geometry":{"x":7366811.8888640814,"y":4332742.8213311583}},{"attributes":{"OBJECTID":2297,"ولایت":"سرپل","Province":"SAR-E-PUL","PC_Code":"2202048","ولسوالي":"صیاد","District":"SAYAD","د_مرکز_نوم__نام_مرکز":"لیسه نسوان ملا سخیداد","Polling_Center_Name":"Mula Sakhidad Girls High School","د_مرکز_ځای__موقعیت_مرکز":"ملا سخیداد","Polling_Center_Location":"Mula Sakhidad ","Verification_Note":"Building","PS_Male":3,"PS_Female":1,"Map_Accuracy":"تعمیر"},"geometry":{"x":7328412.4230976664,"y":4319935.1320544481}},{"attributes":{"OBJECTID":2298,"ولایت":"سرپل","Province":"SAR-E-PUL","PC_Code":"2202049","ولسوالي":"صیاد","District":"SAYAD","د_مرکز_نوم__نام_مرکز":"مکتب متوسطه انگشکه","Polling_Center_Name":"Angushka Secondary School","د_مرکز_ځای__موقعیت_مرکز":"انگشکه","Polling_Center_Location":"Angushka","Verification_Note":"Building","PS_Male":2,"PS_Female":1,"Map_Accuracy":"تعمیر"},"geometry":{"x":7331357.41139606,"y":4325448.5207603127}},{"attributes":{"OBJECTID":2299,"ولایت":"سرپل","Province":"SAR-E-PUL","PC_Code":"2202053","ولسوالي":"صیاد","District":"SAYAD","د_مرکز_نوم__نام_مرکز":"ملکیت مسجد قره خوال","Polling_Center_Name":"Qara Khowal Mosque Property","د_مرکز_ځای__موقعیت_مرکز":"قریه قره خوال","Polling_Center_Location":"Qara Khowal Village","Verification_Note":"Village","PS_Male":2,"PS_Female":2,"Map_Accuracy":"قریه"},"geometry":{"x":7307774.4963833541,"y":4306098.3764112815}},{"attributes":{"OBJECTID":2300,"ولایت":"سرپل","Province":"SAR-E-PUL","PC_Code":"2202054","ولسوالي":"صیاد","District":"SAYAD","د_مرکز_نوم__نام_مرکز":"مدرسه قریه شاه توت","Polling_Center_Name":"Shah Toot Village Madrassa","د_مرکز_ځای__موقعیت_مرکز":"قریه شاه توت","Polling_Center_Location":"Shah Toot Village","Verification_Note":"Village","PS_Male":2,"PS_Female":1,"Map_Accuracy":"قریه"},"geometry":{"x":7296715.861207474,"y":4301929.5939420462}},{"attributes":{"OBJECTID":2301,"ولایت":"سرپل","Province":"SAR-E-PUL","PC_Code":"2203069","ولسوالي":"کوهستانات","District":"KOHISTANAT","د_مرکز_نوم__نام_مرکز":"مدرسه قلعه شهر","Polling_Center_Name":"Qala-e-Shahr Madrassa","د_مرکز_ځای__موقعیت_مرکز":"مدرسه قلعه شهر","Polling_Center_Location":"Qala-e-Shahr Madrassa","Verification_Note":"Building","PS_Male":1,"PS_Female":1,"Map_Accuracy":"تعمیر"},"geometry":{"x":7299029.1626025885,"y":4238373.09642797}},{"attributes":{"OBJECTID":2302,"ولایت":"سرپل","Province":"SAR-E-PUL","PC_Code":"2203070","ولسوالي":"کوهستانات","District":"KOHISTANAT","د_مرکز_نوم__نام_مرکز":"مسجد حاجی ملا قربان","Polling_Center_Name":"Haji Mula Qurban Mosque","د_مرکز_ځای__موقعیت_مرکز":"نوآباد قلعه شهر","Polling_Center_Location":"Naw Qala Shahr ","Verification_Note":"Building","PS_Male":2,"PS_Female":1,"Map_Accuracy":"تعمیر"},"geometry":{"x":7297252.5558496751,"y":4235341.84303534}},{"attributes":{"OBJECTID":2303,"ولایت":"سرپل","Province":"SAR-E-PUL","PC_Code":"2203082","ولسوالي":"کوهستانات","District":"KOHISTANAT","د_مرکز_نوم__نام_مرکز":"لیسهَ آزادی","Polling_Center_Name":"Azadi High School","د_مرکز_ځای__موقعیت_مرکز":"شینهَ سفید میدان","Polling_Center_Location":"Safid Maidan Shina","Verification_Note":"Building","PS_Male":2,"PS_Female":1,"Map_Accuracy":"تعمیر"},"geometry":{"x":7368933.9923545793,"y":4202370.8838371933}},{"attributes":{"OBJECTID":2304,"ولایت":"سرپل","Province":"SAR-E-PUL","PC_Code":"2203083","ولسوالي":"کوهستانات","District":"KOHISTANAT","د_مرکز_نوم__نام_مرکز":"لیسهَ شهید مزاری","Polling_Center_Name":"Shaheed Mazari High School","د_مرکز_ځای__موقعیت_مرکز":" دهنهَ کاشان","Polling_Center_Location":"Dahna Kashan","Verification_Note":"Building","PS_Male":1,"PS_Female":1,"Map_Accuracy":"تعمیر"},"geometry":{"x":7373130.3698031716,"y":4182060.6789093539}},{"attributes":{"OBJECTID":2305,"ولایت":"سرپل","Province":"SAR-E-PUL","PC_Code":"2204043","ولسوالي":"سوزمه قلعه","District":"SOZMA QALA","د_مرکز_نوم__نام_مرکز":"مسجد جامع سبزی کلان","Polling_Center_Name":"Sabzi Kalan Mosque","د_مرکز_ځای__موقعیت_مرکز":"سبزی کلان","Polling_Center_Location":"Sabzi Kalan","Verification_Note":"Building","PS_Male":1,"PS_Female":1,"Map_Accuracy":"تعمیر"},"geometry":{"x":7378684.4376100935,"y":4315912.30345913}},{"attributes":{"OBJECTID":2306,"ولایت":"سرپل","Province":"SAR-E-PUL","PC_Code":"2204047","ولسوالي":"سوزمه قلعه","District":"SOZMA QALA","د_مرکز_نوم__نام_مرکز":"مسجد جامع قریه باغ اسحق","Polling_Center_Name":"Bagh Ishaaq Village Mosque","د_مرکز_ځای__موقعیت_مرکز":"قریه باغ اسحق","Polling_Center_Location":"Bagh Ishaaq Village","Verification_Note":"Building","PS_Male":1,"PS_Female":1,"Map_Accuracy":"تعمیر"},"geometry":{"x":7379391.0102480352,"y":4310243.6257897317}},{"attributes":{"OBJECTID":2307,"ولایت":"سرپل","Province":"SAR-E-PUL","PC_Code":"2205106","ولسوالي":"سنگ چارک","District":"SANG CHARAK","د_مرکز_نوم__نام_مرکز":"مکتب متوسطه عرفان","Polling_Center_Name":"Irfan Secondary School","د_مرکز_ځای__موقعیت_مرکز":"قریه گل خانه تفایخور","Polling_Center_Location":"Khulkhana Tafaikhor Village","Verification_Note":"Building","PS_Male":2,"PS_Female":2,"Map_Accuracy":"تعمیر"},"geometry":{"x":7388127.5264119469,"y":4295789.8961041719}},{"attributes":{"OBJECTID":2308,"ولایت":"سرپل","Province":"SAR-E-PUL","PC_Code":"2205111","ولسوالي":"سنگ چارک","District":"SANG CHARAK","د_مرکز_نوم__نام_مرکز":"مسجد جامع چنار","Polling_Center_Name":"Chinar Mosque","د_مرکز_ځای__موقعیت_مرکز":"قریه فرشقان کلان","Polling_Center_Location":"Farshaqan Kalan Village","Verification_Note":"Building","PS_Male":2,"PS_Female":2,"Map_Accuracy":"تعمیر"},"geometry":{"x":7396307.25253918,"y":4295075.0382364988}},{"attributes":{"OBJECTID":2309,"ولایت":"سرپل","Province":"SAR-E-PUL","PC_Code":"2205116","ولسوالي":"سنگ چارک","District":"SANG CHARAK","د_مرکز_نوم__نام_مرکز":"مکتب ابتدائیه ارچه تو","Polling_Center_Name":"Archatoo Primary School","د_مرکز_ځای__موقعیت_مرکز":"ارچه تو","Polling_Center_Location":"Archatoo","Verification_Note":"Building","PS_Male":2,"PS_Female":2,"Map_Accuracy":"تعمیر"},"geometry":{"x":7391338.2410140336,"y":4302096.9695374146}},{"attributes":{"OBJECTID":2310,"ولایت":"سرپل","Province":"SAR-E-PUL","PC_Code":"2205121","ولسوالي":"سنگ چارک","District":"SANG CHARAK","د_مرکز_نوم__نام_مرکز":"مسجد کبود آب ","Polling_Center_Name":"Kabood Aab Mosque","د_مرکز_ځای__موقعیت_مرکز":"قریه پشته کبود آب ","Polling_Center_Location":"Pushta Kabood Aab Village","Verification_Note":"Building","PS_Male":1,"PS_Female":1,"Map_Accuracy":"تعمیر"},"geometry":{"x":7388118.6063811593,"y":4263589.1454902738}},{"attributes":{"OBJECTID":2311,"ولایت":"سرپل","Province":"SAR-E-PUL","PC_Code":"2206124","ولسوالي":"گوسفندی ","District":"GOSFANDI","د_مرکز_نوم__نام_مرکز":"مسجد جامع قریه شیکیار","Polling_Center_Name":"Shekyar Village Mosque","د_مرکز_ځای__موقعیت_مرکز":"مسجد جامع قریه شیکیار","Polling_Center_Location":"Shekyar Village","Verification_Note":"Building","PS_Male":1,"PS_Female":1,"Map_Accuracy":"تعمیر"},"geometry":{"x":7411154.934901692,"y":4309777.5892020836}},{"attributes":{"OBJECTID":2312,"ولایت":"سرپل","Province":"SAR-E-PUL","PC_Code":"2206132","ولسوالي":"گوسفندی ","District":"GOSFANDI","د_مرکز_نوم__نام_مرکز":"مسجد قریه آبدره","Polling_Center_Name":"Aabdara Village Mosque","د_مرکز_ځای__موقعیت_مرکز":"قریه آبدره","Polling_Center_Location":"Aabdara Village","Verification_Note":"Building","PS_Male":1,"PS_Female":1,"Map_Accuracy":"تعمیر"},"geometry":{"x":7409815.6389760077,"y":4268776.9177578613}},{"attributes":{"OBJECTID":2313,"ولایت":"غور","Province":"GHOR","PC_Code":"2301005","ولسوالي":"چغچران","District":"CHIGHCHERAN","د_مرکز_نوم__نام_مرکز":"مکتب زرتلی","Polling_Center_Name":"Zartali School","د_مرکز_ځای__موقعیت_مرکز":"گنجک","Polling_Center_Location":"Kanjak","Verification_Note":"Building","PS_Male":3,"PS_Female":2,"Map_Accuracy":"تعمیر"},"geometry":{"x":7281254.947600048,"y":4073030.28304518}},{"attributes":{"OBJECTID":2314,"ولایت":"غور","Province":"GHOR","PC_Code":"2301006","ولسوالي":"چغچران","District":"CHIGHCHERAN","د_مرکز_نوم__نام_مرکز":"بازار قیبی ","Polling_Center_Name":"Bazaar Qibi","د_مرکز_ځای__موقعیت_مرکز":"قیبی دهنه شور قل","Polling_Center_Location":"Qebi Dahna Shor Qol","Verification_Note":"Building","PS_Male":3,"PS_Female":1,"Map_Accuracy":"تعمیر"},"geometry":{"x":7280583.4417149052,"y":4056464.2908715904}},{"attributes":{"OBJECTID":2315,"ولایت":"غور","Province":"GHOR","PC_Code":"2301008","ولسوالي":"چغچران","District":"CHIGHCHERAN","د_مرکز_نوم__نام_مرکز":"مکتب تغه تیمور","Polling_Center_Name":"Tagha-e-Taimur School","د_مرکز_ځای__موقعیت_مرکز":" تغه تیمور","Polling_Center_Location":"Tagha-e-Taimur","Verification_Note":"Village","PS_Male":3,"PS_Female":1,"Map_Accuracy":"قریه"},"geometry":{"x":7249209.8098751418,"y":4089849.8457024097}},{"attributes":{"OBJECTID":2316,"ولایت":"غور","Province":"GHOR","PC_Code":"2301009","ولسوالي":"چغچران","District":"CHIGHCHERAN","د_مرکز_نوم__نام_مرکز":"مکتب کاسی علیا","Polling_Center_Name":"Kaasi Ulya School","د_مرکز_ځای__موقعیت_مرکز":"سر پل کاسی ","Polling_Center_Location":"Sar Pul Kasi","Verification_Note":"Building","PS_Male":3,"PS_Female":1,"Map_Accuracy":"تعمیر"},"geometry":{"x":7268373.5425916277,"y":4109789.14626354}},{"attributes":{"OBJECTID":2317,"ولایت":"غور","Province":"GHOR","PC_Code":"2301017","ولسوالي":"چغچران","District":"CHIGHCHERAN","د_مرکز_نوم__نام_مرکز":"زمین عبدالاحمد","Polling_Center_Name":"Abdul Ahmad Open Space","د_مرکز_ځای__موقعیت_مرکز":" لشاره سفلی","Polling_Center_Location":"Lashara Sufla","Verification_Note":"Village","PS_Male":2,"PS_Female":2,"Map_Accuracy":"قریه"},"geometry":{"x":7227010.7074524909,"y":4115746.5993747339}},{"attributes":{"OBJECTID":2318,"ولایت":"غور","Province":"GHOR","PC_Code":"2301018","ولسوالي":"چغچران","District":"CHIGHCHERAN","د_مرکز_نوم__نام_مرکز":"لیسه تحت غلمین","Polling_Center_Name":"That Ghelmeen High School","د_مرکز_ځای__موقعیت_مرکز":"کاشکک","Polling_Center_Location":"Kashkak","Verification_Note":"Building","PS_Male":3,"PS_Female":2,"Map_Accuracy":"تعمیر"},"geometry":{"x":7269555.8346206918,"y":4146711.8651858419}},{"attributes":{"OBJECTID":2319,"ولایت":"غور","Province":"GHOR","PC_Code":"2301023","ولسوالي":"چغچران","District":"CHIGHCHERAN","د_مرکز_نوم__نام_مرکز":"زمین زراعتی عبدالحق","Polling_Center_Name":"Abdul Haq Open Space","د_مرکز_ځای__موقعیت_مرکز":" آب ریم","Polling_Center_Location":"Aab Reem","Verification_Note":"Village","PS_Male":2,"PS_Female":2,"Map_Accuracy":"قریه"},"geometry":{"x":7330608.5206536949,"y":4169318.0214638039}},{"attributes":{"OBJECTID":2320,"ولایت":"غور","Province":"GHOR","PC_Code":"2301024","ولسوالي":"چغچران","District":"CHIGHCHERAN","د_مرکز_نوم__نام_مرکز":"قلعه نادر خان پهلو سنگ","Polling_Center_Name":"Nadir Khan Pahlo Sang Qala","د_مرکز_ځای__موقعیت_مرکز":" پهلو سنگ","Polling_Center_Location":"Pahlo Sang","Verification_Note":"Village","PS_Male":3,"PS_Female":1,"Map_Accuracy":"قریه"},"geometry":{"x":7297143.7755564712,"y":4066739.3408152163}},{"attributes":{"OBJECTID":2321,"ولایت":"غور","Province":"GHOR","PC_Code":"2301028","ولسوالي":"چغچران","District":"CHIGHCHERAN","د_مرکز_نوم__نام_مرکز":"مکتب متوسطه قطس سفلی","Polling_Center_Name":"Qots Sufla Secondary school","د_مرکز_ځای__موقعیت_مرکز":" قطس سفلی","Polling_Center_Location":"Qots Sufla","Verification_Note":"Building","PS_Male":2,"PS_Female":2,"Map_Accuracy":"تعمیر"},"geometry":{"x":7276019.0642936528,"y":4104820.2625492811}},{"attributes":{"OBJECTID":2322,"ولایت":"غور","Province":"GHOR","PC_Code":"2301029","ولسوالي":"چغچران","District":"CHIGHCHERAN","د_مرکز_نوم__نام_مرکز":"مکتب ابتدائیه صد من غلمین","Polling_Center_Name":"Sadmen Ghelmeen Primary School","د_مرکز_ځای__موقعیت_مرکز":"دربند ","Polling_Center_Location":"Darband","Verification_Note":"Building","PS_Male":3,"PS_Female":2,"Map_Accuracy":"تعمیر"},"geometry":{"x":7263479.5626296662,"y":4146702.7036254257}},{"attributes":{"OBJECTID":2323,"ولایت":"غور","Province":"GHOR","PC_Code":"2301036","ولسوالي":"چغچران","District":"CHIGHCHERAN","د_مرکز_نوم__نام_مرکز":"منزل حبیب الله دهور","Polling_Center_Name":"Habibullah Dahoor Private House","د_مرکز_ځای__موقعیت_مرکز":"شاه مدد ","Polling_Center_Location":"Shah Madad","Verification_Note":"Village","PS_Male":3,"PS_Female":1,"Map_Accuracy":"قریه"},"geometry":{"x":7304876.6697004288,"y":4181794.4883201718}},{"attributes":{"OBJECTID":2324,"ولایت":"غور","Province":"GHOR","PC_Code":"2301045","ولسوالي":"چغچران","District":"CHIGHCHERAN","د_مرکز_نوم__نام_مرکز":"تعمیر حسن","Polling_Center_Name":"Tameer Hassan","د_مرکز_ځای__موقعیت_مرکز":" غار سیا گک","Polling_Center_Location":"Ghaar Siyagak","Verification_Note":"Village","PS_Male":3,"PS_Female":2,"Map_Accuracy":"قریه"},"geometry":{"x":7284858.7168525867,"y":4148077.650091216}},{"attributes":{"OBJECTID":2325,"ولایت":"غور","Province":"GHOR","PC_Code":"2301235","ولسوالي":"چغچران","District":"CHIGHCHERAN","د_مرکز_نوم__نام_مرکز":"میدان بره خانه ","Polling_Center_Name":"Maidan Bara Khana","د_مرکز_ځای__موقعیت_مرکز":"بره خانه","Polling_Center_Location":"Bara Khana","Verification_Note":"Building","PS_Male":2,"PS_Female":2,"Map_Accuracy":"تعمیر"},"geometry":{"x":7215672.84403187,"y":4110269.5703405589}},{"attributes":{"OBJECTID":2326,"ولایت":"غور","Province":"GHOR","PC_Code":"2302100","ولسوالي":"دولینه","District":"DULEENA","د_مرکز_نوم__نام_مرکز":"منزل محمد یعقوب ","Polling_Center_Name":"Mohammad Yaqoob Private House","د_مرکز_ځای__موقعیت_مرکز":" چشمه سفید","Polling_Center_Location":"Chashma Safid","Verification_Note":"Village","PS_Male":1,"PS_Female":1,"Map_Accuracy":"قریه"},"geometry":{"x":7225154.3213601224,"y":4013199.1883239523}},{"attributes":{"OBJECTID":2327,"ولایت":"غور","Province":"GHOR","PC_Code":"2302101","ولسوالي":"دولینه","District":"DULEENA","د_مرکز_نوم__نام_مرکز":"بازار گله آسیاب","Polling_Center_Name":"Gala Asyaab Bazar","د_مرکز_ځای__موقعیت_مرکز":" گله اسیاب","Polling_Center_Location":"Gala Asyaab","Verification_Note":"Village","PS_Male":1,"PS_Female":2,"Map_Accuracy":"قریه"},"geometry":{"x":7222602.5468990579,"y":4065466.0996040776}},{"attributes":{"OBJECTID":2328,"ولایت":"غور","Province":"GHOR","PC_Code":"2302108","ولسوالي":"دولینه","District":"DULEENA","د_مرکز_نوم__نام_مرکز":"مکتب سلمین","Polling_Center_Name":"Salmeen School","د_مرکز_ځای__موقعیت_مرکز":"سلمین","Polling_Center_Location":"Salmeen","Verification_Note":"Building","PS_Male":1,"PS_Female":2,"Map_Accuracy":"تعمیر"},"geometry":{"x":7213544.6224221587,"y":4083645.4744267762}},{"attributes":{"OBJECTID":2329,"ولایت":"غور","Province":"GHOR","PC_Code":"2303046","ولسوالي":"دولت یار ","District":"DAWLATYAR","د_مرکز_نوم__نام_مرکز":"مکتب دولت یار","Polling_Center_Name":"Dawlatyar School","د_مرکز_ځای__موقعیت_مرکز":" مرکز دولت یار","Polling_Center_Location":"Markaz Dawlat Yar","Verification_Note":"Building","PS_Male":2,"PS_Female":1,"Map_Accuracy":"تعمیر"},"geometry":{"x":7323354.1856610626,"y":4103642.2031603754}},{"attributes":{"OBJECTID":2330,"ولایت":"غور","Province":"GHOR","PC_Code":"2303047","ولسوالي":"دولت یار ","District":"DAWLATYAR","د_مرکز_نوم__نام_مرکز":"مکتب پشته نور","Polling_Center_Name":"Poshta Noor School","د_مرکز_ځای__موقعیت_مرکز":"جوی نشر","Polling_Center_Location":"Joy Nashr","Verification_Note":"Village","PS_Male":2,"PS_Female":2,"Map_Accuracy":"قریه"},"geometry":{"x":7337866.5770568959,"y":4114332.3356687948}},{"attributes":{"OBJECTID":2331,"ولایت":"غور","Province":"GHOR","PC_Code":"2303049","ولسوالي":"دولت یار ","District":"DAWLATYAR","د_مرکز_نوم__نام_مرکز":"مسجد جامع شینیه","Polling_Center_Name":"Shiniya Mosque","د_مرکز_ځای__موقعیت_مرکز":" شینیه","Polling_Center_Location":"Shiniya","Verification_Note":"Building","PS_Male":2,"PS_Female":1,"Map_Accuracy":"تعمیر"},"geometry":{"x":7309293.8460194245,"y":4099487.0146406665}},{"attributes":{"OBJECTID":2332,"ولایت":"غور","Province":"GHOR","PC_Code":"2303050","ولسوالي":"دولت یار ","District":"DAWLATYAR","د_مرکز_نوم__نام_مرکز":"مسجد جامع خیرالله","Polling_Center_Name":"Khairullah Mosque","د_مرکز_ځای__موقعیت_مرکز":" شرشر","Polling_Center_Location":"Sharshar","Verification_Note":"Building","PS_Male":2,"PS_Female":1,"Map_Accuracy":"تعمیر"},"geometry":{"x":7315538.8494154178,"y":4107250.1228270605}},{"attributes":{"OBJECTID":2333,"ولایت":"غور","Province":"GHOR","PC_Code":"2303052","ولسوالي":"دولت یار ","District":"DAWLATYAR","د_مرکز_نوم__نام_مرکز":"خیمه بازار سمک","Polling_Center_Name":"Bazar Samak Tent","د_مرکز_ځای__موقعیت_مرکز":"قریه سمک","Polling_Center_Location":"Samak Village","Verification_Note":"Building","PS_Male":1,"PS_Female":1,"Map_Accuracy":"تعمیر"},"geometry":{"x":7329078.7125514634,"y":4118687.9302825555}},{"attributes":{"OBJECTID":2334,"ولایت":"غور","Province":"GHOR","PC_Code":"2303053","ولسوالي":"دولت یار ","District":"DAWLATYAR","د_مرکز_نوم__نام_مرکز":"مسجد نرم ته","Polling_Center_Name":"Narm Tih Mosque","د_مرکز_ځای__موقعیت_مرکز":" نرم ته","Polling_Center_Location":"Narm Tih","Verification_Note":"Building","PS_Male":1,"PS_Female":1,"Map_Accuracy":"تعمیر"},"geometry":{"x":7332396.3951654546,"y":4087374.7606781796}},{"attributes":{"OBJECTID":2335,"ولایت":"غور","Province":"GHOR","PC_Code":"2303057","ولسوالي":"دولت یار ","District":"DAWLATYAR","د_مرکز_نوم__نام_مرکز":"مسجد لوکه مزار","Polling_Center_Name":"Loka Mazar Mosque","د_مرکز_ځای__موقعیت_مرکز":" لوکه مزار","Polling_Center_Location":"Loka Mazar","Verification_Note":"Building","PS_Male":2,"PS_Female":1,"Map_Accuracy":"تعمیر"},"geometry":{"x":7310434.7884236313,"y":4088200.7446160391}},{"attributes":{"OBJECTID":2336,"ولایت":"غور","Province":"GHOR","PC_Code":"2303058","ولسوالي":"دولت یار ","District":"DAWLATYAR","د_مرکز_نوم__نام_مرکز":"مکتب جیره","Polling_Center_Name":"Jira School","د_مرکز_ځای__موقعیت_مرکز":"اولاد قدم ","Polling_Center_Location":"Awlad Qadam","Verification_Note":"Building","PS_Male":1,"PS_Female":2,"Map_Accuracy":"تعمیر"},"geometry":{"x":7317691.5891429819,"y":4119110.1954989359}},{"attributes":{"OBJECTID":2337,"ولایت":"غور","Province":"GHOR","PC_Code":"2304059","ولسوالي":"چار صده","District":"CHAR SADA","د_مرکز_نوم__نام_مرکز":"منزل محمد ابراهیم","Polling_Center_Name":"Mohammad Ibrahim Private House","د_مرکز_ځای__موقعیت_مرکز":" مالمنج","Polling_Center_Location":"Malmanj","Verification_Note":"Building","PS_Male":2,"PS_Female":2,"Map_Accuracy":"تعمیر"},"geometry":{"x":7230420.0471956059,"y":4183064.2528690249}},{"attributes":{"OBJECTID":2338,"ولایت":"غور","Province":"GHOR","PC_Code":"2304060","ولسوالي":"چار صده","District":"CHAR SADA","د_مرکز_نوم__نام_مرکز":"مسجد جامع خفک","Polling_Center_Name":"Khafak Mosque","د_مرکز_ځای__موقعیت_مرکز":"خفک","Polling_Center_Location":"Khafak","Verification_Note":"Building","PS_Male":2,"PS_Female":1,"Map_Accuracy":"تعمیر"},"geometry":{"x":7243807.0742367767,"y":4168088.949035801}},{"attributes":{"OBJECTID":2339,"ولایت":"غور","Province":"GHOR","PC_Code":"2304063","ولسوالي":"چار صده","District":"CHAR SADA","د_مرکز_نوم__نام_مرکز":"مکتب ده حاجی","Polling_Center_Name":"Deh Haji School","د_مرکز_ځای__موقعیت_مرکز":" ده حاجی","Polling_Center_Location":"Deh Haji","Verification_Note":"Building","PS_Male":2,"PS_Female":1,"Map_Accuracy":"تعمیر"},"geometry":{"x":7256654.1204843633,"y":4169225.659803167}},{"attributes":{"OBJECTID":2340,"ولایت":"غور","Province":"GHOR","PC_Code":"2304064","ولسوالي":"چار صده","District":"CHAR SADA","د_مرکز_نوم__نام_مرکز":"لیسه قلعه گوهر","Polling_Center_Name":"Qala Gawhar High School","د_مرکز_ځای__موقعیت_مرکز":" قله گوهر","Polling_Center_Location":"Gawhar Qala","Verification_Note":"Building","PS_Male":2,"PS_Female":1,"Map_Accuracy":"تعمیر"},"geometry":{"x":7250408.3311727643,"y":4187971.4211667553}},{"attributes":{"OBJECTID":2341,"ولایت":"غور","Province":"GHOR","PC_Code":"2304071","ولسوالي":"چار صده","District":"CHAR SADA","د_مرکز_نوم__نام_مرکز":"باغ حبیب الله","Polling_Center_Name":"Bagh Habibullah","د_مرکز_ځای__موقعیت_مرکز":" کنداخ","Polling_Center_Location":"Kandakh","Verification_Note":"Building","PS_Male":1,"PS_Female":1,"Map_Accuracy":"تعمیر"},"geometry":{"x":7224503.1201501,"y":4188301.6357141212}},{"attributes":{"OBJECTID":2342,"ولایت":"غور","Province":"GHOR","PC_Code":"2305111","ولسوالي":"پسابند ","District":"PASABAND","د_مرکز_نوم__نام_مرکز":"مکتب سنگان ","Polling_Center_Name":"Sangan School","د_مرکز_ځای__موقعیت_مرکز":"بازار سنگان","Polling_Center_Location":"Bazar Sangan","Verification_Note":"Building","PS_Male":2,"PS_Female":1,"Map_Accuracy":"تعمیر"},"geometry":{"x":7242834.8320680819,"y":3972491.3369793743}},{"attributes":{"OBJECTID":2343,"ولایت":"غور","Province":"GHOR","PC_Code":"2305114","ولسوالي":"پسابند ","District":"PASABAND","د_مرکز_نوم__نام_مرکز":"خیمه بازارکله گی","Polling_Center_Name":"Bazar Kalagi Tent","د_مرکز_ځای__موقعیت_مرکز":"قریه کله گی","Polling_Center_Location":"Kalagi Village","Verification_Note":"Village","PS_Male":2,"PS_Female":2,"Map_Accuracy":"قریه"},"geometry":{"x":7247393.2550097741,"y":3988798.09503527}},{"attributes":{"OBJECTID":2344,"ولایت":"غور","Province":"GHOR","PC_Code":"2305118","ولسوالي":"پسابند ","District":"PASABAND","د_مرکز_نوم__نام_مرکز":"خیمه بازار کهنه شینکوت","Polling_Center_Name":"Kuhna Shenkot Bazar Tent","د_مرکز_ځای__موقعیت_مرکز":"قریه شینکوت","Polling_Center_Location":"Shinkot Village","Verification_Note":"Village","PS_Male":1,"PS_Female":1,"Map_Accuracy":"قریه"},"geometry":{"x":7218927.2682320178,"y":3987541.7228514627}},{"attributes":{"OBJECTID":2345,"ولایت":"غور","Province":"GHOR","PC_Code":"2305119","ولسوالي":"پسابند ","District":"PASABAND","د_مرکز_نوم__نام_مرکز":"مکتب ابتدائیه نورک","Polling_Center_Name":"Norak Primary School","د_مرکز_ځای__موقعیت_مرکز":" مرکز نو رک","Polling_Center_Location":"Norak Markaz","Verification_Note":"Building","PS_Male":1,"PS_Female":1,"Map_Accuracy":"تعمیر"},"geometry":{"x":7222571.65685356,"y":4000176.8676532358}},{"attributes":{"OBJECTID":2346,"ولایت":"غور","Province":"GHOR","PC_Code":"2306089","ولسوالي":"شهرک ","District":"SHAHRAK","د_مرکز_نوم__نام_مرکز":"مکتب یک سنگ","Polling_Center_Name":"Yak Sang School","د_مرکز_ځای__موقعیت_مرکز":"قریه یکه سنگ","Polling_Center_Location":"Yaka Sang Village","Verification_Note":"Building","PS_Male":1,"PS_Female":1,"Map_Accuracy":"تعمیر"},"geometry":{"x":7168108.7507170439,"y":4067964.9075338244}},{"attributes":{"OBJECTID":2347,"ولایت":"غور","Province":"GHOR","PC_Code":"2306090","ولسوالي":"شهرک ","District":"SHAHRAK","د_مرکز_نوم__نام_مرکز":"مکتب بیدان","Polling_Center_Name":"Bedan School","د_مرکز_ځای__موقعیت_مرکز":"پله سرخک ","Polling_Center_Location":"Pala Surkhak","Verification_Note":"Building","PS_Male":1,"PS_Female":1,"Map_Accuracy":"تعمیر"},"geometry":{"x":7185153.2564386688,"y":4090761.4147642776}},{"attributes":{"OBJECTID":2348,"ولایت":"غور","Province":"GHOR","PC_Code":"2307137","ولسوالي":"لعل و سرجنگل ","District":"LAL WA SARJANGAL","د_مرکز_نوم__نام_مرکز":"مکتب قزل","Polling_Center_Name":"Qazal School","د_مرکز_ځای__موقعیت_مرکز":"قریه دهن باریکی ","Polling_Center_Location":"Dahan Bareeki Village","Verification_Note":"Building","PS_Male":3,"PS_Female":1,"Map_Accuracy":"تعمیر"},"geometry":{"x":7351925.6153736934,"y":4090709.0871962532}},{"attributes":{"OBJECTID":2349,"ولایت":"غور","Province":"GHOR","PC_Code":"2307138","ولسوالي":"لعل و سرجنگل ","District":"LAL WA SARJANGAL","د_مرکز_نوم__نام_مرکز":"مکتب گرم آب سفلی","Polling_Center_Name":"Garm Aab Sufla School","د_مرکز_ځای__موقعیت_مرکز":"قریه سری نوده ","Polling_Center_Location":"Sare Nodah Village","Verification_Note":"Building","PS_Male":1,"PS_Female":1,"Map_Accuracy":"تعمیر"},"geometry":{"x":7341467.5588693917,"y":4089962.13420137}},{"attributes":{"OBJECTID":2350,"ولایت":"غور","Province":"GHOR","PC_Code":"2307153","ولسوالي":"لعل و سرجنگل ","District":"LAL WA SARJANGAL","د_مرکز_نوم__نام_مرکز":"مکتب بیخ سنگ","Polling_Center_Name":"Bekh Sang School","د_مرکز_ځای__موقعیت_مرکز":"قریه دیوکان ","Polling_Center_Location":"Diwkan Village","Verification_Note":"Building","PS_Male":3,"PS_Female":1,"Map_Accuracy":"تعمیر"},"geometry":{"x":7360963.0025177412,"y":4103623.3367226571}},{"attributes":{"OBJECTID":2351,"ولایت":"غور","Province":"GHOR","PC_Code":"2307154","ولسوالي":"لعل و سرجنگل ","District":"LAL WA SARJANGAL","د_مرکز_نوم__نام_مرکز":"مکتب سری دیوالک","Polling_Center_Name":"Sare Diwalak School","د_مرکز_ځای__موقعیت_مرکز":"قریه اسد آباد","Polling_Center_Location":"Asad Abad Village","Verification_Note":"Building","PS_Male":1,"PS_Female":1,"Map_Accuracy":"تعمیر"},"geometry":{"x":7387007.6968623661,"y":4085392.6931920797}},{"attributes":{"OBJECTID":2352,"ولایت":"غور","Province":"GHOR","PC_Code":"2307158","ولسوالي":"لعل و سرجنگل ","District":"LAL WA SARJANGAL","د_مرکز_نوم__نام_مرکز":"مکتب سنگ زرد","Polling_Center_Name":"Sang Zard School","د_مرکز_ځای__موقعیت_مرکز":" سنگ زرد","Polling_Center_Location":"Sang Zard","Verification_Note":"Building","PS_Male":1,"PS_Female":1,"Map_Accuracy":"تعمیر"},"geometry":{"x":7351936.3643837273,"y":4107605.8288909942}},{"attributes":{"OBJECTID":2353,"ولایت":"غور","Province":"GHOR","PC_Code":"2307159","ولسوالي":"لعل و سرجنگل ","District":"LAL WA SARJANGAL","د_مرکز_نوم__نام_مرکز":"مسجد قلعه شکرکی","Polling_Center_Name":"Qala Shakraki Mosque","د_مرکز_ځای__موقعیت_مرکز":" قلعه شکرکی","Polling_Center_Location":"Qala-e-Shakarki","Verification_Note":"Building","PS_Male":1,"PS_Female":1,"Map_Accuracy":"تعمیر"},"geometry":{"x":7385098.0532992147,"y":4094325.6900389791}},{"attributes":{"OBJECTID":2354,"ولایت":"غور","Province":"GHOR","PC_Code":"2307172","ولسوالي":"لعل و سرجنگل ","District":"LAL WA SARJANGAL","د_مرکز_نوم__نام_مرکز":"مکتب غیغانک","Polling_Center_Name":"Ghighanak School","د_مرکز_ځای__موقعیت_مرکز":"قریه سنگ پولک ","Polling_Center_Location":"Sang Polak Village","Verification_Note":"Village","PS_Male":1,"PS_Female":1,"Map_Accuracy":"قریه"},"geometry":{"x":7370030.3524159268,"y":4127257.5896776393}},{"attributes":{"OBJECTID":2355,"ولایت":"غور","Province":"GHOR","PC_Code":"2307173","ولسوالي":"لعل و سرجنگل ","District":"LAL WA SARJANGAL","د_مرکز_نوم__نام_مرکز":"مسجد شنیه هیگل","Polling_Center_Name":"Shinya Haigal Mosque","د_مرکز_ځای__موقعیت_مرکز":"شینیه هیگل ","Polling_Center_Location":"Shinya Haigal","Verification_Note":"Village","PS_Male":1,"PS_Female":1,"Map_Accuracy":"قریه"},"geometry":{"x":7370933.1557126492,"y":4105896.9028350413}},{"attributes":{"OBJECTID":2356,"ولایت":"غور","Province":"GHOR","PC_Code":"2307177","ولسوالي":"لعل و سرجنگل ","District":"LAL WA SARJANGAL","د_مرکز_نوم__نام_مرکز":"مسجد سر سوخته","Polling_Center_Name":"Sar Sokhta Mosque","د_مرکز_ځای__موقعیت_مرکز":" قریه سرسوخته","Polling_Center_Location":"Sar Sokhta Village","Verification_Note":"Building","PS_Male":1,"PS_Female":1,"Map_Accuracy":"تعمیر"},"geometry":{"x":7348777.2652899325,"y":4098789.5541441813}},{"attributes":{"OBJECTID":2357,"ولایت":"غور","Province":"GHOR","PC_Code":"2308209","ولسوالي":"تیوره","District":"TAYWARA","د_مرکز_نوم__نام_مرکز":"لیسه پس قلعه","Polling_Center_Name":"Pas Qala High School","د_مرکز_ځای__موقعیت_مرکز":" پس قلعه","Polling_Center_Location":"Pas Qala","Verification_Note":"Village","PS_Male":2,"PS_Female":1,"Map_Accuracy":"قریه"},"geometry":{"x":7170995.3831119724,"y":3965132.05023057}},{"attributes":{"OBJECTID":2358,"ولایت":"غور","Province":"GHOR","PC_Code":"2308211","ولسوالي":"تیوره","District":"TAYWARA","د_مرکز_نوم__نام_مرکز":"مکتب عا شقان","Polling_Center_Name":"Aashoqan School","د_مرکز_ځای__موقعیت_مرکز":"عاشقان","Polling_Center_Location":"Aashoqan ","Verification_Note":"Building","PS_Male":2,"PS_Female":1,"Map_Accuracy":"تعمیر"},"geometry":{"x":7153672.7612273246,"y":3973865.3473713174}},{"attributes":{"OBJECTID":2359,"ولایت":"غور","Province":"GHOR","PC_Code":"2308212","ولسوالي":"تیوره","District":"TAYWARA","د_مرکز_نوم__نام_مرکز":"منزل عبدالله لارقه","Polling_Center_Name":"Abdullah Larqa Private House","د_مرکز_ځای__موقعیت_مرکز":" لارقه","Polling_Center_Location":"Larqa","Verification_Note":"Building","PS_Male":1,"PS_Female":2,"Map_Accuracy":"تعمیر"},"geometry":{"x":7141752.9284143969,"y":3972475.3509472013}},{"attributes":{"OBJECTID":2360,"ولایت":"غور","Province":"GHOR","PC_Code":"2309187","ولسوالي":"تولک ","District":"TULAK","د_مرکز_نوم__نام_مرکز":"مکتب متوسطه دایی","Polling_Center_Name":"Dayee Secondary School","د_مرکز_ځای__موقعیت_مرکز":"قریه دایی","Polling_Center_Location":"Dayee Village","Verification_Note":"Village","PS_Male":2,"PS_Female":1,"Map_Accuracy":"قریه"},"geometry":{"x":7075180.4565248489,"y":4052955.3994073123}},{"attributes":{"OBJECTID":2361,"ولایت":"غور","Province":"GHOR","PC_Code":"2301012","ولسوالي":"چغچران","District":"CHIGHCHERAN","د_مرکز_نوم__نام_مرکز":"منزل لعل محمد","Polling_Center_Name":"Lal Mohammad Private House","د_مرکز_ځای__موقعیت_مرکز":"شوره زار","Polling_Center_Location":"Shora Bazar","Verification_Note":"Village","PS_Male":3,"PS_Female":2,"Map_Accuracy":"قریه"},"geometry":{"x":7235882.959924303,"y":4119802.4513666481}},{"attributes":{"OBJECTID":2362,"ولایت":"غور","Province":"GHOR","PC_Code":"2301013","ولسوالي":"چغچران","District":"CHIGHCHERAN","د_مرکز_نوم__نام_مرکز":"لیسه نسوان بادگاه ","Polling_Center_Name":"Badgah Girls High School","د_مرکز_ځای__موقعیت_مرکز":" باد گاه","Polling_Center_Location":"Badgah","Verification_Note":"Building","PS_Male":3,"PS_Female":1,"Map_Accuracy":"تعمیر"},"geometry":{"x":7290101.1279339269,"y":4098939.5705044344}},{"attributes":{"OBJECTID":2363,"ولایت":"غور","Province":"GHOR","PC_Code":"2301034","ولسوالي":"چغچران","District":"CHIGHCHERAN","د_مرکز_نوم__نام_مرکز":"مسجد سنمای رخنه سفید","Polling_Center_Name":"Sanmay Rakhna Safid Mosque","د_مرکز_ځای__موقعیت_مرکز":" سنمای رخنه سفید","Polling_Center_Location":"Sanmay Rakhna Safid","Verification_Note":"Village","PS_Male":1,"PS_Female":2,"Map_Accuracy":"قریه"},"geometry":{"x":7215448.9226497523,"y":4124982.9727886096}},{"attributes":{"OBJECTID":2364,"ولایت":"غور","Province":"GHOR","PC_Code":"2301035","ولسوالي":"چغچران","District":"CHIGHCHERAN","د_مرکز_نوم__نام_مرکز":"مکتب غلامان","Polling_Center_Name":"Ghulaman School","د_مرکز_ځای__موقعیت_مرکز":" غلامان","Polling_Center_Location":"Ghulaman ","Verification_Note":"Building","PS_Male":4,"PS_Female":1,"Map_Accuracy":"تعمیر"},"geometry":{"x":7196914.6192772761,"y":4103514.42347005}},{"attributes":{"OBJECTID":2365,"ولایت":"غور","Province":"GHOR","PC_Code":"2304068","ولسوالي":"چار صده","District":"CHAR SADA","د_مرکز_نوم__نام_مرکز":"مسجد جامع چار قدوق","Polling_Center_Name":"Chahar Qadoq Mosque","د_مرکز_ځای__موقعیت_مرکز":" چار قدوق","Polling_Center_Location":"Chahar Qadoq","Verification_Note":"Village","PS_Male":1,"PS_Female":2,"Map_Accuracy":"قریه"},"geometry":{"x":7241090.7072293982,"y":4197904.0963763744}},{"attributes":{"OBJECTID":2366,"ولایت":"غور","Province":"GHOR","PC_Code":"2304069","ولسوالي":"چار صده","District":"CHAR SADA","د_مرکز_نوم__نام_مرکز":"مسجد جامع مسین","Polling_Center_Name":"Maseen Mosque","د_مرکز_ځای__موقعیت_مرکز":" مسین","Polling_Center_Location":"Maseen","Verification_Note":"Building","PS_Male":2,"PS_Female":1,"Map_Accuracy":"تعمیر"},"geometry":{"x":7242355.7497151382,"y":4187711.2741707414}},{"attributes":{"OBJECTID":2367,"ولایت":"غور","Province":"GHOR","PC_Code":"2306083","ولسوالي":"شهرک ","District":"SHAHRAK","د_مرکز_نوم__نام_مرکز":"مکتب ابتدائیه ناسفنج","Polling_Center_Name":"Nasfanj Primary School","د_مرکز_ځای__موقعیت_مرکز":" ناسفنجی","Polling_Center_Location":"Nasfanji","Verification_Note":"Village","PS_Male":1,"PS_Female":1,"Map_Accuracy":"قریه"},"geometry":{"x":7137303.5674042292,"y":4064847.3544124365}},{"attributes":{"OBJECTID":2368,"ولایت":"غور","Province":"GHOR","PC_Code":"2307143","ولسوالي":"لعل و سرجنگل ","District":"LAL WA SARJANGAL","د_مرکز_نوم__نام_مرکز":"مکتب جو قل","Polling_Center_Name":"Joqal School","د_مرکز_ځای__موقعیت_مرکز":"قریه پیشبند بالا","Polling_Center_Location":"Peshband Bala Village","Verification_Note":"Village","PS_Male":2,"PS_Female":1,"Map_Accuracy":"قریه"},"geometry":{"x":7365085.3157695085,"y":4078141.5460244119}},{"attributes":{"OBJECTID":2369,"ولایت":"غور","Province":"GHOR","PC_Code":"2307144","ولسوالي":"لعل و سرجنگل ","District":"LAL WA SARJANGAL","د_مرکز_نوم__نام_مرکز":"مکتب قولانی","Polling_Center_Name":"Qolani School","د_مرکز_ځای__موقعیت_مرکز":"قریه قولانی ","Polling_Center_Location":"Qolani Village","Verification_Note":"Village","PS_Male":1,"PS_Female":1,"Map_Accuracy":"قریه"},"geometry":{"x":7373333.3430835083,"y":4084105.54699108}},{"attributes":{"OBJECTID":2370,"ولایت":"غور","Province":"GHOR","PC_Code":"2307147","ولسوالي":"لعل و سرجنگل ","District":"LAL WA SARJANGAL","د_مرکز_نوم__نام_مرکز":"مسجد جامع رشک","Polling_Center_Name":"Rashk Mosque","د_مرکز_ځای__موقعیت_مرکز":"قریه رشک ","Polling_Center_Location":"Rashk Village","Verification_Note":"Building","PS_Male":1,"PS_Female":1,"Map_Accuracy":"تعمیر"},"geometry":{"x":7385060.1445598193,"y":4098773.0588707104}},{"attributes":{"OBJECTID":2371,"ولایت":"غور","Province":"GHOR","PC_Code":"2307148","ولسوالي":"لعل و سرجنگل ","District":"LAL WA SARJANGAL","د_مرکز_نوم__نام_مرکز":"مکتب سرای کرمان ","Polling_Center_Name":"Sray Karman School","د_مرکز_ځای__موقعیت_مرکز":"قریه سیا سنگ ","Polling_Center_Location":"Siyasang Village","Verification_Note":"Building","PS_Male":2,"PS_Female":1,"Map_Accuracy":"تعمیر"},"geometry":{"x":7405089.7169361077,"y":4090866.2164426968}},{"attributes":{"OBJECTID":2372,"ولایت":"غور","Province":"GHOR","PC_Code":"2308215","ولسوالي":"تیوره","District":"TAYWARA","د_مرکز_نوم__نام_مرکز":"مکتب نیلی","Polling_Center_Name":"Nili School","د_مرکز_ځای__موقعیت_مرکز":"درز آب","Polling_Center_Location":"Darz Aab","Verification_Note":"Village","PS_Male":3,"PS_Female":2,"Map_Accuracy":"قریه"},"geometry":{"x":7170361.4653660879,"y":3927644.3518174365}},{"attributes":{"OBJECTID":2373,"ولایت":"غور","Province":"GHOR","PC_Code":"2308216","ولسوالي":"تیوره","District":"TAYWARA","د_مرکز_نوم__نام_مرکز":"مکتب خم پای حصار","Polling_Center_Name":"Khum Paay Hisar School","د_مرکز_ځای__موقعیت_مرکز":" خم پای حصار","Polling_Center_Location":"Khum Paay Hisar","Verification_Note":"Village","PS_Male":1,"PS_Female":1,"Map_Accuracy":"قریه"},"geometry":{"x":7177090.5760768391,"y":3977867.27737879}},{"attributes":{"OBJECTID":2374,"ولایت":"غور","Province":"GHOR","PC_Code":"2308219","ولسوالي":"تیوره","District":"TAYWARA","د_مرکز_نوم__نام_مرکز":"لیسه یخن علیا","Polling_Center_Name":"Yakhan Ulya High School","د_مرکز_ځای__موقعیت_مرکز":" یخن علیا","Polling_Center_Location":"Yakhan Ulya","Verification_Note":"Village","PS_Male":2,"PS_Female":1,"Map_Accuracy":"قریه"},"geometry":{"x":7184004.0563546345,"y":3967191.2172224224}},{"attributes":{"OBJECTID":2375,"ولایت":"غور","Province":"GHOR","PC_Code":"2308222","ولسوالي":"تیوره","District":"TAYWARA","د_مرکز_نوم__نام_مرکز":"مکتب کیل گو","Polling_Center_Name":"Kelgo School","د_مرکز_ځای__موقعیت_مرکز":" کیل گو","Polling_Center_Location":"Kelgo","Verification_Note":"Building","PS_Male":2,"PS_Female":1,"Map_Accuracy":"تعمیر"},"geometry":{"x":7186467.10361556,"y":3993256.89880386}},{"attributes":{"OBJECTID":2376,"ولایت":"غور","Province":"GHOR","PC_Code":"2308223","ولسوالي":"تیوره","District":"TAYWARA","د_مرکز_نوم__نام_مرکز":"منزل سید علاوالدین","Polling_Center_Name":"Sayed Alauddin Private House","د_مرکز_ځای__موقعیت_مرکز":" یگین","Polling_Center_Location":"Yageen","Verification_Note":"Building","PS_Male":2,"PS_Female":1,"Map_Accuracy":"تعمیر"},"geometry":{"x":7150265.8571546711,"y":3957219.0476047024}},{"attributes":{"OBJECTID":2377,"ولایت":"غور","Province":"GHOR","PC_Code":"2308227","ولسوالي":"تیوره","District":"TAYWARA","د_مرکز_نوم__نام_مرکز":"مکتب متوسطه زرنی ","Polling_Center_Name":"Zarni Secondary School","د_مرکز_ځای__موقعیت_مرکز":"زرنی","Polling_Center_Location":"Zarni","Verification_Note":"Building","PS_Male":1,"PS_Female":2,"Map_Accuracy":"تعمیر"},"geometry":{"x":7161713.2956896573,"y":3919095.3889954537}},{"attributes":{"OBJECTID":2378,"ولایت":"غور","Province":"GHOR","PC_Code":"2301031","ولسوالي":"چغچران","District":"CHIGHCHERAN","د_مرکز_نوم__نام_مرکز":"حوض صا لح","Polling_Center_Name":"Hawz Saaleh","د_مرکز_ځای__موقعیت_مرکز":" حوض صا لح","Polling_Center_Location":"Hawz Saaleh","Verification_Note":"Village","PS_Male":2,"PS_Female":2,"Map_Accuracy":"قریه"},"geometry":{"x":7210118.133688841,"y":4193281.730772689}},{"attributes":{"OBJECTID":2379,"ولایت":"غور","Province":"GHOR","PC_Code":"2302104","ولسوالي":"دولینه","District":"DULEENA","د_مرکز_نوم__نام_مرکز":"باغ فضل احمد","Polling_Center_Name":"Fazal Ahmad Bagh","د_مرکز_ځای__موقعیت_مرکز":" خواجه گان","Polling_Center_Location":"Khwaja Gan","Verification_Note":"Village","PS_Male":2,"PS_Female":2,"Map_Accuracy":"قریه"},"geometry":{"x":7220143.4609422088,"y":4088624.68393223}},{"attributes":{"OBJECTID":2380,"ولایت":"غور","Province":"GHOR","PC_Code":"2302105","ولسوالي":"دولینه","District":"DULEENA","د_مرکز_نوم__نام_مرکز":"منزل ارباب سخی","Polling_Center_Name":"Arbab Sakhi Private House","د_مرکز_ځای__موقعیت_مرکز":"رزقان","Polling_Center_Location":"Razqan","Verification_Note":"Village","PS_Male":1,"PS_Female":2,"Map_Accuracy":"قریه"},"geometry":{"x":7201655.512675494,"y":4081766.3533868417}},{"attributes":{"OBJECTID":2381,"ولایت":"غور","Province":"GHOR","PC_Code":"2302110","ولسوالي":"دولینه","District":"DULEENA","د_مرکز_نوم__نام_مرکز":"مسجد سرچهل گزی","Polling_Center_Name":"Sar Chehl Gazai Mosque","د_مرکز_ځای__موقعیت_مرکز":"چهل گزی","Polling_Center_Location":"Chehl Gazai","Verification_Note":"Village","PS_Male":2,"PS_Female":1,"Map_Accuracy":"قریه"},"geometry":{"x":7219620.20089275,"y":4029763.9832995012}},{"attributes":{"OBJECTID":2382,"ولایت":"غور","Province":"GHOR","PC_Code":"2304066","ولسوالي":"چار صده","District":"CHAR SADA","د_مرکز_نوم__نام_مرکز":"منزل نجیب الله","Polling_Center_Name":"Najibullah Private House","د_مرکز_ځای__موقعیت_مرکز":" پس ارچه","Polling_Center_Location":"Pas Archa","Verification_Note":"Village","PS_Male":1,"PS_Female":1,"Map_Accuracy":"قریه"},"geometry":{"x":7222369.70437295,"y":4189983.6846199334}},{"attributes":{"OBJECTID":2383,"ولایت":"غور","Province":"GHOR","PC_Code":"2305129","ولسوالي":"پسابند ","District":"PASABAND","د_مرکز_نوم__نام_مرکز":"مکتب دهنه دیوالک","Polling_Center_Name":"Dahna Dewalak School","د_مرکز_ځای__موقعیت_مرکز":"بازار دهن پشته روق ","Polling_Center_Location":"Bazar Dahan Pushta Roq","Verification_Note":"Building","PS_Male":1,"PS_Female":2,"Map_Accuracy":"تعمیر"},"geometry":{"x":7257387.9819822721,"y":3988932.9722103849}},{"attributes":{"OBJECTID":2384,"ولایت":"غور","Province":"GHOR","PC_Code":"2306078","ولسوالي":"شهرک ","District":"SHAHRAK","د_مرکز_نوم__نام_مرکز":"مکتب دهن حصار","Polling_Center_Name":"Dahn Hisar School","د_مرکز_ځای__موقعیت_مرکز":"دهنه حصار","Polling_Center_Location":"Dahn Hisar","Verification_Note":"Village","PS_Male":1,"PS_Female":2,"Map_Accuracy":"قریه"},"geometry":{"x":7132343.0540090241,"y":4049377.9960373491}},{"attributes":{"OBJECTID":2385,"ولایت":"غور","Province":"GHOR","PC_Code":"2306079","ولسوالي":"شهرک ","District":"SHAHRAK","د_مرکز_نوم__نام_مرکز":"مکتب اناث","Polling_Center_Name":"Girls School","د_مرکز_ځای__موقعیت_مرکز":"کمنج","Polling_Center_Location":"Kamanj","Verification_Note":"Village","PS_Male":1,"PS_Female":1,"Map_Accuracy":"قریه"},"geometry":{"x":7163146.1467417888,"y":4080533.4020339772}},{"attributes":{"OBJECTID":2386,"ولایت":"غور","Province":"GHOR","PC_Code":"2306086","ولسوالي":"شهرک ","District":"SHAHRAK","د_مرکز_نوم__نام_مرکز":"مکتب ابتدائیه برزو","Polling_Center_Name":"Barzo Primary School","د_مرکز_ځای__موقعیت_مرکز":"برزو","Polling_Center_Location":"Barzo","Verification_Note":"Village","PS_Male":2,"PS_Female":1,"Map_Accuracy":"قریه"},"geometry":{"x":7134942.4186655916,"y":4096895.0714811683}},{"attributes":{"OBJECTID":2387,"ولایت":"غور","Province":"GHOR","PC_Code":"2306087","ولسوالي":"شهرک ","District":"SHAHRAK","د_مرکز_نوم__نام_مرکز":"مکتب ابتدائیه مرغه","Polling_Center_Name":"Margha Primary School","د_مرکز_ځای__موقعیت_مرکز":" مرغه","Polling_Center_Location":"Margha","Verification_Note":"Village","PS_Male":1,"PS_Female":1,"Map_Accuracy":"قریه"},"geometry":{"x":7153941.2070661783,"y":4076093.0236797482}},{"attributes":{"OBJECTID":2388,"ولایت":"غور","Province":"GHOR","PC_Code":"2307140","ولسوالي":"لعل و سرجنگل ","District":"LAL WA SARJANGAL","د_مرکز_نوم__نام_مرکز":"مکتب سنگ شانده","Polling_Center_Name":"Sang Shanda School","د_مرکز_ځای__موقعیت_مرکز":"قریه قلعه سنگ شانده","Polling_Center_Location":"Qala-e-Sang Shanda Village","Verification_Note":"Building","PS_Male":1,"PS_Female":2,"Map_Accuracy":"تعمیر"},"geometry":{"x":7347023.7094639912,"y":4081629.5186730847}},{"attributes":{"OBJECTID":2389,"ولایت":"غور","Province":"GHOR","PC_Code":"2307156","ولسوالي":"لعل و سرجنگل ","District":"LAL WA SARJANGAL","د_مرکز_نوم__نام_مرکز":"مسجد دهن لکه سنگ","Polling_Center_Name":"Dahn Laka Sang Mosque","د_مرکز_ځای__موقعیت_مرکز":"قریه دهن لکه سنگ","Polling_Center_Location":"Dahan Laka Sang Village","Verification_Note":"Building","PS_Male":1,"PS_Female":1,"Map_Accuracy":"تعمیر"},"geometry":{"x":7339519.8841154017,"y":4106812.938918218}},{"attributes":{"OBJECTID":2390,"ولایت":"غور","Province":"GHOR","PC_Code":"2307161","ولسوالي":"لعل و سرجنگل ","District":"LAL WA SARJANGAL","د_مرکز_نوم__نام_مرکز":"مکتب کته چشمه","Polling_Center_Name":"Kata Chashma School","د_مرکز_ځای__موقعیت_مرکز":" قریه کته چشمه","Polling_Center_Location":"kata Chashma Village","Verification_Note":"Building","PS_Male":2,"PS_Female":1,"Map_Accuracy":"تعمیر"},"geometry":{"x":7350028.2136149444,"y":4118388.9335554689}},{"attributes":{"OBJECTID":2391,"ولایت":"غور","Province":"GHOR","PC_Code":"2307168","ولسوالي":"لعل و سرجنگل ","District":"LAL WA SARJANGAL","د_مرکز_نوم__نام_مرکز":"مسجد شنیه سفید اب","Polling_Center_Name":"Safid Aab Shinya Mosque","د_مرکز_ځای__موقعیت_مرکز":"شنیه سفید اب","Polling_Center_Location":"Safid Aab Shinya","Verification_Note":"Village","PS_Male":1,"PS_Female":1,"Map_Accuracy":"قریه"},"geometry":{"x":7413076.65885599,"y":4105627.4434520975}},{"attributes":{"OBJECTID":2392,"ولایت":"غور","Province":"GHOR","PC_Code":"2307169","ولسوالي":"لعل و سرجنگل ","District":"LAL WA SARJANGAL","د_مرکز_نوم__نام_مرکز":"مسجد تگاب سعید","Polling_Center_Name":"Tagab Sayeed Mosque","د_مرکز_ځای__موقعیت_مرکز":" تگاب سعید","Polling_Center_Location":"Tagab Sayeed","Verification_Note":"Village","PS_Male":2,"PS_Female":1,"Map_Accuracy":"قریه"},"geometry":{"x":7409094.7205952927,"y":4111057.1615776196}},{"attributes":{"OBJECTID":2393,"ولایت":"غور","Province":"GHOR","PC_Code":"2307175","ولسوالي":"لعل و سرجنگل ","District":"LAL WA SARJANGAL","د_مرکز_نوم__نام_مرکز":"مکتب تالتو کرمان","Polling_Center_Name":"Talto Karman School","د_مرکز_ځای__موقعیت_مرکز":" قریه تالتو","Polling_Center_Location":"Talto Village","Verification_Note":"Village","PS_Male":1,"PS_Female":1,"Map_Accuracy":"قریه"},"geometry":{"x":7399371.2102037668,"y":4091956.6442905515}},{"attributes":{"OBJECTID":2394,"ولایت":"غور","Province":"GHOR","PC_Code":"2309181","ولسوالي":"تولک ","District":"TULAK","د_مرکز_نوم__نام_مرکز":"مسجد دهن گلدان","Polling_Center_Name":"Dahan Guldan Mosque","د_مرکز_ځای__موقعیت_مرکز":" دهن گلدان","Polling_Center_Location":"Dahan Guldan","Verification_Note":"Village","PS_Male":1,"PS_Female":1,"Map_Accuracy":"قریه"},"geometry":{"x":7113360.9546264894,"y":4027619.5480133593}},{"attributes":{"OBJECTID":2395,"ولایت":"غور","Province":"GHOR","PC_Code":"2309182","ولسوالي":"تولک ","District":"TULAK","د_مرکز_نوم__نام_مرکز":"مکتب ابتدائیه کبوتر خان","Polling_Center_Name":"Kabotar Khan Primary School","د_مرکز_ځای__موقعیت_مرکز":" کبوتر خان","Polling_Center_Location":"Kabotar Khan","Verification_Note":"Building","PS_Male":2,"PS_Female":2,"Map_Accuracy":"تعمیر"},"geometry":{"x":7093962.0995607153,"y":4025655.7953350395}},{"attributes":{"OBJECTID":2396,"ولایت":"غور","Province":"GHOR","PC_Code":"2310199","ولسوالي":"ساغر ","District":"SAGHAR","د_مرکز_نوم__نام_مرکز":"باغ دیله ","Polling_Center_Name":"Dila Bagh","د_مرکز_ځای__موقعیت_مرکز":" دیله ","Polling_Center_Location":"Dila","Verification_Note":"Village","PS_Male":1,"PS_Female":2,"Map_Accuracy":"قریه"},"geometry":{"x":7065259.1291717924,"y":3967599.3170505539}},{"attributes":{"OBJECTID":2397,"ولایت":"غور","Province":"GHOR","PC_Code":"2310200","ولسوالي":"ساغر ","District":"SAGHAR","د_مرکز_نوم__نام_مرکز":"مکتب دهن دوتایی  ","Polling_Center_Name":"Dahn Dotayee School","د_مرکز_ځای__موقعیت_مرکز":"دهن دوتائی ","Polling_Center_Location":"Dahan Dotayee","Verification_Note":"Village","PS_Male":1,"PS_Female":1,"Map_Accuracy":"قریه"},"geometry":{"x":7121368.0671928227,"y":4009152.0177220628}},{"attributes":{"OBJECTID":2398,"ولایت":"غور","Province":"GHOR","PC_Code":"2310201","ولسوالي":"ساغر ","District":"SAGHAR","د_مرکز_نوم__نام_مرکز":"مکتب متوسطه مناک سفلی","Polling_Center_Name":"Manak Sufla Secondary School","د_مرکز_ځای__موقعیت_مرکز":" مناک سفلی","Polling_Center_Location":"Manak Sufla ","Verification_Note":"Village","PS_Male":2,"PS_Female":1,"Map_Accuracy":"قریه"},"geometry":{"x":7113185.6164097339,"y":3985050.8204889}},{"attributes":{"OBJECTID":2399,"ولایت":"غور","Province":"GHOR","PC_Code":"2310204","ولسوالي":"ساغر ","District":"SAGHAR","د_مرکز_نوم__نام_مرکز":"مکتب متوسطه آخری","Polling_Center_Name":"Akheri Secondary School","د_مرکز_ځای__موقعیت_مرکز":" آخری","Polling_Center_Location":"Akheri","Verification_Note":"Building","PS_Male":2,"PS_Female":2,"Map_Accuracy":"تعمیر"},"geometry":{"x":7079587.2923763394,"y":3980905.6693866178}}]}