{"objectIdFieldName":"OBJECTID","globalIdFieldName":"","geometryType":"esriGeometryPoint","spatialReference":{"wkid":102100,"latestWkid":3857},"fields":[{"name":"OBJECTID","type":"esriFieldTypeOID","alias":"OBJECTID","sqlType":"sqlTypeOther","domain":null,"defaultValue":null},{"name":"ولایت","type":"esriFieldTypeString","alias":"ولایت","sqlType":"sqlTypeOther","length":255,"domain":null,"defaultValue":null},{"name":"Province","type":"esriFieldTypeString","alias":"Province","sqlType":"sqlTypeOther","length":255,"domain":null,"defaultValue":null},{"name":"PC_Code","type":"esriFieldTypeString","alias":"PC_Code","sqlType":"sqlTypeOther","length":255,"domain":null,"defaultValue":null},{"name":"ولسوالي","type":"esriFieldTypeString","alias":"ولسوالي","sqlType":"sqlTypeOther","length":255,"domain":null,"defaultValue":null},{"name":"District","type":"esriFieldTypeString","alias":"District","sqlType":"sqlTypeOther","length":255,"domain":null,"defaultValue":null},{"name":"د_مرکز_نوم__نام_مرکز","type":"esriFieldTypeString","alias":"د_مرکز_نوم__نام_مرکز","sqlType":"sqlTypeOther","length":255,"domain":null,"defaultValue":null},{"name":"Polling_Center_Name","type":"esriFieldTypeString","alias":"Polling_Center_Name","sqlType":"sqlTypeOther","length":255,"domain":null,"defaultValue":null},{"name":"د_مرکز_ځای__موقعیت_مرکز","type":"esriFieldTypeString","alias":"د_مرکز_ځای__موقعیت_مرکز","sqlType":"sqlTypeOther","length":255,"domain":null,"defaultValue":null},{"name":"Polling_Center_Location","type":"esriFieldTypeString","alias":"Polling_Center_Location","sqlType":"sqlTypeOther","length":255,"domain":null,"defaultValue":null},{"name":"Verification_Note","type":"esriFieldTypeString","alias":"Verification_Note","sqlType":"sqlTypeOther","length":250,"domain":null,"defaultValue":null},{"name":"PS_Male","type":"esriFieldTypeSmallInteger","alias":"PS_Male","sqlType":"sqlTypeOther","domain":null,"defaultValue":null},{"name":"PS_Female","type":"esriFieldTypeSmallInteger","alias":"PS_Female","sqlType":"sqlTypeOther","domain":null,"defaultValue":null},{"name":"Map_Accuracy","type":"esriFieldTypeString","alias":"Map_Accuracy","sqlType":"sqlTypeOther","length":10,"domain":null,"defaultValue":null}],"features":[{"attributes":{"OBJECTID":2800,"ولایت":"هلمند","Province":"HELMAND","PC_Code":"3006121","ولسوالي":"گرم سیر","District":"GARM SER","د_مرکز_نوم__نام_مرکز":"دحسن آباد بارجاوي مكتب","Polling_Center_Name":"Hassan Abad Barjawi School","د_مرکز_ځای__موقعیت_مرکز":"د حاجی داود خان کلي","Polling_Center_Location":"Haji Dawood Khan Village","Verification_Note":"Building","PS_Male":3,"PS_Female":0,"Map_Accuracy":"تعمیر"},"geometry":{"x":7143482.4726261832,"y":3642627.9282531813}},{"attributes":{"OBJECTID":2801,"ولایت":"هلمند","Province":"HELMAND","PC_Code":"3008129","ولسوالي":"سنگین قلعه","District":"SANGIN QALA","د_مرکز_نوم__نام_مرکز":"مركزي شفاخانه","Polling_Center_Name":"Central Hospital","د_مرکز_ځای__موقعیت_مرکز":"نوی مکتب با زار","Polling_Center_Location":"Nawai Maktab Bazar","Verification_Note":"Building","PS_Male":0,"PS_Female":5,"Map_Accuracy":"تعمیر"},"geometry":{"x":7218051.5756840818,"y":3770876.3108650446}},{"attributes":{"OBJECTID":2802,"ولایت":"هلمند","Province":"HELMAND","PC_Code":"3008130","ولسوالي":"سنگین قلعه","District":"SANGIN QALA","د_مرکز_نوم__نام_مرکز":"مسجد جامع مركزي","Polling_Center_Name":"Central Mosque","د_مرکز_ځای__موقعیت_مرکز":"د ولسوالی بازار","Polling_Center_Location":"District Bazar","Verification_Note":"Building","PS_Male":5,"PS_Female":0,"Map_Accuracy":"تعمیر"},"geometry":{"x":7217680.8995908573,"y":3772757.2452842146}},{"attributes":{"OBJECTID":2803,"ولایت":"هلمند","Province":"HELMAND","PC_Code":"3014086","ولسوالي":"مارجه","District":"MARJA","د_مرکز_نوم__نام_مرکز":"تعمير بلاک ـ ۴ ف","Polling_Center_Name":"Block 4 - F Building","د_مرکز_ځای__موقعیت_مرکز":"بلاک ـ ۴ ف","Polling_Center_Location":"Block 4 - F","Verification_Note":"Village","PS_Male":2,"PS_Female":1,"Map_Accuracy":"قریه"},"geometry":{"x":7131853.1736654639,"y":3699756.2938173711}},{"attributes":{"OBJECTID":2804,"ولایت":"هلمند","Province":"HELMAND","PC_Code":"3014087","ولسوالي":"مارجه","District":"MARJA","د_مرکز_نوم__نام_مرکز":"د فيض الله كور( کوچی مرکز)","Polling_Center_Name":"Faizullah Private House (Kochi Center)","د_مرکز_ځای__موقعیت_مرکز":"تریخ زابر","Polling_Center_Location":"Treekh Zabar","Verification_Note":"Village","PS_Male":2,"PS_Female":1,"Map_Accuracy":"قریه"},"geometry":{"x":7150098.4482252449,"y":3701661.050947018}},{"attributes":{"OBJECTID":2805,"ولایت":"هلمند","Province":"HELMAND","PC_Code":"3002070","ولسوالي":"نادعلی","District":"NAD ALI","د_مرکز_نوم__نام_مرکز":"مکتب لوی باغ","Polling_Center_Name":"Loy Bagh School","د_مرکز_ځای__موقعیت_مرکز":"لوی باغ","Polling_Center_Location":"Loy Bagh","Verification_Note":"Building","PS_Male":3,"PS_Female":1,"Map_Accuracy":"تعمیر"},"geometry":{"x":7153717.14208192,"y":3714855.2898320705}},{"attributes":{"OBJECTID":2806,"ولایت":"هلمند","Province":"HELMAND","PC_Code":"3002071","ولسوالي":"نادعلی","District":"NAD ALI","د_مرکز_نوم__نام_مرکز":"لیسه چاه انجیر","Polling_Center_Name":"Chah Enjeer High School","د_مرکز_ځای__موقعیت_مرکز":"چاه انجیر","Polling_Center_Location":"Chah Enjeer ","Verification_Note":"Building","PS_Male":2,"PS_Female":2,"Map_Accuracy":"تعمیر"},"geometry":{"x":7159247.7893811688,"y":3721570.2353068963}},{"attributes":{"OBJECTID":2807,"ولایت":"هلمند","Province":"HELMAND","PC_Code":"3002080","ولسوالي":"نادعلی","District":"NAD ALI","د_مرکز_نوم__نام_مرکز":"مکتب شین کلی","Polling_Center_Name":"Sheen Village School","د_مرکز_ځای__موقعیت_مرکز":"شین کلی","Polling_Center_Location":"Sheen Village","Verification_Note":"Building","PS_Male":3,"PS_Female":1,"Map_Accuracy":"تعمیر"},"geometry":{"x":7148930.9850655459,"y":3716383.3177364096}},{"attributes":{"OBJECTID":2808,"ولایت":"هلمند","Province":"HELMAND","PC_Code":"3002081","ولسوالي":"نادعلی","District":"NAD ALI","د_مرکز_نوم__نام_مرکز":"نور محمد كلي مكتب","Polling_Center_Name":"Noor Mohammad Village School","د_مرکز_ځای__موقعیت_مرکز":"جنوبی جا انجیر مکتب","Polling_Center_Location":"Jonobi Ja Enjeer Maktab","Verification_Note":"Village","PS_Male":3,"PS_Female":1,"Map_Accuracy":"قریه"},"geometry":{"x":7138480.6875297539,"y":3726110.7510346845}},{"attributes":{"OBJECTID":2809,"ولایت":"هلمند","Province":"HELMAND","PC_Code":"3003092","ولسوالي":"ناوه بارکزایی","District":"NAWA-E-BARAKZAYI","د_مرکز_نوم__نام_مرکز":"مكتب منګل زی","Polling_Center_Name":"Mangal Zai School","د_مرکز_ځای__موقعیت_مرکز":"منګل زی","Polling_Center_Location":"Mangal Zai","Verification_Note":"Building","PS_Male":3,"PS_Female":1,"Map_Accuracy":"تعمیر"},"geometry":{"x":7164645.090402,"y":3688054.8459561095}},{"attributes":{"OBJECTID":2810,"ولایت":"هلمند","Province":"HELMAND","PC_Code":"3003093","ولسوالي":"ناوه بارکزایی","District":"NAWA-E-BARAKZAYI","د_مرکز_نوم__نام_مرکز":"لیسه خلج","Polling_Center_Name":"Khalj High School","د_مرکز_ځای__موقعیت_مرکز":"خلج","Polling_Center_Location":"Khalj","Verification_Note":"Building","PS_Male":4,"PS_Female":0,"Map_Accuracy":"تعمیر"},"geometry":{"x":7155848.931481313,"y":3681910.2064088583}},{"attributes":{"OBJECTID":2811,"ولایت":"هلمند","Province":"HELMAND","PC_Code":"3003103","ولسوالي":"ناوه بارکزایی","District":"NAWA-E-BARAKZAYI","د_مرکز_نوم__نام_مرکز":"كلينيك خرابه","Polling_Center_Name":"Kharaba Clinic","د_مرکز_ځای__موقعیت_مرکز":"خرابه","Polling_Center_Location":"Kharaba","Verification_Note":"Building","PS_Male":4,"PS_Female":0,"Map_Accuracy":"تعمیر"},"geometry":{"x":7162844.5354870483,"y":3685848.6231372505}},{"attributes":{"OBJECTID":2812,"ولایت":"هلمند","Province":"HELMAND","PC_Code":"3003104","ولسوالي":"ناوه بارکزایی","District":"NAWA-E-BARAKZAYI","د_مرکز_نوم__نام_مرکز":"د باسلانو روغتیایي مرکز","Polling_Center_Name":"Baslan Clinic","د_مرکز_ځای__موقعیت_مرکز":"باسلان","Polling_Center_Location":"Baslan","Verification_Note":"Building","PS_Male":4,"PS_Female":0,"Map_Accuracy":"تعمیر"},"geometry":{"x":7157196.7834230512,"y":3678878.121774897}},{"attributes":{"OBJECTID":2813,"ولایت":"هلمند","Province":"HELMAND","PC_Code":"3006114","ولسوالي":"گرم سیر","District":"GARM SER","د_مرکز_نوم__نام_مرکز":"د حاجی حضرت علی خان د کلی مكتب","Polling_Center_Name":"Haji Hazrat Ali Khan Village School","د_مرکز_ځای__موقعیت_مرکز":"د حاجی حضرت علی کلی","Polling_Center_Location":"Haji Hazar Ali Village","Verification_Note":"Building","PS_Male":4,"PS_Female":1,"Map_Accuracy":"تعمیر"},"geometry":{"x":7146846.6177692264,"y":3638732.60124141}},{"attributes":{"OBJECTID":2814,"ولایت":"هلمند","Province":"HELMAND","PC_Code":"3006115","ولسوالي":"گرم سیر","District":"GARM SER","د_مرکز_نوم__نام_مرکز":"مكتب كودلي","Polling_Center_Name":"Kodalee School","د_مرکز_ځای__موقعیت_مرکز":"د حاجی باری داد کلی","Polling_Center_Location":"Haji Bari Dad Village","Verification_Note":"Building","PS_Male":3,"PS_Female":0,"Map_Accuracy":"تعمیر"},"geometry":{"x":7145060.2026559934,"y":3635073.4419500753}},{"attributes":{"OBJECTID":2815,"ولایت":"هلمند","Province":"HELMAND","PC_Code":"3007204","ولسوالي":"نوزاد","District":"NAWZAD","د_مرکز_نوم__نام_مرکز":"مکتب مرکز ولسوالی","Polling_Center_Name":"District Center School","د_مرکز_ځای__موقعیت_مرکز":"مرکز ولسوالی","Polling_Center_Location":"District Compound","Verification_Note":"Building","PS_Male":6,"PS_Female":1,"Map_Accuracy":"تعمیر"},"geometry":{"x":7176872.8396056294,"y":3816519.8032640293}},{"attributes":{"OBJECTID":2816,"ولایت":"هلمند","Province":"HELMAND","PC_Code":"3008133","ولسوالي":"سنگین قلعه","District":"SANGIN QALA","د_مرکز_نوم__نام_مرکز":"شیرعلی مسجد","Polling_Center_Name":"Sher Ali Mosque","د_مرکز_ځای__موقعیت_مرکز":"نسوزي سفلی","Polling_Center_Location":"Nasozi Sufla","Verification_Note":"Village","PS_Male":3,"PS_Female":1,"Map_Accuracy":"قریه"},"geometry":{"x":7231717.0261300616,"y":3784238.0474204868}},{"attributes":{"OBJECTID":2817,"ولایت":"هلمند","Province":"HELMAND","PC_Code":"3008134","ولسوالي":"سنگین قلعه","District":"SANGIN QALA","د_مرکز_نوم__نام_مرکز":"مكتب نسوزي","Polling_Center_Name":"Nasozi School","د_مرکز_ځای__موقعیت_مرکز":"نسوزي","Polling_Center_Location":"Nasozi","Verification_Note":"Village","PS_Male":5,"PS_Female":0,"Map_Accuracy":"قریه"},"geometry":{"x":7232389.7554164082,"y":3785861.9315292984}},{"attributes":{"OBJECTID":2818,"ولایت":"هلمند","Province":"HELMAND","PC_Code":"3009180","ولسوالي":"موسی قلعه","District":"MUSA QALA","د_مرکز_نوم__نام_مرکز":"مارکیت اختر جان","Polling_Center_Name":"Akhtar Jan Market","د_مرکز_ځای__موقعیت_مرکز":"مرکز ولسوالی","Polling_Center_Location":"District Compound","Verification_Note":"Building","PS_Male":4,"PS_Female":2,"Map_Accuracy":"تعمیر"},"geometry":{"x":7210489.0927562192,"y":3809501.5058299303}},{"attributes":{"OBJECTID":2819,"ولایت":"هلمند","Province":"HELMAND","PC_Code":"3009187","ولسوالي":"موسی قلعه","District":"MUSA QALA","د_مرکز_نوم__نام_مرکز":"چيك اپ مكتب","Polling_Center_Name":"Cheek Aab School","د_مرکز_ځای__موقعیت_مرکز":"چیک اب","Polling_Center_Location":"Cheek Aab","Verification_Note":"Village","PS_Male":3,"PS_Female":2,"Map_Accuracy":"قریه"},"geometry":{"x":7214734.4496675543,"y":3800150.34733963}},{"attributes":{"OBJECTID":2820,"ولایت":"هلمند","Province":"HELMAND","PC_Code":"3014074","ولسوالي":"مارجه","District":"MARJA","د_مرکز_نوم__نام_مرکز":"مکتب مارجه بلاک ـ ۹","Polling_Center_Name":"Marja Block 9 School","د_مرکز_ځای__موقعیت_مرکز":"مارجه بلاک ـ ۹","Polling_Center_Location":"Marja Block 9","Verification_Note":"Village","PS_Male":2,"PS_Female":1,"Map_Accuracy":"قریه"},"geometry":{"x":7132494.6488915831,"y":3683382.450902082}},{"attributes":{"OBJECTID":2821,"ولایت":"هلمند","Province":"HELMAND","PC_Code":"3014075","ولسوالي":"مارجه","District":"MARJA","د_مرکز_نوم__نام_مرکز":"خانه ملک","Polling_Center_Name":"Malak Private House","د_مرکز_ځای__موقعیت_مرکز":"سیستانی","Polling_Center_Location":"Sistani","Verification_Note":"Village","PS_Male":6,"PS_Female":2,"Map_Accuracy":"قریه"},"geometry":{"x":7129573.4729454592,"y":3694075.1309406757}},{"attributes":{"OBJECTID":2822,"ولایت":"هلمند","Province":"HELMAND","PC_Code":"3001010","ولسوالي":"لشکرگاه","District":"LASHKARGAH","د_مرکز_نوم__نام_مرکز":"لیسه کارته لگن","Polling_Center_Name":"Karta-e-Lagan High School","د_مرکز_ځای__موقعیت_مرکز":" کارته لگن ناحیه 2","Polling_Center_Location":"Karta-e-Lagan Nahia 2","Verification_Note":"Building","PS_Male":7,"PS_Female":0,"Map_Accuracy":"تعمیر"},"geometry":{"x":7166241.8471591808,"y":3709857.9674338549}},{"attributes":{"OBJECTID":2823,"ولایت":"هلمند","Province":"HELMAND","PC_Code":"3001019","ولسوالي":"لشکرگاه","District":"LASHKARGAH","د_مرکز_نوم__نام_مرکز":"د حاجی کریم داد کلی مکتب","Polling_Center_Name":"Haji Kareem Dad Village School","د_مرکز_ځای__موقعیت_مرکز":"حاجی کریم داد کلی","Polling_Center_Location":"Haji Kareem Dad Village","Verification_Note":"Building","PS_Male":0,"PS_Female":4,"Map_Accuracy":"تعمیر"},"geometry":{"x":7165337.9874404967,"y":3698120.194795303}},{"attributes":{"OBJECTID":2824,"ولایت":"هلمند","Province":"HELMAND","PC_Code":"3001029","ولسوالي":"لشکرگاه","District":"LASHKARGAH","د_مرکز_نوم__نام_مرکز":"کورغوجت مکتب باباجی","Polling_Center_Name":"Korghojat School Babaji","د_مرکز_ځای__موقعیت_مرکز":"د رحیم خیلو کلی","Polling_Center_Location":"Raheemkhelo Village","Verification_Note":"Building","PS_Male":2,"PS_Female":2,"Map_Accuracy":"تعمیر"},"geometry":{"x":7170971.1165761724,"y":3727249.5439425409}},{"attributes":{"OBJECTID":2825,"ولایت":"هلمند","Province":"HELMAND","PC_Code":"3001030","ولسوالي":"لشکرگاه","District":"LASHKARGAH","د_مرکز_نوم__نام_مرکز":"د خان محمد مسجد","Polling_Center_Name":"Khan Mohammad Mosque","د_مرکز_ځای__موقعیت_مرکز":"د مهاجرینو کمپ","Polling_Center_Location":"Muhajereeno Camp","Verification_Note":"Building","PS_Male":3,"PS_Female":3,"Map_Accuracy":"تعمیر"},"geometry":{"x":7164251.8676591143,"y":3715871.2293343619}},{"attributes":{"OBJECTID":2826,"ولایت":"هلمند","Province":"HELMAND","PC_Code":"3003107","ولسوالي":"ناوه بارکزایی","District":"NAWA-E-BARAKZAYI","د_مرکز_نوم__نام_مرکز":"مكتب ګورګین صفلا","Polling_Center_Name":"Gorgeen Sufla School","د_مرکز_ځای__موقعیت_مرکز":"ګورګین صفلا","Polling_Center_Location":"Gorgeen Sufla","Verification_Note":"Building","PS_Male":3,"PS_Female":1,"Map_Accuracy":"تعمیر"},"geometry":{"x":7161964.6228172109,"y":3692725.79501538}},{"attributes":{"OBJECTID":2827,"ولایت":"هلمند","Province":"HELMAND","PC_Code":"3003108","ولسوالي":"ناوه بارکزایی","District":"NAWA-E-BARAKZAYI","د_مرکز_نوم__نام_مرکز":"مكتب ګورګین علیا","Polling_Center_Name":"Gorgeen Ulya School","د_مرکز_ځای__موقعیت_مرکز":"ګورګین علیا","Polling_Center_Location":"Gorgeen Ulya","Verification_Note":"Building","PS_Male":3,"PS_Female":1,"Map_Accuracy":"تعمیر"},"geometry":{"x":7160118.1886873245,"y":3679953.4993279278}},{"attributes":{"OBJECTID":2828,"ولایت":"هلمند","Province":"HELMAND","PC_Code":"3004055","ولسوالي":"نهرسراج","District":"NAHR-E-SARAJ","د_مرکز_نوم__نام_مرکز":"خانه حاجي سليم","Polling_Center_Name":"Haji Saleem Private House","د_مرکز_ځای__موقعیت_مرکز":"سربند","Polling_Center_Location":"Sarband","Verification_Note":"Village","PS_Male":3,"PS_Female":1,"Map_Accuracy":"قریه"},"geometry":{"x":7194524.6053946763,"y":3742085.2079971209}},{"attributes":{"OBJECTID":2829,"ولایت":"هلمند","Province":"HELMAND","PC_Code":"3006125","ولسوالي":"گرم سیر","District":"GARM SER","د_مرکز_نوم__نام_مرکز":"د هزارجفت کلی مکتب","Polling_Center_Name":"Hazar Joft Village School","د_مرکز_ځای__موقعیت_مرکز":"هزارجفت کلی","Polling_Center_Location":"Hazar Joft Village","Verification_Note":"Village","PS_Male":2,"PS_Female":2,"Map_Accuracy":"قریه"},"geometry":{"x":7146540.0672686808,"y":3649768.5215071142}},{"attributes":{"OBJECTID":2830,"ولایت":"هلمند","Province":"HELMAND","PC_Code":"3011217","ولسوالي":"ریگ خانشین","District":"REG-E-KHAN NISHIN","د_مرکز_نوم__نام_مرکز":"دفتر ولسوالی","Polling_Center_Name":"District Building Office","د_مرکز_ځای__موقعیت_مرکز":"مرکز ولسوالی","Polling_Center_Location":"District Compound","Verification_Note":"Building","PS_Male":2,"PS_Female":1,"Map_Accuracy":"تعمیر"},"geometry":{"x":7100583.7958684154,"y":3574622.637684226}},{"attributes":{"OBJECTID":2831,"ولایت":"هلمند","Province":"HELMAND","PC_Code":"3014083","ولسوالي":"مارجه","District":"MARJA","د_مرکز_نوم__نام_مرکز":"مکتب مارجه بلاک ـ ۱۱ خورد","Polling_Center_Name":"Marja Block 11 Khord School","د_مرکز_ځای__موقعیت_مرکز":"مارجه بلاک ـ ۱۱ خورد","Polling_Center_Location":"Marja Block 11 Khord","Verification_Note":"Village","PS_Male":2,"PS_Female":1,"Map_Accuracy":"قریه"},"geometry":{"x":7135801.0325772539,"y":3681032.8565512821}},{"attributes":{"OBJECTID":2832,"ولایت":"بادغيس","Province":"BADGHIS","PC_Code":"3102028","ولسوالي":"آبکمری","District":"AB KAMARI","د_مرکز_نوم__نام_مرکز":"لیسه جعفری","Polling_Center_Name":"Jafari High School","د_مرکز_ځای__موقعیت_مرکز":"قریه جعفری","Polling_Center_Location":"Jafari Village ","Verification_Note":"Village","PS_Male":2,"PS_Female":1,"Map_Accuracy":"قریه"},"geometry":{"x":7015098.1903604753,"y":4193097.0823399648}},{"attributes":{"OBJECTID":2833,"ولایت":"بادغيس","Province":"BADGHIS","PC_Code":"3102037","ولسوالي":"آبکمری","District":"AB KAMARI","د_مرکز_نوم__نام_مرکز":"مکتب متوسطه مبارکشاه","Polling_Center_Name":"Mobarak Shah Secondary School","د_مرکز_ځای__موقعیت_مرکز":"مبارک شاه ","Polling_Center_Location":"Mobarak Shah ","Verification_Note":"Building","PS_Male":1,"PS_Female":1,"Map_Accuracy":"تعمیر"},"geometry":{"x":7018613.60867276,"y":4170508.9427585006}},{"attributes":{"OBJECTID":2834,"ولایت":"بادغيس","Province":"BADGHIS","PC_Code":"3102038","ولسوالي":"آبکمری","District":"AB KAMARI","د_مرکز_نوم__نام_مرکز":"مکتب سنگ خرس ","Polling_Center_Name":"Sang-e- khars School","د_مرکز_ځای__موقعیت_مرکز":"قریه سنگ خرس","Polling_Center_Location":"Sang-e- Khers Village","Verification_Note":"Building","PS_Male":1,"PS_Female":1,"Map_Accuracy":"تعمیر"},"geometry":{"x":7020226.0069315955,"y":4175407.0443227515}},{"attributes":{"OBJECTID":2835,"ولایت":"بادغيس","Province":"BADGHIS","PC_Code":"3102048","ولسوالي":"آبکمری","District":"AB KAMARI","د_مرکز_نوم__نام_مرکز":"مکتب قریه کوکجایل","Polling_Center_Name":"Kokjail Village School","د_مرکز_ځای__موقعیت_مرکز":"قریه کوکجایل","Polling_Center_Location":"Kokjail Village","Verification_Note":"Building","PS_Male":1,"PS_Female":1,"Map_Accuracy":"تعمیر"},"geometry":{"x":6993352.0124368146,"y":4145998.3891291022}},{"attributes":{"OBJECTID":2836,"ولایت":"بادغيس","Province":"BADGHIS","PC_Code":"3102049","ولسوالي":"آبکمری","District":"AB KAMARI","د_مرکز_نوم__نام_مرکز":"مکتب آب باریک","Polling_Center_Name":"Aab Barik School","د_مرکز_ځای__موقعیت_مرکز":"آب باریک","Polling_Center_Location":"Aab Barik","Verification_Note":"Building","PS_Male":2,"PS_Female":1,"Map_Accuracy":"تعمیر"},"geometry":{"x":6981922.4540384412,"y":4150236.3528345823}},{"attributes":{"OBJECTID":2837,"ولایت":"بادغيس","Province":"BADGHIS","PC_Code":"3103022","ولسوالي":"مقر","District":"MUQUR","د_مرکز_نوم__نام_مرکز":"مسجد قریه خواجه پسته","Polling_Center_Name":"Khwaja pesta Village Mosque","د_مرکز_ځای__موقعیت_مرکز":"خواجه پسته ","Polling_Center_Location":"khwaja pesta","Verification_Note":"Building","PS_Male":2,"PS_Female":1,"Map_Accuracy":"تعمیر"},"geometry":{"x":7035492.7437248379,"y":4178354.5337003693}},{"attributes":{"OBJECTID":2838,"ولایت":"بادغيس","Province":"BADGHIS","PC_Code":"3103023","ولسوالي":"مقر","District":"MUQUR","د_مرکز_نوم__نام_مرکز":"مکتب ابتدائیه قریه جکنه","Polling_Center_Name":"Jaknah Primary School","د_مرکز_ځای__موقعیت_مرکز":"قریه جکنه ","Polling_Center_Location":"Jaknah Village","Verification_Note":"Building","PS_Male":1,"PS_Female":1,"Map_Accuracy":"تعمیر"},"geometry":{"x":7039415.2195663266,"y":4177123.3746733218}},{"attributes":{"OBJECTID":2839,"ولایت":"بادغيس","Province":"BADGHIS","PC_Code":"3104054","ولسوالي":"قادس","District":"QADIS","د_مرکز_نوم__نام_مرکز":"لیسه جمیعت","Polling_Center_Name":"Jamiat High School","د_مرکز_ځای__موقعیت_مرکز":"مرکز ولسوالی","Polling_Center_Location":"District Center ","Verification_Note":"Building","PS_Male":2,"PS_Female":1,"Map_Accuracy":"تعمیر"},"geometry":{"x":7062287.9841326512,"y":4137041.0506438538}},{"attributes":{"OBJECTID":2840,"ولایت":"بادغيس","Province":"BADGHIS","PC_Code":"3104064","ولسوالي":"قادس","District":"QADIS","د_مرکز_نوم__نام_مرکز":" مسجد ارباب محمد ","Polling_Center_Name":"Arbab Mohammad Village ","د_مرکز_ځای__موقعیت_مرکز":"ارباب محمد قریه ","Polling_Center_Location":"Arbab Mohammad Village","Verification_Note":"District","PS_Male":1,"PS_Female":1,"Map_Accuracy":"ولسوالی"},"geometry":{"x":7076506.9562750682,"y":4125258.2548879981}},{"attributes":{"OBJECTID":2841,"ولایت":"بادغيس","Province":"BADGHIS","PC_Code":"3104065","ولسوالي":"قادس","District":"QADIS","د_مرکز_نوم__نام_مرکز":"قریه دو آبی ","Polling_Center_Name":"Deh Aabi Village ","د_مرکز_ځای__موقعیت_مرکز":"ده ابی ","Polling_Center_Location":"Deh Aabi ","Verification_Note":"Village","PS_Male":1,"PS_Female":1,"Map_Accuracy":"قریه"},"geometry":{"x":7079833.210489843,"y":4116716.8648951277}},{"attributes":{"OBJECTID":2842,"ولایت":"بادغيس","Province":"BADGHIS","PC_Code":"3104079","ولسوالي":"قادس","District":"QADIS","د_مرکز_نوم__نام_مرکز":"مدرسه قریه بارگل","Polling_Center_Name":"Bargul Village Madrassa","د_مرکز_ځای__موقعیت_مرکز":"قریه بارگل","Polling_Center_Location":"Bargul Village","Verification_Note":"Building","PS_Male":1,"PS_Female":1,"Map_Accuracy":"تعمیر"},"geometry":{"x":7100156.5115877315,"y":4110615.2648066133}},{"attributes":{"OBJECTID":2843,"ولایت":"بادغيس","Province":"BADGHIS","PC_Code":"3105147","ولسوالي":"بالا مرغاب","District":"BALA MURGHAB","د_مرکز_نوم__نام_مرکز":"مکتب مرکز مرغاب","Polling_Center_Name":"Markaz Murghab School","د_مرکز_ځای__موقعیت_مرکز":" مرکز مرغاب","Polling_Center_Location":"Markaz Murghab","Verification_Note":"Building","PS_Male":2,"PS_Female":0,"Map_Accuracy":"تعمیر"},"geometry":{"x":7050210.1691474281,"y":4243247.4388062358}},{"attributes":{"OBJECTID":2844,"ولایت":"بادغيس","Province":"BADGHIS","PC_Code":"3105149","ولسوالي":"بالا مرغاب","District":"BALA MURGHAB","د_مرکز_نوم__نام_مرکز":"مکتب جوی خواجه","Polling_Center_Name":"Joy-e-Khwaja School","د_مرکز_ځای__موقعیت_مرکز":" جوی خواجه","Polling_Center_Location":"Joy-e-Khwaja","Verification_Note":"Village","PS_Male":2,"PS_Female":1,"Map_Accuracy":"قریه"},"geometry":{"x":7050249.1685951836,"y":4239248.6434767619}},{"attributes":{"OBJECTID":2845,"ولایت":"بادغيس","Province":"BADGHIS","PC_Code":"3105150","ولسوالي":"بالا مرغاب","District":"BALA MURGHAB","د_مرکز_نوم__نام_مرکز":"مسجد بز بای","Polling_Center_Name":"Buz Baye Mosque","د_مرکز_ځای__موقعیت_مرکز":" بز بای","Polling_Center_Location":"Buz Baye","Verification_Note":"Village","PS_Male":1,"PS_Female":1,"Map_Accuracy":"قریه"},"geometry":{"x":7053903.0249394216,"y":4226368.3597878888}},{"attributes":{"OBJECTID":2846,"ولایت":"بادغيس","Province":"BADGHIS","PC_Code":"3106109","ولسوالي":"جوند","District":"JAWAND","د_مرکز_نوم__نام_مرکز":"مسجد قریه تخت زرد","Polling_Center_Name":"Takht-e- Zard Village Mosque","د_مرکز_ځای__موقعیت_مرکز":" تخت زرد","Polling_Center_Location":"Takht-e- Zard ","Verification_Note":"Village","PS_Male":1,"PS_Female":1,"Map_Accuracy":"قریه"},"geometry":{"x":7172264.2516486086,"y":4185511.0839860514}},{"attributes":{"OBJECTID":2847,"ولایت":"بادغيس","Province":"BADGHIS","PC_Code":"3106110","ولسوالي":"جوند","District":"JAWAND","د_مرکز_نوم__نام_مرکز":"مسجد قریه غو کلان","Polling_Center_Name":"Ghow kalan Village Mosque","د_مرکز_ځای__موقعیت_مرکز":" غو کلان","Polling_Center_Location":"Ghow kalan ","Verification_Note":"Village","PS_Male":1,"PS_Female":1,"Map_Accuracy":"قریه"},"geometry":{"x":7150068.2205307074,"y":4160252.5149805248}},{"attributes":{"OBJECTID":2848,"ولایت":"بادغيس","Province":"BADGHIS","PC_Code":"3106112","ولسوالي":"جوند","District":"JAWAND","د_مرکز_نوم__نام_مرکز":"مسجد ربات","Polling_Center_Name":"Rubat Mosque","د_مرکز_ځای__موقعیت_مرکز":" ربات","Polling_Center_Location":"Rubat ","Verification_Note":"Village","PS_Male":1,"PS_Female":1,"Map_Accuracy":"قریه"},"geometry":{"x":7164364.8135276623,"y":4149950.8154201731}},{"attributes":{"OBJECTID":2849,"ولایت":"بادغيس","Province":"BADGHIS","PC_Code":"3106113","ولسوالي":"جوند","District":"JAWAND","د_مرکز_نوم__نام_مرکز":"مسجد رباتک","Polling_Center_Name":"Rubatak Mosque","د_مرکز_ځای__موقعیت_مرکز":" رباتک","Polling_Center_Location":"Rubatak ","Verification_Note":"Village","PS_Male":1,"PS_Female":1,"Map_Accuracy":"قریه"},"geometry":{"x":7164375.9376843758,"y":4149981.9293120205}},{"attributes":{"OBJECTID":2850,"ولایت":"بادغيس","Province":"BADGHIS","PC_Code":"3107129","ولسوالي":"غورماچ","District":"GHORMACH","د_مرکز_نوم__نام_مرکز":"مسجد پای مختو","Polling_Center_Name":"pai-e-Makhto Mosque ","د_مرکز_ځای__موقعیت_مرکز":" پای مختو","Polling_Center_Location":"pai-e-Makhto  ","Verification_Note":"Village","PS_Male":1,"PS_Female":1,"Map_Accuracy":"قریه"},"geometry":{"x":7104644.50046121,"y":4254196.0153933316}},{"attributes":{"OBJECTID":2851,"ولایت":"بادغيس","Province":"BADGHIS","PC_Code":"3107130","ولسوالي":"غورماچ","District":"GHORMACH","د_مرکز_نوم__نام_مرکز":"مسجد قریه کاریز دیوانه","Polling_Center_Name":"Kariz-e- Dwana Village Mosque ","د_مرکز_ځای__موقعیت_مرکز":"کاریز دیوانه","Polling_Center_Location":"Kariz-e-Dewana  ","Verification_Note":"Village","PS_Male":1,"PS_Female":1,"Map_Accuracy":"قریه"},"geometry":{"x":7106762.5185263976,"y":4250782.2740831748}},{"attributes":{"OBJECTID":2852,"ولایت":"بادغيس","Province":"BADGHIS","PC_Code":"3107140","ولسوالي":"غورماچ","District":"GHORMACH","د_مرکز_نوم__نام_مرکز":"مسجد قریه پبتو","Polling_Center_Name":"Petow Village Mosque","د_مرکز_ځای__موقعیت_مرکز":"پبتو","Polling_Center_Location":"Petow","Verification_Note":"Building","PS_Male":2,"PS_Female":1,"Map_Accuracy":"تعمیر"},"geometry":{"x":7104244.3781362809,"y":4264997.2718487978}},{"attributes":{"OBJECTID":2853,"ولایت":"بادغيس","Province":"BADGHIS","PC_Code":"3101002","ولسوالي":"قلعه نو","District":"QALA-E-NOW","د_مرکز_نوم__نام_مرکز":"لیسه نسوان شهر قلعه نو","Polling_Center_Name":"Shahr-e-Qala-e-Now Girls School","د_مرکز_ځای__موقعیت_مرکز":"قلعه نو","Polling_Center_Location":"Qala-e-Now ","Verification_Note":"Building","PS_Male":2,"PS_Female":4,"Map_Accuracy":"تعمیر"},"geometry":{"x":7027673.6972005628,"y":4161727.4484876767}},{"attributes":{"OBJECTID":2854,"ولایت":"بادغيس","Province":"BADGHIS","PC_Code":"3101003","ولسوالي":"قلعه نو","District":"QALA-E-NOW","د_مرکز_نوم__نام_مرکز":"مکتب فرستان ","Polling_Center_Name":"Ferestan School","د_مرکز_ځای__موقعیت_مرکز":"فرستان ","Polling_Center_Location":"Faristan ","Verification_Note":"Building","PS_Male":3,"PS_Female":2,"Map_Accuracy":"تعمیر"},"geometry":{"x":7027929.7286898009,"y":4166019.5320023894}},{"attributes":{"OBJECTID":2855,"ولایت":"بادغيس","Province":"BADGHIS","PC_Code":"3101006","ولسوالي":"قلعه نو","District":"QALA-E-NOW","د_مرکز_نوم__نام_مرکز":"مکتب قر قیطو","Polling_Center_Name":"Qarqeito School","د_مرکز_ځای__موقعیت_مرکز":" قر قیطو","Polling_Center_Location":"Qarqeito","Verification_Note":"Building","PS_Male":2,"PS_Female":1,"Map_Accuracy":"تعمیر"},"geometry":{"x":7030134.2108298764,"y":4160501.9455405474}},{"attributes":{"OBJECTID":2856,"ولایت":"بادغيس","Province":"BADGHIS","PC_Code":"3101007","ولسوالي":"قلعه نو","District":"QALA-E-NOW","د_مرکز_نوم__نام_مرکز":"مکتب خا ریستا ن","Polling_Center_Name":"Khareesan School","د_مرکز_ځای__موقعیت_مرکز":" خا ریستا ن","Polling_Center_Location":"kharestan ","Verification_Note":"Building","PS_Male":2,"PS_Female":2,"Map_Accuracy":"تعمیر"},"geometry":{"x":7036682.7357230745,"y":4156762.4252762794}},{"attributes":{"OBJECTID":2857,"ولایت":"بادغيس","Province":"BADGHIS","PC_Code":"3101012","ولسوالي":"قلعه نو","District":"QALA-E-NOW","د_مرکز_نوم__نام_مرکز":"مسجد ملمنجی","Polling_Center_Name":"Malmanji Mosque","د_مرکز_ځای__موقعیت_مرکز":"ملمنجی","Polling_Center_Location":"Malmanji ","Verification_Note":"Building","PS_Male":2,"PS_Female":2,"Map_Accuracy":"تعمیر"},"geometry":{"x":7036248.4839554653,"y":4126797.6899198815}},{"attributes":{"OBJECTID":2858,"ولایت":"بادغيس","Province":"BADGHIS","PC_Code":"3101013","ولسوالي":"قلعه نو","District":"QALA-E-NOW","د_مرکز_نوم__نام_مرکز":"مکتب تگاب اسماعیل","Polling_Center_Name":"Tagab Esmaeel School","د_مرکز_ځای__موقعیت_مرکز":"تگاب اسماعیل","Polling_Center_Location":"Takab Esmaeel ","Verification_Note":"Building","PS_Male":2,"PS_Female":1,"Map_Accuracy":"تعمیر"},"geometry":{"x":7024091.7532473765,"y":4159637.0315019116}},{"attributes":{"OBJECTID":2859,"ولایت":"بادغيس","Province":"BADGHIS","PC_Code":"3101017","ولسوالي":"قلعه نو","District":"QALA-E-NOW","د_مرکز_نوم__نام_مرکز":"بازاراعلم چوب","Polling_Center_Name":"Aalam Chob Bazar","د_مرکز_ځای__موقعیت_مرکز":" اعلم چوب","Polling_Center_Location":"Aalam ","Verification_Note":"Village","PS_Male":2,"PS_Female":2,"Map_Accuracy":"قریه"},"geometry":{"x":7015889.3090384677,"y":4139293.78026285}},{"attributes":{"OBJECTID":2860,"ولایت":"بادغيس","Province":"BADGHIS","PC_Code":"3101018","ولسوالي":"قلعه نو","District":"QALA-E-NOW","د_مرکز_نوم__نام_مرکز":"کلینیک چکاب","Polling_Center_Name":"Chakab Clinic","د_مرکز_ځای__موقعیت_مرکز":" چکاب","Polling_Center_Location":"Chakab ","Verification_Note":"Building","PS_Male":2,"PS_Female":2,"Map_Accuracy":"تعمیر"},"geometry":{"x":7018931.84215387,"y":4132583.9076567963}},{"attributes":{"OBJECTID":2861,"ولایت":"بادغيس","Province":"BADGHIS","PC_Code":"3102043","ولسوالي":"آبکمری","District":"AB KAMARI","د_مرکز_نوم__نام_مرکز":"مسجد گنده آب","Polling_Center_Name":"Gandah Aab school","د_مرکز_ځای__موقعیت_مرکز":" گنده آب","Polling_Center_Location":"Gandah Aab","Verification_Note":"Village","PS_Male":2,"PS_Female":1,"Map_Accuracy":"قریه"},"geometry":{"x":7001286.2145215385,"y":4136993.994674623}},{"attributes":{"OBJECTID":2862,"ولایت":"بادغيس","Province":"BADGHIS","PC_Code":"3102044","ولسوالي":"آبکمری","District":"AB KAMARI","د_مرکز_نوم__نام_مرکز":"مسجد جامع قریه دهستان","Polling_Center_Name":"Dehistan Village Mosque","د_مرکز_ځای__موقعیت_مرکز":"دهستان","Polling_Center_Location":"Dehistan ","Verification_Note":"Village","PS_Male":2,"PS_Female":1,"Map_Accuracy":"قریه"},"geometry":{"x":7005055.2230866365,"y":4122064.3393617943}},{"attributes":{"OBJECTID":2863,"ولایت":"بادغيس","Province":"BADGHIS","PC_Code":"3104058","ولسوالي":"قادس","District":"QADIS","د_مرکز_نوم__نام_مرکز":"مکتب جولیق","Polling_Center_Name":"Joleeq School","د_مرکز_ځای__موقعیت_مرکز":"جولیق","Polling_Center_Location":"Joleeq ","Verification_Note":"Building","PS_Male":2,"PS_Female":1,"Map_Accuracy":"تعمیر"},"geometry":{"x":7054677.3722229376,"y":4123759.8799991757}},{"attributes":{"OBJECTID":2864,"ولایت":"بادغيس","Province":"BADGHIS","PC_Code":"3104059","ولسوالي":"قادس","District":"QADIS","د_مرکز_نوم__نام_مرکز":"مکتب بویه ها","Polling_Center_Name":"Boyaha Village","د_مرکز_ځای__موقعیت_مرکز":"بویه ها","Polling_Center_Location":"Boyaha","Verification_Note":"Building","PS_Male":1,"PS_Female":1,"Map_Accuracy":"تعمیر"},"geometry":{"x":7063669.5781252533,"y":4126823.702182658}},{"attributes":{"OBJECTID":2865,"ولایت":"بادغيس","Province":"BADGHIS","PC_Code":"3104068","ولسوالي":"قادس","District":"QADIS","د_مرکز_نوم__نام_مرکز":"مکتب باب دوستی ","Polling_Center_Name":"Bab-e- Doosti Village ","د_مرکز_ځای__موقعیت_مرکز":"باب دوستی ","Polling_Center_Location":"Bab-e- Doosti ","Verification_Note":"Building","PS_Male":1,"PS_Female":1,"Map_Accuracy":"تعمیر"},"geometry":{"x":7046964.6614158526,"y":4158548.8139772415}},{"attributes":{"OBJECTID":2866,"ولایت":"بادغيس","Province":"BADGHIS","PC_Code":"3104069","ولسوالي":"قادس","District":"QADIS","د_مرکز_نوم__نام_مرکز":"مکتب تاکک","Polling_Center_Name":"Takak School","د_مرکز_ځای__موقعیت_مرکز":"مکتب تاکک","Polling_Center_Location":"Takak School","Verification_Note":"Building","PS_Male":1,"PS_Female":1,"Map_Accuracy":"تعمیر"},"geometry":{"x":7070134.4107988887,"y":4139647.035159722}},{"attributes":{"OBJECTID":2867,"ولایت":"بادغيس","Province":"BADGHIS","PC_Code":"3104076","ولسوالي":"قادس","District":"QADIS","د_مرکز_نوم__نام_مرکز":"مدرسه گنبد شیخ غیاث الدین","Polling_Center_Name":"Gunbad Shekh Ghiasuddin Madrassa","د_مرکز_ځای__موقعیت_مرکز":"قریه گنبد شیخ غیاث الدین","Polling_Center_Location":"Gunbad shekh Gheyasuddin Village","Verification_Note":"District","PS_Male":1,"PS_Female":1,"Map_Accuracy":"ولسوالی"},"geometry":{"x":7093432.5627617761,"y":4143967.5489832163}},{"attributes":{"OBJECTID":2868,"ولایت":"بادغيس","Province":"BADGHIS","PC_Code":"3104077","ولسوالي":"قادس","District":"QADIS","د_مرکز_نوم__نام_مرکز":"مسجد جامع نایک","Polling_Center_Name":"Nayek Mosque","د_مرکز_ځای__موقعیت_مرکز":"قریه نایک","Polling_Center_Location":"Nayek Village","Verification_Note":"Village","PS_Male":1,"PS_Female":1,"Map_Accuracy":"قریه"},"geometry":{"x":7092570.1840249375,"y":4132231.256697841}},{"attributes":{"OBJECTID":2869,"ولایت":"بادغيس","Province":"BADGHIS","PC_Code":"3104082","ولسوالي":"قادس","District":"QADIS","د_مرکز_نوم__نام_مرکز":"مسجد خیرخانه","Polling_Center_Name":"khair Khana Mosque","د_مرکز_ځای__موقعیت_مرکز":"قریه خیرخانه","Polling_Center_Location":"Khair Khana Village","Verification_Note":"Village","PS_Male":1,"PS_Female":1,"Map_Accuracy":"قریه"},"geometry":{"x":7082810.66066495,"y":4159080.5258181319}},{"attributes":{"OBJECTID":2870,"ولایت":"بادغيس","Province":"BADGHIS","PC_Code":"3106093","ولسوالي":"جوند","District":"JAWAND","د_مرکز_نوم__نام_مرکز":"مسجید میل نو ","Polling_Center_Name":"Meel Naw Mosque","د_مرکز_ځای__موقعیت_مرکز":"میل نو","Polling_Center_Location":"Meel Naw ","Verification_Note":"Village","PS_Male":1,"PS_Female":1,"Map_Accuracy":"قریه"},"geometry":{"x":7122187.4815042652,"y":4130191.9210996032}},{"attributes":{"OBJECTID":2871,"ولایت":"بادغيس","Province":"BADGHIS","PC_Code":"3106094","ولسوالي":"جوند","District":"JAWAND","د_مرکز_نوم__نام_مرکز":"مکتب آب خور ","Polling_Center_Name":"Aab Khor School","د_مرکز_ځای__موقعیت_مرکز":"اب خور ","Polling_Center_Location":"Aab khor ","Verification_Note":"Building","PS_Male":1,"PS_Female":1,"Map_Accuracy":"تعمیر"},"geometry":{"x":7132044.0231400765,"y":4138708.3128220364}},{"attributes":{"OBJECTID":2872,"ولایت":"بادغيس","Province":"BADGHIS","PC_Code":"3106104","ولسوالي":"جوند","District":"JAWAND","د_مرکز_نوم__نام_مرکز":"مسجد چشمه بید","Polling_Center_Name":"Chushm Bed Mosque","د_مرکز_ځای__موقعیت_مرکز":" چشمه بید","Polling_Center_Location":"Chushmah bid ","Verification_Note":"Building","PS_Male":1,"PS_Female":1,"Map_Accuracy":"تعمیر"},"geometry":{"x":7194525.9824167788,"y":4156594.7118162885}},{"attributes":{"OBJECTID":2873,"ولایت":"بادغيس","Province":"BADGHIS","PC_Code":"3106105","ولسوالي":"جوند","District":"JAWAND","د_مرکز_نوم__نام_مرکز":"مسجد قریه چشمه چهار","Polling_Center_Name":"Chushma Char Village Mosque","د_مرکز_ځای__موقعیت_مرکز":"چشمه چهار","Polling_Center_Location":"Chushmah Char ","Verification_Note":"Building","PS_Male":1,"PS_Female":1,"Map_Accuracy":"تعمیر"},"geometry":{"x":7191299.7476512864,"y":4149081.202070646}},{"attributes":{"OBJECTID":2874,"ولایت":"بادغيس","Province":"BADGHIS","PC_Code":"3106116","ولسوالي":"جوند","District":"JAWAND","د_مرکز_نوم__نام_مرکز":"مسجد مولاداد","Polling_Center_Name":"Mawladad Mosque","د_مرکز_ځای__موقعیت_مرکز":"قریه کوجه لال بای","Polling_Center_Location":"Koj-e- lalbai Village","Verification_Note":"Village","PS_Male":1,"PS_Female":1,"Map_Accuracy":"قریه"},"geometry":{"x":7154522.7823874876,"y":4202113.2478768378}},{"attributes":{"OBJECTID":2875,"ولایت":"بادغيس","Province":"BADGHIS","PC_Code":"3106120","ولسوالي":"جوند","District":"JAWAND","د_مرکز_نوم__نام_مرکز":"مسجد قریه دهن خیسی","Polling_Center_Name":"Dahan-e- khesi Village Mosque","د_مرکز_ځای__موقعیت_مرکز":"قریه دهن خیسی","Polling_Center_Location":"Dahan-e- khesi Village","Verification_Note":"Village","PS_Male":1,"PS_Female":1,"Map_Accuracy":"قریه"},"geometry":{"x":7132145.6099677794,"y":4216930.6955810189}},{"attributes":{"OBJECTID":2876,"ولایت":"بادغيس","Province":"BADGHIS","PC_Code":"3106121","ولسوالي":"جوند","District":"JAWAND","د_مرکز_نوم__نام_مرکز":"مسجد قریه سیبک","Polling_Center_Name":"Sebak Village Mosque","د_مرکز_ځای__موقعیت_مرکز":"قریه سیبک","Polling_Center_Location":"Sebak Village","Verification_Note":"Village","PS_Male":1,"PS_Female":1,"Map_Accuracy":"قریه"},"geometry":{"x":7135858.3131344356,"y":4215587.6143205613}},{"attributes":{"OBJECTID":2877,"ولایت":"بادغيس","Province":"BADGHIS","PC_Code":"3107124","ولسوالي":"غورماچ","District":"GHORMACH","د_مرکز_نوم__نام_مرکز":"مکتب مرکز","Polling_Center_Name":"Center School","د_مرکز_ځای__موقعیت_مرکز":"غورماچ","Polling_Center_Location":"Ghormach ","Verification_Note":"Building","PS_Male":3,"PS_Female":0,"Map_Accuracy":"تعمیر"},"geometry":{"x":7099977.044531066,"y":4264833.6681894958}},{"attributes":{"OBJECTID":2878,"ولایت":"بادغيس","Province":"BADGHIS","PC_Code":"3107125","ولسوالي":"غورماچ","District":"GHORMACH","د_مرکز_نوم__نام_مرکز":"قریه آب گرمک","Polling_Center_Name":"Abgarmak Village","د_مرکز_ځای__موقعیت_مرکز":"قریه آب گرمک","Polling_Center_Location":"Abgarmak Village","Verification_Note":"Building","PS_Male":2,"PS_Female":1,"Map_Accuracy":"تعمیر"},"geometry":{"x":7104931.7258981653,"y":4264550.76129321}},{"attributes":{"OBJECTID":2879,"ولایت":"بادغيس","Province":"BADGHIS","PC_Code":"3101008","ولسوالي":"قلعه نو","District":"QALA-E-NOW","د_مرکز_نوم__نام_مرکز":"تعمیر مرکز اجتماعی قریه نجک زاد سرهنگ","Polling_Center_Name":"Social Center Building Najakzad Sarhang Village","د_مرکز_ځای__موقعیت_مرکز":"قریه نچک","Polling_Center_Location":"Nechak Village ","Verification_Note":"Building","PS_Male":3,"PS_Female":1,"Map_Accuracy":"تعمیر"},"geometry":{"x":7039844.5977666266,"y":4137224.6019985825}},{"attributes":{"OBJECTID":2880,"ولایت":"بادغيس","Province":"BADGHIS","PC_Code":"3101009","ولسوالي":"قلعه نو","District":"QALA-E-NOW","د_مرکز_نوم__نام_مرکز":"مکتب باغک","Polling_Center_Name":"Baghak School","د_مرکز_ځای__موقعیت_مرکز":" باغک","Polling_Center_Location":"Baghak ","Verification_Note":"Building","PS_Male":3,"PS_Female":2,"Map_Accuracy":"تعمیر"},"geometry":{"x":7028674.2935567535,"y":4157726.1262043938}},{"attributes":{"OBJECTID":2881,"ولایت":"بادغيس","Province":"BADGHIS","PC_Code":"3102035","ولسوالي":"آبکمری","District":"AB KAMARI","د_مرکز_نوم__نام_مرکز":"مکتب لیسه هیچکه ","Polling_Center_Name":"Hichkah High School","د_مرکز_ځای__موقعیت_مرکز":"هیچکه ","Polling_Center_Location":"Hichkah","Verification_Note":"Village","PS_Male":1,"PS_Female":1,"Map_Accuracy":"قریه"},"geometry":{"x":7019712.5435539186,"y":4184421.5326761454}},{"attributes":{"OBJECTID":2882,"ولایت":"بادغيس","Province":"BADGHIS","PC_Code":"3102045","ولسوالي":"آبکمری","District":"AB KAMARI","د_مرکز_نوم__نام_مرکز":"مسجد  جامع سینه اردو","Polling_Center_Name":"Sina Urdo Mosque","د_مرکز_ځای__موقعیت_مرکز":"بازار سینه اردو","Polling_Center_Location":"Seena Urdo Bazar","Verification_Note":"Building","PS_Male":2,"PS_Female":1,"Map_Accuracy":"تعمیر"},"geometry":{"x":6993061.5364707373,"y":4123948.1357783079}},{"attributes":{"OBJECTID":2883,"ولایت":"بادغيس","Province":"BADGHIS","PC_Code":"3102046","ولسوالي":"آبکمری","District":"AB KAMARI","د_مرکز_نوم__نام_مرکز":"مکتب پده لاغری","Polling_Center_Name":"Padeh laghari School","د_مرکز_ځای__موقعیت_مرکز":" پده لاغری","Polling_Center_Location":"Padeh laghari ","Verification_Note":"Building","PS_Male":2,"PS_Female":1,"Map_Accuracy":"تعمیر"},"geometry":{"x":7002537.1172055528,"y":4149239.4094683379}},{"attributes":{"OBJECTID":2884,"ولایت":"بادغيس","Province":"BADGHIS","PC_Code":"3102175","ولسوالي":"آبکمری","District":"AB KAMARI","د_مرکز_نوم__نام_مرکز":"مکتب تحت دره کوکچایل","Polling_Center_Name":"Takh-e-Dara Kockchail School","د_مرکز_ځای__موقعیت_مرکز":"دره کوک چایل","Polling_Center_Location":"Kockchail Dara","Verification_Note":"Building","PS_Male":2,"PS_Female":1,"Map_Accuracy":"تعمیر"},"geometry":{"x":6996652.7833937593,"y":4146486.2815882042}},{"attributes":{"OBJECTID":2885,"ولایت":"بادغيس","Province":"BADGHIS","PC_Code":"3102176","ولسوالي":"آبکمری","District":"AB KAMARI","د_مرکز_نوم__نام_مرکز":"مکتب قریه سیر زارک","Polling_Center_Name":"Serzarak Village School","د_مرکز_ځای__موقعیت_مرکز":"قریه سیر زارک","Polling_Center_Location":"Sir Zarak Village ","Verification_Note":"Building","PS_Male":1,"PS_Female":1,"Map_Accuracy":"تعمیر"},"geometry":{"x":7009997.7505917214,"y":4134216.5467764288}},{"attributes":{"OBJECTID":2886,"ولایت":"بادغيس","Province":"BADGHIS","PC_Code":"3103020","ولسوالي":"مقر","District":"MUQUR","د_مرکز_نوم__نام_مرکز":"تعمیر ولسوالی و کلینیک رباط","Polling_Center_Name":"District Building and Rubat Clinic","د_مرکز_ځای__موقعیت_مرکز":"رباط ","Polling_Center_Location":"Rubat","Verification_Note":"Building","PS_Male":2,"PS_Female":1,"Map_Accuracy":"تعمیر"},"geometry":{"x":7043195.5560027957,"y":4174675.1916610971}},{"attributes":{"OBJECTID":2887,"ولایت":"بادغيس","Province":"BADGHIS","PC_Code":"3106091","ولسوالي":"جوند","District":"JAWAND","د_مرکز_نوم__نام_مرکز":"مسجد قریه ریگی","Polling_Center_Name":"Rigee Village Mosque","د_مرکز_ځای__موقعیت_مرکز":"ریگی","Polling_Center_Location":"Rigee","Verification_Note":"Village","PS_Male":1,"PS_Female":1,"Map_Accuracy":"قریه"},"geometry":{"x":7102025.3120297194,"y":4143315.6724978387}},{"attributes":{"OBJECTID":2888,"ولایت":"بادغيس","Province":"BADGHIS","PC_Code":"3106101","ولسوالي":"جوند","District":"JAWAND","د_مرکز_نوم__نام_مرکز":"مسجد فریه کازک","Polling_Center_Name":"Kazak Village Mosque","د_مرکز_ځای__موقعیت_مرکز":" کازک","Polling_Center_Location":"Kazak ","Verification_Note":"Village","PS_Male":1,"PS_Female":1,"Map_Accuracy":"قریه"},"geometry":{"x":7162545.7395022288,"y":4175157.0517881215}},{"attributes":{"OBJECTID":2889,"ولایت":"بادغيس","Province":"BADGHIS","PC_Code":"3107138","ولسوالي":"غورماچ","District":"GHORMACH","د_مرکز_نوم__نام_مرکز":"قریه شرشرعبدالرحمن","Polling_Center_Name":"Sharshar-e- Abdurahman Village ","د_مرکز_ځای__موقعیت_مرکز":" شرشرعبدالرحمن","Polling_Center_Location":"Sharshar-e- Abdurrahman ","Verification_Note":"Village","PS_Male":1,"PS_Female":1,"Map_Accuracy":"قریه"},"geometry":{"x":7098561.7875244543,"y":4241132.343442753}},{"attributes":{"OBJECTID":2890,"ولایت":"بادغيس","Province":"BADGHIS","PC_Code":"3106199","ولسوالي":"جوند","District":"JAWAND","د_مرکز_نوم__نام_مرکز":"مسجد پای چنگ","Polling_Center_Name":"Pai chang Mosque","د_مرکز_ځای__موقعیت_مرکز":"پای چنگ","Polling_Center_Location":"Pai chang","Verification_Note":"Building","PS_Male":2,"PS_Female":1,"Map_Accuracy":"تعمیر"},"geometry":{"x":7167982.2480269372,"y":4134078.1115626991}},{"attributes":{"OBJECTID":2891,"ولایت":"بادغيس","Province":"BADGHIS","PC_Code":"3106200","ولسوالي":"جوند","District":"JAWAND","د_مرکز_نوم__نام_مرکز":"مسجد حضرت ملا","Polling_Center_Name":"Hazrat mullah Mosque","د_مرکز_ځای__موقعیت_مرکز":"حضرت ملا","Polling_Center_Location":"Hazrat mulah","Verification_Note":"Building","PS_Male":2,"PS_Female":1,"Map_Accuracy":"تعمیر"},"geometry":{"x":7164811.6144527942,"y":4146468.6566667557}},{"attributes":{"OBJECTID":2892,"ولایت":"بادغيس","Province":"BADGHIS","PC_Code":"3104193","ولسوالي":"قادیس","District":"QADIS","د_مرکز_نوم__نام_مرکز":"مکتب شورک","Polling_Center_Name":"Shorak Mosque","د_مرکز_ځای__موقعیت_مرکز":"شورک","Polling_Center_Location":"Shorak","Verification_Note":"Building","PS_Male":2,"PS_Female":1,"Map_Accuracy":"تعمیر"},"geometry":{"x":7109058.72814953,"y":4124892.1296774372}},{"attributes":{"OBJECTID":2893,"ولایت":"بادغيس","Province":"BADGHIS","PC_Code":"3105194","ولسوالي":"بالا مرغاب","District":"BALA MURGHAB","د_مرکز_نوم__نام_مرکز":"قریه کپه بابا","Polling_Center_Name":"Kapa baba Village","د_مرکز_ځای__موقعیت_مرکز":"کپه بابا","Polling_Center_Location":"Kapa baba","Verification_Note":"Village","PS_Male":2,"PS_Female":1,"Map_Accuracy":"قریه"},"geometry":{"x":7052664.9438117109,"y":4239358.2735816538}},{"attributes":{"OBJECTID":2894,"ولایت":"هرات","Province":"HERAT","PC_Code":"3201005","ولسوالي":"هرات","District":"HERAT","د_مرکز_نوم__نام_مرکز":"لیسه جامی","Polling_Center_Name":"Jami High School","د_مرکز_ځای__موقعیت_مرکز":"ناحیه سوم","Polling_Center_Location":"D03 - Nahia 3","Verification_Note":"Building","PS_Male":4,"PS_Female":4,"Map_Accuracy":"تعمیر"},"geometry":{"x":6924085.1391018182,"y":4075112.8503125086}},{"attributes":{"OBJECTID":2895,"ولایت":"هرات","Province":"HERAT","PC_Code":"3201006","ولسوالي":"هرات","District":"HERAT","د_مرکز_نوم__نام_مرکز":"لیسه خواجه محمد تاکی","Polling_Center_Name":"Khwaja Mohammad Taki High School","د_مرکز_ځای__موقعیت_مرکز":" ناحیه سوم","Polling_Center_Location":"D03 - Nahia 3","Verification_Note":"Building","PS_Male":4,"PS_Female":5,"Map_Accuracy":"تعمیر"},"geometry":{"x":6924041.0855265334,"y":4074547.8710600287}},{"attributes":{"OBJECTID":2896,"ولایت":"هرات","Province":"HERAT","PC_Code":"3201008","ولسوالي":"هرات","District":"HERAT","د_مرکز_نوم__نام_مرکز":"لیسه ذکور بالیا ن","Polling_Center_Name":"Balian Boys School","د_مرکز_ځای__موقعیت_مرکز":" ناحیه چهارم","Polling_Center_Location":"D04 - Nahia 4","Verification_Note":"Building","PS_Male":2,"PS_Female":3,"Map_Accuracy":"تعمیر"},"geometry":{"x":6925200.6873037852,"y":4074921.0967277288}},{"attributes":{"OBJECTID":2897,"ولایت":"هرات","Province":"HERAT","PC_Code":"3201009","ولسوالي":"هرات","District":"HERAT","د_مرکز_نوم__نام_مرکز":"مهدیه غور درواز","Polling_Center_Name":"Mehdeiah Ghur -e- Darwaz","د_مرکز_ځای__موقعیت_مرکز":" ناحیه پنجم","Polling_Center_Location":"D05 - Nahia 5","Verification_Note":"Village","PS_Male":3,"PS_Female":4,"Map_Accuracy":"قریه"},"geometry":{"x":6923637.0035673156,"y":4077247.5093017444}},{"attributes":{"OBJECTID":2898,"ولایت":"هرات","Province":"HERAT","PC_Code":"3201011","ولسوالي":"هرات","District":"HERAT","د_مرکز_نوم__نام_مرکز":"لیسه تجربوی","Polling_Center_Name":"Experimental School","د_مرکز_ځای__موقعیت_مرکز":" ناحیه پنجم","Polling_Center_Location":"D05 - Nahia 5","Verification_Note":"Building","PS_Male":4,"PS_Female":5,"Map_Accuracy":"تعمیر"},"geometry":{"x":6924735.2015134543,"y":4077193.1150825396}},{"attributes":{"OBJECTID":2899,"ولایت":"هرات","Province":"HERAT","PC_Code":"3201012","ولسوالي":"هرات","District":"HERAT","د_مرکز_نوم__نام_مرکز":"لیسه میرمن حیاتی (باغدشت)","Polling_Center_Name":"Merman Hayati Bagh- e- Dasht High School","د_مرکز_ځای__موقعیت_مرکز":" ناحیه پنجم","Polling_Center_Location":"D05 - Nahia 5","Verification_Note":"Building","PS_Male":3,"PS_Female":3,"Map_Accuracy":"تعمیر"},"geometry":{"x":6923817.6483841985,"y":4077290.932358332}},{"attributes":{"OBJECTID":2900,"ولایت":"هرات","Province":"HERAT","PC_Code":"3201021","ولسوالي":"هرات","District":"HERAT","د_مرکز_نوم__نام_مرکز":"مسجد اختیارالدین","Polling_Center_Name":"Ekhtiarudden Mosque","د_مرکز_ځای__موقعیت_مرکز":" ناحیه هفتم","Polling_Center_Location":"D07 - Nahia 7","Verification_Note":"Building","PS_Male":5,"PS_Female":0,"Map_Accuracy":"تعمیر"},"geometry":{"x":6922891.2475818135,"y":4075098.0061666667}},{"attributes":{"OBJECTID":2901,"ولایت":"هرات","Province":"HERAT","PC_Code":"3201022","ولسوالي":"هرات","District":"HERAT","د_مرکز_نوم__نام_مرکز":"مکتب امیر علی شیرنوایی","Polling_Center_Name":"Amir Ali Shir Nawayee School","د_مرکز_ځای__موقعیت_مرکز":"ناحیه هشتم","Polling_Center_Location":"D09 - Nahia 9","Verification_Note":"Building","PS_Male":3,"PS_Female":3,"Map_Accuracy":"تعمیر"},"geometry":{"x":6925983.8945055753,"y":4077189.0332005024}},{"attributes":{"OBJECTID":2902,"ولایت":"هرات","Province":"HERAT","PC_Code":"3201026","ولسوالي":"هرات","District":"HERAT","د_مرکز_نوم__نام_مرکز":"مکتب صلاح الدین سلجوقی","Polling_Center_Name":"Salahuddin Saljoqi School","د_مرکز_ځای__موقعیت_مرکز":"ناحیه نهم","Polling_Center_Location":"D09 - Nahia 9","Verification_Note":"Village","PS_Male":3,"PS_Female":3,"Map_Accuracy":"قریه"},"geometry":{"x":6920553.2321465537,"y":4080502.1496463642}},{"attributes":{"OBJECTID":2903,"ولایت":"هرات","Province":"HERAT","PC_Code":"3201027","ولسوالي":"هرات","District":"HERAT","د_مرکز_نوم__نام_مرکز":"مکتب عبدالعلی شاه توخی","Polling_Center_Name":"Abdul Ali Shah Tokhi School","د_مرکز_ځای__موقعیت_مرکز":"ناحیه دوازدهم","Polling_Center_Location":"D12 - Nahia 12","Verification_Note":"Building","PS_Male":3,"PS_Female":3,"Map_Accuracy":"تعمیر"},"geometry":{"x":6922327.2284574024,"y":4077864.8562565744}},{"attributes":{"OBJECTID":2904,"ولایت":"هرات","Province":"HERAT","PC_Code":"3201029","ولسوالي":"هرات","District":"HERAT","د_مرکز_نوم__نام_مرکز":"متوسطه هریوا","Polling_Center_Name":"Hareewa Secondary school","د_مرکز_ځای__موقعیت_مرکز":"ناحیه دهم","Polling_Center_Location":"D10 - Nahia 10","Verification_Note":"Building","PS_Male":3,"PS_Female":3,"Map_Accuracy":"تعمیر"},"geometry":{"x":6922977.1940210722,"y":4073898.5274255052}},{"attributes":{"OBJECTID":2905,"ولایت":"هرات","Province":"HERAT","PC_Code":"3201030","ولسوالي":"هرات","District":"HERAT","د_مرکز_نوم__نام_مرکز":"مسجد حضرت بلال","Polling_Center_Name":"Hazrat -e- Belal Mosque","د_مرکز_ځای__موقعیت_مرکز":" ناحیه دهم","Polling_Center_Location":"D10 - Nahia 10","Verification_Note":"Building","PS_Male":4,"PS_Female":4,"Map_Accuracy":"تعمیر"},"geometry":{"x":6921424.2002953067,"y":4073623.2787762284}},{"attributes":{"OBJECTID":2906,"ولایت":"هرات","Province":"HERAT","PC_Code":"3201430","ولسوالي":"هرات","District":"HERAT","د_مرکز_نوم__نام_مرکز":"ریاست عودت مهاجرین","Polling_Center_Name":"Imigration Department ","د_مرکز_ځای__موقعیت_مرکز":"ناحیه دوازدهم","Polling_Center_Location":"D12 - Nahia 12","Verification_Note":"Building","PS_Male":3,"PS_Female":3,"Map_Accuracy":"تعمیر"},"geometry":{"x":6918589.1623692885,"y":4079799.0235951245}},{"attributes":{"OBJECTID":2907,"ولایت":"هرات","Province":"HERAT","PC_Code":"3202033","ولسوالي":"انجیل","District":"ENJIL","د_مرکز_نوم__نام_مرکز":"مسجد پایانده","Polling_Center_Name":"Paienda Mosque ","د_مرکز_ځای__موقعیت_مرکز":" جغاره دوم","Polling_Center_Location":"Second Cheghra","Verification_Note":"Building","PS_Male":0,"PS_Female":2,"Map_Accuracy":"تعمیر"},"geometry":{"x":6925034.2123448886,"y":4068732.6381280497}},{"attributes":{"OBJECTID":2908,"ولایت":"هرات","Province":"HERAT","PC_Code":"3202034","ولسوالي":"انجیل","District":"ENJIL","د_مرکز_نوم__نام_مرکز":"لیسه قفسلان\r\n","Polling_Center_Name":"Qafaslan Mosque","د_مرکز_ځای__موقعیت_مرکز":"قفسلان","Polling_Center_Location":"Qafaslan","Verification_Note":"Building","PS_Male":2,"PS_Female":2,"Map_Accuracy":"تعمیر"},"geometry":{"x":6923088.449725803,"y":4070948.9287206829}},{"attributes":{"OBJECTID":2909,"ولایت":"هرات","Province":"HERAT","PC_Code":"3202067","ولسوالي":"انجیل","District":"ENJIL","د_مرکز_نوم__نام_مرکز":"لیسه شهید دشتی","Polling_Center_Name":"Shaheed-e-Dashti High School","د_مرکز_ځای__موقعیت_مرکز":"قریه زمان آباد ","Polling_Center_Location":"Zaman Abad Village ","Verification_Note":"Building","PS_Male":1,"PS_Female":1,"Map_Accuracy":"تعمیر"},"geometry":{"x":6929028.8098580763,"y":4073325.1135550514}},{"attributes":{"OBJECTID":2910,"ولایت":"هرات","Province":"HERAT","PC_Code":"3202068","ولسوالي":"انجیل","District":"ENJIL","د_مرکز_نوم__نام_مرکز":"مکتب متوسطه تاوه بریان","Polling_Center_Name":"Tawah Beryan School","د_مرکز_ځای__موقعیت_مرکز":"قریه  تاوه بریان","Polling_Center_Location":"Tawah Beryan Village ","Verification_Note":"Building","PS_Male":2,"PS_Female":1,"Map_Accuracy":"تعمیر"},"geometry":{"x":6937980.2372045256,"y":4073063.8171597421}},{"attributes":{"OBJECTID":2911,"ولایت":"هرات","Province":"HERAT","PC_Code":"3202072","ولسوالي":"انجیل","District":"ENJIL","د_مرکز_نوم__نام_مرکز":"دفتر مهاجرین","Polling_Center_Name":"Immigrants Office","د_مرکز_ځای__موقعیت_مرکز":"مسلخ اول","Polling_Center_Location":"Maslakh Awal","Verification_Note":"Building","PS_Male":1,"PS_Female":1,"Map_Accuracy":"تعمیر"},"geometry":{"x":6907801.7714929357,"y":4085577.5654444918}},{"attributes":{"OBJECTID":2912,"ولایت":"هرات","Province":"HERAT","PC_Code":"3202073","ولسوالي":"انجیل","District":"ENJIL","د_مرکز_نوم__نام_مرکز":"لیسه اسحق سلیمان ","Polling_Center_Name":"Eshaq Suliman High School","د_مرکز_ځای__موقعیت_مرکز":"قریه اسحق سلیمان ","Polling_Center_Location":"Eshaq Suliman Village ","Verification_Note":"Building","PS_Male":2,"PS_Female":3,"Map_Accuracy":"تعمیر"},"geometry":{"x":6916210.6565843225,"y":4082921.6672595814}},{"attributes":{"OBJECTID":2913,"ولایت":"هرات","Province":"HERAT","PC_Code":"3202077","ولسوالي":"انجیل","District":"ENJIL","د_مرکز_نوم__نام_مرکز":"مکتب متوسطه خواجه عبیدالله احرار","Polling_Center_Name":"Khwaja Abdullah Ahrar Secondary School ","د_مرکز_ځای__موقعیت_مرکز":"بزدانك حسن خان","Polling_Center_Location":"Bazdank Hasan khan","Verification_Note":"Village","PS_Male":1,"PS_Female":1,"Map_Accuracy":"قریه"},"geometry":{"x":6921047.3637814559,"y":4070168.373757869}},{"attributes":{"OBJECTID":2914,"ولایت":"هرات","Province":"HERAT","PC_Code":"3202434","ولسوالي":"انجیل","District":"ENJIL","د_مرکز_نوم__نام_مرکز":"مسجد رباط سروستان","Polling_Center_Name":"Rubat-e-Srosetan Mosque","د_مرکز_ځای__موقعیت_مرکز":"قریه رباط سروستان","Polling_Center_Location":"Rubat-e-Srosetan Village","Verification_Note":"Building","PS_Male":2,"PS_Female":1,"Map_Accuracy":"تعمیر"},"geometry":{"x":6915394.8539224342,"y":4069803.2961995825}},{"attributes":{"OBJECTID":2915,"ولایت":"هرات","Province":"HERAT","PC_Code":"3202435","ولسوالي":"انجیل","District":"ENJIL","د_مرکز_نوم__نام_مرکز":"مکتب لیسه باباجی","Polling_Center_Name":"Babaji High School","د_مرکز_ځای__موقعیت_مرکز":"محله باباجی ناحیه دوازدهم شهر هرات","Polling_Center_Location":"Muhala Babaji 12th Nahia Heart City","Verification_Note":"Building","PS_Male":3,"PS_Female":1,"Map_Accuracy":"تعمیر"},"geometry":{"x":6921170.3784979507,"y":4079704.49237705}},{"attributes":{"OBJECTID":2916,"ولایت":"هرات","Province":"HERAT","PC_Code":"3203088","ولسوالي":"گذره","District":"GUZARA","د_مرکز_نوم__نام_مرکز":"مسجد جامع کورت سفلی","Polling_Center_Name":"Kort-e-Sufla Mosque","د_مرکز_ځای__موقعیت_مرکز":" قریه کورت سفلی","Polling_Center_Location":"Kort Sufla Village ","Verification_Note":"Village","PS_Male":3,"PS_Female":1,"Map_Accuracy":"قریه"},"geometry":{"x":6937031.7116533443,"y":4059936.9755472392}},{"attributes":{"OBJECTID":2917,"ولایت":"هرات","Province":"HERAT","PC_Code":"3203089","ولسوالي":"گذره","District":"GUZARA","د_مرکز_نوم__نام_مرکز":"مسجد جامع چهارکبوترخان","Polling_Center_Name":"Char Kabotar Khan Mosque ","د_مرکز_ځای__موقعیت_مرکز":"قریه چهار کبوترخان","Polling_Center_Location":"Char Kabotar Khan Village","Verification_Note":"Village","PS_Male":1,"PS_Female":1,"Map_Accuracy":"قریه"},"geometry":{"x":6933859.256447047,"y":4061221.6044468582}},{"attributes":{"OBJECTID":2918,"ولایت":"هرات","Province":"HERAT","PC_Code":"3203099","ولسوالي":"گذره","District":"GUZARA","د_مرکز_نوم__نام_مرکز":"لیسه کوفان ","Polling_Center_Name":"Kofan High School ","د_مرکز_ځای__موقعیت_مرکز":"قریه کوفان ","Polling_Center_Location":"kofan Village ","Verification_Note":"Building","PS_Male":1,"PS_Female":1,"Map_Accuracy":"تعمیر"},"geometry":{"x":6913589.9775848426,"y":4057581.5586068258}},{"attributes":{"OBJECTID":2919,"ولایت":"هرات","Province":"HERAT","PC_Code":"3203100","ولسوالي":"گذره","District":"GUZARA","د_مرکز_نوم__نام_مرکز":"مکتب متوسطه زنگان","Polling_Center_Name":"Zangan Secondary School ","د_مرکز_ځای__موقعیت_مرکز":"قریه زنگان ","Polling_Center_Location":"Zangan Village","Verification_Note":"Building","PS_Male":1,"PS_Female":1,"Map_Accuracy":"تعمیر"},"geometry":{"x":6912735.6583791412,"y":4062274.884400636}},{"attributes":{"OBJECTID":2920,"ولایت":"هرات","Province":"HERAT","PC_Code":"3203116","ولسوالي":"گذره","District":"GUZARA","د_مرکز_نوم__نام_مرکز":"موقعیت کوچی های چاه بلبل","Polling_Center_Name":"Kochis Location","د_مرکز_ځای__موقعیت_مرکز":"قریه چاه بلبل","Polling_Center_Location":"Chah-e-Bulbul Village","Verification_Note":"Village","PS_Male":2,"PS_Female":2,"Map_Accuracy":"قریه"},"geometry":{"x":6863380.3341585808,"y":4032201.5826584697}},{"attributes":{"OBJECTID":2921,"ولایت":"هرات","Province":"HERAT","PC_Code":"3204148","ولسوالي":"کرخ ","District":"KARRUKH","د_مرکز_نوم__نام_مرکز":"لیسه مرکز کرخ","Polling_Center_Name":"Karrokh Primary School","د_مرکز_ځای__موقعیت_مرکز":"مرکز کرخ ","Polling_Center_Location":"Karrukh Center ","Verification_Note":"Building","PS_Male":4,"PS_Female":2,"Map_Accuracy":"تعمیر"},"geometry":{"x":6966604.83421915,"y":4095097.7069814578}},{"attributes":{"OBJECTID":2922,"ولایت":"هرات","Province":"HERAT","PC_Code":"3204149","ولسوالي":"کرخ ","District":"KARRUKH","د_مرکز_نوم__نام_مرکز":"مسجد سبز پوش ","Polling_Center_Name":"Sabz Posh Mosque ","د_مرکز_ځای__موقعیت_مرکز":"پایان محله کرخ ","Polling_Center_Location":"Paeen Muhala Karrukh  ","Verification_Note":"Building","PS_Male":3,"PS_Female":1,"Map_Accuracy":"تعمیر"},"geometry":{"x":6967145.7467568666,"y":4092992.3075107113}},{"attributes":{"OBJECTID":2923,"ولایت":"هرات","Province":"HERAT","PC_Code":"3204151","ولسوالي":"کرخ ","District":"KARRUKH","د_مرکز_نوم__نام_مرکز":"مکتب دهن غار ","Polling_Center_Name":"Dahan Ghar School ","د_مرکز_ځای__موقعیت_مرکز":"دهن غار ","Polling_Center_Location":"Dahan Ghar ","Verification_Note":"Building","PS_Male":2,"PS_Female":1,"Map_Accuracy":"تعمیر"},"geometry":{"x":6963345.0143632852,"y":4090348.69134821}},{"attributes":{"OBJECTID":2924,"ولایت":"هرات","Province":"HERAT","PC_Code":"3204152","ولسوالي":"کرخ ","District":"KARRUKH","د_مرکز_نوم__نام_مرکز":"مکتب مجقندک ","Polling_Center_Name":"Mujqandak School ","د_مرکز_ځای__موقعیت_مرکز":"قریه مجقندک ","Polling_Center_Location":"Mujqandak Village","Verification_Note":"Building","PS_Male":2,"PS_Female":1,"Map_Accuracy":"تعمیر"},"geometry":{"x":6955993.470738519,"y":4089900.5573699027}},{"attributes":{"OBJECTID":2925,"ولایت":"هرات","Province":"HERAT","PC_Code":"3204155","ولسوالي":"کرخ ","District":"KARRUKH","د_مرکز_نوم__نام_مرکز":"مکتب فالیزکار","Polling_Center_Name":"Faliz Kar School","د_مرکز_ځای__موقعیت_مرکز":"قریه نهستان ","Polling_Center_Location":"Nahistan Village ","Verification_Note":"Building","PS_Male":1,"PS_Female":1,"Map_Accuracy":"تعمیر"},"geometry":{"x":6948320.14254088,"y":4095847.8991651908}},{"attributes":{"OBJECTID":2926,"ولایت":"هرات","Province":"HERAT","PC_Code":"3204156","ولسوالي":"کرخ ","District":"KARRUKH","د_مرکز_نوم__نام_مرکز":"مکتب معلومه ","Polling_Center_Name":"Maluma School ","د_مرکز_ځای__موقعیت_مرکز":"قریه معلومه ","Polling_Center_Location":"Maluma Village ","Verification_Note":"Building","PS_Male":1,"PS_Female":1,"Map_Accuracy":"تعمیر"},"geometry":{"x":6981479.6740846373,"y":4093616.9703534693}},{"attributes":{"OBJECTID":2927,"ولایت":"هرات","Province":"HERAT","PC_Code":"3205263","ولسوالي":"زنده جان ","District":"ZENDAJAN","د_مرکز_نوم__نام_مرکز":"مکتب جاده شاده ","Polling_Center_Name":"Jadah-e- Shadah School ","د_مرکز_ځای__موقعیت_مرکز":"قریه شاده","Polling_Center_Location":"Shadah Village ","Verification_Note":"Building","PS_Male":1,"PS_Female":2,"Map_Accuracy":"تعمیر"},"geometry":{"x":6864619.8244797327,"y":4083312.5247052759}},{"attributes":{"OBJECTID":2928,"ولایت":"هرات","Province":"HERAT","PC_Code":"3205264","ولسوالي":"زنده جان ","District":"ZENDAJAN","د_مرکز_نوم__نام_مرکز":"مکتب شیخ ابولیث","Polling_Center_Name":"Shaikh Abu Lais School ","د_مرکز_ځای__موقعیت_مرکز":"قریه اوغه","Polling_Center_Location":"Ogha Village","Verification_Note":"Building","PS_Male":2,"PS_Female":1,"Map_Accuracy":"تعمیر"},"geometry":{"x":6866623.6632564068,"y":4081811.2912549749}},{"attributes":{"OBJECTID":2929,"ولایت":"هرات","Province":"HERAT","PC_Code":"3205274","ولسوالي":"زنده جان ","District":"ZENDAJAN","د_مرکز_نوم__نام_مرکز":"مکتب جدید ملکی ها","Polling_Center_Name":"Mulkiha New School ","د_مرکز_ځای__موقعیت_مرکز":" ملکی ها","Polling_Center_Location":"Mulkiha ","Verification_Note":"Building","PS_Male":2,"PS_Female":1,"Map_Accuracy":"تعمیر"},"geometry":{"x":6870270.9472979046,"y":4073870.2268349007}},{"attributes":{"OBJECTID":2930,"ولایت":"هرات","Province":"HERAT","PC_Code":"3205457","ولسوالي":"زنده جان ","District":"ZENDAJAN","د_مرکز_نوم__نام_مرکز":"کلینیک کاریز پده","Polling_Center_Name":"Kariz Pada Clinic","د_مرکز_ځای__موقعیت_مرکز":"قریه کاریز پده","Polling_Center_Location":"Kariz Pada Village","Verification_Note":"Building","PS_Male":1,"PS_Female":1,"Map_Accuracy":"تعمیر"},"geometry":{"x":6889377.9204324186,"y":4032950.0532883704}},{"attributes":{"OBJECTID":2931,"ولایت":"هرات","Province":"HERAT","PC_Code":"3206122","ولسوالي":"پشتون زرغون","District":"PASHTUN ZARGHUN","د_مرکز_نوم__نام_مرکز":"مسجد بزیان","Polling_Center_Name":"Bazyan Mosque","د_مرکز_ځای__موقعیت_مرکز":"  قریه بزیان","Polling_Center_Location":"Bazyan Village","Verification_Note":"Village","PS_Male":2,"PS_Female":0,"Map_Accuracy":"قریه"},"geometry":{"x":6985489.3275589533,"y":4061326.2160893381}},{"attributes":{"OBJECTID":2932,"ولایت":"هرات","Province":"HERAT","PC_Code":"3206123","ولسوالي":"پشتون زرغون","District":"PASHTUN ZARGHUN","د_مرکز_نوم__نام_مرکز":"مکتب بزیان","Polling_Center_Name":"Bazyan School","د_مرکز_ځای__موقعیت_مرکز":"  قریه بزیان","Polling_Center_Location":"Bazyan Village","Verification_Note":"Village","PS_Male":0,"PS_Female":2,"Map_Accuracy":"قریه"},"geometry":{"x":6985533.4412467666,"y":4061077.0126174688}},{"attributes":{"OBJECTID":2933,"ولایت":"هرات","Province":"HERAT","PC_Code":"3206137","ولسوالي":"پشتون زرغون","District":"PASHTUN ZARGHUN","د_مرکز_نوم__نام_مرکز":"مکتب غوران ","Polling_Center_Name":"Ghooran School ","د_مرکز_ځای__موقعیت_مرکز":"غوران ","Polling_Center_Location":"Ghooran ","Verification_Note":"Building","PS_Male":1,"PS_Female":1,"Map_Accuracy":"تعمیر"},"geometry":{"x":6953451.4812606908,"y":4068216.716234006}},{"attributes":{"OBJECTID":2934,"ولایت":"هرات","Province":"HERAT","PC_Code":"3206138","ولسوالي":"پشتون زرغون","District":"PASHTUN ZARGHUN","د_مرکز_نوم__نام_مرکز":"مکتب لیسه مارآباد","Polling_Center_Name":"Mar Abad Secondary School ","د_مرکز_ځای__موقعیت_مرکز":"قریه مارآباد","Polling_Center_Location":"Mar Abad Village ","Verification_Note":"Building","PS_Male":3,"PS_Female":2,"Map_Accuracy":"تعمیر"},"geometry":{"x":7000682.2717749439,"y":4063246.75179404}},{"attributes":{"OBJECTID":2935,"ولایت":"هرات","Province":"HERAT","PC_Code":"3206140","ولسوالي":"پشتون زرغون","District":"PASHTUN ZARGHUN","د_مرکز_نوم__نام_مرکز":"مکتب توران ","Polling_Center_Name":"Turan School ","د_مرکز_ځای__موقعیت_مرکز":"قریه توران ","Polling_Center_Location":"Turan Village ","Verification_Note":"Building","PS_Male":1,"PS_Female":1,"Map_Accuracy":"تعمیر"},"geometry":{"x":6964350.2082144469,"y":4070412.8192281649}},{"attributes":{"OBJECTID":2936,"ولایت":"هرات","Province":"HERAT","PC_Code":"3207168","ولسوالي":"کشک (رباط سنگی)","District":"KUSHK (RUBAT-E-SANGI)","د_مرکز_نوم__نام_مرکز":"مكتب چهار اولنگ","Polling_Center_Name":"Chahar Aolang School ","د_مرکز_ځای__موقعیت_مرکز":"قریه  چهار اولنگ","Polling_Center_Location":"Chahar Aolang Village  ","Verification_Note":"Building","PS_Male":2,"PS_Female":1,"Map_Accuracy":"تعمیر"},"geometry":{"x":6907982.7558342591,"y":4126366.9231740981}},{"attributes":{"OBJECTID":2937,"ولایت":"هرات","Province":"HERAT","PC_Code":"3207179","ولسوالي":"کشک (رباط سنگی)","District":"KUSHK (RUBAT-E-SANGI)","د_مرکز_نوم__نام_مرکز":"مکتب خلیفه رحمت","Polling_Center_Name":"Khaleefa Rahmat School ","د_مرکز_ځای__موقعیت_مرکز":"قریه خلیفه رحمت","Polling_Center_Location":"Khaleefa Rahmat Village  ","Verification_Note":"Building","PS_Male":2,"PS_Female":1,"Map_Accuracy":"تعمیر"},"geometry":{"x":6934175.5629877783,"y":4132036.4113570303}},{"attributes":{"OBJECTID":2938,"ولایت":"هرات","Province":"HERAT","PC_Code":"3207189","ولسوالي":"کشک (رباط سنگی)","District":"KUSHK (RUBAT-E-SANGI)","د_مرکز_نوم__نام_مرکز":"مکتب تورغندی اول","Polling_Center_Name":"Torghandi Awal School ","د_مرکز_ځای__موقعیت_مرکز":"شهرک تورغندی","Polling_Center_Location":"Shahrak Torghondi ","Verification_Note":"Building","PS_Male":4,"PS_Female":0,"Map_Accuracy":"تعمیر"},"geometry":{"x":6933324.0256561525,"y":4197083.186949946}},{"attributes":{"OBJECTID":2939,"ولایت":"هرات","Province":"HERAT","PC_Code":"3207190","ولسوالي":"کشک (رباط سنگی)","District":"KUSHK (RUBAT-E-SANGI)","د_مرکز_نوم__نام_مرکز":"مکتب لیسه نسوان","Polling_Center_Name":"Girls High School ","د_مرکز_ځای__موقعیت_مرکز":"شهرک تور غندی ","Polling_Center_Location":"Shahrak Torghondi ","Verification_Note":"Building","PS_Male":0,"PS_Female":4,"Map_Accuracy":"تعمیر"},"geometry":{"x":6933311.5600995645,"y":4197082.8475539759}},{"attributes":{"OBJECTID":2940,"ولایت":"هرات","Province":"HERAT","PC_Code":"3207444","ولسوالي":"کشک (رباط سنگی)","District":"KUSHK (RUBAT-E-SANGI)","د_مرکز_نوم__نام_مرکز":"تعمير همبستگي ملي ","Polling_Center_Name":"NSP Building","د_مرکز_ځای__موقعیت_مرکز":"چاه گل باي","Polling_Center_Location":"Chahe  Gulboy ","Verification_Note":"Building","PS_Male":1,"PS_Female":1,"Map_Accuracy":"تعمیر"},"geometry":{"x":6915507.9311479852,"y":4194268.8838760331}},{"attributes":{"OBJECTID":2941,"ولایت":"هرات","Province":"HERAT","PC_Code":"3207446","ولسوالي":"کشک (رباط سنگی)","District":"KUSHK (RUBAT-E-SANGI)","د_مرکز_نوم__نام_مرکز":"مسجد جامع مقر","Polling_Center_Name":"Muqoor Mosque ","د_مرکز_ځای__موقعیت_مرکز":" سرچشمه مقر","Polling_Center_Location":"Sar Chushma Muqoor","Verification_Note":"Village","PS_Male":1,"PS_Female":1,"Map_Accuracy":"قریه"},"geometry":{"x":6912943.6944699325,"y":4174185.0455817655}},{"attributes":{"OBJECTID":2942,"ولایت":"هرات","Province":"HERAT","PC_Code":"3208196","ولسوالي":"گلران ","District":"GULRAN","د_مرکز_نوم__نام_مرکز":"لیسه قره باغ","Polling_Center_Name":"Qarabagh Primary School ","د_مرکز_ځای__موقعیت_مرکز":" بازار قره باغ","Polling_Center_Location":"Bazar Qarabagh ","Verification_Note":"Building","PS_Male":4,"PS_Female":1,"Map_Accuracy":"تعمیر"},"geometry":{"x":6876798.1845648773,"y":4155515.376504682}},{"attributes":{"OBJECTID":2943,"ولایت":"هرات","Province":"HERAT","PC_Code":"3208224","ولسوالي":"گلران ","District":"GULRAN","د_مرکز_نوم__نام_مرکز":"مسجد ریگ آب","Polling_Center_Name":"Rig Abad Mosque","د_مرکز_ځای__موقعیت_مرکز":" قریه ریگ آب","Polling_Center_Location":"Rig Aab Village ","Verification_Note":"Village","PS_Male":1,"PS_Female":1,"Map_Accuracy":"قریه"},"geometry":{"x":6860774.3961973973,"y":4173315.77186241}},{"attributes":{"OBJECTID":2944,"ولایت":"هرات","Province":"HERAT","PC_Code":"3208225","ولسوالي":"گلران ","District":"GULRAN","د_مرکز_نوم__نام_مرکز":"مسجد آب سفید","Polling_Center_Name":"Aab -e -Safed Mosque","د_مرکز_ځای__موقعیت_مرکز":" قریه آب سفید","Polling_Center_Location":"Aab -e- Safed Village ","Verification_Note":"Village","PS_Male":2,"PS_Female":1,"Map_Accuracy":"قریه"},"geometry":{"x":6858193.7087249979,"y":4159274.3131059259}},{"attributes":{"OBJECTID":2945,"ولایت":"هرات","Province":"HERAT","PC_Code":"3209284","ولسوالي":"ادرسکن ","District":"ADRASKAN","د_مرکز_نوم__نام_مرکز":"مسجدجهان خان","Polling_Center_Name":"Jahan Khan Mosque ","د_مرکز_ځای__موقعیت_مرکز":" جهان خان","Polling_Center_Location":"Jahan Khan ","Verification_Note":"Building","PS_Male":1,"PS_Female":1,"Map_Accuracy":"تعمیر"},"geometry":{"x":6940729.3121046834,"y":4005700.1394168139}},{"attributes":{"OBJECTID":2946,"ولایت":"هرات","Province":"HERAT","PC_Code":"3209285","ولسوالي":"ادرسکن ","District":"ADRASKAN","د_مرکز_نوم__نام_مرکز":"مکتب خاربید میرآباد","Polling_Center_Name":"Kharbed-e- Mir Abad School ","د_مرکز_ځای__موقعیت_مرکز":"میرآباد","Polling_Center_Location":"Mir Abad ","Verification_Note":"Building","PS_Male":2,"PS_Female":1,"Map_Accuracy":"تعمیر"},"geometry":{"x":6975984.8438315429,"y":3977966.7840164825}},{"attributes":{"OBJECTID":2947,"ولایت":"هرات","Province":"HERAT","PC_Code":"3210407","ولسوالي":"کشک کهنه ","District":"KUSHK-E-KUHNA","د_مرکز_نوم__نام_مرکز":"مکتب متوسطه دختران ککلم دوم","Polling_Center_Name":"Kakalam Duowm Girls Secondary School ","د_مرکز_ځای__موقعیت_مرکز":"مرکز ولسوالی","Polling_Center_Location":"Second Kaklam ","Verification_Note":"Building","PS_Male":0,"PS_Female":2,"Map_Accuracy":"تعمیر"},"geometry":{"x":6964297.6899050772,"y":4143592.1090022996}},{"attributes":{"OBJECTID":2948,"ولایت":"هرات","Province":"HERAT","PC_Code":"3210408","ولسوالي":"کشک کهنه ","District":"KUSHK-E-KUHNA","د_مرکز_نوم__نام_مرکز":"فضای باز قریه خم کج","Polling_Center_Name":"Khum Kaj Village Open Space","د_مرکز_ځای__موقعیت_مرکز":"قریه خم کج ","Polling_Center_Location":"Khum Kaj Village","Verification_Note":"Building","PS_Male":4,"PS_Female":1,"Map_Accuracy":"تعمیر"},"geometry":{"x":6961289.8918103985,"y":4146225.378011331}},{"attributes":{"OBJECTID":2949,"ولایت":"هرات","Province":"HERAT","PC_Code":"3210413","ولسوالي":"کشک کهنه ","District":"KUSHK-E-KUHNA","د_مرکز_نوم__نام_مرکز":"مکتب پسرانه خواجه چکاب","Polling_Center_Name":"Khwaja Chakaab Boys School ","د_مرکز_ځای__موقعیت_مرکز":"خواجه چکاب ","Polling_Center_Location":"Khwaja Chakaab ","Verification_Note":"Building","PS_Male":2,"PS_Female":1,"Map_Accuracy":"تعمیر"},"geometry":{"x":6969624.7694779187,"y":4156355.0855758935}},{"attributes":{"OBJECTID":2950,"ولایت":"هرات","Province":"HERAT","PC_Code":"3210417","ولسوالي":"کشک کهنه ","District":"KUSHK-E-KUHNA","د_مرکز_نوم__نام_مرکز":"مکتب خواجه قلندر","Polling_Center_Name":"Khwaja Qalandar School ","د_مرکز_ځای__موقعیت_مرکز":"خواجه قلندر ","Polling_Center_Location":"Khwaja Qalandar ","Verification_Note":"Building","PS_Male":2,"PS_Female":1,"Map_Accuracy":"تعمیر"},"geometry":{"x":6974937.3029328845,"y":4134626.9310811237}},{"attributes":{"OBJECTID":2951,"ولایت":"هرات","Province":"HERAT","PC_Code":"3210418","ولسوالي":"کشک کهنه ","District":"KUSHK-E-KUHNA","د_مرکز_نوم__نام_مرکز":"مکتب زنده حشم","Polling_Center_Name":"Zenda Hashm School ","د_مرکز_ځای__موقعیت_مرکز":"قریه زنده حشم","Polling_Center_Location":"Zenda Hashm Village","Verification_Note":"Building","PS_Male":2,"PS_Female":1,"Map_Accuracy":"تعمیر"},"geometry":{"x":6979793.3518915512,"y":4138114.0577911586}},{"attributes":{"OBJECTID":2952,"ولایت":"هرات","Province":"HERAT","PC_Code":"3211248","ولسوالي":"غوریان ","District":"GHORYAN","د_مرکز_نوم__نام_مرکز":"مسجد جامع گندم منه","Polling_Center_Name":"Gandummna Mosque","د_مرکز_ځای__موقعیت_مرکز":"گندم منه","Polling_Center_Location":"Gandummna ","Verification_Note":"Building","PS_Male":2,"PS_Female":1,"Map_Accuracy":"تعمیر"},"geometry":{"x":6849662.5592104718,"y":4076364.4517908618}},{"attributes":{"OBJECTID":2953,"ولایت":"هرات","Province":"HERAT","PC_Code":"3211249","ولسوالي":"غوریان ","District":"GHORYAN","د_مرکز_نوم__نام_مرکز":"مکتب دخترانه برنآباد زنانه","Polling_Center_Name":"Barna Abad Zanana Girls School ","د_مرکز_ځای__موقعیت_مرکز":"قریه برنآباد","Polling_Center_Location":"Barnabad Village","Verification_Note":"Building","PS_Male":0,"PS_Female":3,"Map_Accuracy":"تعمیر"},"geometry":{"x":6856647.6969576851,"y":4080660.7703351825}},{"attributes":{"OBJECTID":2954,"ولایت":"هرات","Province":"HERAT","PC_Code":"3211259","ولسوالي":"غوریان ","District":"GHORYAN","د_مرکز_نوم__نام_مرکز":"مسجد جامع چاه ریگ","Polling_Center_Name":"Chahe Rig Mosque ","د_مرکز_ځای__موقعیت_مرکز":" مرکز قریه چاه ریگ","Polling_Center_Location":"Markaz-e-Chahe Rig Village ","Verification_Note":"Village","PS_Male":2,"PS_Female":2,"Map_Accuracy":"قریه"},"geometry":{"x":6781164.4237698577,"y":4097169.1174060404}},{"attributes":{"OBJECTID":2955,"ولایت":"هرات","Province":"HERAT","PC_Code":"3211260","ولسوالي":"غوریان ","District":"GHORYAN","د_مرکز_نوم__نام_مرکز":"مسجد جامع گنک","Polling_Center_Name":"Ganak Mosque ","د_مرکز_ځای__موقعیت_مرکز":" مرکزقریه گنک","Polling_Center_Location":"Markaz-e-Ganak Village ","Verification_Note":"Village","PS_Male":1,"PS_Female":1,"Map_Accuracy":"قریه"},"geometry":{"x":6835511.0678301826,"y":4041848.202852115}},{"attributes":{"OBJECTID":2956,"ولایت":"هرات","Province":"HERAT","PC_Code":"3212368","ولسوالي":"اوبه ","District":"OBE","د_مرکز_نوم__نام_مرکز":"مکتب صبیره","Polling_Center_Name":"Saberah School ","د_مرکز_ځای__موقعیت_مرکز":"قریه صبیره دشت","Polling_Center_Location":"Sabera Dasht Village","Verification_Note":"Building","PS_Male":1,"PS_Female":1,"Map_Accuracy":"تعمیر"},"geometry":{"x":7020646.7088907808,"y":4072255.2031982094}},{"attributes":{"OBJECTID":2957,"ولایت":"هرات","Province":"HERAT","PC_Code":"3212369","ولسوالي":"اوبه ","District":"OBE","د_مرکز_نوم__نام_مرکز":"مسجد مسافران","Polling_Center_Name":"Musafran Mosque ","د_مرکز_ځای__موقعیت_مرکز":"مسافران ","Polling_Center_Location":"Musafran ","Verification_Note":"Village","PS_Male":2,"PS_Female":1,"Map_Accuracy":"قریه"},"geometry":{"x":7029661.8777776584,"y":4074914.6441479474}},{"attributes":{"OBJECTID":2958,"ولایت":"هرات","Province":"HERAT","PC_Code":"3212371","ولسوالي":"اوبه ","District":"OBE","د_مرکز_نوم__نام_مرکز":"مکتب جنوا مردانه","Polling_Center_Name":"Jenowa Boys School","د_مرکز_ځای__موقعیت_مرکز":"قریه جنوا","Polling_Center_Location":"Jenowa Village","Verification_Note":"Building","PS_Male":2,"PS_Female":0,"Map_Accuracy":"تعمیر"},"geometry":{"x":7059988.4774488434,"y":4080559.0646940991}},{"attributes":{"OBJECTID":2959,"ولایت":"هرات","Province":"HERAT","PC_Code":"3212372","ولسوالي":"اوبه ","District":"OBE","د_مرکز_نوم__نام_مرکز":"مکتب جدید جنوا زنانه","Polling_Center_Name":"Jenowa Jaded Girls School ","د_مرکز_ځای__موقعیت_مرکز":"قریه جنوا","Polling_Center_Location":"Jenowa Village","Verification_Note":"Village","PS_Male":0,"PS_Female":2,"Map_Accuracy":"قریه"},"geometry":{"x":7059948.9211809859,"y":4080446.3517576531}},{"attributes":{"OBJECTID":2960,"ولایت":"هرات","Province":"HERAT","PC_Code":"3212386","ولسوالي":"اوبه ","District":"OBE","د_مرکز_نوم__نام_مرکز":"مسجد ده گاهی ","Polling_Center_Name":"Deh Gahee Mosque ","د_مرکز_ځای__موقعیت_مرکز":"ده گاهی مردانه ","Polling_Center_Location":"Deh Gahee Mardanah ","Verification_Note":"Village","PS_Male":2,"PS_Female":0,"Map_Accuracy":"قریه"},"geometry":{"x":7066073.1473822482,"y":4096588.03860233}},{"attributes":{"OBJECTID":2961,"ولایت":"هرات","Province":"HERAT","PC_Code":"3212387","ولسوالي":"اوبه ","District":"OBE","د_مرکز_نوم__نام_مرکز":"مسجد دواوم","Polling_Center_Name":"Dawawm Mosque ","د_مرکز_ځای__موقعیت_مرکز":"ده گاهی زنانه ","Polling_Center_Location":"Deh Gahee Zananah ","Verification_Note":"Village","PS_Male":0,"PS_Female":2,"Map_Accuracy":"قریه"},"geometry":{"x":7066636.653323818,"y":4096442.2450887039}},{"attributes":{"OBJECTID":2962,"ولایت":"هرات","Province":"HERAT","PC_Code":"3212468","ولسوالي":"اوبه ","District":"OBE","د_مرکز_نوم__نام_مرکز":"مسجد عبدالرحیم خان","Polling_Center_Name":"Abdulrahim khan Mosque ","د_مرکز_ځای__موقعیت_مرکز":"گنا ه آباد ","Polling_Center_Location":"Gunah Abad ","Verification_Note":"Village","PS_Male":1,"PS_Female":1,"Map_Accuracy":"قریه"},"geometry":{"x":7026536.3437367305,"y":4072378.6339864656}},{"attributes":{"OBJECTID":2963,"ولایت":"هرات","Province":"HERAT","PC_Code":"3212469","ولسوالي":"اوبه ","District":"OBE","د_مرکز_نوم__نام_مرکز":"جنگل باز","Polling_Center_Name":"Jangal Baz ","د_مرکز_ځای__موقعیت_مرکز":"جنگل باز ","Polling_Center_Location":"Jangal baz","Verification_Note":"Village","PS_Male":1,"PS_Female":1,"Map_Accuracy":"قریه"},"geometry":{"x":7045805.8277430795,"y":4090993.1316832677}},{"attributes":{"OBJECTID":2964,"ولایت":"هرات","Province":"HERAT","PC_Code":"3213449","ولسوالي":"کهسان ","District":"KOHSAN","د_مرکز_نوم__نام_مرکز":"خيمه ني يك","Polling_Center_Name":"Naiyak Tent ","د_مرکز_ځای__موقعیت_مرکز":"نی یک ","Polling_Center_Location":"Naiyak ","Verification_Note":"Village","PS_Male":1,"PS_Female":1,"Map_Accuracy":"قریه"},"geometry":{"x":6854614.1024811231,"y":4148096.9267600924}},{"attributes":{"OBJECTID":2965,"ولایت":"هرات","Province":"HERAT","PC_Code":"3214298","ولسوالي":"شیندند","District":"SHINDAND","د_مرکز_نوم__نام_مرکز":"مرکز شاروالی","Polling_Center_Name":"Markaz-e-Sharwaly","د_مرکز_ځای__موقعیت_مرکز":"تحت بازار","Polling_Center_Location":"Takht-e- Bazar","Verification_Note":"Building","PS_Male":4,"PS_Female":0,"Map_Accuracy":"تعمیر"},"geometry":{"x":6919250.2753554434,"y":3935744.8612139821}},{"attributes":{"OBJECTID":2966,"ولایت":"هرات","Province":"HERAT","PC_Code":"3214314","ولسوالي":"شیندند","District":"SHINDAND","د_مرکز_نوم__نام_مرکز":"مسجد حاجی ملا سرور","Polling_Center_Name":"Haji Mullah Sarwar Mosque ","د_مرکز_ځای__موقعیت_مرکز":"ابستان ","Polling_Center_Location":"Abstan ","Verification_Note":"Building","PS_Male":1,"PS_Female":1,"Map_Accuracy":"تعمیر"},"geometry":{"x":6896567.1769375317,"y":3938775.5897988826}},{"attributes":{"OBJECTID":2967,"ولایت":"هرات","Province":"HERAT","PC_Code":"3214315","ولسوالي":"شیندند","District":"SHINDAND","د_مرکز_نوم__نام_مرکز":"مسجد جامع مرکز اوکل","Polling_Center_Name":"Markaz-e-Okal Mosque ","د_مرکز_ځای__موقعیت_مرکز":"مرکز اوکل ","Polling_Center_Location":"Markaz-e-Okal  ","Verification_Note":"Building","PS_Male":2,"PS_Female":2,"Map_Accuracy":"تعمیر"},"geometry":{"x":6893225.4871621653,"y":3933730.0603490993}},{"attributes":{"OBJECTID":2968,"ولایت":"هرات","Province":"HERAT","PC_Code":"3214319","ولسوالي":"شیندند","District":"SHINDAND","د_مرکز_نوم__نام_مرکز":"مسجد زیارت اوکل","Polling_Center_Name":"Zeyarat-e-Okal Mosqu ","د_مرکز_ځای__موقعیت_مرکز":"زیارت اوکل ","Polling_Center_Location":"Zeyarat-e-Okal ","Verification_Note":"Building","PS_Male":1,"PS_Female":1,"Map_Accuracy":"تعمیر"},"geometry":{"x":6892146.6810713261,"y":3936177.1940313652}},{"attributes":{"OBJECTID":2969,"ولایت":"هرات","Province":"HERAT","PC_Code":"3214320","ولسوالي":"شیندند","District":"SHINDAND","د_مرکز_نوم__نام_مرکز":"مسجد ده  علیکه ","Polling_Center_Name":"Deh Alaika Mosque ","د_مرکز_ځای__موقعیت_مرکز":"ده علیکه ","Polling_Center_Location":"Deh Alaika ","Verification_Note":"Village","PS_Male":1,"PS_Female":1,"Map_Accuracy":"قریه"},"geometry":{"x":6900281.6100090705,"y":3948461.1679271311}},{"attributes":{"OBJECTID":2970,"ولایت":"هرات","Province":"HERAT","PC_Code":"3214322","ولسوالي":"شیندند","District":"SHINDAND","د_مرکز_نوم__نام_مرکز":"مسجد قلعه میرزا حاجی اکرم ","Polling_Center_Name":"Qala-e- Mirza Haji Akram Mosque ","د_مرکز_ځای__موقعیت_مرکز":"قلعه میرزا ","Polling_Center_Location":"Qala-e-Mirza","Verification_Note":"Building","PS_Male":1,"PS_Female":1,"Map_Accuracy":"تعمیر"},"geometry":{"x":6935909.0846449547,"y":3946102.5777763277}},{"attributes":{"OBJECTID":2971,"ولایت":"هرات","Province":"HERAT","PC_Code":"3214323","ولسوالي":"شیندند","District":"SHINDAND","د_مرکز_نوم__نام_مرکز":"مکتب ده عبدالعزیز","Polling_Center_Name":"Deh Abdul Aziz School ","د_مرکز_ځای__موقعیت_مرکز":"ده عبدالعزیز ","Polling_Center_Location":"Deh Abdul Aziz","Verification_Note":"Building","PS_Male":2,"PS_Female":1,"Map_Accuracy":"تعمیر"},"geometry":{"x":6937505.0554865412,"y":3940751.922361955}},{"attributes":{"OBJECTID":2972,"ولایت":"هرات","Province":"HERAT","PC_Code":"3214465","ولسوالي":"شیندند","District":"SHINDAND","د_مرکز_نوم__نام_مرکز":"مسجد جوي نو","Polling_Center_Name":"Joy-e-now Mosque ","د_مرکز_ځای__موقعیت_مرکز":"قریه جاک","Polling_Center_Location":"Jak Village","Verification_Note":"Building","PS_Male":1,"PS_Female":1,"Map_Accuracy":"تعمیر"},"geometry":{"x":6927119.8386646472,"y":3934316.5332313031}},{"attributes":{"OBJECTID":2973,"ولایت":"هرات","Province":"HERAT","PC_Code":"3214466","ولسوالي":"شیندند","District":"SHINDAND","د_مرکز_نوم__نام_مرکز":"مسجد كشك","Polling_Center_Name":"Kashak Mosque ","د_مرکز_ځای__موقعیت_مرکز":"کشک ","Polling_Center_Location":"Kashak","Verification_Note":"Village","PS_Male":1,"PS_Female":1,"Map_Accuracy":"قریه"},"geometry":{"x":6938299.7831424288,"y":3946598.1004136577}},{"attributes":{"OBJECTID":2974,"ولایت":"هرات","Province":"HERAT","PC_Code":"3215355","ولسوالي":"فرسی ","District":"FERSI","د_مرکز_نوم__نام_مرکز":"مسجد آب ماهی","Polling_Center_Name":"Aab-e- Mahi Mosque","د_مرکز_ځای__موقعیت_مرکز":"آب ماهی ","Polling_Center_Location":"Aab-e- Mahi ","Verification_Note":"Village","PS_Male":2,"PS_Female":1,"Map_Accuracy":"قریه"},"geometry":{"x":7054561.1446557976,"y":4007700.6485894769}},{"attributes":{"OBJECTID":2975,"ولایت":"هرات","Province":"HERAT","PC_Code":"3215356","ولسوالي":"فرسی ","District":"FERSI","د_مرکز_نوم__نام_مرکز":"تعمیر شورای انکشافی","Polling_Center_Name":"Shura-e- Ankishafi Building","د_مرکز_ځای__موقعیت_مرکز":"پای حصار ","Polling_Center_Location":"Pay-e- Hesar ","Verification_Note":"Village","PS_Male":2,"PS_Female":1,"Map_Accuracy":"قریه"},"geometry":{"x":7035768.37523682,"y":4014900.0850165412}},{"attributes":{"OBJECTID":2976,"ولایت":"هرات","Province":"HERAT","PC_Code":"3215360","ولسوالي":"فرسی ","District":"FERSI","د_مرکز_نوم__نام_مرکز":"مسجد حاجی باغ","Polling_Center_Name":"Haji Bagh Mosque ","د_مرکز_ځای__موقعیت_مرکز":"حاجی باغ ","Polling_Center_Location":"Haji Bagh ","Verification_Note":"Village","PS_Male":1,"PS_Female":1,"Map_Accuracy":"قریه"},"geometry":{"x":7029002.16507937,"y":4012047.3144528344}},{"attributes":{"OBJECTID":2977,"ولایت":"هرات","Province":"HERAT","PC_Code":"3215361","ولسوالي":"فرسی ","District":"FERSI","د_مرکز_نوم__نام_مرکز":"شورای انکشا فی شش یار","Polling_Center_Name":"Shura-e- Ankishafi Shash yar ","د_مرکز_ځای__موقعیت_مرکز":"شش یار ","Polling_Center_Location":"Shash Yar ","Verification_Note":"Village","PS_Male":1,"PS_Female":1,"Map_Accuracy":"قریه"},"geometry":{"x":7055865.1968306936,"y":4003908.7426959425}},{"attributes":{"OBJECTID":2978,"ولایت":"هرات","Province":"HERAT","PC_Code":"3215363","ولسوالي":"فرسی ","District":"FERSI","د_مرکز_نوم__نام_مرکز":"مکتب قریه پیازک","Polling_Center_Name":"Payezak Village School ","د_مرکز_ځای__موقعیت_مرکز":"قریه دهن پیازک ","Polling_Center_Location":"Dahan-e-Peyazak","Verification_Note":"Village","PS_Male":1,"PS_Female":1,"Map_Accuracy":"قریه"},"geometry":{"x":7073639.7847535163,"y":4007212.4597299322}},{"attributes":{"OBJECTID":2979,"ولایت":"هرات","Province":"HERAT","PC_Code":"3215364","ولسوالي":"فرسی ","District":"FERSI","د_مرکز_نوم__نام_مرکز":"مسجد جامع","Polling_Center_Name":"Mosque ","د_مرکز_ځای__موقعیت_مرکز":"ارخ ","Polling_Center_Location":"Arkh ","Verification_Note":"District","PS_Male":2,"PS_Female":1,"Map_Accuracy":"ولسوالی"},"geometry":{"x":7048772.072498247,"y":4009658.797257483}},{"attributes":{"OBJECTID":2980,"ولایت":"هرات","Province":"HERAT","PC_Code":"3216397","ولسوالي":"چشت شریف","District":"CHISHT-E-SHARIF","د_مرکز_نوم__نام_مرکز":"مکتب سلما","Polling_Center_Name":"Salma School","د_مرکز_ځای__موقعیت_مرکز":"سلما ","Polling_Center_Location":"Salma","Verification_Note":"Building","PS_Male":1,"PS_Female":1,"Map_Accuracy":"تعمیر"},"geometry":{"x":7106550.5417256467,"y":4076140.6518975943}},{"attributes":{"OBJECTID":2981,"ولایت":"هرات","Province":"HERAT","PC_Code":"3216398","ولسوالي":"چشت شریف","District":"CHISHT-E-SHARIF","د_مرکز_نوم__نام_مرکز":"مسجد شیر خاج","Polling_Center_Name":"Shir Khanj Mosque","د_مرکز_ځای__موقعیت_مرکز":"شیر خاج ","Polling_Center_Location":"Shir Khaj","Verification_Note":"Building","PS_Male":1,"PS_Female":1,"Map_Accuracy":"تعمیر"},"geometry":{"x":7114041.3337882422,"y":4073764.5393887386}},{"attributes":{"OBJECTID":2982,"ولایت":"هرات","Province":"HERAT","PC_Code":"3216470","ولسوالي":"چشت شریف","District":"CHISHT-E-SHARIF","د_مرکز_نوم__نام_مرکز":"مسجد جامع رباطک","Polling_Center_Name":"Rubatak Mosque","د_مرکز_ځای__موقعیت_مرکز":"رباطک ","Polling_Center_Location":"Rubatak","Verification_Note":"Village","PS_Male":1,"PS_Female":1,"Map_Accuracy":"قریه"},"geometry":{"x":7123007.7825867794,"y":4079056.4223146811}},{"attributes":{"OBJECTID":2983,"ولایت":" فراه","Province":"FARAH","PC_Code":"3301001","ولسوالي":"فراه","District":"FARAH","د_مرکز_نوم__نام_مرکز":" لیسه میر من نازو","Polling_Center_Name":"Merman Nazo High School","د_مرکز_ځای__موقعیت_مرکز":"مرکز ( شهر فراه )","Polling_Center_Location":"Farah City","Verification_Note":"Building","PS_Male":3,"PS_Female":1,"Map_Accuracy":"تعمیر"},"geometry":{"x":6914938.4573685192,"y":3812943.391719237}},{"attributes":{"OBJECTID":2984,"ولایت":"هرات","Province":"HERAT","PC_Code":"3201472","ولسوالي":"ناحیه_08","District":"DISTRICT_08","د_مرکز_نوم__نام_مرکز":"ليسه استاد كمال الدين بهزاد","Polling_Center_Name":"Ustad kamaludin Behzad High school","د_مرکز_ځای__موقعیت_مرکز":"ليسه استاد كمال الدين بهزاد","Polling_Center_Location":"Ustad kamaludin behzad Highschool","Verification_Note":"Building","PS_Male":2,"PS_Female":1,"Map_Accuracy":"تعمیر"},"geometry":{"x":6926745.5960062593,"y":4077652.2333305106}},{"attributes":{"OBJECTID":2985,"ولایت":"هرات","Province":"HERAT","PC_Code":"3201015","ولسوالي":"هرات","District":"HERAT","د_مرکز_نوم__نام_مرکز":"مسجد پل رگینه","Polling_Center_Name":"Pul -e -Rageena Mosque","د_مرکز_ځای__موقعیت_مرکز":" ناحیه ششم","Polling_Center_Location":"D06 - Nahia 6","Verification_Note":"Building","PS_Male":3,"PS_Female":3,"Map_Accuracy":"تعمیر"},"geometry":{"x":6926417.0108143836,"y":4074980.5520443246}},{"attributes":{"OBJECTID":2986,"ولایت":"هرات","Province":"HERAT","PC_Code":"3201016","ولسوالي":"هرات","District":"HERAT","د_مرکز_نوم__نام_مرکز":"مسجدعثما ن غنی","Polling_Center_Name":"Osman-e- Ghani Mosque","د_مرکز_ځای__موقعیت_مرکز":"ناحیه ششم","Polling_Center_Location":"D06 - Nahia 6","Verification_Note":"Building","PS_Male":4,"PS_Female":3,"Map_Accuracy":"تعمیر"},"geometry":{"x":6926008.5261693038,"y":4073653.2004756778}},{"attributes":{"OBJECTID":2987,"ولایت":"هرات","Province":"HERAT","PC_Code":"3202046","ولسوالي":"انجیل","District":"ENJIL","د_مرکز_نوم__نام_مرکز":"مکتب نوین سفلی","Polling_Center_Name":"Naween Sufla School","د_مرکز_ځای__موقعیت_مرکز":" قریه نوین سفلی","Polling_Center_Location":"Naween Sufla Village","Verification_Note":"Building","PS_Male":1,"PS_Female":1,"Map_Accuracy":"تعمیر"},"geometry":{"x":6927193.3651883192,"y":4068750.6688099355}},{"attributes":{"OBJECTID":2988,"ولایت":"هرات","Province":"HERAT","PC_Code":"3202047","ولسوالي":"انجیل","District":"ENJIL","د_مرکز_نوم__نام_مرکز":"مکتب کهدستان","Polling_Center_Name":"Kahedastan School ","د_مرکز_ځای__موقعیت_مرکز":"قریه کهدستان","Polling_Center_Location":"Kahedastan Village ","Verification_Note":"Building","PS_Male":2,"PS_Female":1,"Map_Accuracy":"تعمیر"},"geometry":{"x":6936067.5646380335,"y":4075664.3585249633}},{"attributes":{"OBJECTID":2989,"ولایت":"هرات","Province":"HERAT","PC_Code":"3202050","ولسوالي":"انجیل","District":"ENJIL","د_مرکز_نوم__نام_مرکز":"مسجد جامع ادران","Polling_Center_Name":"Adran Mosque ","د_مرکز_ځای__موقعیت_مرکز":"ادران","Polling_Center_Location":"Adran ","Verification_Note":"Building","PS_Male":1,"PS_Female":1,"Map_Accuracy":"تعمیر"},"geometry":{"x":6931447.9037312567,"y":4064738.931900911}},{"attributes":{"OBJECTID":2990,"ولایت":"هرات","Province":"HERAT","PC_Code":"3202051","ولسوالي":"انجیل","District":"ENJIL","د_مرکز_نوم__نام_مرکز":"مکتب بزدانک انجیل","Polling_Center_Name":"Bozdang Enjil School","د_مرکز_ځای__موقعیت_مرکز":"قریه بزدان آلنجان","Polling_Center_Location":"Bozdang Alanjan","Verification_Note":"Building","PS_Male":2,"PS_Female":1,"Map_Accuracy":"تعمیر"},"geometry":{"x":6922494.0624216571,"y":4070482.8776611462}},{"attributes":{"OBJECTID":2991,"ولایت":"هرات","Province":"HERAT","PC_Code":"3202058","ولسوالي":"انجیل","District":"ENJIL","د_مرکز_نوم__نام_مرکز":"مجتمع فرهنگي قیزان سنگر","Polling_Center_Name":"Ghizan sangar Mosque","د_مرکز_ځای__موقعیت_مرکز":"قریه قیزان سنگر","Polling_Center_Location":"Qeeizan Sangar Village ","Verification_Note":"Building","PS_Male":2,"PS_Female":1,"Map_Accuracy":"تعمیر"},"geometry":{"x":6926906.4870681763,"y":4072355.356830582}},{"attributes":{"OBJECTID":2992,"ولایت":"هرات","Province":"HERAT","PC_Code":"3202059","ولسوالي":"انجیل","District":"ENJIL","د_مرکز_نوم__نام_مرکز":"مکتب گرداب","Polling_Center_Name":"Gerdaab School ","د_مرکز_ځای__موقعیت_مرکز":"قریه گرداب","Polling_Center_Location":"Gerdaab Village ","Verification_Note":"Building","PS_Male":1,"PS_Female":1,"Map_Accuracy":"تعمیر"},"geometry":{"x":6929572.0066717379,"y":4070161.3821323067}},{"attributes":{"OBJECTID":2993,"ولایت":"هرات","Province":"HERAT","PC_Code":"3202061","ولسوالي":"انجیل","District":"ENJIL","د_مرکز_نوم__نام_مرکز":"مکتب متوسطه سر آسیاب\r\n","Polling_Center_Name":"Sar Asiab School ","د_مرکز_ځای__موقعیت_مرکز":" قریه سر اسیاب ","Polling_Center_Location":"Sar Asiab Village ","Verification_Note":"Building","PS_Male":2,"PS_Female":0,"Map_Accuracy":"تعمیر"},"geometry":{"x":6942339.9826850183,"y":4065273.224039875}},{"attributes":{"OBJECTID":2994,"ولایت":"هرات","Province":"HERAT","PC_Code":"3202063","ولسوالي":"انجیل","District":"ENJIL","د_مرکز_نوم__نام_مرکز":"مكتب ابتدائي ابوريحان البيروني","Polling_Center_Name":"Aboraihan-e- Alberoni Primary School ","د_مرکز_ځای__موقعیت_مرکز":"قریه گرازان","Polling_Center_Location":"Garazan Village ","Verification_Note":"Building","PS_Male":2,"PS_Female":1,"Map_Accuracy":"تعمیر"},"geometry":{"x":6927507.4175093547,"y":4066862.7842122838}},{"attributes":{"OBJECTID":2995,"ولایت":"هرات","Province":"HERAT","PC_Code":"3202064","ولسوالي":"انجیل","District":"ENJIL","د_مرکز_نوم__نام_مرکز":"لیسه نوبادام","Polling_Center_Name":"Naw Badam High School","د_مرکز_ځای__موقعیت_مرکز":"قریه نو بادام","Polling_Center_Location":"Naw Badam Village ","Verification_Note":"Building","PS_Male":1,"PS_Female":1,"Map_Accuracy":"تعمیر"},"geometry":{"x":6937047.9954684637,"y":4068528.6917043105}},{"attributes":{"OBJECTID":2996,"ولایت":"هرات","Province":"HERAT","PC_Code":"3202066","ولسوالي":"انجیل","District":"ENJIL","د_مرکز_نوم__نام_مرکز":"مکتب متوسطه غزالی بدلو","Polling_Center_Name":"Ghazali Badloo Scondary School ","د_مرکز_ځای__موقعیت_مرکز":"قریه بدلو","Polling_Center_Location":"Badloo Village ","Verification_Note":"Building","PS_Male":1,"PS_Female":1,"Map_Accuracy":"تعمیر"},"geometry":{"x":6933935.2999044061,"y":4072767.5875353217}},{"attributes":{"OBJECTID":2997,"ولایت":"هرات","Province":"HERAT","PC_Code":"3202436","ولسوالي":"انجیل","District":"ENJIL","د_مرکز_نوم__نام_مرکز":"مكتب صوفيان(لیسه امیر اسما عیل خان)","Polling_Center_Name":"Sofiyan High School (Amir Esmaeel High School ","د_مرکز_ځای__موقعیت_مرکز":"قریه جلال آباد","Polling_Center_Location":"Jalal Abad Village ","Verification_Note":"Building","PS_Male":2,"PS_Female":1,"Map_Accuracy":"تعمیر"},"geometry":{"x":6912030.1577478983,"y":4076038.8143474534}},{"attributes":{"OBJECTID":2998,"ولایت":"هرات","Province":"HERAT","PC_Code":"3203082","ولسوالي":"گذره","District":"GUZARA","د_مرکز_نوم__نام_مرکز":"مکتب متوسطه چشمه خوانی","Polling_Center_Name":"Primary School Deh now ","د_مرکز_ځای__موقعیت_مرکز":" چشمه خوانی","Polling_Center_Location":"Chashma khani ","Verification_Note":"Building","PS_Male":2,"PS_Female":1,"Map_Accuracy":"تعمیر"},"geometry":{"x":6922143.3453565277,"y":4033368.7233570293}},{"attributes":{"OBJECTID":2999,"ولایت":"هرات","Province":"HERAT","PC_Code":"3203094","ولسوالي":"گذره","District":"GUZARA","د_مرکز_نوم__نام_مرکز":"لیسه وحدت کورت علیا","Polling_Center_Name":"Wahdat High School ","د_مرکز_ځای__موقعیت_مرکز":"قریه کورت علیا","Polling_Center_Location":"Kort Ulya Village ","Verification_Note":"Building","PS_Male":2,"PS_Female":1,"Map_Accuracy":"تعمیر"},"geometry":{"x":6938586.3206249289,"y":4059472.8399309516}}]}