{"objectIdFieldName":"OBJECTID","globalIdFieldName":"","geometryType":"esriGeometryPoint","spatialReference":{"wkid":102100,"latestWkid":3857},"fields":[{"name":"OBJECTID","type":"esriFieldTypeOID","alias":"OBJECTID","sqlType":"sqlTypeOther","domain":null,"defaultValue":null},{"name":"ولایت","type":"esriFieldTypeString","alias":"ولایت","sqlType":"sqlTypeOther","length":255,"domain":null,"defaultValue":null},{"name":"Province","type":"esriFieldTypeString","alias":"Province","sqlType":"sqlTypeOther","length":255,"domain":null,"defaultValue":null},{"name":"PC_Code","type":"esriFieldTypeString","alias":"PC_Code","sqlType":"sqlTypeOther","length":255,"domain":null,"defaultValue":null},{"name":"ولسوالي","type":"esriFieldTypeString","alias":"ولسوالي","sqlType":"sqlTypeOther","length":255,"domain":null,"defaultValue":null},{"name":"District","type":"esriFieldTypeString","alias":"District","sqlType":"sqlTypeOther","length":255,"domain":null,"defaultValue":null},{"name":"د_مرکز_نوم__نام_مرکز","type":"esriFieldTypeString","alias":"د_مرکز_نوم__نام_مرکز","sqlType":"sqlTypeOther","length":255,"domain":null,"defaultValue":null},{"name":"Polling_Center_Name","type":"esriFieldTypeString","alias":"Polling_Center_Name","sqlType":"sqlTypeOther","length":255,"domain":null,"defaultValue":null},{"name":"د_مرکز_ځای__موقعیت_مرکز","type":"esriFieldTypeString","alias":"د_مرکز_ځای__موقعیت_مرکز","sqlType":"sqlTypeOther","length":255,"domain":null,"defaultValue":null},{"name":"Polling_Center_Location","type":"esriFieldTypeString","alias":"Polling_Center_Location","sqlType":"sqlTypeOther","length":255,"domain":null,"defaultValue":null},{"name":"Verification_Note","type":"esriFieldTypeString","alias":"Verification_Note","sqlType":"sqlTypeOther","length":250,"domain":null,"defaultValue":null},{"name":"PS_Male","type":"esriFieldTypeSmallInteger","alias":"PS_Male","sqlType":"sqlTypeOther","domain":null,"defaultValue":null},{"name":"PS_Female","type":"esriFieldTypeSmallInteger","alias":"PS_Female","sqlType":"sqlTypeOther","domain":null,"defaultValue":null},{"name":"Map_Accuracy","type":"esriFieldTypeString","alias":"Map_Accuracy","sqlType":"sqlTypeOther","length":10,"domain":null,"defaultValue":null}],"features":[{"attributes":{"OBJECTID":3199,"ولایت":"پکتيکا","Province":"PAKTIKA","PC_Code":"1207104","ولسوالي":"زرغون شهر ","District":"ZARGHUN SHAHR","د_مرکز_نوم__نام_مرکز":"عجب خان میلمستون","Polling_Center_Name":"Ajab Khan Guest House","د_مرکز_ځای__موقعیت_مرکز":"شاه خیل","Polling_Center_Location":"Shah Khel","Verification_Note":"Village","PS_Male":0,"PS_Female":2,"Map_Accuracy":"قریه"},"geometry":{"x":7630415.1606620178,"y":3871423.0629811659}},{"attributes":{"OBJECTID":3198,"ولایت":"پکتيکا","Province":"PAKTIKA","PC_Code":"1207094","ولسوالي":"زرغون شهر ","District":"ZARGHUN SHAHR","د_مرکز_نوم__نام_مرکز":"شریف میلمستون","Polling_Center_Name":"Sharif Guest House","د_مرکز_ځای__موقعیت_مرکز":"ملی زی ","Polling_Center_Location":"Meli Zai","Verification_Note":"Village","PS_Male":0,"PS_Female":2,"Map_Accuracy":"قریه"},"geometry":{"x":7624752.0342631564,"y":3868739.2564847693}},{"attributes":{"OBJECTID":3197,"ولایت":"پکتيکا","Province":"PAKTIKA","PC_Code":"1208129","ولسوالي":"گومل","District":"GOMAL","د_مرکز_نوم__نام_مرکز":"حاجی عمر جومات","Polling_Center_Name":"Haji Omar Mosque","د_مرکز_ځای__موقعیت_مرکز":"عموواز","Polling_Center_Location":"Amovaz","Verification_Note":"Village","PS_Male":3,"PS_Female":0,"Map_Accuracy":"قریه"},"geometry":{"x":7690538.1408169605,"y":3779834.6446152627}},{"attributes":{"OBJECTID":3196,"ولایت":"پکتيکا","Province":"PAKTIKA","PC_Code":"1208128","ولسوالي":"گومل","District":"GOMAL","د_مرکز_نوم__نام_مرکز":"زریف خان میلمستون","Polling_Center_Name":"Zarif Khan Guest House","د_مرکز_ځای__موقعیت_مرکز":"شکین ","Polling_Center_Location":"Shekin","Verification_Note":"Village","PS_Male":0,"PS_Female":2,"Map_Accuracy":"قریه"},"geometry":{"x":7664535.5931447446,"y":3822170.7890304029}},{"attributes":{"OBJECTID":3195,"ولایت":"پکتيکا","Province":"PAKTIKA","PC_Code":"1205077","ولسوالي":"سروضه ","District":"SAR RAWZA","د_مرکز_نوم__نام_مرکز":"ستر جومات","Polling_Center_Name":"Big Mosque","د_مرکز_ځای__موقعیت_مرکز":"سلطانی","Polling_Center_Location":"Sultani","Verification_Note":"Village","PS_Male":2,"PS_Female":0,"Map_Accuracy":"قریه"},"geometry":{"x":7677778.1208076961,"y":3903832.1522824615}},{"attributes":{"OBJECTID":3194,"ولایت":"پکتيکا","Province":"PAKTIKA","PC_Code":"1205076","ولسوالي":"سروضه ","District":"SAR RAWZA","د_مرکز_نوم__نام_مرکز":"مارزک انجونو ښوونځی ","Polling_Center_Name":"Marzak Girls School","د_مرکز_ځای__موقعیت_مرکز":"مارزک ","Polling_Center_Location":"Marzak","Verification_Note":"Village","PS_Male":0,"PS_Female":3,"Map_Accuracy":"قریه"},"geometry":{"x":7690473.53098451,"y":3914926.1098871455}},{"attributes":{"OBJECTID":3193,"ولایت":"پکتيکا","Province":"PAKTIKA","PC_Code":"1207086","ولسوالي":"زرغون شهر ","District":"ZARGHUN SHAHR","د_مرکز_نوم__نام_مرکز":"حاجی میر احمد میلمستون","Polling_Center_Name":"Haji Mir Ahmad Guest House","د_مرکز_ځای__موقعیت_مرکز":"خیر کوث","Polling_Center_Location":"Khair Kot","Verification_Note":"Building","PS_Male":0,"PS_Female":2,"Map_Accuracy":"تعمیر"},"geometry":{"x":7621186.4375772029,"y":3875748.5009293109}},{"attributes":{"OBJECTID":3192,"ولایت":"پکتيکا","Province":"PAKTIKA","PC_Code":"1202028","ولسوالي":"مټا خان","District":"MATA KHAN","د_مرکز_نوم__نام_مرکز":"زړه قلعه مرکز ولسوالی ","Polling_Center_Name":"District Center","د_مرکز_ځای__موقعیت_مرکز":"زړه قلعه","Polling_Center_Location":"Zarra Qala","Verification_Note":"Building","PS_Male":0,"PS_Female":4,"Map_Accuracy":"تعمیر"},"geometry":{"x":7665365.5088916793,"y":3931294.7777049243}},{"attributes":{"OBJECTID":3191,"ولایت":"غزنى","Province":"GHAZNI","PC_Code":"1109092","ولسوالي":"رشیدان","District":"RASHIDAN","د_مرکز_نوم__نام_مرکز":"مسجد بالا قریه حسن خان","Polling_Center_Name":"Hassan Khan Village Upper Mosque","د_مرکز_ځای__موقعیت_مرکز":"قریه حسن خان","Polling_Center_Location":"Hassan Khan Village","Verification_Note":"Building","PS_Male":2,"PS_Female":1,"Map_Accuracy":"تعمیر"},"geometry":{"x":7593262.5266258344,"y":3989716.6704341173}},{"attributes":{"OBJECTID":3190,"ولایت":"پکتيکا","Province":"PAKTIKA","PC_Code":"1201019","ولسوالي":"شرن","District":"SHARAN","د_مرکز_نوم__نام_مرکز":"ښوونځی","Polling_Center_Name":"School","د_مرکز_ځای__موقعیت_مرکز":"کوتوال","Polling_Center_Location":"Kotwal","Verification_Note":"Village","PS_Male":3,"PS_Female":0,"Map_Accuracy":"قریه"},"geometry":{"x":7653827.30823626,"y":3914761.01655069}},{"attributes":{"OBJECTID":3189,"ولایت":"لغمان","Province":"LAGHMAN","PC_Code":"0701029","ولسوالي":"مهترلام","District":"MEHTARLAM","د_مرکز_نوم__نام_مرکز":"دکرنج دکوچيانو جومات","Polling_Center_Name":"De Kranj de Kochano Mosque","د_مرکز_ځای__موقعیت_مرکز":"کرنج کلی","Polling_Center_Location":"Karanj Village","Verification_Note":"Village","PS_Male":1,"PS_Female":1,"Map_Accuracy":"قریه"},"geometry":{"x":7812943.9408115335,"y":4131476.6166088358}},{"attributes":{"OBJECTID":3188,"ولایت":"کابل","Province":"KABUL","PC_Code":"0101304","ولسوالي":"کابل - ناحیه 15","District":"KABUL-D15","د_مرکز_نوم__نام_مرکز":"مدرسه تعلیم القران بی بی فاطمه زهرا","Polling_Center_Name":"Bi Bi Fatima Zahra Talemul Quran Madrassa","د_مرکز_ځای__موقعیت_مرکز":"پسته کچالو","Polling_Center_Location":"Posta-e-Kachalu","Verification_Note":"Building","PS_Male":3,"PS_Female":2,"Map_Accuracy":"تعمیر"},"geometry":{"x":7698623.3824113123,"y":4108231.8097495884}},{"attributes":{"OBJECTID":3187,"ولایت":"نيمروز","Province":"NIMROZ","PC_Code":"3404064","ولسوالي":"چاربرجک","District":"CHAR BURJAK","د_مرکز_نوم__نام_مرکز":"مکتب اشکنک","Polling_Center_Name":"Ashkanak School","د_مرکز_ځای__موقعیت_مرکز":"اشکنک حاجی جمعه خان","Polling_Center_Location":"Eshkanak haji joma khan","Verification_Note":"Building","PS_Male":2,"PS_Female":1,"Map_Accuracy":"تعمیر"},"geometry":{"x":6920052.7782324962,"y":3535208.9620465934}},{"attributes":{"OBJECTID":3186,"ولایت":"نيمروز","Province":"NIMROZ","PC_Code":"3404063","ولسوالي":"چاربرجک","District":"CHAR BURJAK","د_مرکز_نوم__نام_مرکز":"مکتب کرودی","Polling_Center_Name":"Karodi School","د_مرکز_ځای__موقعیت_مرکز":"کرودی حاجی محمد امین","Polling_Center_Location":"Karodi haji muhammad amin","Verification_Note":"Building","PS_Male":2,"PS_Female":1,"Map_Accuracy":"تعمیر"},"geometry":{"x":6876337.102017004,"y":3528671.241388455}},{"attributes":{"OBJECTID":3185,"ولایت":"نيمروز","Province":"NIMROZ","PC_Code":"3404027","ولسوالي":"چهار برجک","District":"CHAR BURJAK","د_مرکز_نوم__نام_مرکز":"منزل حاجی گل محمد","Polling_Center_Name":"Haji Gul Mohammad House ","د_مرکز_ځای__موقعیت_مرکز":" رودبار","Polling_Center_Location":"Rud Bar ","Verification_Note":"Village","PS_Male":1,"PS_Female":1,"Map_Accuracy":"قریه"},"geometry":{"x":6968163.3438256942,"y":3523182.8286308125}},{"attributes":{"OBJECTID":3184,"ولایت":"نيمروز","Province":"NIMROZ","PC_Code":"3403038","ولسوالي":"اصل چغانسور","District":"ASL-E-CHAKHANSUR","د_مرکز_نوم__نام_مرکز":"منزل شخصی محمد داودخان ","Polling_Center_Name":"Mohammad Dawood Khan House ","د_مرکز_ځای__موقعیت_مرکز":"آوربلوچی","Polling_Center_Location":"Awar Balochi ","Verification_Note":"Village","PS_Male":1,"PS_Female":1,"Map_Accuracy":"قریه"},"geometry":{"x":6944591.0843146443,"y":3682982.0281105861}},{"attributes":{"OBJECTID":3183,"ولایت":"نيمروز","Province":"NIMROZ","PC_Code":"3403037","ولسوالي":"اصل چغانسور","District":"ASL-E-CHAKHANSUR","د_مرکز_نوم__نام_مرکز":"اطاق های حاجی صدیق","Polling_Center_Name":"Haji Sediq Rooms ","د_مرکز_ځای__موقعیت_مرکز":" ده نو","Polling_Center_Location":"Deh Naw ","Verification_Note":"Building","PS_Male":1,"PS_Female":1,"Map_Accuracy":"تعمیر"},"geometry":{"x":6918196.0808908343,"y":3659242.0437437445}},{"attributes":{"OBJECTID":3182,"ولایت":"نيمروز","Province":"NIMROZ","PC_Code":"3402014","ولسوالي":"کنگ","District":"KANG","د_مرکز_نوم__نام_مرکز":"مکتب طلائی","Polling_Center_Name":"Telaye School","د_مرکز_ځای__موقعیت_مرکز":"طلائی ","Polling_Center_Location":"Telaye","Verification_Note":"Building","PS_Male":2,"PS_Female":1,"Map_Accuracy":"تعمیر"},"geometry":{"x":6877338.9913490787,"y":3659149.3813281059}},{"attributes":{"OBJECTID":3181,"ولایت":"نيمروز","Province":"NIMROZ","PC_Code":"3402013","ولسوالي":"کنگ","District":"KANG","د_مرکز_نوم__نام_مرکز":"مکتب کرکی","Polling_Center_Name":"Karki School","د_مرکز_ځای__موقعیت_مرکز":"کرکی ","Polling_Center_Location":"Karki ","Verification_Note":"Building","PS_Male":1,"PS_Female":1,"Map_Accuracy":"تعمیر"},"geometry":{"x":6878174.03001897,"y":3674795.4316774607}},{"attributes":{"OBJECTID":3180,"ولایت":"نيمروز","Province":"NIMROZ","PC_Code":"3402060","ولسوالي":"کنگ","District":"KANG","د_مرکز_نوم__نام_مرکز":"مکتب گرگیج","Polling_Center_Name":"Gargich School","د_مرکز_ځای__موقعیت_مرکز":"ملارسول","Polling_Center_Location":"Mullah rasool","Verification_Note":"Building","PS_Male":2,"PS_Female":1,"Map_Accuracy":"تعمیر"},"geometry":{"x":6877926.3843382895,"y":3687346.6729752272}},{"attributes":{"OBJECTID":3179,"ولایت":"نيمروز","Province":"NIMROZ","PC_Code":"3401059","ولسوالي":"زرنج","District":"ZARANJ","د_مرکز_نوم__نام_مرکز":"مکتب ابتدایی فیروزه گی","Polling_Center_Name":"Firoza gai Primary school","د_مرکز_ځای__موقعیت_مرکز":"فیروزه گی","Polling_Center_Location":"Firoza gai","Verification_Note":"Building","PS_Male":2,"PS_Female":1,"Map_Accuracy":"تعمیر"},"geometry":{"x":6880711.9989707507,"y":3613339.285709545}},{"attributes":{"OBJECTID":3178,"ولایت":"نيمروز","Province":"NIMROZ","PC_Code":"3401058","ولسوالي":"زرنج","District":"ZARANJ","د_مرکز_نوم__نام_مرکز":" الحاقیه سیستان","Polling_Center_Name":"Alhaqia sistan","د_مرکز_ځای__موقعیت_مرکز":"پلان 7/6شهری","Polling_Center_Location":"Plan 6/7 Shahri(city 6/7 plan)","Verification_Note":"Building","PS_Male":2,"PS_Female":1,"Map_Accuracy":"تعمیر"},"geometry":{"x":6886504.118276719,"y":3624817.4045735374}},{"attributes":{"OBJECTID":3177,"ولایت":"نيمروز","Province":"NIMROZ","PC_Code":"3406050","ولسوالي":"دلارام","District":"DELARAM","د_مرکز_نوم__نام_مرکز":"مسجد قریه راکن","Polling_Center_Name":"Raken Village Mosque","د_مرکز_ځای__موقعیت_مرکز":"قریه راکن","Polling_Center_Location":"Raken Village","Verification_Note":"Village","PS_Male":1,"PS_Female":1,"Map_Accuracy":"قریه"},"geometry":{"x":7026336.3538187481,"y":3752572.9959155172}},{"attributes":{"OBJECTID":3176,"ولایت":"نيمروز","Province":"NIMROZ","PC_Code":"3406049","ولسوالي":"دلارام","District":"DELARAM","د_مرکز_نوم__نام_مرکز":"کلینیک صحی گلستان","Polling_Center_Name":"Gulistan Health Clinic","د_مرکز_ځای__موقعیت_مرکز":"مرکز ولسوالی","Polling_Center_Location":"District Capital","Verification_Note":"Building","PS_Male":2,"PS_Female":1,"Map_Accuracy":"تعمیر"},"geometry":{"x":7060283.56983421,"y":3785328.2243986651}},{"attributes":{"OBJECTID":3175,"ولایت":"نيمروز","Province":"NIMROZ","PC_Code":"3405046","ولسوالي":"خاشرود","District":"KHASHROD","د_مرکز_نوم__نام_مرکز":"مسجد قریه","Polling_Center_Name":"Manaar Village Mosque","د_مرکز_ځای__موقعیت_مرکز":"منار","Polling_Center_Location":"Manaar Village","Verification_Note":"Building","PS_Male":2,"PS_Female":1,"Map_Accuracy":"تعمیر"},"geometry":{"x":7013510.2367486246,"y":3733336.8221371323}},{"attributes":{"OBJECTID":3174,"ولایت":"نيمروز","Province":"NIMROZ","PC_Code":"3405045","ولسوالي":"خاشرود","District":"KHASHROD","د_مرکز_نوم__نام_مرکز":"مسجد قریه","Polling_Center_Name":"Khash Village Mosque ","د_مرکز_ځای__موقعیت_مرکز":"خاش","Polling_Center_Location":"Khash Village","Verification_Note":"Village","PS_Male":1,"PS_Female":1,"Map_Accuracy":"قریه"},"geometry":{"x":6989816.303920947,"y":3701656.209631592}},{"attributes":{"OBJECTID":3173,"ولایت":"نيمروز","Province":"NIMROZ","PC_Code":"3403034","ولسوالي":"اصل چغانسور","District":"ASL-E-CHAKHANSUR","د_مرکز_نوم__نام_مرکز":"منزل عبدالرحمن","Polling_Center_Name":"Abdul Rahman House","د_مرکز_ځای__موقعیت_مرکز":"منزل عبدالرحمن","Polling_Center_Location":"Abdul Rahman House ","Verification_Note":"Building","PS_Male":1,"PS_Female":1,"Map_Accuracy":"تعمیر"},"geometry":{"x":6919131.4507045932,"y":3662813.558475703}},{"attributes":{"OBJECTID":3172,"ولایت":"نيمروز","Province":"NIMROZ","PC_Code":"3403033","ولسوالي":"اصل چغانسور","District":"ASL-E-CHAKHANSUR","د_مرکز_نوم__نام_مرکز":"مکتب قریه امیر بنیاد","Polling_Center_Name":"Amir Bunyad School ","د_مرکز_ځای__موقعیت_مرکز":"قریه امیر بنیاد","Polling_Center_Location":"Amir Bunyad Village","Verification_Note":"Building","PS_Male":1,"PS_Female":1,"Map_Accuracy":"تعمیر"},"geometry":{"x":6917022.4472917616,"y":3654928.4182436317}},{"attributes":{"OBJECTID":3171,"ولایت":"نيمروز","Province":"NIMROZ","PC_Code":"3401004","ولسوالي":" زرنج","District":"ZARANJ","د_مرکز_نوم__نام_مرکز":"لیسه نسوان","Polling_Center_Name":"Girls High School ","د_مرکز_ځای__موقعیت_مرکز":"زرنج ","Polling_Center_Location":"Zaranj ","Verification_Note":"Building","PS_Male":3,"PS_Female":2,"Map_Accuracy":"تعمیر"},"geometry":{"x":6886033.4365378283,"y":3627667.6648629755}},{"attributes":{"OBJECTID":3170,"ولایت":"نيمروز","Province":"NIMROZ","PC_Code":"3401003","ولسوالي":" زرنج","District":"ZARANJ","د_مرکز_نوم__نام_مرکز":"لیسه رودآبه","Polling_Center_Name":"Rud Aaba High School ","د_مرکز_ځای__موقعیت_مرکز":"زرنج ","Polling_Center_Location":"Zaranj ","Verification_Note":"Building","PS_Male":3,"PS_Female":2,"Map_Accuracy":"تعمیر"},"geometry":{"x":6886035.7675679661,"y":3625812.8839790672}},{"attributes":{"OBJECTID":3169,"ولایت":"نيمروز","Province":"NIMROZ","PC_Code":"3403062","ولسوالي":"اصل چغانسور","District":"ASL-E-CHAKHANSUR","د_مرکز_نوم__نام_مرکز":"میدانی","Polling_Center_Name":"Open Field","د_مرکز_ځای__موقعیت_مرکز":"ملاعبدالله,سرک","Polling_Center_Location":"Mullah abdullah, Sarak","Verification_Note":"Village","PS_Male":2,"PS_Female":1,"Map_Accuracy":"قریه"},"geometry":{"x":6924166.0063666739,"y":3666198.8442272097}},{"attributes":{"OBJECTID":3168,"ولایت":"نيمروز","Province":"NIMROZ","PC_Code":"3406053","ولسوالي":"دلارام","District":"DELARAM","د_مرکز_نوم__نام_مرکز":"قریه پیروزی ","Polling_Center_Name":"Perozi Village","د_مرکز_ځای__موقعیت_مرکز":"قریه پیروزی ","Polling_Center_Location":"Perozi Village","Verification_Note":"Village","PS_Male":1,"PS_Female":1,"Map_Accuracy":"قریه"},"geometry":{"x":7043998.7539587468,"y":3770150.148325026}},{"attributes":{"OBJECTID":3167,"ولایت":"نيمروز","Province":"NIMROZ","PC_Code":"3406052","ولسوالي":"دلارام","District":"DELARAM","د_مرکز_نوم__نام_مرکز":"گاو میشی ","Polling_Center_Name":"Gawmeshi ","د_مرکز_ځای__موقعیت_مرکز":"گاو میشی ","Polling_Center_Location":"Gawmeshi ","Verification_Note":"Village","PS_Male":1,"PS_Female":1,"Map_Accuracy":"قریه"},"geometry":{"x":7055170.3205316514,"y":3781881.8203657344}},{"attributes":{"OBJECTID":3166,"ولایت":"نيمروز","Province":"NIMROZ","PC_Code":"3404025","ولسوالي":"چهار برجک","District":"CHAR BURJAK","د_مرکز_نوم__نام_مرکز":"مکتب قلعه فتح","Polling_Center_Name":"Qala-e-Fatih School ","د_مرکز_ځای__موقعیت_مرکز":"قلعه فتح","Polling_Center_Location":"Qala-e-Fatih ","Verification_Note":"Building","PS_Male":2,"PS_Female":1,"Map_Accuracy":"تعمیر"},"geometry":{"x":6885111.530816488,"y":3574886.365305908}},{"attributes":{"OBJECTID":3165,"ولایت":"نيمروز","Province":"NIMROZ","PC_Code":"3404024","ولسوالي":"چهار برجک","District":"CHAR BURJAK","د_مرکز_نوم__نام_مرکز":"مکتب چگنی","Polling_Center_Name":"Chagni School ","د_مرکز_ځای__موقعیت_مرکز":" چگنی","Polling_Center_Location":"Chagni ","Verification_Note":"Building","PS_Male":1,"PS_Female":1,"Map_Accuracy":"تعمیر"},"geometry":{"x":6885604.1117708907,"y":3551422.2557342127}},{"attributes":{"OBJECTID":3164,"ولایت":"نيمروز","Province":"NIMROZ","PC_Code":"3402019","ولسوالي":"کنگ","District":"KANG","د_مرکز_نوم__نام_مرکز":"مکتب قریه سر لوف","Polling_Center_Name":"Sar Loof Village School","د_مرکز_ځای__موقعیت_مرکز":"قریه سر لوف","Polling_Center_Location":"Sar Loof Village","Verification_Note":"Building","PS_Male":1,"PS_Female":1,"Map_Accuracy":"تعمیر"},"geometry":{"x":6870948.1917027906,"y":3685060.0375371575}},{"attributes":{"OBJECTID":3163,"ولایت":"نيمروز","Province":"NIMROZ","PC_Code":"3402018","ولسوالي":"کنگ","District":"KANG","د_مرکز_نوم__نام_مرکز":"مکتب  دهک ناروئی","Polling_Center_Name":"Dehak-e-Naroye School","د_مرکز_ځای__موقعیت_مرکز":" دهک ناروئی","Polling_Center_Location":"Dehak-e-Naroye","Verification_Note":"Building","PS_Male":1,"PS_Female":1,"Map_Accuracy":"تعمیر"},"geometry":{"x":6881883.7865586989,"y":3668073.2247223109}},{"attributes":{"OBJECTID":3162,"ولایت":" فراه","Province":"FARAH","PC_Code":"3311219","ولسوالي":"پرچمن","District":"PUR CHAMAN","د_مرکز_نوم__نام_مرکز":"مسجد ویری","Polling_Center_Name":"Wery Mosque","د_مرکز_ځای__موقعیت_مرکز":"ویری","Polling_Center_Location":"Wery ","Verification_Note":"Building","PS_Male":1,"PS_Female":1,"Map_Accuracy":"تعمیر"},"geometry":{"x":7084898.0692097507,"y":3942593.6719408631}},{"attributes":{"OBJECTID":3161,"ولایت":" فراه","Province":"FARAH","PC_Code":"3311218","ولسوالي":"پرچمن","District":"PUR CHAMAN","د_مرکز_نوم__نام_مرکز":"مسجد ویردری","Polling_Center_Name":"Werdari Mosque","د_مرکز_ځای__موقعیت_مرکز":" ویردری","Polling_Center_Location":"Werdari ","Verification_Note":"Building","PS_Male":1,"PS_Female":1,"Map_Accuracy":"تعمیر"},"geometry":{"x":7110980.6388979256,"y":3953602.7236822248}},{"attributes":{"OBJECTID":3160,"ولایت":" فراه","Province":"FARAH","PC_Code":"3311215","ولسوالي":"پرچمن","District":"PUR CHAMAN","د_مرکز_نوم__نام_مرکز":"مسجد رود بارزوری","Polling_Center_Name":"Rud-e-Bar Zuri Mosque ","د_مرکز_ځای__موقعیت_مرکز":"رود بار زوری ( کوچی ) ","Polling_Center_Location":"Rud-e-Bar Zuri (Kuchi)","Verification_Note":"Building","PS_Male":1,"PS_Female":1,"Map_Accuracy":"تعمیر"},"geometry":{"x":7097734.6803682745,"y":3875452.4524117261}},{"attributes":{"OBJECTID":3159,"ولایت":" فراه","Province":"FARAH","PC_Code":"3311214","ولسوالي":"پرچمن","District":"PUR CHAMAN","د_مرکز_نوم__نام_مرکز":"مسجد دوخاری ","Polling_Center_Name":"Dukhari Mosque ( Kochi )","د_مرکز_ځای__موقعیت_مرکز":" دوخاری (کوچی) ","Polling_Center_Location":"Dukhari (Kochi)","Verification_Note":"Building","PS_Male":1,"PS_Female":1,"Map_Accuracy":"تعمیر"},"geometry":{"x":7139815.6842967011,"y":3884874.29448352}},{"attributes":{"OBJECTID":3158,"ولایت":" فراه","Province":"FARAH","PC_Code":"3311208","ولسوالي":"پرچمن","District":"PUR CHAMAN","د_مرکز_نوم__نام_مرکز":"مسجد ابشو","Polling_Center_Name":"Aab Shu Mosque  ","د_مرکز_ځای__موقعیت_مرکز":"ابشو","Polling_Center_Location":"Aab Shu","Verification_Note":"Building","PS_Male":2,"PS_Female":1,"Map_Accuracy":"تعمیر"},"geometry":{"x":7124737.7720765248,"y":3895486.7066828758}},{"attributes":{"OBJECTID":3157,"ولایت":" فراه","Province":"FARAH","PC_Code":"3311207","ولسوالي":"پرچمن","District":"PUR CHAMAN","د_مرکز_نوم__نام_مرکز":" مسجد خار","Polling_Center_Name":"Khaar Mosque  ","د_مرکز_ځای__موقعیت_مرکز":" خار","Polling_Center_Location":"Khaar ","Verification_Note":"Building","PS_Male":1,"PS_Female":1,"Map_Accuracy":"تعمیر"},"geometry":{"x":7138522.2920762375,"y":3888991.15899314}},{"attributes":{"OBJECTID":3156,"ولایت":" فراه","Province":"FARAH","PC_Code":"3311196","ولسوالي":"پرچمن","District":"PUR CHAMAN","د_مرکز_نوم__نام_مرکز":" مسجد لاخسار","Polling_Center_Name":"Lakhsar Mosque ","د_مرکز_ځای__موقعیت_مرکز":" لاخسار","Polling_Center_Location":"Lakhsar ","Verification_Note":"Building","PS_Male":1,"PS_Female":1,"Map_Accuracy":"تعمیر"},"geometry":{"x":7120205.1696907207,"y":3955223.12738166}},{"attributes":{"OBJECTID":3155,"ولایت":" فراه","Province":"FARAH","PC_Code":"3311195","ولسوالي":"پرچمن","District":"PUR CHAMAN","د_مرکز_نوم__نام_مرکز":" مسجد تولی","Polling_Center_Name":"Tolai Mosque ","د_مرکز_ځای__موقعیت_مرکز":" تولی","Polling_Center_Location":"Tolai","Verification_Note":"Building","PS_Male":1,"PS_Female":1,"Map_Accuracy":"تعمیر"},"geometry":{"x":7126229.8551165164,"y":3908841.9510600269}},{"attributes":{"OBJECTID":3154,"ولایت":" فراه","Province":"FARAH","PC_Code":"3311187","ولسوالي":"پرچمن","District":"PUR CHAMAN","د_مرکز_نوم__نام_مرکز":"مکتب ابتدائیه خرم جان","Polling_Center_Name":"Khurram Jan Primary School","د_مرکز_ځای__موقعیت_مرکز":"خرم جان","Polling_Center_Location":"Khurram Jan ","Verification_Note":"Building","PS_Male":2,"PS_Female":1,"Map_Accuracy":"تعمیر"},"geometry":{"x":7116197.1782164052,"y":3892182.61481639}},{"attributes":{"OBJECTID":3153,"ولایت":" فراه","Province":"FARAH","PC_Code":"3311186","ولسوالي":"پرچمن","District":"PUR CHAMAN","د_مرکز_نوم__نام_مرکز":"مکتب ابتدائیه روباط لروند","Polling_Center_Name":"Rubat Larwand Primary School","د_مرکز_ځای__موقعیت_مرکز":" روباط لروند","Polling_Center_Location":"Rubat Larwand ","Verification_Note":"Building","PS_Male":1,"PS_Female":1,"Map_Accuracy":"تعمیر"},"geometry":{"x":7101816.636965055,"y":3896619.9337843657}},{"attributes":{"OBJECTID":3152,"ولایت":" فراه","Province":"FARAH","PC_Code":"3306146","ولسوالي":"بالا بلوک ","District":"BALA BULUK","د_مرکز_نوم__نام_مرکز":"مسجد شارگه","Polling_Center_Name":"Sharga Mosque","د_مرکز_ځای__موقعیت_مرکز":"شارگه","Polling_Center_Location":"Sharga","Verification_Note":"Village","PS_Male":1,"PS_Female":1,"Map_Accuracy":"قریه"},"geometry":{"x":6985905.6479829848,"y":3839756.5590500236}},{"attributes":{"OBJECTID":3151,"ولایت":" فراه","Province":"FARAH","PC_Code":"3306127","ولسوالي":"بالا بلوک ","District":"BALA BULUK","د_مرکز_نوم__نام_مرکز":"مکتب ابتدائیه گرانی ","Polling_Center_Name":"Grani Primary School ","د_مرکز_ځای__موقعیت_مرکز":"گرانی","Polling_Center_Location":"Grani ","Verification_Note":"Building","PS_Male":1,"PS_Female":1,"Map_Accuracy":"تعمیر"},"geometry":{"x":6948822.8557953313,"y":3845088.2030312791}},{"attributes":{"OBJECTID":3150,"ولایت":" فراه","Province":"FARAH","PC_Code":"3305240","ولسوالي":"شیب کوه ","District":"SHIB KOH","د_مرکز_نوم__نام_مرکز":"مکتب حوضک محمد اسلم","Polling_Center_Name":"Hawzak-e- Mohammad Aslam School ","د_مرکز_ځای__موقعیت_مرکز":"حوضک محمد اسلم","Polling_Center_Location":"Hawzak Mohammad Aslam ","Verification_Note":"Building","PS_Male":1,"PS_Female":1,"Map_Accuracy":"تعمیر"},"geometry":{"x":6873587.5957538188,"y":3784825.6409730613}},{"attributes":{"OBJECTID":3149,"ولایت":" فراه","Province":"FARAH","PC_Code":"3302235","ولسوالي":"پشت رود","District":"PUSHTRUD","د_مرکز_نوم__نام_مرکز":"مکتب نهر دشت ","Polling_Center_Name":"Nahr-e-Dasht Mosque","د_مرکز_ځای__موقعیت_مرکز":"نهر دشت","Polling_Center_Location":"Nahr-e-Dasht ","Verification_Note":"Village","PS_Male":1,"PS_Female":1,"Map_Accuracy":"قریه"},"geometry":{"x":6917245.87998132,"y":3836440.3323483914}},{"attributes":{"OBJECTID":3148,"ولایت":" فراه","Province":"FARAH","PC_Code":"3302234","ولسوالي":"پشت رود","District":"PUSHTRUD","د_مرکز_نوم__نام_مرکز":"مسجد شهر کهنه ","Polling_Center_Name":"Shahr-e-Kohna Mosque","د_مرکز_ځای__موقعیت_مرکز":"شهر کهنه","Polling_Center_Location":"Shahr-e-Kohna","Verification_Note":"Building","PS_Male":1,"PS_Female":1,"Map_Accuracy":"تعمیر"},"geometry":{"x":6908680.2069531269,"y":3821319.580514431}},{"attributes":{"OBJECTID":3147,"ولایت":" فراه","Province":"FARAH","PC_Code":"3302043","ولسوالي":"پشت رود","District":"PUSHTRUD","د_مرکز_نوم__نام_مرکز":"مکتب ابتدائیه  دوکین","Polling_Center_Name":"Dokeen Primary School ","د_مرکز_ځای__موقعیت_مرکز":"قریه دوکین","Polling_Center_Location":"Dokeen Village ","Verification_Note":"Building","PS_Male":1,"PS_Female":1,"Map_Accuracy":"تعمیر"},"geometry":{"x":6915910.5937836953,"y":3830966.6874372736}},{"attributes":{"OBJECTID":3146,"ولایت":" فراه","Province":"FARAH","PC_Code":"3302042","ولسوالي":"پشت رود","District":"PUSHTRUD","د_مرکز_نوم__نام_مرکز":"لیسه خواجه عبدالله بیدار","Polling_Center_Name":"Khwaja Abdullah Bedar High School","د_مرکز_ځای__موقعیت_مرکز":"چین فارسی ","Polling_Center_Location":"Chin Farsi ","Verification_Note":"Building","PS_Male":1,"PS_Female":1,"Map_Accuracy":"تعمیر"},"geometry":{"x":6917341.0280896835,"y":3828027.3426046148}},{"attributes":{"OBJECTID":3145,"ولایت":" فراه","Province":"FARAH","PC_Code":"3301035","ولسوالي":"فراه","District":"FARAH","د_مرکز_نوم__نام_مرکز":"مسجد قلعه محمد","Polling_Center_Name":"Qala-e-Mohammad Mosque","د_مرکز_ځای__موقعیت_مرکز":"قلعه محمد","Polling_Center_Location":"Qala-e-Mohammad","Verification_Note":"Building","PS_Male":3,"PS_Female":1,"Map_Accuracy":"تعمیر"},"geometry":{"x":6913455.33554754,"y":3810095.6378250867}},{"attributes":{"OBJECTID":3144,"ولایت":" فراه","Province":"FARAH","PC_Code":"3301034","ولسوالي":"فراه","District":"FARAH","د_مرکز_نوم__نام_مرکز":"لیسه اناث ","Polling_Center_Name":"Girls High School","د_مرکز_ځای__موقعیت_مرکز":"باغ پل ","Polling_Center_Location":"Bagh-e-Pul","Verification_Note":"Building","PS_Male":3,"PS_Female":1,"Map_Accuracy":"تعمیر"},"geometry":{"x":6910295.0854102075,"y":3811755.1343065128}},{"attributes":{"OBJECTID":3143,"ولایت":" فراه","Province":"FARAH","PC_Code":"3309104","ولسوالي":"لاش جوین ","District":"LASH-E-JUWAYN","د_مرکز_نوم__نام_مرکز":"مسجد علیا چار گاواک","Polling_Center_Name":"Char Gawak Ulya Mosque ","د_مرکز_ځای__موقعیت_مرکز":" چار گاواک","Polling_Center_Location":"Char Gawak  ","Verification_Note":"Building","PS_Male":1,"PS_Female":1,"Map_Accuracy":"تعمیر"},"geometry":{"x":6859553.9093378559,"y":3734504.3166974559}},{"attributes":{"OBJECTID":3142,"ولایت":" فراه","Province":"FARAH","PC_Code":"3309103","ولسوالي":"لاش جوین ","District":"LASH-E-JUWAYN","د_مرکز_نوم__نام_مرکز":"مکتب متوسطه قوچ ","Polling_Center_Name":"Qoch Secondary School ","د_مرکز_ځای__موقعیت_مرکز":"قوچ","Polling_Center_Location":"Qoch ","Verification_Note":"Building","PS_Male":1,"PS_Female":1,"Map_Accuracy":"تعمیر"},"geometry":{"x":6842553.4315880276,"y":3702262.0785514414}},{"attributes":{"OBJECTID":3141,"ولایت":" فراه","Province":"FARAH","PC_Code":"3309100","ولسوالي":"لاش جوین ","District":"LASH-E-JUWAYN","د_مرکز_نوم__نام_مرکز":"مکتب ابتدایی دومبلی علیا","Polling_Center_Name":"Dombalai Ulya Primary School ","د_مرکز_ځای__موقعیت_مرکز":"دومبلی علیا","Polling_Center_Location":"Dombalai Ulya","Verification_Note":"Building","PS_Male":2,"PS_Female":1,"Map_Accuracy":"تعمیر"},"geometry":{"x":6845316.8043635823,"y":3708533.8868003637}},{"attributes":{"OBJECTID":3140,"ولایت":" فراه","Province":"FARAH","PC_Code":"3309099","ولسوالي":"لاش جوین ","District":"LASH-E-JUWAYN","د_مرکز_نوم__نام_مرکز":"مکتب متوسطه دیوالکها","Polling_Center_Name":"Dewalak ha Secondary School ","د_مرکز_ځای__موقعیت_مرکز":"دیوالکها","Polling_Center_Location":"Dewalak ha","Verification_Note":"Building","PS_Male":1,"PS_Female":1,"Map_Accuracy":"تعمیر"},"geometry":{"x":6864971.4452364743,"y":3706487.0470129997}},{"attributes":{"OBJECTID":3139,"ولایت":" فراه","Province":"FARAH","PC_Code":"3308108","ولسوالي":"بکواه","District":"BAKWA","د_مرکز_نوم__نام_مرکز":"مسجد مرکز ( سلطان بکواه ) ","Polling_Center_Name":"Center Mosque (Sultan Bakwa)","د_مرکز_ځای__موقعیت_مرکز":"مرکز","Polling_Center_Location":"Bakwa District Center","Verification_Note":"Village","PS_Male":3,"PS_Female":1,"Map_Accuracy":"قریه"},"geometry":{"x":7007491.423425965,"y":3795038.6838261411}},{"attributes":{"OBJECTID":3138,"ولایت":" فراه","Province":"FARAH","PC_Code":"3307068","ولسوالي":"انار دره ","District":"ANAR DARA","د_مرکز_نوم__نام_مرکز":"مسجد سد کا","Polling_Center_Name":"Sadka Mosque ","د_مرکز_ځای__موقعیت_مرکز":"سد کاه ","Polling_Center_Location":"Sadkah","Verification_Note":"Building","PS_Male":1,"PS_Female":1,"Map_Accuracy":"تعمیر"},"geometry":{"x":6850556.2309693694,"y":3844639.5136420876}},{"attributes":{"OBJECTID":3137,"ولایت":" فراه","Province":"FARAH","PC_Code":"3307067","ولسوالي":"انار دره ","District":"ANAR DARA","د_مرکز_نوم__نام_مرکز":"مسجد گورکک","Polling_Center_Name":"Gorkak Mosque ","د_مرکز_ځای__موقعیت_مرکز":"گورکک","Polling_Center_Location":"Gorkak","Verification_Note":"Building","PS_Male":1,"PS_Female":1,"Map_Accuracy":"تعمیر"},"geometry":{"x":6866883.5408340544,"y":3856648.5054737777}},{"attributes":{"OBJECTID":3136,"ولایت":" فراه","Province":"FARAH","PC_Code":"3307064","ولسوالي":"انار دره ","District":"ANAR DARA","د_مرکز_نوم__نام_مرکز":"لیسه شیخ عبدالصمد نظری","Polling_Center_Name":"Shaikh Abdul Samad Nazari High School ","د_مرکز_ځای__موقعیت_مرکز":"مرکز اناردره","Polling_Center_Location":"Anar Dara Center","Verification_Note":"Building","PS_Male":2,"PS_Female":1,"Map_Accuracy":"تعمیر"},"geometry":{"x":6862987.15605481,"y":3863582.211946927}},{"attributes":{"OBJECTID":3135,"ولایت":" فراه","Province":"FARAH","PC_Code":"3307063","ولسوالي":"انار دره ","District":"ANAR DARA","د_مرکز_نوم__نام_مرکز":"مکتب ابتدائیه و متوسطه جدید کلاته عالم خان","Polling_Center_Name":"Kalata Alam Khan New Secondary School ","د_مرکز_ځای__موقعیت_مرکز":"کلا ته عالم خان","Polling_Center_Location":"Kalata Alam Khan ","Verification_Note":"Building","PS_Male":1,"PS_Female":1,"Map_Accuracy":"تعمیر"},"geometry":{"x":6853593.8448764645,"y":3841052.2173895761}},{"attributes":{"OBJECTID":3134,"ولایت":" فراه","Province":"FARAH","PC_Code":"3307062","ولسوالي":"انار دره ","District":"ANAR DARA","د_مرکز_نوم__نام_مرکز":"مکتب زهکن ","Polling_Center_Name":"Zehkan School","د_مرکز_ځای__موقعیت_مرکز":"زهکن","Polling_Center_Location":"Zehkan","Verification_Note":"Building","PS_Male":1,"PS_Female":1,"Map_Accuracy":"تعمیر"},"geometry":{"x":6857320.9227289669,"y":3848268.2251474187}},{"attributes":{"OBJECTID":3133,"ولایت":" فراه","Province":"FARAH","PC_Code":"3306244","ولسوالي":"بالا بلوک ","District":"BALA BULUK","د_مرکز_نوم__نام_مرکز":"مسجد حاجی محمد عوض","Polling_Center_Name":"Haji Mohammd Ewaz Mosque","د_مرکز_ځای__موقعیت_مرکز":"خواجه خضر","Polling_Center_Location":"Khwaja Khezar ","Verification_Note":"Building","PS_Male":1,"PS_Female":1,"Map_Accuracy":"تعمیر"},"geometry":{"x":6959012.7692498006,"y":3845395.6541006491}},{"attributes":{"OBJECTID":3132,"ولایت":" فراه","Province":"FARAH","PC_Code":"3306136","ولسوالي":"بالا بلوک ","District":"BALA BULUK","د_مرکز_نوم__نام_مرکز":" مسجد  چکاب","Polling_Center_Name":"Chakab Mosque","د_مرکز_ځای__موقعیت_مرکز":" چکاب","Polling_Center_Location":"Chakab ","Verification_Note":"Building","PS_Male":1,"PS_Female":1,"Map_Accuracy":"تعمیر"},"geometry":{"x":7004429.1444592923,"y":3836340.153715685}},{"attributes":{"OBJECTID":3131,"ولایت":" فراه","Province":"FARAH","PC_Code":"3306135","ولسوالي":"بالا بلوک ","District":"BALA BULUK","د_مرکز_نوم__نام_مرکز":" مسجد دهزک","Polling_Center_Name":"Dehzak Mosque ","د_مرکز_ځای__موقعیت_مرکز":"دهزک","Polling_Center_Location":"Dehzak ","Verification_Note":"Building","PS_Male":1,"PS_Female":1,"Map_Accuracy":"تعمیر"},"geometry":{"x":6960236.1036619209,"y":3843847.8520980775}},{"attributes":{"OBJECTID":3130,"ولایت":" فراه","Province":"FARAH","PC_Code":"3306131","ولسوالي":"بالا بلوک ","District":"BALA BULUK","د_مرکز_نوم__نام_مرکز":" مسجد شیوان","Polling_Center_Name":"Shewan Mosque  ","د_مرکز_ځای__موقعیت_مرکز":" قریه شیوان","Polling_Center_Location":"Shewan Village ","Verification_Note":"Building","PS_Male":2,"PS_Female":1,"Map_Accuracy":"تعمیر"},"geometry":{"x":6957748.0640621185,"y":3845123.6889304146}},{"attributes":{"OBJECTID":3129,"ولایت":" فراه","Province":"FARAH","PC_Code":"3306130","ولسوالي":"بالا بلوک ","District":"BALA BULUK","د_مرکز_نوم__نام_مرکز":" مسجد تودنک","Polling_Center_Name":"Todanak Mosque ","د_مرکز_ځای__موقعیت_مرکز":" تودنک","Polling_Center_Location":"Todanak ","Verification_Note":"Building","PS_Male":1,"PS_Female":1,"Map_Accuracy":"تعمیر"},"geometry":{"x":6966290.1384714581,"y":3863964.5063041151}},{"attributes":{"OBJECTID":3128,"ولایت":" فراه","Province":"FARAH","PC_Code":"3305089","ولسوالي":"شیب کوه ","District":"SHIB KOH","د_مرکز_نوم__نام_مرکز":" مکتب ابتدائیه باجده ","Polling_Center_Name":"Bajdeh Primary School","د_مرکز_ځای__موقعیت_مرکز":"باجده","Polling_Center_Location":"Bajdeh ","Verification_Note":"Building","PS_Male":1,"PS_Female":1,"Map_Accuracy":"تعمیر"},"geometry":{"x":6867797.0998199731,"y":3781119.7327471152}},{"attributes":{"OBJECTID":3127,"ولایت":" فراه","Province":"FARAH","PC_Code":"3305088","ولسوالي":"شیب کوه ","District":"SHIB KOH","د_مرکز_نوم__نام_مرکز":" لیسه نسوان دو قلعه ","Polling_Center_Name":"Du Qala Girls High School ","د_مرکز_ځای__موقعیت_مرکز":"دو قلعه","Polling_Center_Location":"Du Qala","Verification_Note":"Building","PS_Male":2,"PS_Female":1,"Map_Accuracy":"تعمیر"},"geometry":{"x":6841178.6024808809,"y":3782728.5766368508}},{"attributes":{"OBJECTID":3126,"ولایت":" فراه","Province":"FARAH","PC_Code":"3304083","ولسوالي":"قلعه کاه ","District":"QALA-E-KAH","د_مرکز_نوم__نام_مرکز":" مسجد جوی چشمه","Polling_Center_Name":"Joy-e-Cheshma Mosque ","د_مرکز_ځای__موقعیت_مرکز":"جوی چشمه","Polling_Center_Location":"Joy-e-Cheshma","Verification_Note":"Building","PS_Male":1,"PS_Female":1,"Map_Accuracy":"تعمیر"},"geometry":{"x":6820086.1337953806,"y":3802785.7189041078}},{"attributes":{"OBJECTID":3125,"ولایت":" فراه","Province":"FARAH","PC_Code":"3304082","ولسوالي":"قلعه کاه ","District":"QALA-E-KAH","د_مرکز_نوم__نام_مرکز":"مسجد کوجر","Polling_Center_Name":"Kojar Mosque ","د_مرکز_ځای__موقعیت_مرکز":"کوجر","Polling_Center_Location":"Kojar","Verification_Note":"Building","PS_Male":1,"PS_Female":1,"Map_Accuracy":"تعمیر"},"geometry":{"x":6834073.1038738415,"y":3808876.6084148064}},{"attributes":{"OBJECTID":3124,"ولایت":" فراه","Province":"FARAH","PC_Code":"3304078","ولسوالي":"قلعه کاه ","District":"QALA-E-KAH","د_مرکز_نوم__نام_مرکز":"مسجد ملک اختر","Polling_Center_Name":"Malak Akhtar Mosque ","د_مرکز_ځای__موقعیت_مرکز":"دزد بر ","Polling_Center_Location":"Duzd Bar","Verification_Note":"Building","PS_Male":2,"PS_Female":1,"Map_Accuracy":"تعمیر"},"geometry":{"x":6858979.3404652961,"y":3799869.8379676342}},{"attributes":{"OBJECTID":3123,"ولایت":" فراه","Province":"FARAH","PC_Code":"3304077","ولسوالي":"قلعه کاه ","District":"QALA-E-KAH","د_مرکز_نوم__نام_مرکز":"لیسه ذکور چاه زندان","Polling_Center_Name":"Chah-e-Zendan Boys High School ","د_مرکز_ځای__موقعیت_مرکز":" چاه زندان","Polling_Center_Location":"Chah-e-Zendan ","Verification_Note":"Village","PS_Male":1,"PS_Female":1,"Map_Accuracy":"قریه"},"geometry":{"x":6837081.76580777,"y":3809804.3985572383}},{"attributes":{"OBJECTID":3122,"ولایت":" فراه","Province":"FARAH","PC_Code":"3303061","ولسوالي":"خاک سفید ","District":"KHAK-E-SAFED","د_مرکز_نوم__نام_مرکز":"ناجو ( کوچی ) ","Polling_Center_Name":"Najo (Kuchi)","د_مرکز_ځای__موقعیت_مرکز":"قریه ناجو","Polling_Center_Location":"Najo Village ","Verification_Note":"Village","PS_Male":1,"PS_Female":1,"Map_Accuracy":"قریه"},"geometry":{"x":6897474.3550902531,"y":3875247.2442724928}},{"attributes":{"OBJECTID":3121,"ولایت":" فراه","Province":"FARAH","PC_Code":"3302041","ولسوالي":"پشت رود","District":"PUSHTRUD","د_مرکز_نوم__نام_مرکز":"مکتب متوسطه روکین ","Polling_Center_Name":"Rokin Secondary School ","د_مرکز_ځای__موقعیت_مرکز":"روکین","Polling_Center_Location":"Rokin ","Verification_Note":"Building","PS_Male":2,"PS_Female":1,"Map_Accuracy":"تعمیر"},"geometry":{"x":6902145.3955079913,"y":3817796.19427184}},{"attributes":{"OBJECTID":3120,"ولایت":" فراه","Province":"FARAH","PC_Code":"3302040","ولسوالي":"پشت رود","District":"PUSHTRUD","د_مرکز_نوم__نام_مرکز":"لیسه زرعت مساو ","Polling_Center_Name":"Masaw Agriculture High School ","د_مرکز_ځای__موقعیت_مرکز":"مساو","Polling_Center_Location":"Masaw ","Verification_Note":"Building","PS_Male":1,"PS_Female":1,"Map_Accuracy":"تعمیر"},"geometry":{"x":6906726.1836485751,"y":3823489.4876340926}},{"attributes":{"OBJECTID":3119,"ولایت":" فراه","Province":"FARAH","PC_Code":"3301037","ولسوالي":"فراه","District":"FARAH","د_مرکز_نوم__نام_مرکز":"خیمه شمال شرق قریه شوراب","Polling_Center_Name":"Shurab Village North East Tent","د_مرکز_ځای__موقعیت_مرکز":"خزانه ( کوچی ) ","Polling_Center_Location":"Khazana (Kuchi)","Verification_Note":"Village","PS_Male":1,"PS_Female":2,"Map_Accuracy":"قریه"},"geometry":{"x":6926186.62288304,"y":3825168.4495998397}},{"attributes":{"OBJECTID":3118,"ولایت":" فراه","Province":"FARAH","PC_Code":"3301036","ولسوالي":"فراه","District":"FARAH","د_مرکز_نوم__نام_مرکز":"خیمه غرب کاریز شیخها","Polling_Center_Name":"Kariz Shaikh ha Western Tent","د_مرکز_ځای__موقعیت_مرکز":"امیر آباد ( کوچی )","Polling_Center_Location":"Amir Abad (Kuchi)","Verification_Note":"Village","PS_Male":1,"PS_Female":2,"Map_Accuracy":"قریه"},"geometry":{"x":6898266.9532042854,"y":3810475.9201176837}},{"attributes":{"OBJECTID":3117,"ولایت":" فراه","Province":"FARAH","PC_Code":"3301031","ولسوالي":"فراه","District":"FARAH","د_مرکز_نوم__نام_مرکز":"مسجد تخت","Polling_Center_Name":"Takht Mosque","د_مرکز_ځای__موقعیت_مرکز":"تخت","Polling_Center_Location":"Takht","Verification_Note":"Building","PS_Male":3,"PS_Female":1,"Map_Accuracy":"تعمیر"},"geometry":{"x":6893543.3978167549,"y":3772632.2394126952}},{"attributes":{"OBJECTID":3116,"ولایت":" فراه","Province":"FARAH","PC_Code":"3301030","ولسوالي":"فراه","District":"FARAH","د_مرکز_نوم__نام_مرکز":"لیسه نسوان محبوبه پوپل","Polling_Center_Name":"Mahboba Popal Girls High School","د_مرکز_ځای__موقعیت_مرکز":"ناحیه چهارم ","Polling_Center_Location":"Nahia 4","Verification_Note":"Building","PS_Male":2,"PS_Female":2,"Map_Accuracy":"تعمیر"},"geometry":{"x":6913218.67698928,"y":3811721.1964553371}},{"attributes":{"OBJECTID":3115,"ولایت":" فراه","Province":"FARAH","PC_Code":"3301024","ولسوالي":"فراه","District":"FARAH","د_مرکز_نوم__نام_مرکز":"لیسه نسوان ","Polling_Center_Name":"Girls High School","د_مرکز_ځای__موقعیت_مرکز":"دارآباد پاین","Polling_Center_Location":"Dar Abad Payen","Verification_Note":"Building","PS_Male":3,"PS_Female":1,"Map_Accuracy":"تعمیر"},"geometry":{"x":6904616.5523938239,"y":3807589.319097124}},{"attributes":{"OBJECTID":3114,"ولایت":" فراه","Province":"FARAH","PC_Code":"3301023","ولسوالي":"فراه","District":"FARAH","د_مرکز_نوم__نام_مرکز":"لیسه مردانه ","Polling_Center_Name":"Boys High School","د_مرکز_ځای__موقعیت_مرکز":"گینهکان ","Polling_Center_Location":"Ginehkan","Verification_Note":"Building","PS_Male":3,"PS_Female":1,"Map_Accuracy":"تعمیر"},"geometry":{"x":6906150.76318191,"y":3813081.4973019511}},{"attributes":{"OBJECTID":3113,"ولایت":" فراه","Province":"FARAH","PC_Code":"3301008","ولسوالي":"فراه","District":"FARAH","د_مرکز_نوم__نام_مرکز":" لیسه اناث","Polling_Center_Name":"Girls High School","د_مرکز_ځای__موقعیت_مرکز":"کهدانک ","Polling_Center_Location":"Kahdanak ","Verification_Note":"Building","PS_Male":2,"PS_Female":2,"Map_Accuracy":"تعمیر"},"geometry":{"x":6912804.7933488972,"y":3805791.8527094722}},{"attributes":{"OBJECTID":3112,"ولایت":" فراه","Province":"FARAH","PC_Code":"3301007","ولسوالي":"فراه","District":"FARAH","د_مرکز_نوم__نام_مرکز":"مسجد شور آباد","Polling_Center_Name":"Shor Abad Mosque","د_مرکز_ځای__موقعیت_مرکز":"شور آباد","Polling_Center_Location":"Shor Abad","Verification_Note":"Building","PS_Male":2,"PS_Female":2,"Map_Accuracy":"تعمیر"},"geometry":{"x":6909593.7169584706,"y":3807555.0848076344}},{"attributes":{"OBJECTID":3111,"ولایت":" فراه","Province":"FARAH","PC_Code":"3311213","ولسوالي":"پرچمن","District":"PUR CHAMAN","د_مرکز_نوم__نام_مرکز":" مسجد ده ترکان","Polling_Center_Name":"Deh Turkan Mosque ","د_مرکز_ځای__موقعیت_مرکز":" ده ترکان","Polling_Center_Location":"Deh Turkan ","Verification_Note":"Building","PS_Male":1,"PS_Female":1,"Map_Accuracy":"تعمیر"},"geometry":{"x":7106732.1617012583,"y":3897233.579716377}},{"attributes":{"OBJECTID":3110,"ولایت":" فراه","Province":"FARAH","PC_Code":"3311212","ولسوالي":"پرچمن","District":"PUR CHAMAN","د_مرکز_نوم__نام_مرکز":" مسجد خیر آباد","Polling_Center_Name":"Khair Abad Mosque","د_مرکز_ځای__موقعیت_مرکز":" خیر آباد","Polling_Center_Location":"Khair Abad ","Verification_Note":"Building","PS_Male":2,"PS_Female":1,"Map_Accuracy":"تعمیر"},"geometry":{"x":7065272.3839835674,"y":3913677.5694058165}},{"attributes":{"OBJECTID":3109,"ولایت":" فراه","Province":"FARAH","PC_Code":"3311204","ولسوالي":"پرچمن","District":"PUR CHAMAN","د_مرکز_نوم__نام_مرکز":" مسجد ولیمه","Polling_Center_Name":"Walima Mosque  ","د_مرکز_ځای__موقعیت_مرکز":" ولیمه","Polling_Center_Location":"Walima","Verification_Note":"Building","PS_Male":1,"PS_Female":1,"Map_Accuracy":"تعمیر"},"geometry":{"x":7108308.6683298759,"y":3952197.2360752523}},{"attributes":{"OBJECTID":3108,"ولایت":" فراه","Province":"FARAH","PC_Code":"3311203","ولسوالي":"پرچمن","District":"PUR CHAMAN","د_مرکز_نوم__نام_مرکز":"مسجد لاروست ","Polling_Center_Name":"Larust Mosque  ","د_مرکز_ځای__موقعیت_مرکز":" لاروست ","Polling_Center_Location":"Larust ","Verification_Note":"Building","PS_Male":1,"PS_Female":1,"Map_Accuracy":"تعمیر"},"geometry":{"x":7103194.9169764146,"y":3941840.7989768609}},{"attributes":{"OBJECTID":3107,"ولایت":" فراه","Province":"FARAH","PC_Code":"3311201","ولسوالي":"پرچمن","District":"PUR CHAMAN","د_مرکز_نوم__نام_مرکز":" مسجد راز کلگی","Polling_Center_Name":"Raz Kelagai Mosque  ","د_مرکز_ځای__موقعیت_مرکز":" راز کلگی","Polling_Center_Location":"Raz Kelagai ","Verification_Note":"Building","PS_Male":1,"PS_Female":1,"Map_Accuracy":"تعمیر"},"geometry":{"x":7086235.4782700613,"y":3936706.0018541664}},{"attributes":{"OBJECTID":3106,"ولایت":" فراه","Province":"FARAH","PC_Code":"3311190","ولسوالي":"پرچمن","District":"PUR CHAMAN","د_مرکز_نوم__نام_مرکز":" مسجد سپا وست","Polling_Center_Name":"Sepawast Mosque ","د_مرکز_ځای__موقعیت_مرکز":" سپا وست","Polling_Center_Location":"Sepawast ","Verification_Note":"Building","PS_Male":1,"PS_Female":1,"Map_Accuracy":"تعمیر"},"geometry":{"x":7148046.9301974624,"y":3895911.6227994785}},{"attributes":{"OBJECTID":3105,"ولایت":" فراه","Province":"FARAH","PC_Code":"3311189","ولسوالي":"پرچمن","District":"PUR CHAMAN","د_مرکز_نوم__نام_مرکز":"مکتب ابتدائیه چورگ","Polling_Center_Name":"Chorag Primary School","د_مرکز_ځای__موقعیت_مرکز":"چورگ","Polling_Center_Location":"Chorag","Verification_Note":"Building","PS_Male":2,"PS_Female":1,"Map_Accuracy":"تعمیر"},"geometry":{"x":7106284.1998251639,"y":3880558.5904967263}},{"attributes":{"OBJECTID":3104,"ولایت":" فراه","Province":"FARAH","PC_Code":"3309107","ولسوالي":"لاش جوین ","District":"LASH-E-JUWAYN","د_مرکز_نوم__نام_مرکز":" مکتب ابتدائیه پنج ده ","Polling_Center_Name":"Panj Deh Primary School ","د_مرکز_ځای__موقعیت_مرکز":"پنج ده ","Polling_Center_Location":"Panj Deh ","Verification_Note":"Building","PS_Male":2,"PS_Female":1,"Map_Accuracy":"تعمیر"},"geometry":{"x":6855683.7748077363,"y":3730255.4590413049}},{"attributes":{"OBJECTID":3103,"ولایت":" فراه","Province":"FARAH","PC_Code":"3309095","ولسوالي":"لاش جوین ","District":"LASH-E-JUWAYN","د_مرکز_نوم__نام_مرکز":"لیسه ذکور ابن ایمن جوینی","Polling_Center_Name":"Ibn-e-Eman Jaweni High School ","د_مرکز_ځای__موقعیت_مرکز":" مرکز جوین ","Polling_Center_Location":"Jawin District Center ","Verification_Note":"Building","PS_Male":1,"PS_Female":1,"Map_Accuracy":"تعمیر"},"geometry":{"x":6859538.29343969,"y":3725522.1124045253}},{"attributes":{"OBJECTID":3102,"ولایت":" فراه","Province":"FARAH","PC_Code":"3308115","ولسوالي":"بکواه","District":"BAKWA","د_مرکز_نوم__نام_مرکز":"مسجد غازی آباد","Polling_Center_Name":"Ghazi Abad Mosque  ","د_مرکز_ځای__موقعیت_مرکز":"غازی آباد","Polling_Center_Location":"Ghazi Abad ","Verification_Note":"Village","PS_Male":1,"PS_Female":1,"Map_Accuracy":"قریه"},"geometry":{"x":7015409.960631948,"y":3789795.1556585357}},{"attributes":{"OBJECTID":3101,"ولایت":" فراه","Province":"FARAH","PC_Code":"3306162","ولسوالي":"بالا بلوک ","District":"BALA BULUK","د_مرکز_نوم__نام_مرکز":"مسجد ابخرما","Polling_Center_Name":"Aab Khurma Mosque ","د_مرکز_ځای__موقعیت_مرکز":"ابخرما","Polling_Center_Location":"Aab Khurma","Verification_Note":"Building","PS_Male":2,"PS_Female":1,"Map_Accuracy":"تعمیر"},"geometry":{"x":6951493.3113051169,"y":3877650.1154106557}},{"attributes":{"OBJECTID":3100,"ولایت":" فراه","Province":"FARAH","PC_Code":"3305094","ولسوالي":"شیب کوه ","District":"SHIB KOH","د_مرکز_نوم__نام_مرکز":"مکتب ابتدائیه جرگ","Polling_Center_Name":"Jarag Primary School ","د_مرکز_ځای__موقعیت_مرکز":" جرگ","Polling_Center_Location":"Jarag","Verification_Note":"Building","PS_Male":2,"PS_Female":1,"Map_Accuracy":"تعمیر"},"geometry":{"x":6836320.1534739956,"y":3782360.0549489707}},{"attributes":{"OBJECTID":3099,"ولایت":" فراه","Province":"FARAH","PC_Code":"3305093","ولسوالي":"شیب کوه ","District":"SHIB KOH","د_مرکز_نوم__نام_مرکز":"مکتب ابتدائیه ","Polling_Center_Name":"Primary School ","د_مرکز_ځای__موقعیت_مرکز":"کاریز ملهم ","Polling_Center_Location":"Kariz Malham ","Verification_Note":"Building","PS_Male":1,"PS_Female":1,"Map_Accuracy":"تعمیر"},"geometry":{"x":6870044.7561113574,"y":3805295.5504705384}},{"attributes":{"OBJECTID":3098,"ولایت":" فراه","Province":"FARAH","PC_Code":"3302048","ولسوالي":"پشت رود","District":"PUSHTRUD","د_مرکز_نوم__نام_مرکز":"کاریزبدال","Polling_Center_Name":"Kariz Badal ","د_مرکز_ځای__موقعیت_مرکز":"کاریز بدال  ( کوچی ) ","Polling_Center_Location":"Kariz Badal (Kuchi)","Verification_Note":"Village","PS_Male":1,"PS_Female":1,"Map_Accuracy":"قریه"},"geometry":{"x":6905110.3355987146,"y":3833108.2766933963}},{"attributes":{"OBJECTID":3097,"ولایت":" فراه","Province":"FARAH","PC_Code":"3302046","ولسوالي":"پشت رود","District":"PUSHTRUD","د_مرکز_نوم__نام_مرکز":"مکتب متوسط ساج ","Polling_Center_Name":"Saj Secondary School ","د_مرکز_ځای__موقعیت_مرکز":"ساج","Polling_Center_Location":"Saj ","Verification_Note":"Village","PS_Male":1,"PS_Female":1,"Map_Accuracy":"قریه"},"geometry":{"x":6923835.306995023,"y":3831588.81254825}},{"attributes":{"OBJECTID":3096,"ولایت":" فراه","Province":"FARAH","PC_Code":"3301027","ولسوالي":"فراه","District":"FARAH","د_مرکز_نوم__نام_مرکز":"مکتب ابتدایی","Polling_Center_Name":"Primary School","د_مرکز_ځای__موقعیت_مرکز":"برنک توت","Polling_Center_Location":"Barank Toot","Verification_Note":"Building","PS_Male":3,"PS_Female":1,"Map_Accuracy":"تعمیر"},"geometry":{"x":6909470.4751502052,"y":3815033.1165532842}},{"attributes":{"OBJECTID":3095,"ولایت":" فراه","Province":"FARAH","PC_Code":"3301026","ولسوالي":"فراه","District":"FARAH","د_مرکز_نوم__نام_مرکز":" لیسه سور و شوراب","Polling_Center_Name":"Sor Shurab High School","د_مرکز_ځای__موقعیت_مرکز":"سور","Polling_Center_Location":"Sor Shurab","Verification_Note":"Building","PS_Male":2,"PS_Female":2,"Map_Accuracy":"تعمیر"},"geometry":{"x":6924518.532596156,"y":3824909.6937569231}},{"attributes":{"OBJECTID":3094,"ولایت":" فراه","Province":"FARAH","PC_Code":"3301019","ولسوالي":"فراه","District":"FARAH","د_مرکز_نوم__نام_مرکز":"لیسه شمالگاه ","Polling_Center_Name":"Shamalgah High School","د_مرکز_ځای__موقعیت_مرکز":"شمالگاه","Polling_Center_Location":"Shamalgah","Verification_Note":"Building","PS_Male":2,"PS_Female":2,"Map_Accuracy":"تعمیر"},"geometry":{"x":6931008.14944122,"y":3828922.186599113}},{"attributes":{"OBJECTID":3093,"ولایت":" فراه","Province":"FARAH","PC_Code":"3301018","ولسوالي":"فراه","District":"FARAH","د_مرکز_نوم__نام_مرکز":"مکتب متوسطه ","Polling_Center_Name":"Secondary School","د_مرکز_ځای__موقعیت_مرکز":"کاریز شیخ ها ","Polling_Center_Location":"Kariz Shaikh Ha","Verification_Note":"Building","PS_Male":3,"PS_Female":1,"Map_Accuracy":"تعمیر"},"geometry":{"x":6899917.4772755168,"y":3812182.3140228763}},{"attributes":{"OBJECTID":3092,"ولایت":" فراه","Province":"FARAH","PC_Code":"3301016","ولسوالي":"فراه","District":"FARAH","د_مرکز_نوم__نام_مرکز":"لیسه مردانه ","Polling_Center_Name":"Boys High School","د_مرکز_ځای__موقعیت_مرکز":"رج","Polling_Center_Location":"Ruj","Verification_Note":"Building","PS_Male":2,"PS_Female":2,"Map_Accuracy":"تعمیر"},"geometry":{"x":6904378.6659815833,"y":3814010.4454344884}},{"attributes":{"OBJECTID":3091,"ولایت":" فراه","Province":"FARAH","PC_Code":"3301015","ولسوالي":"فراه","District":"FARAH","د_مرکز_نوم__نام_مرکز":" لیسه ملا معین ","Polling_Center_Name":"Molla Moeen High School","د_مرکز_ځای__موقعیت_مرکز":"دارا باد بالا ","Polling_Center_Location":"Dar Abad Bala","Verification_Note":"Building","PS_Male":2,"PS_Female":2,"Map_Accuracy":"تعمیر"},"geometry":{"x":6905309.3837538138,"y":3809312.5517997965}},{"attributes":{"OBJECTID":3090,"ولایت":" فراه","Province":"FARAH","PC_Code":"3301013","ولسوالي":"فراه","District":"FARAH","د_مرکز_نوم__نام_مرکز":"مکتب متوسطه","Polling_Center_Name":"Secondary School","د_مرکز_ځای__موقعیت_مرکز":"تجگ","Polling_Center_Location":"Tajag","Verification_Note":"Building","PS_Male":3,"PS_Female":1,"Map_Accuracy":"تعمیر"},"geometry":{"x":6881131.5506656393,"y":3772891.4654435739}},{"attributes":{"OBJECTID":3089,"ولایت":" فراه","Province":"FARAH","PC_Code":"3301012","ولسوالي":"فراه","District":"FARAH","د_مرکز_نوم__نام_مرکز":"لیسه نسوان شیر علی خان","Polling_Center_Name":"Shir Ali Khan Girls High School","د_مرکز_ځای__موقعیت_مرکز":"نوده","Polling_Center_Location":"Nawda","Verification_Note":"Building","PS_Male":2,"PS_Female":2,"Map_Accuracy":"تعمیر"},"geometry":{"x":6903614.1059076972,"y":3794834.0454897135}},{"attributes":{"OBJECTID":3088,"ولایت":" فراه","Province":"FARAH","PC_Code":"3301246","ولسوالي":" فراه","District":"FARAH","د_مرکز_نوم__نام_مرکز":"مکتب ذکور کاریزک","Polling_Center_Name":"Kariz male School","د_مرکز_ځای__موقعیت_مرکز":"کاریزک","Polling_Center_Location":"Karizak","Verification_Note":"Building","PS_Male":2,"PS_Female":1,"Map_Accuracy":"تعمیر"},"geometry":{"x":6907081.194417771,"y":3800617.3999297917}},{"attributes":{"OBJECTID":3087,"ولایت":"هرات","Province":"HERAT","PC_Code":"3216483","ولسوالي":"چشت شریف","District":"CHISHT-E-SHARIF","د_مرکز_نوم__نام_مرکز":"مکتب شیرخان","Polling_Center_Name":"Shir khan School","د_مرکز_ځای__موقعیت_مرکز":"دره تخت","Polling_Center_Location":"Dara takht","Verification_Note":"Building","PS_Male":2,"PS_Female":1,"Map_Accuracy":"تعمیر"},"geometry":{"x":7130073.6855188683,"y":4077931.4778996333}},{"attributes":{"OBJECTID":3086,"ولایت":"هرات","Province":"HERAT","PC_Code":"3209482","ولسوالي":"ادرسکن","District":"ADRASKAN","د_مرکز_نوم__نام_مرکز":"مسجد غلام كشته","Polling_Center_Name":"Ghulam kushta Mosque","د_مرکز_ځای__موقعیت_مرکز":" غلام كشته","Polling_Center_Location":"Ghulam kushta","Verification_Note":"Building","PS_Male":2,"PS_Female":1,"Map_Accuracy":"تعمیر"},"geometry":{"x":6892932.3771542907,"y":3978629.3072374836}},{"attributes":{"OBJECTID":3085,"ولایت":"هرات","Province":"HERAT","PC_Code":"3214337","ولسوالي":"شیندند","District":"SHINDAND","د_مرکز_نوم__نام_مرکز":"مسجد فرمکان","Polling_Center_Name":"Farmakan Mosque ","د_مرکز_ځای__موقعیت_مرکز":"فرمکان ","Polling_Center_Location":"Farmakan ","Verification_Note":"Building","PS_Male":1,"PS_Female":1,"Map_Accuracy":"تعمیر"},"geometry":{"x":6921401.6080046445,"y":3920768.3158799708}},{"attributes":{"OBJECTID":3084,"ولایت":"هرات","Province":"HERAT","PC_Code":"3213447","ولسوالي":"کهسان ","District":"KOHSAN","د_مرکز_نوم__نام_مرکز":"مسجد نائب غفور","Polling_Center_Name":"Naeeb Ghafoor Mosqu ","د_مرکز_ځای__موقعیت_مرکز":"نائب غفور ","Polling_Center_Location":"Naeeb Ghafoor ","Verification_Note":"Village","PS_Male":2,"PS_Female":1,"Map_Accuracy":"قریه"},"geometry":{"x":6799139.16747671,"y":4132253.8314791694}},{"attributes":{"OBJECTID":3083,"ولایت":"هرات","Province":"HERAT","PC_Code":"3213244","ولسوالي":"کهسان ","District":"KOHSAN","د_مرکز_نوم__نام_مرکز":"موقعیت کوچی ها","Polling_Center_Name":"kochis Location","د_مرکز_ځای__موقعیت_مرکز":" چاه زاییدی","Polling_Center_Location":"Chah-e-Zaiedi","Verification_Note":"District","PS_Male":1,"PS_Female":1,"Map_Accuracy":"ولسوالی"},"geometry":{"x":6812357.0133821629,"y":4107234.8455420658}},{"attributes":{"OBJECTID":3082,"ولایت":"هرات","Province":"HERAT","PC_Code":"3213239","ولسوالي":"کهسان ","District":"KOHSAN","د_مرکز_نوم__نام_مرکز":"مکتب ابتدایی کمانه","Polling_Center_Name":"Kamana Primary School","د_مرکز_ځای__موقعیت_مرکز":" کمانه","Polling_Center_Location":"Kamana","Verification_Note":"Building","PS_Male":1,"PS_Female":2,"Map_Accuracy":"تعمیر"},"geometry":{"x":6805414.7580178678,"y":4170572.1142166555}},{"attributes":{"OBJECTID":3081,"ولایت":"هرات","Province":"HERAT","PC_Code":"3212374","ولسوالي":"اوبه ","District":"OBE","د_مرکز_نوم__نام_مرکز":"مکتب دخترانه مرکز اوبه دوم","Polling_Center_Name":"Markaz-e-Obe Duowm Girls School ","د_مرکز_ځای__موقعیت_مرکز":"مرکز اوبه دوم ","Polling_Center_Location":"Markaz-e- Obah Duowm","Verification_Note":"Building","PS_Male":2,"PS_Female":1,"Map_Accuracy":"تعمیر"},"geometry":{"x":7032553.979299169,"y":4079433.79192964}},{"attributes":{"OBJECTID":3080,"ولایت":"هرات","Province":"HERAT","PC_Code":"3211257","ولسوالي":"غوریان ","District":"GHORYAN","د_مرکز_نوم__نام_مرکز":"مسجد جامع قیسان ","Polling_Center_Name":"Qaisan Mosque","د_مرکز_ځای__موقعیت_مرکز":"محل فاقدان","Polling_Center_Location":"Mahal-e- Faqedan","Verification_Note":"Building","PS_Male":3,"PS_Female":1,"Map_Accuracy":"تعمیر"},"geometry":{"x":6846544.8264394589,"y":4075354.7519656271}},{"attributes":{"OBJECTID":3079,"ولایت":"هرات","Province":"HERAT","PC_Code":"3211256","ولسوالي":"غوریان ","District":"GHORYAN","د_مرکز_نوم__نام_مرکز":"مکتب وزیر اکبر خان","Polling_Center_Name":"Wazir Akbar Khan School ","د_مرکز_ځای__موقعیت_مرکز":" مرکز ولسوالی دوم","Polling_Center_Location":"Scond District Center","Verification_Note":"Building","PS_Male":3,"PS_Female":3,"Map_Accuracy":"تعمیر"},"geometry":{"x":6845591.2603417449,"y":4075377.0524042472}},{"attributes":{"OBJECTID":3078,"ولایت":"هرات","Province":"HERAT","PC_Code":"3211246","ولسوالي":"غوریان ","District":"GHORYAN","د_مرکز_نوم__نام_مرکز":"مسجدغنجان","Polling_Center_Name":"Ghanjan Mosque ","د_مرکز_ځای__موقعیت_مرکز":" مرکز غنجان","Polling_Center_Location":"Ghanjan Center","Verification_Note":"Building","PS_Male":2,"PS_Female":1,"Map_Accuracy":"تعمیر"},"geometry":{"x":6843391.9556711838,"y":4074700.7983537242}},{"attributes":{"OBJECTID":3077,"ولایت":"هرات","Province":"HERAT","PC_Code":"3209459","ولسوالي":"ادرسکن ","District":"ADRASKAN","د_مرکز_نوم__نام_مرکز":"مکتب ابتدایی قلعه خرچان","Polling_Center_Name":"Kharchan Qala Primary School ","د_مرکز_ځای__موقعیت_مرکز":"قریه خرچان","Polling_Center_Location":"Kharchan Qalaa ","Verification_Note":"Building","PS_Male":1,"PS_Female":1,"Map_Accuracy":"تعمیر"},"geometry":{"x":6933902.0009051263,"y":3979570.675134711}},{"attributes":{"OBJECTID":3076,"ولایت":"هرات","Province":"HERAT","PC_Code":"3209297","ولسوالي":"ادرسکن ","District":"ADRASKAN","د_مرکز_نوم__نام_مرکز":"خیمه گله چشمه","Polling_Center_Name":"Gallah-e- Chashmah Tent","د_مرکز_ځای__موقعیت_مرکز":"قریه گله چشمه","Polling_Center_Location":"Gallah Chashmah Village","Verification_Note":"Building","PS_Male":1,"PS_Female":1,"Map_Accuracy":"تعمیر"},"geometry":{"x":7018860.8926764131,"y":4004595.3685946018}},{"attributes":{"OBJECTID":3075,"ولایت":"هرات","Province":"HERAT","PC_Code":"3209280","ولسوالي":"ادرسکن ","District":"ADRASKAN","د_مرکز_نوم__نام_مرکز":"مکتب ابتدایی تیر گرد","Polling_Center_Name":"Tirgerd Primary School ","د_مرکز_ځای__موقعیت_مرکز":"قریه تیر گرد","Polling_Center_Location":"Tirgerd Village","Verification_Note":"Building","PS_Male":1,"PS_Female":1,"Map_Accuracy":"تعمیر"},"geometry":{"x":6883978.8227150142,"y":3980086.19774127}},{"attributes":{"OBJECTID":3074,"ولایت":"هرات","Province":"HERAT","PC_Code":"3209279","ولسوالي":"ادرسکن ","District":"ADRASKAN","د_مرکز_نوم__نام_مرکز":"مکتب متوسطه  ظلم آباد","Polling_Center_Name":"Zulm Abad Secondary school ","د_مرکز_ځای__موقعیت_مرکز":"قریه ظلم آباد","Polling_Center_Location":"Zulm Abad Village ","Verification_Note":"Building","PS_Male":1,"PS_Female":1,"Map_Accuracy":"تعمیر"},"geometry":{"x":6919473.749233216,"y":3969742.29500176}},{"attributes":{"OBJECTID":3073,"ولایت":"هرات","Province":"HERAT","PC_Code":"3209276","ولسوالي":"ادرسکن ","District":"ADRASKAN","د_مرکز_نوم__نام_مرکز":"مکتب ابتدائیه ده سبز ","Polling_Center_Name":"Deh Sabz Primary School ","د_مرکز_ځای__موقعیت_مرکز":"قریه ده سبز ","Polling_Center_Location":"Deh Sabz Village ","Verification_Note":"Building","PS_Male":1,"PS_Female":1,"Map_Accuracy":"تعمیر"},"geometry":{"x":6929479.741738189,"y":3978083.2451444939}},{"attributes":{"OBJECTID":3072,"ولایت":"هرات","Province":"HERAT","PC_Code":"3209275","ولسوالي":"ادرسکن ","District":"ADRASKAN","د_مرکز_نوم__نام_مرکز":"لیسه مرکز ولسوالی ","Polling_Center_Name":"District Center High School ","د_مرکز_ځای__موقعیت_مرکز":"مرکز ولسوالی ادرسکن ","Polling_Center_Location":"Adreskan District Center  ","Verification_Note":"Building","PS_Male":2,"PS_Female":2,"Map_Accuracy":"تعمیر"},"geometry":{"x":6931517.44167757,"y":3981087.5386033654}},{"attributes":{"OBJECTID":3071,"ولایت":"هرات","Province":"HERAT","PC_Code":"3208213","ولسوالي":"گلران ","District":"GULRAN","د_مرکز_نوم__نام_مرکز":"مسجد کاریز کهنه","Polling_Center_Name":"Karez e Kuhna Mosque ","د_مرکز_ځای__موقعیت_مرکز":"کاریز کهنه","Polling_Center_Location":"Karez e Kuhna","Verification_Note":"Village","PS_Male":1,"PS_Female":1,"Map_Accuracy":"قریه"},"geometry":{"x":6829336.6944247112,"y":4213978.7973748222}},{"attributes":{"OBJECTID":3070,"ولایت":"هرات","Province":"HERAT","PC_Code":"3208212","ولسوالي":"گلران ","District":"GULRAN","د_مرکز_نوم__نام_مرکز":"مسجد داشک","Polling_Center_Name":"Dashak Mosque ","د_مرکز_ځای__موقعیت_مرکز":" داشک","Polling_Center_Location":"Dashak","Verification_Note":"Village","PS_Male":2,"PS_Female":1,"Map_Accuracy":"قریه"},"geometry":{"x":6823661.1469970606,"y":4216619.8338156641}},{"attributes":{"OBJECTID":3069,"ولایت":"هرات","Province":"HERAT","PC_Code":"3208209","ولسوالي":"گلران ","District":"GULRAN","د_مرکز_نوم__نام_مرکز":"مسجد چاه کهسانی","Polling_Center_Name":"Chah-e- Kehsani Mosque","د_مرکز_ځای__موقعیت_مرکز":"چاه کهسانی","Polling_Center_Location":"Chah-e-Kasani","Verification_Note":"Village","PS_Male":2,"PS_Female":1,"Map_Accuracy":"قریه"},"geometry":{"x":6854943.2241216227,"y":4208855.3480113447}},{"attributes":{"OBJECTID":3068,"ولایت":"هرات","Province":"HERAT","PC_Code":"3207186","ولسوالي":"کشک (رباط سنگی)","District":"KUSHK (RUBAT-E-SANGI)","د_مرکز_نوم__نام_مرکز":"مکتب خواجه قاسم","Polling_Center_Name":"Khwaja qasem School ","د_مرکز_ځای__موقعیت_مرکز":"قریه خواجه قاسم","Polling_Center_Location":"Khwaja Qasem Village ","Verification_Note":"Building","PS_Male":2,"PS_Female":1,"Map_Accuracy":"تعمیر"},"geometry":{"x":6910998.9930595458,"y":4137797.5930434093}},{"attributes":{"OBJECTID":3067,"ولایت":"هرات","Province":"HERAT","PC_Code":"3207176","ولسوالي":"کشک (رباط سنگی)","District":"KUSHK (RUBAT-E-SANGI)","د_مرکز_نوم__نام_مرکز":"مکتب لک لک خانه","Polling_Center_Name":"Lak Lak Khana School ","د_مرکز_ځای__موقعیت_مرکز":"لک لک خانه","Polling_Center_Location":"Lak Lak Khana ","Verification_Note":"Building","PS_Male":1,"PS_Female":1,"Map_Accuracy":"تعمیر"},"geometry":{"x":6945122.2241142653,"y":4142025.9913666397}},{"attributes":{"OBJECTID":3066,"ولایت":"هرات","Province":"HERAT","PC_Code":"3207173","ولسوالي":"کشک (رباط سنگی)","District":"KUSHK (RUBAT-E-SANGI)","د_مرکز_نوم__نام_مرکز":"مسجد دوغی دیزوری اول ","Polling_Center_Name":"Doghi Mosque ","د_مرکز_ځای__موقعیت_مرکز":"قریه دیزوری اول ","Polling_Center_Location":"Deh Zuri Awal Village ","Verification_Note":"Building","PS_Male":2,"PS_Female":0,"Map_Accuracy":"تعمیر"},"geometry":{"x":6919865.7084998861,"y":4151946.2557276189}},{"attributes":{"OBJECTID":3065,"ولایت":"هرات","Province":"HERAT","PC_Code":"3206439","ولسوالي":"پشتون زرغون","District":"PASHTUN ZARGHUN","د_مرکز_نوم__نام_مرکز":"مكتب خواجه محمد استاد","Polling_Center_Name":"Khwaja Mohammad Ustad School ","د_مرکز_ځای__موقعیت_مرکز":"قریه خواجه محمد استاد","Polling_Center_Location":"Khwaja Mohammad Ustad Village","Verification_Note":"Building","PS_Male":1,"PS_Female":1,"Map_Accuracy":"تعمیر"},"geometry":{"x":6993253.4178770185,"y":4070117.0740860179}},{"attributes":{"OBJECTID":3064,"ولایت":"هرات","Province":"HERAT","PC_Code":"3206135","ولسوالي":"پشتون زرغون","District":"PASHTUN ZARGHUN","د_مرکز_نوم__نام_مرکز":"مکتب دشت نیزان ","Polling_Center_Name":"Dasht-e- Naizan School ","د_مرکز_ځای__موقعیت_مرکز":"قریه دشت نیزان ","Polling_Center_Location":"Dasht-e- Naizan Village ","Verification_Note":"Village","PS_Male":1,"PS_Female":2,"Map_Accuracy":"قریه"},"geometry":{"x":7008266.6612654105,"y":4061571.5884871855}},{"attributes":{"OBJECTID":3063,"ولایت":"هرات","Province":"HERAT","PC_Code":"3206134","ولسوالي":"پشتون زرغون","District":"PASHTUN ZARGHUN","د_مرکز_نوم__نام_مرکز":"مکتب چیورشی","Polling_Center_Name":"Cheorshi School ","د_مرکز_ځای__موقعیت_مرکز":"قریه چیورشی ","Polling_Center_Location":"Cheorshi Village ","Verification_Note":"Village","PS_Male":0,"PS_Female":2,"Map_Accuracy":"قریه"},"geometry":{"x":6998336.2613738552,"y":4059170.8087539896}},{"attributes":{"OBJECTID":3062,"ولایت":"هرات","Province":"HERAT","PC_Code":"3206125","ولسوالي":"پشتون زرغون","District":"PASHTUN ZARGHUN","د_مرکز_نوم__نام_مرکز":"مکتب پشکان دوم","Polling_Center_Name":"Pushkan Duowm School ","د_مرکز_ځای__موقعیت_مرکز":" پشکان دوم","Polling_Center_Location":"Pushkan Duowm","Verification_Note":"Village","PS_Male":1,"PS_Female":1,"Map_Accuracy":"قریه"},"geometry":{"x":6991672.2814707756,"y":4060876.4720533043}},{"attributes":{"OBJECTID":3061,"ولایت":"هرات","Province":"HERAT","PC_Code":"3206119","ولسوالي":"پشتون زرغون","District":"PASHTUN ZARGHUN","د_مرکز_نوم__نام_مرکز":"لیسه مرکز گیم","Polling_Center_Name":"Gim Central High School","د_مرکز_ځای__موقعیت_مرکز":"قریه گیم ","Polling_Center_Location":"Gim Village ","Verification_Note":"Building","PS_Male":3,"PS_Female":2,"Map_Accuracy":"تعمیر"},"geometry":{"x":6978776.7923203819,"y":4059388.465183571}},{"attributes":{"OBJECTID":3060,"ولایت":"هرات","Province":"HERAT","PC_Code":"3205458","ولسوالي":"زنده جان ","District":"ZENDAJAN","د_مرکز_نوم__نام_مرکز":"مکتب محل خواجه ها","Polling_Center_Name":"Mahala-e- Khwajaha School ","د_مرکز_ځای__موقعیت_مرکز":"محل خواجه های دشت","Polling_Center_Location":"Mahala-e- Khwaja ha-e-Dasht ","Verification_Note":"Building","PS_Male":1,"PS_Female":2,"Map_Accuracy":"تعمیر"},"geometry":{"x":6872547.2705845572,"y":4073130.0687951297}},{"attributes":{"OBJECTID":3059,"ولایت":"هرات","Province":"HERAT","PC_Code":"3205261","ولسوالي":"زنده جان ","District":"ZENDAJAN","د_مرکز_نوم__نام_مرکز":"مکتب ابو منصورشکیبان ","Polling_Center_Name":"Abu Mansoor Shikeban School ","د_مرکز_ځای__موقعیت_مرکز":" شکیبان مروی اول","Polling_Center_Location":"Shikeban Marvi Awal ","Verification_Note":"Building","PS_Male":2,"PS_Female":1,"Map_Accuracy":"تعمیر"},"geometry":{"x":6877801.41696661,"y":4081366.4896478355}},{"attributes":{"OBJECTID":3058,"ولایت":"هرات","Province":"HERAT","PC_Code":"3203097","ولسوالي":"گذره","District":"GUZARA","د_مرکز_نوم__نام_مرکز":"مکتب ابتدائی رباط میرک ","Polling_Center_Name":"Rubat Meerak Primary School ","د_مرکز_ځای__موقعیت_مرکز":"قریه رباط میرک تقچی","Polling_Center_Location":"Rubat Meerak Tufchi  Village ","Verification_Note":"Building","PS_Male":3,"PS_Female":2,"Map_Accuracy":"تعمیر"},"geometry":{"x":6948116.6048707254,"y":4063509.5416251272}},{"attributes":{"OBJECTID":3057,"ولایت":"هرات","Province":"HERAT","PC_Code":"3202080","ولسوالي":"انجیل","District":"ENJIL","د_مرکز_نوم__نام_مرکز":"مکتب کبرزان","Polling_Center_Name":"Kabrzan School","د_مرکز_ځای__موقعیت_مرکز":"قریه کبرزان","Polling_Center_Location":"Kabrzan Village ","Verification_Note":"Building","PS_Male":2,"PS_Female":1,"Map_Accuracy":"تعمیر"},"geometry":{"x":6915550.85260405,"y":4068825.9665198848}},{"attributes":{"OBJECTID":3056,"ولایت":"هرات","Province":"HERAT","PC_Code":"3202079","ولسوالي":"انجیل","District":"ENJIL","د_مرکز_نوم__نام_مرکز":"مسجد سر حسن خواجه","Polling_Center_Name":"Sar Hasan Khwaja Mosque","د_مرکز_ځای__موقعیت_مرکز":"قریه سر حسن خواجه","Polling_Center_Location":"Sar Hasan Khwaja Village ","Verification_Note":"Building","PS_Male":0,"PS_Female":2,"Map_Accuracy":"تعمیر"},"geometry":{"x":6945881.8694326356,"y":4065930.0267691985}},{"attributes":{"OBJECTID":3055,"ولایت":"هرات","Province":"HERAT","PC_Code":"3202075","ولسوالي":"انجیل","District":"ENJIL","د_مرکز_نوم__نام_مرکز":"مکتب محل ناجوها ","Polling_Center_Name":"Mahal-e- Najoha School","د_مرکز_ځای__موقعیت_مرکز":"قریه ملدان","Polling_Center_Location":"Maldan Village","Verification_Note":"Building","PS_Male":2,"PS_Female":1,"Map_Accuracy":"تعمیر"},"geometry":{"x":6914393.8890987262,"y":4071201.5390364528}},{"attributes":{"OBJECTID":3054,"ولایت":"هرات","Province":"HERAT","PC_Code":"3202074","ولسوالي":"انجیل","District":"ENJIL","د_مرکز_نوم__نام_مرکز":"مکتب متوسطه خواجه محمد کوهی","Polling_Center_Name":"Khwaja Mohammad Kohee Secondary school","د_مرکز_ځای__موقعیت_مرکز":"قریه شادی بره علیا","Polling_Center_Location":"Shadi-e- Bara Ulya","Verification_Note":"Building","PS_Male":2,"PS_Female":1,"Map_Accuracy":"تعمیر"},"geometry":{"x":6915444.0649297349,"y":4080383.6951281205}},{"attributes":{"OBJECTID":3053,"ولایت":"هرات","Province":"HERAT","PC_Code":"3202057","ولسوالي":"انجیل","District":"ENJIL","د_مرکز_نوم__نام_مرکز":"مکتب متوسطه کبابیان","Polling_Center_Name":"Kababeyan Secondary School  ","د_مرکز_ځای__موقعیت_مرکز":"قریه عقاب کبابیان","Polling_Center_Location":"Oqab-e-Kababeyan Village ","Verification_Note":"Building","PS_Male":2,"PS_Female":1,"Map_Accuracy":"تعمیر"},"geometry":{"x":6928121.0038634352,"y":4071645.8706943467}},{"attributes":{"OBJECTID":3052,"ولایت":"هرات","Province":"HERAT","PC_Code":"3201432","ولسوالي":"هرات","District":"HERAT","د_مرکز_نوم__نام_مرکز":"محبس هرات","Polling_Center_Name":"Herat Prison ","د_مرکز_ځای__موقعیت_مرکز":"ناحیه اول شاروالی","Polling_Center_Location":"Municipality first Nahia ","Verification_Note":"Building","PS_Male":3,"PS_Female":2,"Map_Accuracy":"تعمیر"},"geometry":{"x":6925804.4129773751,"y":4076386.7609634921}},{"attributes":{"OBJECTID":3051,"ولایت":"هرات","Province":"HERAT","PC_Code":"3201431","ولسوالي":"هرات","District":"HERAT","د_مرکز_نوم__نام_مرکز":"مکتب دخترانه جبرئیل","Polling_Center_Name":"Jebrail Girls School ","د_مرکز_ځای__موقعیت_مرکز":"ناحیه دوازدهم","Polling_Center_Location":"D12 - Nahia 12","Verification_Note":"Building","PS_Male":5,"PS_Female":7,"Map_Accuracy":"تعمیر"},"geometry":{"x":6916895.290933609,"y":4080170.0205739364}},{"attributes":{"OBJECTID":3050,"ولایت":"هرات","Province":"HERAT","PC_Code":"3201426","ولسوالي":"هرات","District":"HERAT","د_مرکز_نوم__نام_مرکز":"مسجد جامع نو آباد","Polling_Center_Name":"Now Abad Mosque","د_مرکز_ځای__موقعیت_مرکز":"ناحیه یازدهم","Polling_Center_Location":"D11 - Nahia 11","Verification_Note":"Building","PS_Male":3,"PS_Female":2,"Map_Accuracy":"تعمیر"},"geometry":{"x":6931676.1131401584,"y":4075679.7791431025}},{"attributes":{"OBJECTID":3049,"ولایت":"هرات","Province":"HERAT","PC_Code":"3201425","ولسوالي":"هرات","District":"HERAT","د_مرکز_نوم__نام_مرکز":"مسجد باغدشت","Polling_Center_Name":"Bagh-e-Dasht Mosque","د_مرکز_ځای__موقعیت_مرکز":"ناحیه پنجم ","Polling_Center_Location":"D05 - Nahia 5","Verification_Note":"Building","PS_Male":3,"PS_Female":4,"Map_Accuracy":"تعمیر"},"geometry":{"x":6924148.5678344779,"y":4078275.7140739039}},{"attributes":{"OBJECTID":3048,"ولایت":"هرات","Province":"HERAT","PC_Code":"3201473","ولسوالي":"ناحیه_05","District":"DISTRICT_05","د_مرکز_نوم__نام_مرکز":"ليسه استقلال باغ دشت","Polling_Center_Name":"Bagh dasht Esteqlal High school","د_مرکز_ځای__موقعیت_مرکز":"ليسه استقلال باغ دشت","Polling_Center_Location":"Esteqlal bagh dashd High school","Verification_Note":"Building","PS_Male":2,"PS_Female":1,"Map_Accuracy":"تعمیر"},"geometry":{"x":6924014.5253639482,"y":4079327.8552595302}},{"attributes":{"OBJECTID":3047,"ولایت":"هرات","Province":"HERAT","PC_Code":"3216395","ولسوالي":"چشت شریف","District":"CHISHT-E-SHARIF","د_مرکز_نوم__نام_مرکز":"مسجد جامع تگاب غزه","Polling_Center_Name":"Tagaab Ghaza Mosque ","د_مرکز_ځای__موقعیت_مرکز":"تکاب غزه ","Polling_Center_Location":"Tagab Ghaza","Verification_Note":"Building","PS_Male":1,"PS_Female":1,"Map_Accuracy":"تعمیر"},"geometry":{"x":7088257.8573079333,"y":4076004.6997081786}},{"attributes":{"OBJECTID":3046,"ولایت":"هرات","Province":"HERAT","PC_Code":"3216394","ولسوالي":"چشت شریف","District":"CHISHT-E-SHARIF","د_مرکز_نوم__نام_مرکز":"مکتب اصفرض","Polling_Center_Name":"Asfar-e-Dwat School","د_مرکز_ځای__موقعیت_مرکز":"اصفرض ","Polling_Center_Location":"Asfar-e-Dwat","Verification_Note":"Building","PS_Male":2,"PS_Female":1,"Map_Accuracy":"تعمیر"},"geometry":{"x":7075555.3705510907,"y":4076803.9836397767}},{"attributes":{"OBJECTID":3045,"ولایت":"هرات","Province":"HERAT","PC_Code":"3214349","ولسوالي":"شیندند","District":"SHINDAND","د_مرکز_نوم__نام_مرکز":"کلینیک خیرآباد","Polling_Center_Name":"Khair Abad Clinic","د_مرکز_ځای__موقعیت_مرکز":"خیرآباد","Polling_Center_Location":"Khair Abad ","Verification_Note":"Village","PS_Male":1,"PS_Female":1,"Map_Accuracy":"قریه"},"geometry":{"x":6968610.755783502,"y":3912772.4258376658}},{"attributes":{"OBJECTID":3044,"ولایت":"هرات","Province":"HERAT","PC_Code":"3214348","ولسوالي":"شیندند","District":"SHINDAND","د_مرکز_نوم__نام_مرکز":"مسجد شند","Polling_Center_Name":"Shand Mosque ","د_مرکز_ځای__موقعیت_مرکز":"کاریزک دوم ","Polling_Center_Location":"Karizk Duowm ","Verification_Note":"Village","PS_Male":1,"PS_Female":1,"Map_Accuracy":"قریه"},"geometry":{"x":6899101.706896279,"y":3933372.834044598}},{"attributes":{"OBJECTID":3043,"ولایت":"هرات","Province":"HERAT","PC_Code":"3214327","ولسوالي":"شیندند","District":"SHINDAND","د_مرکز_نوم__نام_مرکز":"مسجد مغلان کهنه","Polling_Center_Name":"Mughelan-e-Kuhna Mosque ","د_مرکز_ځای__موقعیت_مرکز":"قریه مغلان","Polling_Center_Location":"Mughelan Village","Verification_Note":"Village","PS_Male":1,"PS_Female":1,"Map_Accuracy":"قریه"},"geometry":{"x":6929623.6889717355,"y":3943984.6915324703}},{"attributes":{"OBJECTID":3042,"ولایت":"هرات","Province":"HERAT","PC_Code":"3214326","ولسوالي":"شیندند","District":"SHINDAND","د_مرکز_نوم__نام_مرکز":"مسجد حاجی سلطان خان","Polling_Center_Name":"Haji Sultan Khan Mosque ","د_مرکز_ځای__موقعیت_مرکز":"ده پهلوان ","Polling_Center_Location":"Deh Pahlawan ","Verification_Note":"Village","PS_Male":1,"PS_Female":1,"Map_Accuracy":"قریه"},"geometry":{"x":6933911.5031368583,"y":3942422.2589056566}},{"attributes":{"OBJECTID":3041,"ولایت":"هرات","Province":"HERAT","PC_Code":"3214309","ولسوالي":"شیندند","District":"SHINDAND","د_مرکز_نوم__نام_مرکز":"مسجد حاجی نظر","Polling_Center_Name":"Haji Nazir Mosque ","د_مرکز_ځای__موقعیت_مرکز":"خیفان اول ","Polling_Center_Location":"Khaifan Awal ","Verification_Note":"Building","PS_Male":1,"PS_Female":1,"Map_Accuracy":"تعمیر"},"geometry":{"x":6914115.8575385213,"y":3931809.2149346918}},{"attributes":{"OBJECTID":3040,"ولایت":"هرات","Province":"HERAT","PC_Code":"3214308","ولسوالي":"شیندند","District":"SHINDAND","د_مرکز_نوم__نام_مرکز":"مسجد حاجی علاوالدین خان","Polling_Center_Name":"Haji Allahudeen Khan Mosque ","د_مرکز_ځای__موقعیت_مرکز":"پا کشک ","Polling_Center_Location":"Pa Kashak ","Verification_Note":"Building","PS_Male":2,"PS_Female":1,"Map_Accuracy":"تعمیر"},"geometry":{"x":6918742.9044935033,"y":3934368.0412457511}},{"attributes":{"OBJECTID":3039,"ولایت":"هرات","Province":"HERAT","PC_Code":"3214305","ولسوالي":"شیندند","District":"SHINDAND","د_مرکز_نوم__نام_مرکز":"مسجد ابراهیم خان پشت شهر","Polling_Center_Name":"Ibrahim Khan Mosque ","د_مرکز_ځای__موقعیت_مرکز":"پشت شهر ","Polling_Center_Location":"Posht-e-Shahr ","Verification_Note":"Building","PS_Male":1,"PS_Female":1,"Map_Accuracy":"تعمیر"},"geometry":{"x":6918540.4020946175,"y":3941285.5453399494}},{"attributes":{"OBJECTID":3038,"ولایت":"هرات","Province":"HERAT","PC_Code":"3214304","ولسوالي":"شیندند","District":"SHINDAND","د_مرکز_نوم__نام_مرکز":"مکتب شورآب","Polling_Center_Name":"Shur Abad School ","د_مرکز_ځای__موقعیت_مرکز":"قریه شورآب","Polling_Center_Location":"Shur Abad ","Verification_Note":"Building","PS_Male":3,"PS_Female":1,"Map_Accuracy":"تعمیر"},"geometry":{"x":6919589.9022163,"y":3941213.6742480993}},{"attributes":{"OBJECTID":3037,"ولایت":"هرات","Province":"HERAT","PC_Code":"3213243","ولسوالي":"کهسان ","District":"KOHSAN","د_مرکز_نوم__نام_مرکز":"مکتب ابتدائیه  مصطفی بیگ","Polling_Center_Name":"Mustafa Big Primary School ","د_مرکز_ځای__موقعیت_مرکز":" مصطفی بیگ","Polling_Center_Location":"Mustafa Big  ","Verification_Note":"Village","PS_Male":1,"PS_Female":2,"Map_Accuracy":"قریه"},"geometry":{"x":6803337.5275254324,"y":4129017.2538464889}},{"attributes":{"OBJECTID":3036,"ولایت":"هرات","Province":"HERAT","PC_Code":"3213242","ولسوالي":"کهسان ","District":"KOHSAN","د_مرکز_نوم__نام_مرکز":"مکتب ابتدائیه  قلعه سردار","Polling_Center_Name":"Qala-e- Sardar Primary School","د_مرکز_ځای__موقعیت_مرکز":" قلعه سردار","Polling_Center_Location":"Qala-e-Sardar  ","Verification_Note":"Village","PS_Male":1,"PS_Female":1,"Map_Accuracy":"قریه"},"geometry":{"x":6815466.7222442664,"y":4114893.9858865142}},{"attributes":{"OBJECTID":3035,"ولایت":"هرات","Province":"HERAT","PC_Code":"3213237","ولسوالي":"کهسان ","District":"KOHSAN","د_مرکز_نوم__نام_مرکز":"مکتب ابتدایی احمد آباد","Polling_Center_Name":"Ahmad Abad Primary School ","د_مرکز_ځای__موقعیت_مرکز":" احمد آباد","Polling_Center_Location":"Ahmad Abad","Verification_Note":"Building","PS_Male":1,"PS_Female":2,"Map_Accuracy":"تعمیر"},"geometry":{"x":6826355.2690305859,"y":4105049.5775536895}},{"attributes":{"OBJECTID":3034,"ولایت":"هرات","Province":"HERAT","PC_Code":"3213236","ولسوالي":"کهسان ","District":"KOHSAN","د_مرکز_نوم__نام_مرکز":"مکتب متوسطه اسلام قلعه ","Polling_Center_Name":"Islam Qala Secondary School ","د_مرکز_ځای__موقعیت_مرکز":"اسلام قلعه","Polling_Center_Location":"Islam Qala ","Verification_Note":"Building","PS_Male":4,"PS_Female":3,"Map_Accuracy":"تعمیر"},"geometry":{"x":6800360.4614025652,"y":4119247.3771530241}},{"attributes":{"OBJECTID":3033,"ولایت":"هرات","Province":"HERAT","PC_Code":"3213233","ولسوالي":"کهسان ","District":"KOHSAN","د_مرکز_نوم__نام_مرکز":"مکتب قدوس آباد دوم","Polling_Center_Name":"Qodos Abad-e- Dowom School","د_مرکز_ځای__موقعیت_مرکز":"قدوس آباد دوم","Polling_Center_Location":"Qodoos Abad-e-Duowm ","Verification_Note":"Building","PS_Male":2,"PS_Female":2,"Map_Accuracy":"تعمیر"},"geometry":{"x":6803252.9024485312,"y":4117330.3293654546}},{"attributes":{"OBJECTID":3032,"ولایت":"هرات","Province":"HERAT","PC_Code":"3213232","ولسوالي":"کهسان ","District":"KOHSAN","د_مرکز_نوم__نام_مرکز":"مکتب متوسطه قزل اسلام","Polling_Center_Name":"Qazal Islam Scondary School","د_مرکز_ځای__موقعیت_مرکز":" قزل اسلام","Polling_Center_Location":"Qazal Islam ","Verification_Note":"Building","PS_Male":2,"PS_Female":1,"Map_Accuracy":"تعمیر"},"geometry":{"x":6800940.2567252181,"y":4136474.994441919}},{"attributes":{"OBJECTID":3031,"ولایت":"هرات","Province":"HERAT","PC_Code":"3212379","ولسوالي":"اوبه ","District":"OBE","د_مرکز_نوم__نام_مرکز":"مسجد جامع کرشک زنانه","Polling_Center_Name":"Karshak Zanana Mosque","د_مرکز_ځای__موقعیت_مرکز":"قریه کرشک","Polling_Center_Location":"Karshak Zananah ","Verification_Note":"Building","PS_Male":0,"PS_Female":2,"Map_Accuracy":"تعمیر"},"geometry":{"x":7015433.1718589775,"y":4064288.0112070888}},{"attributes":{"OBJECTID":3030,"ولایت":"هرات","Province":"HERAT","PC_Code":"3212378","ولسوالي":"اوبه ","District":"OBE","د_مرکز_نوم__نام_مرکز":"مسجد جامع کرشک مردانه","Polling_Center_Name":"Karshak Mardanah Mosque","د_مرکز_ځای__موقعیت_مرکز":"قریه کرشک","Polling_Center_Location":"Karshak Village","Verification_Note":"Building","PS_Male":2,"PS_Female":0,"Map_Accuracy":"تعمیر"},"geometry":{"x":7015406.1846748181,"y":4064214.9863295928}},{"attributes":{"OBJECTID":3029,"ولایت":"هرات","Province":"HERAT","PC_Code":"3211255","ولسوالي":"غوریان ","District":"GHORYAN","د_مرکز_نوم__نام_مرکز":"مکتب شبش","Polling_Center_Name":"Shabesh School ","د_مرکز_ځای__موقعیت_مرکز":"قریه شبش","Polling_Center_Location":"Shabesh Village ","Verification_Note":"Building","PS_Male":2,"PS_Female":1,"Map_Accuracy":"تعمیر"},"geometry":{"x":6834017.3205638044,"y":4095551.9731698707}},{"attributes":{"OBJECTID":3028,"ولایت":"هرات","Province":"HERAT","PC_Code":"3211254","ولسوالي":"غوریان ","District":"GHORYAN","د_مرکز_نوم__نام_مرکز":"مسجد زنگی صبا","Polling_Center_Name":"Zangi Sabah Mosque ","د_مرکز_ځای__موقعیت_مرکز":"قریه زنگی صبا","Polling_Center_Location":"Zangi Sabah Village  ","Verification_Note":"Village","PS_Male":2,"PS_Female":2,"Map_Accuracy":"قریه"},"geometry":{"x":6839602.4376031086,"y":4087129.3621732816}},{"attributes":{"OBJECTID":3027,"ولایت":"هرات","Province":"HERAT","PC_Code":"3210420","ولسوالي":"کشک کهنه ","District":"KUSHK-E-KUHNA","د_مرکز_نوم__نام_مرکز":"مکتب خوش اسب دره جبال","Polling_Center_Name":"Khosh Ast School ","د_مرکز_ځای__موقعیت_مرکز":"دره جبال ","Polling_Center_Location":"Dara -e-Jabal ","Verification_Note":"Building","PS_Male":2,"PS_Female":2,"Map_Accuracy":"تعمیر"},"geometry":{"x":6977348.2137103006,"y":4126514.6768848151}},{"attributes":{"OBJECTID":3026,"ولایت":"هرات","Province":"HERAT","PC_Code":"3210419","ولسوالي":"کشک کهنه ","District":"KUSHK-E-KUHNA","د_مرکز_نوم__نام_مرکز":"مکتب خواجه شهاب","Polling_Center_Name":"Khwaja Shahab Mosque ","د_مرکز_ځای__موقعیت_مرکز":"خواجه شهاب ","Polling_Center_Location":"Khwaja Shahab  ","Verification_Note":"Building","PS_Male":1,"PS_Female":1,"Map_Accuracy":"تعمیر"},"geometry":{"x":6968747.7310773395,"y":4130137.6766268536}},{"attributes":{"OBJECTID":3025,"ولایت":"هرات","Province":"HERAT","PC_Code":"3210410","ولسوالي":"کشک کهنه ","District":"KUSHK-E-KUHNA","د_مرکز_نوم__نام_مرکز":"مسجد پایین کاریز زمان زنانه","Polling_Center_Name":"Kariz-e- Zaman /Zanana Paheen Mosque","د_مرکز_ځای__موقعیت_مرکز":"قریه کاریز زمان","Polling_Center_Location":"Kariz-e-Zaman Village","Verification_Note":"Village","PS_Male":0,"PS_Female":2,"Map_Accuracy":"قریه"},"geometry":{"x":6954832.8125392981,"y":4138007.45271492}},{"attributes":{"OBJECTID":3024,"ولایت":"هرات","Province":"HERAT","PC_Code":"3210409","ولسوالي":"کشک کهنه ","District":"KUSHK-E-KUHNA","د_مرکز_نوم__نام_مرکز":"مسجد جامع کاریز زمان مردانه","Polling_Center_Name":"Kariz-e- Zaman /Mardana Mosque","د_مرکز_ځای__موقعیت_مرکز":"قریه کاریز زمان","Polling_Center_Location":"Kariz-e-Zaman Village","Verification_Note":"Village","PS_Male":3,"PS_Female":0,"Map_Accuracy":"قریه"},"geometry":{"x":6955511.81356575,"y":4139148.0773132145}},{"attributes":{"OBJECTID":3023,"ولایت":"هرات","Province":"HERAT","PC_Code":"3209463","ولسوالي":"ادرسکن ","District":"ADRASKAN","د_مرکز_نوم__نام_مرکز":"مسجد کفتری","Polling_Center_Name":"Kaftari Mosque ","د_مرکز_ځای__موقعیت_مرکز":"کفتری ","Polling_Center_Location":"Kaftari ","Verification_Note":"Village","PS_Male":1,"PS_Female":1,"Map_Accuracy":"قریه"},"geometry":{"x":6832329.3619742058,"y":4000163.5178679526}},{"attributes":{"OBJECTID":3022,"ولایت":"هرات","Province":"HERAT","PC_Code":"3209462","ولسوالي":"ادرسکن ","District":"ADRASKAN","د_مرکز_نوم__نام_مرکز":"مكتب زرد آلوگك","Polling_Center_Name":"Zard Alogak Mosque ","د_مرکز_ځای__موقعیت_مرکز":"زرد الوگک ","Polling_Center_Location":"Zard Alogak ","Verification_Note":"Village","PS_Male":1,"PS_Female":1,"Map_Accuracy":"قریه"},"geometry":{"x":6946491.792262271,"y":4013901.294286035}},{"attributes":{"OBJECTID":3021,"ولایت":"هرات","Province":"HERAT","PC_Code":"3209296","ولسوالي":"ادرسکن ","District":"ADRASKAN","د_مرکز_نوم__نام_مرکز":"مسجد پوزه های سیاه","Polling_Center_Name":"Pozaha-e- Seya Mosque ","د_مرکز_ځای__موقعیت_مرکز":"قریه پوزه های سیاه","Polling_Center_Location":"Pozaha-e- Seya Village","Verification_Note":"Village","PS_Male":1,"PS_Female":2,"Map_Accuracy":"قریه"},"geometry":{"x":6799150.06899444,"y":3990626.5441152453}},{"attributes":{"OBJECTID":3020,"ولایت":"هرات","Province":"HERAT","PC_Code":"3209295","ولسوالي":"ادرسکن ","District":"ADRASKAN","د_مرکز_نوم__نام_مرکز":"مسجد چنار","Polling_Center_Name":"Chenar Mosque ","د_مرکز_ځای__موقعیت_مرکز":"قریه چنار","Polling_Center_Location":"Chenar Village","Verification_Note":"Building","PS_Male":1,"PS_Female":1,"Map_Accuracy":"تعمیر"},"geometry":{"x":6963190.96488595,"y":3973113.7258211896}},{"attributes":{"OBJECTID":3019,"ولایت":"هرات","Province":"HERAT","PC_Code":"3209292","ولسوالي":"ادرسکن ","District":"ADRASKAN","د_مرکز_نوم__نام_مرکز":"مسجد چهار سنگ ","Polling_Center_Name":"Chahar Sang Mosque ","د_مرکز_ځای__موقعیت_مرکز":" چهار سنگ","Polling_Center_Location":"Chahar Sang ","Verification_Note":"Building","PS_Male":1,"PS_Female":2,"Map_Accuracy":"تعمیر"},"geometry":{"x":6932529.9369741343,"y":3993453.1460986435}},{"attributes":{"OBJECTID":3018,"ولایت":"هرات","Province":"HERAT","PC_Code":"3209291","ولسوالي":"ادرسکن ","District":"ADRASKAN","د_مرکز_نوم__نام_مرکز":"مکتب متوسطه کروچه","Polling_Center_Name":"Karocha Scondary School ","د_مرکز_ځای__موقعیت_مرکز":" کروچه","Polling_Center_Location":"Karocha ","Verification_Note":"Building","PS_Male":1,"PS_Female":1,"Map_Accuracy":"تعمیر"},"geometry":{"x":6984387.2824112214,"y":3992945.3176329732}},{"attributes":{"OBJECTID":3017,"ولایت":"هرات","Province":"HERAT","PC_Code":"3209288","ولسوالي":"ادرسکن ","District":"ADRASKAN","د_مرکز_نوم__نام_مرکز":"مسجد تخاب","Polling_Center_Name":"Takhab Mosque ","د_مرکز_ځای__موقعیت_مرکز":" تخاب","Polling_Center_Location":"Takhab ","Verification_Note":"Building","PS_Male":1,"PS_Female":1,"Map_Accuracy":"تعمیر"},"geometry":{"x":7001798.8496822044,"y":3983709.3053153604}},{"attributes":{"OBJECTID":3016,"ولایت":"هرات","Province":"HERAT","PC_Code":"3209287","ولسوالي":"ادرسکن ","District":"ADRASKAN","د_مرکز_نوم__نام_مرکز":"مکتب شیرزاد","Polling_Center_Name":"Shirzad Mosque ","د_مرکز_ځای__موقعیت_مرکز":"قریه شیرزاد","Polling_Center_Location":"Shirzad Village","Verification_Note":"Building","PS_Male":1,"PS_Female":1,"Map_Accuracy":"تعمیر"},"geometry":{"x":6998322.0369693264,"y":3975532.0845270455}},{"attributes":{"OBJECTID":3015,"ولایت":"هرات","Province":"HERAT","PC_Code":"3208228","ولسوالي":"گلران ","District":"GULRAN","د_مرکز_نوم__نام_مرکز":"موقعیت کوچی های رباط سرگردان","Polling_Center_Name":"Kochis Location","د_مرکز_ځای__موقعیت_مرکز":"رباط سرگردان","Polling_Center_Location":"Rubat Sargaradan ","Verification_Note":"Village","PS_Male":1,"PS_Female":1,"Map_Accuracy":"قریه"},"geometry":{"x":6887790.2495720759,"y":4143655.7745644078}},{"attributes":{"OBJECTID":3014,"ولایت":"هرات","Province":"HERAT","PC_Code":"3208202","ولسوالي":"گلران ","District":"GULRAN","د_مرکز_نوم__نام_مرکز":"مکتب ابتدائیه سیاه کمرک","Polling_Center_Name":"Seya Kamarak Primary School ","د_مرکز_ځای__موقعیت_مرکز":" سیاه کمرک","Polling_Center_Location":"Seya Kamarak ","Verification_Note":"Village","PS_Male":2,"PS_Female":1,"Map_Accuracy":"قریه"},"geometry":{"x":6844868.4996234514,"y":4201973.7275747657}},{"attributes":{"OBJECTID":3013,"ولایت":"هرات","Province":"HERAT","PC_Code":"3208201","ولسوالي":"گلران ","District":"GULRAN","د_مرکز_نوم__نام_مرکز":"مسجد چاه آب گرمی","Polling_Center_Name":"Chahe Aab Garmi Mosque ","د_مرکز_ځای__موقعیت_مرکز":"چاه آب گرمی","Polling_Center_Location":"Chahe Aab Garmi","Verification_Note":"Village","PS_Male":2,"PS_Female":1,"Map_Accuracy":"قریه"},"geometry":{"x":6851798.1190010235,"y":4189250.5731936023}},{"attributes":{"OBJECTID":3012,"ولایت":"هرات","Province":"HERAT","PC_Code":"3207192","ولسوالي":"کشک (رباط سنگی)","District":"KUSHK (RUBAT-E-SANGI)","د_مرکز_نوم__نام_مرکز":"مکتب یکه توت ","Polling_Center_Name":"Yakatoot School ","د_مرکز_ځای__موقعیت_مرکز":"قریه یکه توت","Polling_Center_Location":"Yakatoot Village","Verification_Note":"Village","PS_Male":2,"PS_Female":1,"Map_Accuracy":"قریه"},"geometry":{"x":6937778.0698772967,"y":4176899.603482917}},{"attributes":{"OBJECTID":3011,"ولایت":"هرات","Province":"HERAT","PC_Code":"3207191","ولسوالي":"کشک (رباط سنگی)","District":"KUSHK (RUBAT-E-SANGI)","د_مرکز_نوم__نام_مرکز":"مکتب بر جنک","Polling_Center_Name":"Barjenak School ","د_مرکز_ځای__موقعیت_مرکز":"قریه برجنک ","Polling_Center_Location":"Barjenak Village ","Verification_Note":"Building","PS_Male":2,"PS_Female":1,"Map_Accuracy":"تعمیر"},"geometry":{"x":6923049.3190323561,"y":4189229.278593041}},{"attributes":{"OBJECTID":3010,"ولایت":"هرات","Province":"HERAT","PC_Code":"3206144","ولسوالي":"پشتون زرغون","District":"PASHTUN ZARGHUN","د_مرکز_نوم__نام_مرکز":"مکتب بوریا باف ","Polling_Center_Name":"Boreya Baf School ","د_مرکز_ځای__موقعیت_مرکز":"قریه بوریا باف ","Polling_Center_Location":"Boreya Baf Village ","Verification_Note":"Village","PS_Male":1,"PS_Female":1,"Map_Accuracy":"قریه"},"geometry":{"x":6998504.4328417964,"y":4061963.4528147206}},{"attributes":{"OBJECTID":3009,"ولایت":"هرات","Province":"HERAT","PC_Code":"3206143","ولسوالي":"پشتون زرغون","District":"PASHTUN ZARGHUN","د_مرکز_نوم__نام_مرکز":"مکتب تونیون","Polling_Center_Name":"Tunion School ","د_مرکز_ځای__موقعیت_مرکز":"قریه تونیون ","Polling_Center_Location":"Tunion Village  ","Verification_Note":"Building","PS_Male":1,"PS_Female":1,"Map_Accuracy":"تعمیر"},"geometry":{"x":6959475.3930160254,"y":4069957.3547086045}},{"attributes":{"OBJECTID":3008,"ولایت":"هرات","Province":"HERAT","PC_Code":"3205270","ولسوالي":"زنده جان ","District":"ZENDAJAN","د_مرکز_نوم__نام_مرکز":"مکتب  فوشنج","Polling_Center_Name":"Fushanj  School ","د_مرکز_ځای__موقعیت_مرکز":" مرکز ولسوالی","Polling_Center_Location":"District Center ","Verification_Note":"Village","PS_Male":1,"PS_Female":1,"Map_Accuracy":"قریه"},"geometry":{"x":6873680.8380724974,"y":4074896.4243259579}},{"attributes":{"OBJECTID":3007,"ولایت":"هرات","Province":"HERAT","PC_Code":"3205269","ولسوالي":"زنده جان ","District":"ZENDAJAN","د_مرکز_نوم__نام_مرکز":"مکتب پهره","Polling_Center_Name":"Pehrah School ","د_مرکز_ځای__موقعیت_مرکز":"پهره","Polling_Center_Location":"Pehrah ","Verification_Note":"Building","PS_Male":2,"PS_Female":1,"Map_Accuracy":"تعمیر"},"geometry":{"x":6893085.948180452,"y":4049231.2843876407}},{"attributes":{"OBJECTID":3006,"ولایت":"هرات","Province":"HERAT","PC_Code":"3203437","ولسوالي":"گذره","District":"GUZARA","د_مرکز_نوم__نام_مرکز":"مسجد كلاته مزرعه","Polling_Center_Name":"Kalata Mazreha Mosque ","د_مرکز_ځای__موقعیت_مرکز":"كلاته مزرعه","Polling_Center_Location":"Kalata Mazreha ","Verification_Note":"Building","PS_Male":1,"PS_Female":1,"Map_Accuracy":"تعمیر"},"geometry":{"x":6909024.524817314,"y":4066067.6362126917}},{"attributes":{"OBJECTID":3005,"ولایت":"هرات","Province":"HERAT","PC_Code":"3203118","ولسوالي":"گذره","District":"GUZARA","د_مرکز_نوم__نام_مرکز":"موقعیت کوچی های شراب پایین ","Polling_Center_Name":"kochis Location","د_مرکز_ځای__موقعیت_مرکز":"قریه شراب پایین","Polling_Center_Location":"Sharb-e-Paeen Village","Verification_Note":"District","PS_Male":1,"PS_Female":1,"Map_Accuracy":"ولسوالی"},"geometry":{"x":6910482.31811456,"y":4034120.3330202848}},{"attributes":{"OBJECTID":3004,"ولایت":"هرات","Province":"HERAT","PC_Code":"3203110","ولسوالي":"گذره","District":"GUZARA","د_مرکز_نوم__نام_مرکز":"مکتب متوسطه فرجایی","Polling_Center_Name":"Farjai Primary School","د_مرکز_ځای__موقعیت_مرکز":"قریه فرجای ","Polling_Center_Location":"Farjai Village ","Verification_Note":"Building","PS_Male":1,"PS_Female":1,"Map_Accuracy":"تعمیر"},"geometry":{"x":6906556.3379354961,"y":4066740.8780225366}},{"attributes":{"OBJECTID":3003,"ولایت":"هرات","Province":"HERAT","PC_Code":"3203109","ولسوالي":"گذره","District":"GUZARA","د_مرکز_نوم__نام_مرکز":"مکتب متوسطه تیزان ","Polling_Center_Name":"Tezan Secondary School ","د_مرکز_ځای__موقعیت_مرکز":"قریه تیزان ","Polling_Center_Location":"Tezan Village ","Verification_Note":"Building","PS_Male":1,"PS_Female":1,"Map_Accuracy":"تعمیر"},"geometry":{"x":6906768.162228547,"y":4058892.7486216649}},{"attributes":{"OBJECTID":3002,"ولایت":"هرات","Province":"HERAT","PC_Code":"3203106","ولسوالي":"گذره","District":"GUZARA","د_مرکز_نوم__نام_مرکز":"لیسه وزیر فتح خان ","Polling_Center_Name":"Wazir Fath Khan High School ","د_مرکز_ځای__موقعیت_مرکز":"محله باغبان ها ","Polling_Center_Location":"Mahalla-e- Baghaban Ha","Verification_Note":"Building","PS_Male":3,"PS_Female":2,"Map_Accuracy":"تعمیر"},"geometry":{"x":6926295.6558714919,"y":4059477.3624286726}},{"attributes":{"OBJECTID":3001,"ولایت":"هرات","Province":"HERAT","PC_Code":"3203105","ولسوالي":"گذره","District":"GUZARA","د_مرکز_نوم__نام_مرکز":"مسجد جامع بیچقی","Polling_Center_Name":"Bechqi Mosque ","د_مرکز_ځای__موقعیت_مرکز":"قریه بیچقی","Polling_Center_Location":"Bechqi Village ","Verification_Note":"Building","PS_Male":1,"PS_Female":1,"Map_Accuracy":"تعمیر"},"geometry":{"x":6948630.7973910645,"y":4061194.3293073103}},{"attributes":{"OBJECTID":3000,"ولایت":"هرات","Province":"HERAT","PC_Code":"3203095","ولسوالي":"گذره","District":"GUZARA","د_مرکز_نوم__نام_مرکز":"لیسه مالان ","Polling_Center_Name":"Malan High School ","د_مرکز_ځای__موقعیت_مرکز":"قریه مالان ","Polling_Center_Location":"Malan Village ","Verification_Note":"Building","PS_Male":2,"PS_Female":1,"Map_Accuracy":"تعمیر"},"geometry":{"x":6918606.01380248,"y":4057772.1195565984}}]}