{"objectIdFieldName":"OBJECTID","globalIdFieldName":"","geometryType":"esriGeometryPoint","spatialReference":{"wkid":102100,"latestWkid":3857},"fields":[{"name":"OBJECTID","type":"esriFieldTypeOID","alias":"OBJECTID","sqlType":"sqlTypeOther","domain":null,"defaultValue":null},{"name":"ولایت","type":"esriFieldTypeString","alias":"ولایت","sqlType":"sqlTypeOther","length":255,"domain":null,"defaultValue":null},{"name":"Province","type":"esriFieldTypeString","alias":"Province","sqlType":"sqlTypeOther","length":255,"domain":null,"defaultValue":null},{"name":"PC_Code","type":"esriFieldTypeString","alias":"PC_Code","sqlType":"sqlTypeOther","length":255,"domain":null,"defaultValue":null},{"name":"ولسوالي","type":"esriFieldTypeString","alias":"ولسوالي","sqlType":"sqlTypeOther","length":255,"domain":null,"defaultValue":null},{"name":"District","type":"esriFieldTypeString","alias":"District","sqlType":"sqlTypeOther","length":255,"domain":null,"defaultValue":null},{"name":"د_مرکز_نوم__نام_مرکز","type":"esriFieldTypeString","alias":"د_مرکز_نوم__نام_مرکز","sqlType":"sqlTypeOther","length":255,"domain":null,"defaultValue":null},{"name":"Polling_Center_Name","type":"esriFieldTypeString","alias":"Polling_Center_Name","sqlType":"sqlTypeOther","length":255,"domain":null,"defaultValue":null},{"name":"د_مرکز_ځای__موقعیت_مرکز","type":"esriFieldTypeString","alias":"د_مرکز_ځای__موقعیت_مرکز","sqlType":"sqlTypeOther","length":255,"domain":null,"defaultValue":null},{"name":"Polling_Center_Location","type":"esriFieldTypeString","alias":"Polling_Center_Location","sqlType":"sqlTypeOther","length":255,"domain":null,"defaultValue":null},{"name":"Verification_Note","type":"esriFieldTypeString","alias":"Verification_Note","sqlType":"sqlTypeOther","length":250,"domain":null,"defaultValue":null},{"name":"PS_Male","type":"esriFieldTypeSmallInteger","alias":"PS_Male","sqlType":"sqlTypeOther","domain":null,"defaultValue":null},{"name":"PS_Female","type":"esriFieldTypeSmallInteger","alias":"PS_Female","sqlType":"sqlTypeOther","domain":null,"defaultValue":null},{"name":"Map_Accuracy","type":"esriFieldTypeString","alias":"Map_Accuracy","sqlType":"sqlTypeOther","length":10,"domain":null,"defaultValue":null}],"features":[{"attributes":{"OBJECTID":3200,"ولایت":"پکتيکا","Province":"PAKTIKA","PC_Code":"1208136","ولسوالي":"گومل","District":"GOMAL","د_مرکز_نوم__نام_مرکز":"سعید احمد مدرسه","Polling_Center_Name":"Saied Ahmad Madrassa","د_مرکز_ځای__موقعیت_مرکز":"تابوت","Polling_Center_Location":"Tabot","Verification_Note":"Village","PS_Male":0,"PS_Female":2,"Map_Accuracy":"قریه"},"geometry":{"x":7674370.9261911586,"y":3861173.716038771}},{"attributes":{"OBJECTID":3201,"ولایت":"پکتيکا","Province":"PAKTIKA","PC_Code":"1209110","ولسوالي":"جانی خیل","District":"JANI KHEL","د_مرکز_نوم__نام_مرکز":"د جانی خیلو بازار جومات","Polling_Center_Name":"Jani Khel Bazaar Mosque","د_مرکز_ځای__موقعیت_مرکز":"د ولسوالی مرکز","Polling_Center_Location":"District Center","Verification_Note":"Building","PS_Male":0,"PS_Female":3,"Map_Accuracy":"تعمیر"},"geometry":{"x":7614324.94127522,"y":3864043.9886465818}},{"attributes":{"OBJECTID":3202,"ولایت":"پکتيکا","Province":"PAKTIKA","PC_Code":"1209111","ولسوالي":"جانی خیل","District":"JANI KHEL","د_مرکز_نوم__نام_مرکز":"ملاح غنی میلمستون","Polling_Center_Name":"Molla Ghani Guest House","د_مرکز_ځای__موقعیت_مرکز":"جلالزو","Polling_Center_Location":"Jalalzo","Verification_Note":"Village","PS_Male":2,"PS_Female":0,"Map_Accuracy":"قریه"},"geometry":{"x":7614097.3441235162,"y":3861939.7505587563}},{"attributes":{"OBJECTID":3203,"ولایت":"پکتيکا","Province":"PAKTIKA","PC_Code":"1209117","ولسوالي":"جانی خیل","District":"JANI KHEL","د_مرکز_نوم__نام_مرکز":"احمد میلمستون","Polling_Center_Name":"Ahmad Guest House","د_مرکز_ځای__موقعیت_مرکز":"جفر","Polling_Center_Location":"Jafar","Verification_Note":"Village","PS_Male":2,"PS_Female":0,"Map_Accuracy":"قریه"},"geometry":{"x":7613930.6465256363,"y":3863881.532346189}},{"attributes":{"OBJECTID":3204,"ولایت":"پکتيکا","Province":"PAKTIKA","PC_Code":"1209118","ولسوالي":"جانی خیل","District":"JANI KHEL","د_مرکز_نوم__نام_مرکز":"زکریا میلمستون","Polling_Center_Name":"Zekria Guest House","د_مرکز_ځای__موقعیت_مرکز":"جفر","Polling_Center_Location":"Jafar","Verification_Note":"Village","PS_Male":0,"PS_Female":2,"Map_Accuracy":"قریه"},"geometry":{"x":7613920.4285095818,"y":3863861.7880747393}},{"attributes":{"OBJECTID":3205,"ولایت":"پکتيکا","Province":"PAKTIKA","PC_Code":"1211177","ولسوالي":"اورگون","District":"URGOON","د_مرکز_نوم__نام_مرکز":"بی بی کوت جومات","Polling_Center_Name":"Bebi Kot Mosque","د_مرکز_ځای__موقعیت_مرکز":"بیبی کوت کلی","Polling_Center_Location":"Bebi Kot Village","Verification_Note":"Village","PS_Male":2,"PS_Female":0,"Map_Accuracy":"قریه"},"geometry":{"x":7707971.9263451137,"y":3887201.9559401125}},{"attributes":{"OBJECTID":3206,"ولایت":"پکتيکا","Province":"PAKTIKA","PC_Code":"1213201","ولسوالي":"نیکه","District":"NIKA","د_مرکز_نوم__نام_مرکز":"توری خیل جومات","Polling_Center_Name":"Tori Khel Mosque","د_مرکز_ځای__موقعیت_مرکز":"طوری خیل","Polling_Center_Location":"Tori Khel","Verification_Note":"Village","PS_Male":3,"PS_Female":0,"Map_Accuracy":"قریه"},"geometry":{"x":7708693.2699662857,"y":3918252.8107513785}},{"attributes":{"OBJECTID":3207,"ولایت":"پکتيکا","Province":"PAKTIKA","PC_Code":"1213202","ولسوالي":"نیکه","District":"NIKA","د_مرکز_نوم__نام_مرکز":"ظفر جان میلمستون","Polling_Center_Name":"Zafar Jan Guest House","د_مرکز_ځای__موقعیت_مرکز":"طوری خیل","Polling_Center_Location":"Tori Khel","Verification_Note":"Village","PS_Male":0,"PS_Female":3,"Map_Accuracy":"قریه"},"geometry":{"x":7707249.875845179,"y":3914954.6263905913}},{"attributes":{"OBJECTID":3208,"ولایت":"پکتيکا","Province":"PAKTIKA","PC_Code":"1211186","ولسوالي":"اورگون","District":"URGOON","د_مرکز_نوم__نام_مرکز":"ظریف میلمستون ","Polling_Center_Name":"Zarif Guest House","د_مرکز_ځای__موقعیت_مرکز":"شیخان کلی","Polling_Center_Location":"Shaikhan Village","Verification_Note":"Village","PS_Male":3,"PS_Female":1,"Map_Accuracy":"قریه"},"geometry":{"x":7711075.1716636419,"y":3882168.6169341803}},{"attributes":{"OBJECTID":3209,"ولایت":"پکتيکا","Province":"PAKTIKA","PC_Code":"1211296","ولسوالي":"اورگون","District":"URGOON","د_مرکز_نوم__نام_مرکز":"پيركوتي  كلينیك","Polling_Center_Name":"Per Koti Clinic","د_مرکز_ځای__موقعیت_مرکز":"پيركوتي","Polling_Center_Location":"Peer Koti","Verification_Note":"Village","PS_Male":2,"PS_Female":0,"Map_Accuracy":"قریه"},"geometry":{"x":7709654.2031879053,"y":3885405.7514786571}},{"attributes":{"OBJECTID":3210,"ولایت":"پکتيکا","Province":"PAKTIKA","PC_Code":"1214248","ولسوالي":"برمل","District":"BARMAL","د_مرکز_نوم__نام_مرکز":"مدرسه ملک شاهی","Polling_Center_Name":"Malik Shahi Madrassa","د_مرکز_ځای__موقعیت_مرکز":"ملک شاهی","Polling_Center_Location":"Malik Shahi","Verification_Note":"Village","PS_Male":0,"PS_Female":2,"Map_Accuracy":"قریه"},"geometry":{"x":7708256.0526474342,"y":3845685.5021639317}},{"attributes":{"OBJECTID":3211,"ولایت":"پکتيکا","Province":"PAKTIKA","PC_Code":"1215269","ولسوالي":"گیان","District":"GIYAN","د_مرکز_نوم__نام_مرکز":"جانگیر جومات","Polling_Center_Name":"Jangir Mosque","د_مرکز_ځای__موقعیت_مرکز":"اوگوحاست","Polling_Center_Location":"Ogo Hast","Verification_Note":"Village","PS_Male":3,"PS_Female":0,"Map_Accuracy":"قریه"},"geometry":{"x":7718858.7153966725,"y":3890891.8125592992}},{"attributes":{"OBJECTID":3212,"ولایت":"پکتيکا","Province":"PAKTIKA","PC_Code":"1215270","ولسوالي":"گیان","District":"GIYAN","د_مرکز_نوم__نام_مرکز":"نذرگل میلمستون","Polling_Center_Name":"Nazar Gul Guest House","د_مرکز_ځای__موقعیت_مرکز":"اوگوحاست","Polling_Center_Location":"Ogo Hast","Verification_Note":"Village","PS_Male":0,"PS_Female":3,"Map_Accuracy":"قریه"},"geometry":{"x":7718975.7956711128,"y":3891077.8811319023}},{"attributes":{"OBJECTID":3213,"ولایت":"پکتيکا","Province":"PAKTIKA","PC_Code":"1217299","ولسوالي":"وازه خواه","District":"WAZAKHWAH","د_مرکز_نوم__نام_مرکز":"مرجان کلی خیمه","Polling_Center_Name":"Marjan Village Tent","د_مرکز_ځای__موقعیت_مرکز":"مرجان","Polling_Center_Location":"Marjan Village","Verification_Note":"Village","PS_Male":0,"PS_Female":3,"Map_Accuracy":"قریه"},"geometry":{"x":7598249.5073431842,"y":3787661.9691869691}},{"attributes":{"OBJECTID":3214,"ولایت":"پکتيکا","Province":"PAKTIKA","PC_Code":"1216210","ولسوالي":"دیله و خوش امند","District":"DILA WA KHUSHAMAND","د_مرکز_نوم__نام_مرکز":"روغتیائی کلینیک","Polling_Center_Name":"Health Clinic","د_مرکز_ځای__موقعیت_مرکز":"مرکز ولسوالی","Polling_Center_Location":"District Center","Verification_Note":"Village","PS_Male":3,"PS_Female":1,"Map_Accuracy":"قریه"},"geometry":{"x":7574662.93325882,"y":3841944.8843771964}},{"attributes":{"OBJECTID":3215,"ولایت":"پکتيکا","Province":"PAKTIKA","PC_Code":"1216212","ولسوالي":"دیله و خوش امند","District":"DILA WA KHUSHAMAND","د_مرکز_نوم__نام_مرکز":"گل صادین میلمستون","Polling_Center_Name":"Gul Sadin Guest House","د_مرکز_ځای__موقعیت_مرکز":"عطر گیّ","Polling_Center_Location":"Atargai","Verification_Note":"Village","PS_Male":1,"PS_Female":1,"Map_Accuracy":"قریه"},"geometry":{"x":7579506.79162005,"y":3845242.5765216947}},{"attributes":{"OBJECTID":3216,"ولایت":"پکتيکا","Province":"PAKTIKA","PC_Code":"1218302","ولسوالي":"وړممی","District":"WOR MAMY","د_مرکز_نوم__نام_مرکز":"دكلي جومات دوچينه","Polling_Center_Name":"2 Cheena Village Mosque","د_مرکز_ځای__موقعیت_مرکز":"دوچینه","Polling_Center_Location":"Do Cheena Village ","Verification_Note":"Village","PS_Male":0,"PS_Female":2,"Map_Accuracy":"قریه"},"geometry":{"x":7666534.92904802,"y":3733749.853512764}},{"attributes":{"OBJECTID":3217,"ولایت":"پکتيا","Province":"PAKTYA","PC_Code":"1306037","ولسوالي":"سید کرم","District":"SAYYID KARAM","د_مرکز_نوم__نام_مرکز":"د نیک محمد هجره","Polling_Center_Name":"Nek Mohammad Hojra","د_مرکز_ځای__موقعیت_مرکز":" ‌‌ډم منگل","Polling_Center_Location":"Dam Mangal","Verification_Note":"Village","PS_Male":0,"PS_Female":2,"Map_Accuracy":"قریه"},"geometry":{"x":7735780.3544567265,"y":3975776.3849882185}},{"attributes":{"OBJECTID":3218,"ولایت":"پکتيا","Province":"PAKTYA","PC_Code":"1305122","ولسوالي":"وزه ځدراڼ","District":"WUZA ZADRAN","د_مرکز_نوم__نام_مرکز":"د قادر جان هجره","Polling_Center_Name":"Qadir Jan Hojra","د_مرکز_ځای__موقعیت_مرکز":"شلم","Polling_Center_Location":"Shelm","Verification_Note":"Village","PS_Male":0,"PS_Female":2,"Map_Accuracy":"قریه"},"geometry":{"x":7735992.1976740956,"y":3956846.8164083511}},{"attributes":{"OBJECTID":3219,"ولایت":"پکتيا","Province":"PAKTYA","PC_Code":"1312154","ولسوالي":"لجه منګل","District":"LAJA MANGAL","د_مرکز_نوم__نام_مرکز":"شرابک ابتدائیه مکتب","Polling_Center_Name":"Sharabak Primary School","د_مرکز_ځای__موقعیت_مرکز":"شرابک، لجه منګل","Polling_Center_Location":"Sharabak, Laja Mangal","Verification_Note":"Village","PS_Male":2,"PS_Female":0,"Map_Accuracy":"قریه"},"geometry":{"x":7750417.3702488951,"y":3988912.3415828943}},{"attributes":{"OBJECTID":3220,"ولایت":"پکتيا","Province":"PAKTYA","PC_Code":"1311185","ولسوالي":"ډنډ پټان","District":"DAND PATAN","د_مرکز_نوم__نام_مرکز":"متوسطه مکتب","Polling_Center_Name":"Secondary School","د_مرکز_ځای__موقعیت_مرکز":"نری زاور","Polling_Center_Location":"Narai Zawar","Verification_Note":"Village","PS_Male":2,"PS_Female":0,"Map_Accuracy":"قریه"},"geometry":{"x":7781479.78062227,"y":4006258.5255860761}},{"attributes":{"OBJECTID":3221,"ولایت":"پکتيا","Province":"PAKTYA","PC_Code":"1312146","ولسوالي":"لجه منګل","District":"LAJA MANGAL","د_مرکز_نوم__نام_مرکز":"مکتب لجه منګل ","Polling_Center_Name":"Laja Mangal School","د_مرکز_ځای__موقعیت_مرکز":"چرګو کلی، لجه منګل","Polling_Center_Location":"Chargo Village, Laja Mangal ","Verification_Note":"Village","PS_Male":2,"PS_Female":0,"Map_Accuracy":"قریه"},"geometry":{"x":7751156.0574467294,"y":4003486.5683487356}},{"attributes":{"OBJECTID":3222,"ولایت":"خوست","Province":"KHOST","PC_Code":"1408055","ولسوالي":"علی شیر","District":"ALI SHER","د_مرکز_نوم__نام_مرکز":"خیمه په ببرک تانه کی","Polling_Center_Name":"Babrak Tana Village Tent","د_مرکز_ځای__موقعیت_مرکز":"ببرک تانه کلی","Polling_Center_Location":"Babrak Tana Village","Verification_Note":"Village","PS_Male":1,"PS_Female":1,"Map_Accuracy":"قریه"},"geometry":{"x":7816792.3301923163,"y":3956505.8338307887}},{"attributes":{"OBJECTID":3223,"ولایت":"هلمند","Province":"HELMAND","PC_Code":"3006119","ولسوالي":"گرم سیر","District":"GARM SER","د_مرکز_نوم__نام_مرکز":"مكتب هزار جفت","Polling_Center_Name":"Hazar Joft School","د_مرکز_ځای__موقعیت_مرکز":"د حاجی سید میر خان","Polling_Center_Location":"Haji Sayed Mir Khan","Verification_Note":"Building","PS_Male":4,"PS_Female":1,"Map_Accuracy":"تعمیر"},"geometry":{"x":7145882.4685275182,"y":3649682.50677222}},{"attributes":{"OBJECTID":3224,"ولایت":"کندهار","Province":"کندهار","PC_Code":"2704191","ولسوالي":"پنجوایې","District":"PANJWAYEE","د_مرکز_نوم__نام_مرکز":"د ملا عطا محمد منطقه","Polling_Center_Name":"Mullah Atta Mohamamd Place","د_مرکز_ځای__موقعیت_مرکز":"ټالكان","Polling_Center_Location":"Talgan","Verification_Note":"Village","PS_Male":5,"PS_Female":4,"Map_Accuracy":"قریه"},"geometry":{"x":7272437.7470692061,"y":3695016.1510119215}},{"attributes":{"OBJECTID":3225,"ولایت":"بلخ","Province":"BALKH","PC_Code":"2107271","ولسوالي":"شولگره","District":"SHOLGARA","د_مرکز_نوم__نام_مرکز":"منزل طلا قریه دار","Polling_Center_Name":"Tila Qarya Dar Private House ","د_مرکز_ځای__موقعیت_مرکز":"پل برق","Polling_Center_Location":"Pul Barq","Verification_Note":"Village","PS_Male":1,"PS_Female":1,"Map_Accuracy":"قریه"},"geometry":{"x":7448215.66133989,"y":4331036.2641625628}},{"attributes":{"OBJECTID":3226,"ولایت":"هرات","Province":"HERAT","PC_Code":"3205272","ولسوالي":"زنده جان ","District":"ZENDAJAN","د_مرکز_نوم__نام_مرکز":"مكتب ابتدايي اميرمعاويه","Polling_Center_Name":"Amir Maawia Primary School ","د_مرکز_ځای__موقعیت_مرکز":"قلعه ریگ","Polling_Center_Location":"Qala-e Rig ","Verification_Note":"Building","PS_Male":0,"PS_Female":3,"Map_Accuracy":"تعمیر"},"geometry":{"x":6875967.9081428014,"y":4074131.1104634628}},{"attributes":{"OBJECTID":3227,"ولایت":"کاپيسا","Province":"KAPISA","PC_Code":"0205041","ولسوالي":"نجراب ","District":"NIJRAB","د_مرکز_نوم__نام_مرکز":"مکتب متوسطه محمدایوب شهید","Polling_Center_Name":"Mohammad Ayoub Secondary School","د_مرکز_ځای__موقعیت_مرکز":"حسین خیل ","Polling_Center_Location":"Husain Khel","Verification_Note":"Village","PS_Male":1,"PS_Female":1,"Map_Accuracy":"قریه"},"geometry":{"x":7757151.698504176,"y":4163422.8455884382}},{"attributes":{"OBJECTID":3228,"ولایت":"کابل","Province":"KABUL","PC_Code":"0101021","ولسوالي":"کابل - ناحیه 02","District":"KABUL-D02","د_مرکز_نوم__نام_مرکز":" ليسه انصاري","Polling_Center_Name":"Ansari High School","د_مرکز_ځای__موقعیت_مرکز":"جوي شير","Polling_Center_Location":"Joy Sher","Verification_Note":"Building","PS_Male":4,"PS_Female":3,"Map_Accuracy":"تعمیر"},"geometry":{"x":7699953.050202921,"y":4098264.4991184846}},{"attributes":{"OBJECTID":3229,"ولایت":"کابل","Province":"KABUL","PC_Code":"0101040","ولسوالي":"کابل - ناحیه 03","District":"KABUL-D03","د_مرکز_نوم__نام_مرکز":"مکتب متوسطه امير حمزه","Polling_Center_Name":"Amir Hamza Secondary School","د_مرکز_ځای__موقعیت_مرکز":"نو آباد دهمزنگ","Polling_Center_Location":"Naw Abad, Dehmazang","Verification_Note":"Building","PS_Male":3,"PS_Female":2,"Map_Accuracy":"تعمیر"},"geometry":{"x":7697827.3911678828,"y":4097828.9653141424}},{"attributes":{"OBJECTID":3230,"ولایت":"کابل","Province":"KABUL","PC_Code":"0101059","ولسوالي":"کابل - ناحیه 04","District":"KABUL-D04","د_مرکز_نوم__نام_مرکز":" مسجد امام رضاي غريب","Polling_Center_Name":"Imam Reza e Ghareeb Mosque","د_مرکز_ځای__موقعیت_مرکز":"کلوله پشته","Polling_Center_Location":"Kolula Pushta","Verification_Note":"Building","PS_Male":3,"PS_Female":3,"Map_Accuracy":"تعمیر"},"geometry":{"x":7698545.0400951505,"y":4101418.5360822454}},{"attributes":{"OBJECTID":3231,"ولایت":"کابل","Province":"KABUL","PC_Code":"0101079","ولسوالي":"کابل - ناحیه 05","District":"KABUL-D05","د_مرکز_نوم__نام_مرکز":"مسجد اتفاق","Polling_Center_Name":"Itifaq Mosque","د_مرکز_ځای__موقعیت_مرکز":"قلعه طوفان","Polling_Center_Location":"Qala-e-Tufan","Verification_Note":"Building","PS_Male":2,"PS_Female":1,"Map_Accuracy":"تعمیر"},"geometry":{"x":7690497.0505665168,"y":4099179.5097744167}},{"attributes":{"OBJECTID":3232,"ولایت":"کابل","Province":"KABUL","PC_Code":"0101098","ولسوالي":"کابل - ناحیه 06","District":"KABUL-D06","د_مرکز_نوم__نام_مرکز":" ليسه محمد آصف مايل","Polling_Center_Name":"Mohammad Asif Mayel High School","د_مرکز_ځای__موقعیت_مرکز":"قلعه ناظر","Polling_Center_Location":"Qala-e-Nazer","Verification_Note":"Building","PS_Male":4,"PS_Female":4,"Map_Accuracy":"تعمیر"},"geometry":{"x":7692850.9145576842,"y":4096896.9910371155}},{"attributes":{"OBJECTID":3233,"ولایت":"کابل","Province":"KABUL","PC_Code":"0101099","ولسوالي":"کابل - ناحیه 06","District":"KABUL-D06","د_مرکز_نوم__نام_مرکز":" مسجد علي نقی","Polling_Center_Name":"Ali Naqi Mosque","د_مرکز_ځای__موقعیت_مرکز":"قریه ده قابل","Polling_Center_Location":"Deh Qabil Village","Verification_Note":"Building","PS_Male":2,"PS_Female":1,"Map_Accuracy":"تعمیر"},"geometry":{"x":7692065.74034049,"y":4095970.4455191568}},{"attributes":{"OBJECTID":3234,"ولایت":"کابل","Province":"KABUL","PC_Code":"0101118","ولسوالي":"کابل - ناحیه 06","District":"KABUL-D06","د_مرکز_نوم__نام_مرکز":" لیسه ام البنین","Polling_Center_Name":"Ummulbanin High School","د_مرکز_ځای__موقعیت_مرکز":"قلعه شهاده","Polling_Center_Location":"Qala-e-Shahada","Verification_Note":"Building","PS_Male":4,"PS_Female":4,"Map_Accuracy":"تعمیر"},"geometry":{"x":7694568.9115986824,"y":4096471.6883885637}},{"attributes":{"OBJECTID":3235,"ولایت":"کابل","Province":"KABUL","PC_Code":"0101139","ولسوالي":"کابل - ناحیه 07","District":"KABUL-D07","د_مرکز_نوم__نام_مرکز":" ليسه عمرا خان","Polling_Center_Name":"Omra Khan High School","د_مرکز_ځای__موقعیت_مرکز":"واصل آباد","Polling_Center_Location":"Wasil Abad","Verification_Note":"Building","PS_Male":4,"PS_Female":3,"Map_Accuracy":"تعمیر"},"geometry":{"x":7699476.1196557321,"y":4093958.3706545532}},{"attributes":{"OBJECTID":3236,"ولایت":"کابل","Province":"KABUL","PC_Code":"0101155","ولسوالي":"کابل - ناحیه 08","District":"KABUL-D08","د_مرکز_نوم__نام_مرکز":" ليسه نسوان آمينه فدوي","Polling_Center_Name":"Amina Fidawi Girls High School","د_مرکز_ځای__موقعیت_مرکز":"مسجد اتفاق","Polling_Center_Location":"Itifaq Mosque","Verification_Note":"Building","PS_Male":3,"PS_Female":3,"Map_Accuracy":"تعمیر"},"geometry":{"x":7704052.2379436716,"y":4096844.5012289956}},{"attributes":{"OBJECTID":3237,"ولایت":"کابل","Province":"KABUL","PC_Code":"0101174","ولسوالي":"کابل - ناحیه 08","District":"KABUL-D08","د_مرکز_نوم__نام_مرکز":" مسجد شيخ نجم الدين اخوندزاده","Polling_Center_Name":"Shaikh Najmuddin Akhundzada Mosque","د_مرکز_ځای__موقعیت_مرکز":"قسمت ب رحمن مينه","Polling_Center_Location":"Rahman Mina, Phase B","Verification_Note":"Building","PS_Male":1,"PS_Female":1,"Map_Accuracy":"تعمیر"},"geometry":{"x":7705769.9188373163,"y":4096534.6911222637}},{"attributes":{"OBJECTID":3238,"ولایت":"کابل","Province":"KABUL","PC_Code":"0101190","ولسوالي":"کابل - ناحیه 09","District":"KABUL-D09","د_مرکز_نوم__نام_مرکز":" مسجد جامع شرقی شش درک ","Polling_Center_Name":"Shah Darak Estern Mosque","د_مرکز_ځای__موقعیت_مرکز":"شش درک","Polling_Center_Location":"Shashdarak","Verification_Note":"Building","PS_Male":1,"PS_Female":1,"Map_Accuracy":"تعمیر"},"geometry":{"x":7702307.45743319,"y":4099226.8261910006}},{"attributes":{"OBJECTID":3239,"ولایت":"کابل","Province":"KABUL","PC_Code":"0101191","ولسوالي":"کابل - ناحیه 09","District":"KABUL-D09","د_مرکز_نوم__نام_مرکز":" لیسه ستاره","Polling_Center_Name":"Setara High School","د_مرکز_ځای__موقعیت_مرکز":"شش درک","Polling_Center_Location":"Shashdarak","Verification_Note":"Building","PS_Male":2,"PS_Female":2,"Map_Accuracy":"تعمیر"},"geometry":{"x":7702213.0006188639,"y":4099619.3358316422}},{"attributes":{"OBJECTID":3240,"ولایت":"کابل","Province":"KABUL","PC_Code":"0101206","ولسوالي":"کابل - ناحیه 10","District":"KABUL-D10","د_مرکز_نوم__نام_مرکز":" مسجد حضرت عمر فاروق","Polling_Center_Name":"Hazrat Omer Farooq Mosque","د_مرکز_ځای__موقعیت_مرکز":"نو آباد چهار قلعه","Polling_Center_Location":"Naw Abad Chahar Qala","Verification_Note":"Building","PS_Male":1,"PS_Female":1,"Map_Accuracy":"تعمیر"},"geometry":{"x":7699950.2160086818,"y":4101832.3735845163}},{"attributes":{"OBJECTID":3241,"ولایت":"کابل","Province":"KABUL","PC_Code":"0101226","ولسوالي":"کابل - ناحیه 10","District":"KABUL-D10","د_مرکز_نوم__نام_مرکز":" ليسه عالي اماني","Polling_Center_Name":"Amani High School","د_مرکز_ځای__موقعیت_مرکز":"وزیر اکبر خان","Polling_Center_Location":"Wazir Akbar Khan","Verification_Note":"Building","PS_Male":3,"PS_Female":2,"Map_Accuracy":"تعمیر"},"geometry":{"x":7701470.5931236483,"y":4100101.2226275876}},{"attributes":{"OBJECTID":3242,"ولایت":"کابل","Province":"KABUL","PC_Code":"0101227","ولسوالي":"کابل - ناحیه 10","District":"KABUL-D10","د_مرکز_نوم__نام_مرکز":" مسجد وزير اکبر خان","Polling_Center_Name":"Wazir Akbar Khan Mosque","د_مرکز_ځای__موقعیت_مرکز":"وزیر اکبر خان","Polling_Center_Location":"Wazir Akbar Khan","Verification_Note":"Building","PS_Male":2,"PS_Female":1,"Map_Accuracy":"تعمیر"},"geometry":{"x":7701356.3425906636,"y":4100950.6413390934}},{"attributes":{"OBJECTID":3243,"ولایت":"کابل","Province":"KABUL","PC_Code":"0101245","ولسوالي":"کابل - ناحیه 11","District":"KABUL-D11","د_مرکز_نوم__نام_مرکز":" مسجد جامع امام زمان","Polling_Center_Name":"Imam-e-Zaman Mosque","د_مرکز_ځای__موقعیت_مرکز":"قلعه نجارها","Polling_Center_Location":"Qala-e-Najarha","Verification_Note":"Building","PS_Male":3,"PS_Female":3,"Map_Accuracy":"تعمیر"},"geometry":{"x":7695812.9403041415,"y":4105967.842876792}},{"attributes":{"OBJECTID":3244,"ولایت":"کابل","Province":"KABUL","PC_Code":"0101259","ولسوالي":"کابل - ناحیه 13","District":"KABUL-D13","د_مرکز_نوم__نام_مرکز":"مسجد کاظميه","Polling_Center_Name":"Kazimia Mosque","د_مرکز_ځای__موقعیت_مرکز":"دشت بيست هزاري","Polling_Center_Location":"Dasht-e-Best Hazari","Verification_Note":"Building","PS_Male":2,"PS_Female":1,"Map_Accuracy":"تعمیر"},"geometry":{"x":7690273.4219546653,"y":4095497.4176863432}},{"attributes":{"OBJECTID":3245,"ولایت":"کابل","Province":"KABUL","PC_Code":"0101260","ولسوالي":"کابل - ناحیه 13","District":"KABUL-D13","د_مرکز_نوم__نام_مرکز":" مسجد سنايي","Polling_Center_Name":"Sanaie Mosque","د_مرکز_ځای__موقعیت_مرکز":"قریه ده قابل","Polling_Center_Location":"Deh Qabil Village","Verification_Note":"Building","PS_Male":2,"PS_Female":1,"Map_Accuracy":"تعمیر"},"geometry":{"x":7691955.5362709984,"y":4095701.9085759372}},{"attributes":{"OBJECTID":3246,"ولایت":"کابل","Province":"KABUL","PC_Code":"0101280","ولسوالي":"کابل - ناحیه 13","District":"KABUL-D13","د_مرکز_نوم__نام_مرکز":"مسجد میرسیدعلی یخ سوز","Polling_Center_Name":"Mir Sayed Ali Yakhsuz Mosque","د_مرکز_ځای__موقعیت_مرکز":"قلعه سلطان جان","Polling_Center_Location":"Qala-e-Sultan Jan","Verification_Note":"Building","PS_Male":2,"PS_Female":2,"Map_Accuracy":"تعمیر"},"geometry":{"x":7690728.85670818,"y":4095797.7861058265}},{"attributes":{"OBJECTID":3247,"ولایت":"کابل","Province":"KABUL","PC_Code":"0101296","ولسوالي":"کابل - ناحیه 15","District":"KABUL-D15","د_مرکز_نوم__نام_مرکز":" متوسطه نمبر ۲ خواجه بغرا","Polling_Center_Name":"Khwaja Bughra No.2 Secondary School","د_مرکز_ځای__موقعیت_مرکز":"جکشن برق خير خانه","Polling_Center_Location":"Khair Khana Electricity Junction","Verification_Note":"Building","PS_Male":4,"PS_Female":4,"Map_Accuracy":"تعمیر"},"geometry":{"x":7699134.2819897942,"y":4105523.2139902934}},{"attributes":{"OBJECTID":3248,"ولایت":"کابل","Province":"KABUL","PC_Code":"0101313","ولسوالي":"کابل - ناحیه 16","District":"KABUL-D16","د_مرکز_نوم__نام_مرکز":"مکتب متوسطه هالو خيل","Polling_Center_Name":"Halo Khel Secondary School","د_مرکز_ځای__موقعیت_مرکز":"هالو خيل","Polling_Center_Location":"Halo Khel","Verification_Note":"Building","PS_Male":2,"PS_Female":2,"Map_Accuracy":"تعمیر"},"geometry":{"x":7711032.7948938385,"y":4100188.750461027}},{"attributes":{"OBJECTID":3249,"ولایت":"کابل","Province":"KABUL","PC_Code":"0101508","ولسوالي":"کابل - ناحیه 18","District":"KABUL-D18","د_مرکز_نوم__نام_مرکز":" لیسه شهرک محمدیه","Polling_Center_Name":"Shahrak-e-Mohammadia High School","د_مرکز_ځای__موقعیت_مرکز":"شهرک محمدیه","Polling_Center_Location":"Shahrak-e-Mohammadia","Verification_Note":"Building","PS_Male":2,"PS_Female":2,"Map_Accuracy":"تعمیر"},"geometry":{"x":7711412.6790013835,"y":4118251.5813157111}},{"attributes":{"OBJECTID":3250,"ولایت":"کابل","Province":"KABUL","PC_Code":"0102409","ولسوالي":"پغمان","District":"PAGHMAN","د_مرکز_نوم__نام_مرکز":" ليسه حضرت خالد بن وليد","Polling_Center_Name":"Hazrat-e-Khalid Ibne Walid High School","د_مرکز_ځای__موقعیت_مرکز":"کاريزک","Polling_Center_Location":"Karezak","Verification_Note":"Building","PS_Male":1,"PS_Female":1,"Map_Accuracy":"تعمیر"},"geometry":{"x":7678865.3393124528,"y":4100617.8907312006}},{"attributes":{"OBJECTID":3251,"ولایت":"کابل","Province":"KABUL","PC_Code":"0103494","ولسوالي":"چهار آسیاب","District":"CHAHAR ASYAB","د_مرکز_نوم__نام_مرکز":" مکتب ابتدائیه ریشخور علیا","Polling_Center_Name":"Reshkhur-e-Ulya Primary School","د_مرکز_ځای__موقعیت_مرکز":"ریشخور","Polling_Center_Location":"Reshkhur","Verification_Note":"Building","PS_Male":3,"PS_Female":1,"Map_Accuracy":"تعمیر"},"geometry":{"x":7695014.1595055908,"y":4085916.8289880082}},{"attributes":{"OBJECTID":3252,"ولایت":"کابل","Province":"KABUL","PC_Code":"0105470","ولسوالي":"ده سبز","District":"DEHSABZ","د_مرکز_نوم__نام_مرکز":" لیسه صلح","Polling_Center_Name":"Sulh High School","د_مرکز_ځای__موقعیت_مرکز":"پل چرخي ٢","Polling_Center_Location":"Pul-e-Charkhi 2","Verification_Note":"Building","PS_Male":2,"PS_Female":2,"Map_Accuracy":"تعمیر"},"geometry":{"x":7725478.0450519957,"y":4105991.7046155259}},{"attributes":{"OBJECTID":3253,"ولایت":"کابل","Province":"KABUL","PC_Code":"0107435","ولسوالي":"موسهی","District":"MUSAHI","د_مرکز_نوم__نام_مرکز":"مسجد قلعه جانان","Polling_Center_Name":"Qala-e- Janan Mosque","د_مرکز_ځای__موقعیت_مرکز":"قلعه جانان، ده کلان","Polling_Center_Location":"Qala-e-Janan, Deh Kalan","Verification_Note":"Village","PS_Male":1,"PS_Female":2,"Map_Accuracy":"قریه"},"geometry":{"x":7700603.0057478324,"y":4076528.1491499841}},{"attributes":{"OBJECTID":3254,"ولایت":"کابل","Province":"KABUL","PC_Code":"0109445","ولسوالي":"خاک جبار","District":"KHAK-E-JABAR","د_مرکز_نوم__نام_مرکز":" مکتب متوسطه ولي خان","Polling_Center_Name":"Wali Khan Secondary School","د_مرکز_ځای__موقعیت_مرکز":"زندان","Polling_Center_Location":"Zendan ","Verification_Note":"Building","PS_Male":2,"PS_Female":2,"Map_Accuracy":"تعمیر"},"geometry":{"x":7728081.1845524982,"y":4078422.6566589996}},{"attributes":{"OBJECTID":3255,"ولایت":"کابل","Province":"KABUL","PC_Code":"0113375","ولسوالي":"استالف","District":"ESTALEF","د_مرکز_نوم__نام_مرکز":" لسیه شهید احمد شاه مسعود","Polling_Center_Name":"Shaheed Ahmad Shah Masoud High School","د_مرکز_ځای__موقعیت_مرکز":"قبر ملک","Polling_Center_Location":"Qabr Malak","Verification_Note":"Building","PS_Male":1,"PS_Female":1,"Map_Accuracy":"تعمیر"},"geometry":{"x":7690795.3856886588,"y":4139576.4646465853}},{"attributes":{"OBJECTID":3256,"ولایت":"کابل","Province":"KABUL","PC_Code":"0115476","ولسوالي":"سروبی","District":"SURUBI","د_مرکز_نوم__نام_مرکز":"مسجد جامع دره حصاره","Polling_Center_Name":"Dar-e-Hesara Mosque","د_مرکز_ځای__موقعیت_مرکز":"دره حصاره","Polling_Center_Location":"Dara-e-Hesar","Verification_Note":"Building","PS_Male":2,"PS_Female":1,"Map_Accuracy":"تعمیر"},"geometry":{"x":7762931.5522946976,"y":4106544.2498496845}},{"attributes":{"OBJECTID":3257,"ولایت":"کاپيسا","Province":"KAPISA","PC_Code":"0201007","ولسوالي":"محمود راقی ","District":"MAHMUDI RAQI","د_مرکز_نوم__نام_مرکز":"لیسه نسوان","Polling_Center_Name":"Girls High School ","د_مرکز_ځای__موقعیت_مرکز":"کره تاز","Polling_Center_Location":"Karataz","Verification_Note":"Building","PS_Male":3,"PS_Female":2,"Map_Accuracy":"تعمیر"},"geometry":{"x":7722285.8350888677,"y":4169121.7558922395}},{"attributes":{"OBJECTID":3258,"ولایت":"کاپيسا","Province":"KAPISA","PC_Code":"0201008","ولسوالي":"محمود راقی ","District":"MAHMUDI RAQI","د_مرکز_نوم__نام_مرکز":"منزل مولوی غلام ایشان","Polling_Center_Name":"Mawlawi Ghulam Eshan House","د_مرکز_ځای__موقعیت_مرکز":"ده بابی ","Polling_Center_Location":"Deh Babi","Verification_Note":"Building","PS_Male":3,"PS_Female":2,"Map_Accuracy":"تعمیر"},"geometry":{"x":7714382.5642378479,"y":4166143.7261205092}},{"attributes":{"OBJECTID":3259,"ولایت":"کاپيسا","Province":"KAPISA","PC_Code":"0203068","ولسوالي":"کوه بند","District":"KOH BAND","د_مرکز_نوم__نام_مرکز":"مسجد محمد عمر خیل ","Polling_Center_Name":"Mohammad OmarKhel Mosque","د_مرکز_ځای__موقعیت_مرکز":"آرام کوت ","Polling_Center_Location":"Aram Kot","Verification_Note":"Building","PS_Male":1,"PS_Female":1,"Map_Accuracy":"تعمیر"},"geometry":{"x":7726701.5542357229,"y":4179701.0015766844}},{"attributes":{"OBJECTID":3260,"ولایت":"کاپيسا","Province":"KAPISA","PC_Code":"0204037","ولسوالي":"حصه اول کوهستان ","District":"HISSA-E-AWALI KOHISTAN","د_مرکز_نوم__نام_مرکز":"مسجد ملاخلیل ","Polling_Center_Name":"Molla khalil Mosque ","د_مرکز_ځای__موقعیت_مرکز":"ملاخلیل ","Polling_Center_Location":"Molla Khalil","Verification_Note":"Building","PS_Male":2,"PS_Female":1,"Map_Accuracy":"تعمیر"},"geometry":{"x":7717591.2728627138,"y":4176179.3605319187}},{"attributes":{"OBJECTID":3261,"ولایت":"کاپيسا","Province":"KAPISA","PC_Code":"0205064","ولسوالي":"نجراب ","District":"NIJRAB","د_مرکز_نوم__نام_مرکز":"مکتب متوسطه محمد ایوب شهید (کوچی)","Polling_Center_Name":"Mohammad Ayoub Secondary School (Kuchi)","د_مرکز_ځای__موقعیت_مرکز":"حسین خیل ","Polling_Center_Location":"Husain Khel","Verification_Note":"Village","PS_Male":1,"PS_Female":1,"Map_Accuracy":"قریه"},"geometry":{"x":7757138.4359000437,"y":4163420.9961201772}},{"attributes":{"OBJECTID":3262,"ولایت":"کاپيسا","Province":"KAPISA","PC_Code":"0205062","ولسوالي":"نجراب ","District":"NIJRAB","د_مرکز_نوم__نام_مرکز":"منزل ملک روضا خیل ","Polling_Center_Name":"Malik Rozakhel House","د_مرکز_ځای__موقعیت_مرکز":"روضا خیل ","Polling_Center_Location":"RozaKhel ","Verification_Note":"Building","PS_Male":1,"PS_Female":1,"Map_Accuracy":"تعمیر"},"geometry":{"x":7749268.7913276181,"y":4169110.0674088821}},{"attributes":{"OBJECTID":3263,"ولایت":"ننگرهار","Province":"NANGARHAR","PC_Code":"0605149","ولسوالي":"کامه","District":"KAMA","د_مرکز_نوم__نام_مرکز":"قلعه اخند جومات","Polling_Center_Name":"Qala-e- Akhund Mosque","د_مرکز_ځای__موقعیت_مرکز":"قلعه اخند","Polling_Center_Location":"Qala-e- Akhund ","Verification_Note":"Building","PS_Male":2,"PS_Female":0,"Map_Accuracy":"تعمیر"},"geometry":{"x":7856921.64407273,"y":4084632.7090348005}},{"attributes":{"OBJECTID":3264,"ولایت":"پروان","Province":"PARWAN","PC_Code":"0301006","ولسوالي":"چاریکار","District":"CHARIKAR","د_مرکز_نوم__نام_مرکز":"لیسه میانشاخ","Polling_Center_Name":"Meyan Shakh High School ","د_مرکز_ځای__موقعیت_مرکز":"میانشاخ ","Polling_Center_Location":"Mian Shakh","Verification_Note":"Building","PS_Male":3,"PS_Female":1,"Map_Accuracy":"تعمیر"},"geometry":{"x":7703014.0979760215,"y":4161574.8053694069}},{"attributes":{"OBJECTID":3265,"ولایت":"پروان","Province":"PARWAN","PC_Code":"0301027","ولسوالي":"چاریکار","District":"CHARIKAR","د_مرکز_نوم__نام_مرکز":"مکتب توب دره","Polling_Center_Name":"Toop Dara School","د_مرکز_ځای__موقعیت_مرکز":"توب دره","Polling_Center_Location":"Toop Dara","Verification_Note":"Building","PS_Male":2,"PS_Female":1,"Map_Accuracy":"تعمیر"},"geometry":{"x":7694997.1131519675,"y":4161735.8941510096}},{"attributes":{"OBJECTID":3266,"ولایت":"پروان","Province":"PARWAN","PC_Code":"0302111","ولسوالي":"بگرام ","District":"BAGRAM","د_مرکز_نوم__نام_مرکز":"لیسه عبدالستار شهید","Polling_Center_Name":"Abdul Sattar Shaheed High School ","د_مرکز_ځای__موقعیت_مرکز":"دولت شاهی ","Polling_Center_Location":"Dowlat Shahi ","Verification_Note":"Building","PS_Male":2,"PS_Female":2,"Map_Accuracy":"تعمیر"},"geometry":{"x":7703188.17716933,"y":4158956.675421223}},{"attributes":{"OBJECTID":3267,"ولایت":"پروان","Province":"PARWAN","PC_Code":"0304037","ولسوالي":"سیدخیل ","District":"SAYID KHIAL","د_مرکز_نوم__نام_مرکز":"لیسه امام اعظم آقتاش ","Polling_Center_Name":"Imam-e-Azaam Uqtash High School, ","د_مرکز_ځای__موقعیت_مرکز":"آقتاش ","Polling_Center_Location":"Uqtash","Verification_Note":"Building","PS_Male":2,"PS_Female":1,"Map_Accuracy":"تعمیر"},"geometry":{"x":7710570.3670499176,"y":4170882.7105986476}},{"attributes":{"OBJECTID":3268,"ولایت":"پروان","Province":"PARWAN","PC_Code":"0305057","ولسوالي":"جبل السراج","District":"JABULUSSARAJ","د_مرکز_نوم__نام_مرکز":"مسجد جامع دو بندی","Polling_Center_Name":"Du Bandi Mosque","د_مرکز_ځای__موقعیت_مرکز":"دو بندی","Polling_Center_Location":"Dubandi","Verification_Note":"Building","PS_Male":3,"PS_Female":1,"Map_Accuracy":"تعمیر"},"geometry":{"x":7712040.4400001876,"y":4181043.1128945723}},{"attributes":{"OBJECTID":3269,"ولایت":"پروان","Province":"PARWAN","PC_Code":"0305058","ولسوالي":"جبل السراج","District":"JABULUSSARAJ","د_مرکز_نوم__نام_مرکز":"مسجد آشابه ","Polling_Center_Name":"Aushaba Mosque","د_مرکز_ځای__موقعیت_مرکز":"مرکز آشابه ","Polling_Center_Location":"Ashaba Center ","Verification_Note":"Building","PS_Male":2,"PS_Female":1,"Map_Accuracy":"تعمیر"},"geometry":{"x":7693320.1751919575,"y":4179549.6367774829}},{"attributes":{"OBJECTID":3270,"ولایت":"پروان","Province":"PARWAN","PC_Code":"0309132","ولسوالي":"سرخ پارسا ","District":"SURKHI PARSA","د_مرکز_نوم__نام_مرکز":"لیسه نسوان بازار لولنج ","Polling_Center_Name":"Female high school_Bazar Lolegn","د_مرکز_ځای__موقعیت_مرکز":"بازار لولنج","Polling_Center_Location":"Bazar Lolenj","Verification_Note":"Building","PS_Male":1,"PS_Female":1,"Map_Accuracy":"تعمیر"},"geometry":{"x":7641845.6285406426,"y":4153564.6278257892}},{"attributes":{"OBJECTID":3271,"ولایت":"وردک","Province":"WARDAK","PC_Code":"0401001","ولسوالي":"میدان شهر","District":"MAYDAN SHAHR","د_مرکز_نوم__نام_مرکز":"تعمیر شاروالی ","Polling_Center_Name":"Municipality Building","د_مرکز_ځای__موقعیت_مرکز":"تعمیرشاروالی میدان شهر","Polling_Center_Location":"Maidan Shahr Municipality Building","Verification_Note":"Building","PS_Male":3,"PS_Female":1,"Map_Accuracy":"تعمیر"},"geometry":{"x":7666107.8406896405,"y":4081923.190844737}},{"attributes":{"OBJECTID":3272,"ولایت":"وردک","Province":"WARDAK","PC_Code":"0402151","ولسوالي":"نرخ","District":"NERKH","د_مرکز_نوم__نام_مرکز":"مکتب اسلم خیل","Polling_Center_Name":"Aslam Khel School","د_مرکز_ځای__موقعیت_مرکز":"اسلم خیل","Polling_Center_Location":"Aslam Khel","Verification_Note":"Village","PS_Male":2,"PS_Female":1,"Map_Accuracy":"قریه"},"geometry":{"x":7645805.4298073947,"y":4075007.2469751462}},{"attributes":{"OBJECTID":3273,"ولایت":"وردک","Province":"WARDAK","PC_Code":"0404084","ولسوالي":"چک وردک","District":"CHAKI WARDAK","د_مرکز_نوم__نام_مرکز":"مدرسه لنگر","Polling_Center_Name":"Langar Madrassa","د_مرکز_ځای__موقعیت_مرکز":"لنگر","Polling_Center_Location":"Langar","Verification_Note":"Building","PS_Male":1,"PS_Female":1,"Map_Accuracy":"تعمیر"},"geometry":{"x":7645856.1436278149,"y":4050129.7398552448}},{"attributes":{"OBJECTID":3274,"ولایت":"وردک","Province":"WARDAK","PC_Code":"0404105","ولسوالي":"چک وردک","District":"CHAKI WARDAK","د_مرکز_نوم__نام_مرکز":"منزل ملا شفیق","Polling_Center_Name":"Molla Shafiq House","د_مرکز_ځای__موقعیت_مرکز":"قریه زمان خیل","Polling_Center_Location":"Zaman Khel Village","Verification_Note":"Village","PS_Male":1,"PS_Female":1,"Map_Accuracy":"قریه"},"geometry":{"x":7642606.4861282669,"y":4046064.2273687646}},{"attributes":{"OBJECTID":3275,"ولایت":"وردک","Province":"WARDAK","PC_Code":"0405127","ولسوالي":"سید آباد","District":"SAYYD ABAD","د_مرکز_نوم__نام_مرکز":"مسجد قریه سلطان خیل ","Polling_Center_Name":"Sultan Khel Mosque","د_مرکز_ځای__موقعیت_مرکز":"سلطان خیل","Polling_Center_Location":"Sultan Khel","Verification_Note":"Village","PS_Male":1,"PS_Female":1,"Map_Accuracy":"قریه"},"geometry":{"x":7640689.2160667963,"y":4012345.8313597888}},{"attributes":{"OBJECTID":3276,"ولایت":"وردک","Province":"WARDAK","PC_Code":"0405128","ولسوالي":"سید آباد","District":"SAYYD ABAD","د_مرکز_نوم__نام_مرکز":"مکتب المار","Polling_Center_Name":"Almar School","د_مرکز_ځای__موقعیت_مرکز":"بهادرخیل","Polling_Center_Location":"Bahadur Khel","Verification_Note":"Village","PS_Male":1,"PS_Female":1,"Map_Accuracy":"قریه"},"geometry":{"x":7639853.28795417,"y":4016224.6420119256}},{"attributes":{"OBJECTID":3277,"ولایت":"وردک","Province":"WARDAK","PC_Code":"0406070","ولسوالي":"دایمیرداد","District":"DAYMIRDAD","د_مرکز_نوم__نام_مرکز":"کلینیک تنگی سیدان","Polling_Center_Name":"Tangi Saiedan Clinic","د_مرکز_ځای__موقعیت_مرکز":"تنگی سیدان","Polling_Center_Location":"Tangi Saiedan","Verification_Note":"Village","PS_Male":2,"PS_Female":1,"Map_Accuracy":"قریه"},"geometry":{"x":7623959.4639789909,"y":4060738.1109890863}},{"attributes":{"OBJECTID":3278,"ولایت":"وردک","Province":"WARDAK","PC_Code":"0409034","ولسوالي":"مرکز بهسود","District":"MARKAZ-E-BEHSUD","د_مرکز_نوم__نام_مرکز":"مسجد درنجوی","Polling_Center_Name":"DarunJoi Mosque","د_مرکز_ځای__موقعیت_مرکز":"قریه درنجوی","Polling_Center_Location":"Darun Joi Village","Verification_Note":"Village","PS_Male":2,"PS_Female":1,"Map_Accuracy":"قریه"},"geometry":{"x":7558504.3492331356,"y":4078854.1669928133}},{"attributes":{"OBJECTID":3279,"ولایت":"وردک","Province":"WARDAK","PC_Code":"0409055","ولسوالي":"مرکز بهسود","District":"MARKAZ-E-BEHSUD","د_مرکز_نوم__نام_مرکز":"مکتب باد آسیاب","Polling_Center_Name":"Bad-e-Asyab School","د_مرکز_ځای__موقعیت_مرکز":"کوته مکتب","Polling_Center_Location":"Kuta Maktab","Verification_Note":"Building","PS_Male":1,"PS_Female":1,"Map_Accuracy":"تعمیر"},"geometry":{"x":7566550.3316713534,"y":4078871.7390809134}},{"attributes":{"OBJECTID":3280,"ولایت":"لوگر","Province":"LOGAR","PC_Code":"0501014","ولسوالي":"پل علم","District":"PULI ALAM","د_مرکز_نوم__نام_مرکز":"مکتب چوڼى","Polling_Center_Name":"Choni School","د_مرکز_ځای__موقعیت_مرکز":"چوڼى","Polling_Center_Location":"Choni","Verification_Note":"Building","PS_Male":1,"PS_Female":2,"Map_Accuracy":"تعمیر"},"geometry":{"x":7695545.53864212,"y":4012296.2371114343}},{"attributes":{"OBJECTID":3281,"ولایت":"لوگر","Province":"LOGAR","PC_Code":"0502036","ولسوالي":"برکی برک","District":"BARAKI BARAK","د_مرکز_نوم__نام_مرکز":"مسجد قلعه بادى ","Polling_Center_Name":"Qala-e-Badi Mosque","د_مرکز_ځای__موقعیت_مرکز":"قلعه بادى","Polling_Center_Location":"Qala-e-Badi","Verification_Note":"Building","PS_Male":2,"PS_Female":1,"Map_Accuracy":"تعمیر"},"geometry":{"x":7678606.43800674,"y":4024896.2680424377}},{"attributes":{"OBJECTID":3282,"ولایت":"لوگر","Province":"LOGAR","PC_Code":"0505058","ولسوالي":"محمد آغه","District":"MOHAMMAD AGHA","د_مرکز_نوم__نام_مرکز":"مکتب اناث و ذکور زرغون شهر","Polling_Center_Name":"Zarghon Shahr Boys & Girls School","د_مرکز_ځای__موقعیت_مرکز":"زرغون شهر","Polling_Center_Location":"Zarghon Shahr","Verification_Note":"Building","PS_Male":3,"PS_Female":3,"Map_Accuracy":"تعمیر"},"geometry":{"x":7695448.31553844,"y":4044300.1131166965}},{"attributes":{"OBJECTID":3283,"ولایت":"لوگر","Province":"LOGAR","PC_Code":"0505059","ولسوالي":"محمد آغه","District":"MOHAMMAD AGHA","د_مرکز_نوم__نام_مرکز":"مکتب گماران","Polling_Center_Name":"Gumaran School","د_مرکز_ځای__موقعیت_مرکز":"گماران","Polling_Center_Location":"Gomaran","Verification_Note":"Building","PS_Male":2,"PS_Female":1,"Map_Accuracy":"تعمیر"},"geometry":{"x":7697682.3440977633,"y":4066886.1241733506}},{"attributes":{"OBJECTID":3284,"ولایت":"ننگرهار","Province":"NANGARHAR","PC_Code":"0601020","ولسوالي":"جلال آباد","District":"JALALABAD","د_مرکز_نوم__نام_مرکز":"د ښځو چارو رياست","Polling_Center_Name":"Women Affairs Directorate","د_مرکز_ځای__موقعیت_مرکز":"دریمه ناحیه","Polling_Center_Location":"D03-Nahia 3","Verification_Note":"Building","PS_Male":0,"PS_Female":6,"Map_Accuracy":"تعمیر"},"geometry":{"x":7840587.1101296879,"y":4087052.8112360239}},{"attributes":{"OBJECTID":3285,"ولایت":"ننگرهار","Province":"NANGARHAR","PC_Code":"0601041","ولسوالي":"جلال آباد","District":"JALALABAD","د_مرکز_نوم__نام_مرکز":"مجبور آباد مکتب","Polling_Center_Name":"Majboor Abad School","د_مرکز_ځای__موقعیت_مرکز":"څلورمه ناحیه","Polling_Center_Location":"D04-Nahia 4","Verification_Note":"Building","PS_Male":0,"PS_Female":4,"Map_Accuracy":"تعمیر"},"geometry":{"x":7844723.0535625555,"y":4084314.7082781121}},{"attributes":{"OBJECTID":3286,"ولایت":"ننگرهار","Province":"NANGARHAR","PC_Code":"0602067","ولسوالي":"بهسود","District":"BEHSUD","د_مرکز_نوم__نام_مرکز":"هډه  مکتب","Polling_Center_Name":"Hada School","د_مرکز_ځای__موقعیت_مرکز":"هډه","Polling_Center_Location":"Hada","Verification_Note":"Building","PS_Male":4,"PS_Female":0,"Map_Accuracy":"تعمیر"},"geometry":{"x":7844863.0181186832,"y":4077668.3401051909}},{"attributes":{"OBJECTID":3287,"ولایت":"ننگرهار","Province":"NANGARHAR","PC_Code":"0602068","ولسوالي":"بهسود","District":"BEHSUD","د_مرکز_نوم__نام_مرکز":"نجم القرا کلینيک","Polling_Center_Name":"Najmul Qura Clinic ","د_مرکز_ځای__موقعیت_مرکز":"هډه","Polling_Center_Location":"Hada","Verification_Note":"Building","PS_Male":0,"PS_Female":3,"Map_Accuracy":"تعمیر"},"geometry":{"x":7844715.58992466,"y":4077597.3311911747}},{"attributes":{"OBJECTID":3288,"ولایت":"ننگرهار","Province":"NANGARHAR","PC_Code":"0603090","ولسوالي":"سرخرود","District":"SURKH RUD","د_مرکز_نوم__نام_مرکز":"بالاباغ کلینيک","Polling_Center_Name":"Bala Bagh Clinic","د_مرکز_ځای__موقعیت_مرکز":"بالا باغ","Polling_Center_Location":"Bala Bagh","Verification_Note":"Building","PS_Male":0,"PS_Female":2,"Map_Accuracy":"تعمیر"},"geometry":{"x":7817049.5706112236,"y":4081952.3453306183}},{"attributes":{"OBJECTID":3289,"ولایت":"ننگرهار","Province":"NANGARHAR","PC_Code":"0603091","ولسوالي":"سرخرود","District":"SURKH RUD","د_مرکز_نوم__نام_مرکز":"چارباغ مکتب","Polling_Center_Name":"CharBagh School","د_مرکز_ځای__موقعیت_مرکز":"چهارباغ","Polling_Center_Location":"CharBagh","Verification_Note":"Building","PS_Male":2,"PS_Female":1,"Map_Accuracy":"تعمیر"},"geometry":{"x":7834902.8046411015,"y":4087454.7729905993}},{"attributes":{"OBJECTID":3290,"ولایت":"ننگرهار","Province":"NANGARHAR","PC_Code":"0604113","ولسوالي":"چپرهار","District":"CHAPARHAR","د_مرکز_نوم__نام_مرکز":"څلوزي مکتب","Polling_Center_Name":"Salozai School","د_مرکز_ځای__موقعیت_مرکز":"څلوزئي","Polling_Center_Location":"Salozai","Verification_Note":"Village","PS_Male":1,"PS_Female":1,"Map_Accuracy":"قریه"},"geometry":{"x":7830644.24857774,"y":4070874.2173012272}},{"attributes":{"OBJECTID":3291,"ولایت":"ننگرهار","Province":"NANGARHAR","PC_Code":"0604114","ولسوالي":"چپرهار","District":"CHAPARHAR","د_مرکز_نوم__نام_مرکز":"پتیرۍ کلي ميدان","Polling_Center_Name":"Pateray Village Maidan","د_مرکز_ځای__موقعیت_مرکز":"پتيرۍ کلي","Polling_Center_Location":"Pateray Village","Verification_Note":"Village","PS_Male":1,"PS_Female":1,"Map_Accuracy":"قریه"},"geometry":{"x":7828357.6571812555,"y":4069268.4773516804}},{"attributes":{"OBJECTID":3292,"ولایت":"ننگرهار","Province":"NANGARHAR","PC_Code":"0605184","ولسوالي":"کامه","District":"KAMA","د_مرکز_نوم__نام_مرکز":"کوچي کلي ميدان","Polling_Center_Name":"Kochi Village Maidan","د_مرکز_ځای__موقعیت_مرکز":"ګج","Polling_Center_Location":"Gach","Verification_Note":"Village","PS_Male":1,"PS_Female":2,"Map_Accuracy":"قریه"},"geometry":{"x":7856378.0765651576,"y":4090063.3724705577}},{"attributes":{"OBJECTID":3293,"ولایت":"ننگرهار","Province":"NANGARHAR","PC_Code":"0605185","ولسوالي":"کامه","District":"KAMA","د_مرکز_نوم__نام_مرکز":"سپدري جومات","Polling_Center_Name":"Spadree Mosque","د_مرکز_ځای__موقعیت_مرکز":"سپدري","Polling_Center_Location":"Spadree","Verification_Note":"Building","PS_Male":1,"PS_Female":2,"Map_Accuracy":"تعمیر"},"geometry":{"x":7863798.1573740132,"y":4088647.6947048977}},{"attributes":{"OBJECTID":3294,"ولایت":"ننگرهار","Province":"NANGARHAR","PC_Code":"0605183","ولسوالي":"کامه","District":"KAMA","د_مرکز_نوم__نام_مرکز":"ډاک کلي میدان","Polling_Center_Name":"Daag Village Maidan","د_مرکز_ځای__موقعیت_مرکز":"ډاګ کلي","Polling_Center_Location":"Dak Village","Verification_Note":"Village","PS_Male":1,"PS_Female":1,"Map_Accuracy":"قریه"},"geometry":{"x":7854117.8411713056,"y":4087510.2384131327}},{"attributes":{"OBJECTID":3295,"ولایت":"ننگرهار","Province":"NANGARHAR","PC_Code":"0613337","ولسوالي":"کوټ","District":"KOT","د_مرکز_نوم__نام_مرکز":"مکتب ابتدائیه پورشاه خیل","Polling_Center_Name":"Poorshah Khel Primary School","د_مرکز_ځای__موقعیت_مرکز":"لاغورجۍ کلی","Polling_Center_Location":"Laghorjay Village","Verification_Note":"Building","PS_Male":2,"PS_Female":0,"Map_Accuracy":"تعمیر"},"geometry":{"x":7854059.1969503611,"y":4045319.5525882393}},{"attributes":{"OBJECTID":3296,"ولایت":"ننگرهار","Province":"NANGARHAR","PC_Code":"0606207","ولسوالي":"کوز کنړ","District":"KUZ KUNAR","د_مرکز_نوم__نام_مرکز":"پوري کلي جومات","Polling_Center_Name":"Poory Village Mosque","د_مرکز_ځای__موقعیت_مرکز":"بوډيالۍ پوري کلي","Polling_Center_Location":"Bodyalai Poory Village","Verification_Note":"Village","PS_Male":2,"PS_Female":0,"Map_Accuracy":"قریه"},"geometry":{"x":7860977.3916086,"y":4110758.0475531146}},{"attributes":{"OBJECTID":3297,"ولایت":"ننگرهار","Province":"NANGARHAR","PC_Code":"0606208","ولسوالي":"کوز کنړ","District":"KUZ KUNAR","د_مرکز_نوم__نام_مرکز":"رحمت آباد جومات","Polling_Center_Name":"Rahmat Abad Mosque","د_مرکز_ځای__موقعیت_مرکز":"رحمت آباد","Polling_Center_Location":"Rahmat Abad","Verification_Note":"Building","PS_Male":1,"PS_Female":1,"Map_Accuracy":"تعمیر"},"geometry":{"x":7859062.7754037865,"y":4108147.5642205477}},{"attributes":{"OBJECTID":3298,"ولایت":"ننگرهار","Province":"NANGARHAR","PC_Code":"0607143","ولسوالي":"رودات","District":"RODAT","د_مرکز_نوم__نام_مرکز":"کاترغي جومات","Polling_Center_Name":"Katarghey Mosque","د_مرکز_ځای__موقعیت_مرکز":"کاترغى","Polling_Center_Location":"Katarghey","Verification_Note":"Building","PS_Male":2,"PS_Female":0,"Map_Accuracy":"تعمیر"},"geometry":{"x":7850731.7794469073,"y":4068078.1644342467}},{"attributes":{"OBJECTID":3299,"ولایت":"ننگرهار","Province":"NANGARHAR","PC_Code":"0607144","ولسوالي":"رودات","District":"RODAT","د_مرکز_نوم__نام_مرکز":"خالی میدان","Polling_Center_Name":"Open Space","د_مرکز_ځای__موقعیت_مرکز":"کاترغى","Polling_Center_Location":"Katarghey","Verification_Note":"Village","PS_Male":0,"PS_Female":2,"Map_Accuracy":"قریه"},"geometry":{"x":7850694.4729459621,"y":4068450.4342780635}},{"attributes":{"OBJECTID":3300,"ولایت":"ننگرهار","Province":"NANGARHAR","PC_Code":"0608293","ولسوالي":"خوګیاڼي","District":"KHUGYANI","د_مرکز_نوم__نام_مرکز":"لیسه سور ډاګ","Polling_Center_Name":"Soor Daag High School","د_مرکز_ځای__موقعیت_مرکز":"سور ډاګ","Polling_Center_Location":"Soor Daag","Verification_Note":"Village","PS_Male":2,"PS_Female":1,"Map_Accuracy":"قریه"},"geometry":{"x":7820630.5037834272,"y":4063885.8380759284}},{"attributes":{"OBJECTID":3301,"ولایت":"ننگرهار","Province":"NANGARHAR","PC_Code":"0608294","ولسوالي":"خوګیاڼي","District":"KHUGYANI","د_مرکز_نوم__نام_مرکز":"زاوه مکتب","Polling_Center_Name":"Zaawa School","د_مرکز_ځای__موقعیت_مرکز":"زاوه","Polling_Center_Location":"Zaawa","Verification_Note":"Village","PS_Male":2,"PS_Female":1,"Map_Accuracy":"قریه"},"geometry":{"x":7805756.8773003891,"y":4063196.3898825273}},{"attributes":{"OBJECTID":3302,"ولایت":"ننگرهار","Province":"NANGARHAR","PC_Code":"0609454","ولسوالي":"بټي کوټ","District":"BATI KOT","د_مرکز_نوم__نام_مرکز":"دامان جومات","Polling_Center_Name":"Damaan Mosque","د_مرکز_ځای__موقعیت_مرکز":"دامان کلي","Polling_Center_Location":"Damaan Village","Verification_Note":"Village","PS_Male":2,"PS_Female":1,"Map_Accuracy":"قریه"},"geometry":{"x":7875888.0028792582,"y":4065840.4659430459}},{"attributes":{"OBJECTID":3303,"ولایت":"ننگرهار","Province":"NANGARHAR","PC_Code":"0612217","ولسوالي":"دره نور","District":"DARAH-E-NOOR","د_مرکز_نوم__نام_مرکز":"برکلی مسجد","Polling_Center_Name":"Bar kaley Mosque","د_مرکز_ځای__موقعیت_مرکز":"ډاګه","Polling_Center_Location":"Daaga","Verification_Note":"Village","PS_Male":2,"PS_Female":1,"Map_Accuracy":"قریه"},"geometry":{"x":7859103.7498819567,"y":4114414.6694800705}},{"attributes":{"OBJECTID":3304,"ولایت":"ننگرهار","Province":"NANGARHAR","PC_Code":"0614494","ولسوالي":"ګوشته","District":"GOSHTA","د_مرکز_نوم__نام_مرکز":"حبيب  خان کور","Polling_Center_Name":"Habib Khan House","د_مرکز_ځای__موقعیت_مرکز":"دورخيل","Polling_Center_Location":"Dor Khel","Verification_Note":"Village","PS_Male":0,"PS_Female":2,"Map_Accuracy":"قریه"},"geometry":{"x":7881693.6716596857,"y":4076057.0670229122}},{"attributes":{"OBJECTID":3305,"ولایت":"ننگرهار","Province":"NANGARHAR","PC_Code":"0615384","ولسوالي":"اچین","District":"ACHIN","د_مرکز_نوم__نام_مرکز":"بندرخوله حاجی یونس حجره ","Polling_Center_Name":"Bandar Khola Haji Younus Hujra","د_مرکز_ځای__موقعیت_مرکز":"باندرخوله","Polling_Center_Location":"Bandar Khola","Verification_Note":"Village","PS_Male":0,"PS_Female":2,"Map_Accuracy":"قریه"},"geometry":{"x":7877549.9182739854,"y":4038466.502488941}},{"attributes":{"OBJECTID":3306,"ولایت":"ننگرهار","Province":"NANGARHAR","PC_Code":"0615371","ولسوالي":"اچین","District":"ACHIN","د_مرکز_نوم__نام_مرکز":"معروف چينه جامع جومات","Polling_Center_Name":"Maroof Cheena Jaame Mosque","د_مرکز_ځای__موقعیت_مرکز":"معروف چينه","Polling_Center_Location":"Maroof Cheena","Verification_Note":"Building","PS_Male":1,"PS_Female":1,"Map_Accuracy":"تعمیر"},"geometry":{"x":7871358.1400661208,"y":4055531.3200066015}},{"attributes":{"OBJECTID":3307,"ولایت":"ننگرهار","Province":"NANGARHAR","PC_Code":"0615372","ولسوالي":"اچین","District":"ACHIN","د_مرکز_نوم__نام_مرکز":"زري خوله جومات","Polling_Center_Name":"Zaree khola Mosque","د_مرکز_ځای__موقعیت_مرکز":"زري خوله","Polling_Center_Location":"Zaree Khola","Verification_Note":"Village","PS_Male":2,"PS_Female":0,"Map_Accuracy":"قریه"},"geometry":{"x":7876719.794359602,"y":4033428.5699320734}},{"attributes":{"OBJECTID":3308,"ولایت":"ننگرهار","Province":"NANGARHAR","PC_Code":"0619239","ولسوالي":"شیرزاد","District":"SHER ZAD","د_مرکز_نوم__نام_مرکز":"خاده خيل مکتب","Polling_Center_Name":"Khada Khel High School","د_مرکز_ځای__موقعیت_مرکز":"خاده خيل","Polling_Center_Location":"Khada Khel","Verification_Note":"Village","PS_Male":3,"PS_Female":0,"Map_Accuracy":"قریه"},"geometry":{"x":7797466.1645276472,"y":4056500.7735871822}},{"attributes":{"OBJECTID":3309,"ولایت":"ننگرهار","Province":"NANGARHAR","PC_Code":"0616436","ولسوالي":"شینوار","District":"SHINWAR","د_مرکز_نوم__نام_مرکز":"حضرت بلال مدرسه","Polling_Center_Name":"Hazrat Bilal Madrassa","د_مرکز_ځای__موقعیت_مرکز":"شيرګړ","Polling_Center_Location":"Sher Garh","Verification_Note":"Building","PS_Male":0,"PS_Female":3,"Map_Accuracy":"تعمیر"},"geometry":{"x":7880946.2592401691,"y":4054822.0884784833}},{"attributes":{"OBJECTID":3310,"ولایت":"ننگرهار","Province":"NANGARHAR","PC_Code":"0616437","ولسوالي":"شینوار","District":"SHINWAR","د_مرکز_نوم__نام_مرکز":"مکتب ٢٨ وياله","Polling_Center_Name":"28 Viyala School","د_مرکز_ځای__موقعیت_مرکز":"٢٨ وياله","Polling_Center_Location":"28 Viyala","Verification_Note":"Building","PS_Male":4,"PS_Female":1,"Map_Accuracy":"تعمیر"},"geometry":{"x":7886913.2722641639,"y":4058132.027839683}},{"attributes":{"OBJECTID":3311,"ولایت":"ننگرهار","Province":"NANGARHAR","PC_Code":"0618502","ولسوالي":"لعل پور","District":"LALPOOR","د_مرکز_نوم__نام_مرکز":"شيرآباد ليسه","Polling_Center_Name":"Sher Abad High School","د_مرکز_ځای__موقعیت_مرکز":"لالپور","Polling_Center_Location":"Lal Poora","Verification_Note":"Building","PS_Male":4,"PS_Female":2,"Map_Accuracy":"تعمیر"},"geometry":{"x":7908481.8288083076,"y":4059932.9160403535}},{"attributes":{"OBJECTID":3312,"ولایت":"ننگرهار","Province":"NANGARHAR","PC_Code":"0620411","ولسوالي":"نازیان","District":"NAZYAN","د_مرکز_نوم__نام_مرکز":"سروبي مشورتي دفتر","Polling_Center_Name":"Sarobay Consultancy Office","د_مرکز_ځای__موقعیت_مرکز":"سروبي","Polling_Center_Location":"Sarobay","Verification_Note":"Village","PS_Male":0,"PS_Female":3,"Map_Accuracy":"قریه"},"geometry":{"x":7882598.7069122046,"y":4045900.5175097287}},{"attributes":{"OBJECTID":3313,"ولایت":"ننگرهار","Province":"NANGARHAR","PC_Code":"0621251","ولسوالي":"حصارک","District":"HESARAK","د_مرکز_نوم__نام_مرکز":"سيا اب","Polling_Center_Name":"Siya Aab ","د_مرکز_ځای__موقعیت_مرکز":"سيا اب کلی","Polling_Center_Location":"Siya Aab Village","Verification_Note":"Village","PS_Male":0,"PS_Female":2,"Map_Accuracy":"قریه"},"geometry":{"x":7775515.8444689959,"y":4069977.05975163}},{"attributes":{"OBJECTID":3314,"ولایت":"ننگرهار","Province":"NANGARHAR","PC_Code":"0621274","ولسوالي":"حصارک","District":"HESARAK","د_مرکز_نوم__نام_مرکز":"ناوي تيګه","Polling_Center_Name":"Naawi Teega ","د_مرکز_ځای__موقعیت_مرکز":"ناوي تيکه","Polling_Center_Location":"Naawi Teega","Verification_Note":"Village","PS_Male":1,"PS_Female":1,"Map_Accuracy":"قریه"},"geometry":{"x":7776285.47959847,"y":4069941.8893329874}},{"attributes":{"OBJECTID":3315,"ولایت":"ننگرهار","Province":"NANGARHAR","PC_Code":"0621275","ولسوالي":"حصارک","District":"HESARAK","د_مرکز_نوم__نام_مرکز":"ناور ابتدائيه","Polling_Center_Name":"Naawar Primary School","د_مرکز_ځای__موقعیت_مرکز":"ناور","Polling_Center_Location":"Naawar","Verification_Note":"Village","PS_Male":1,"PS_Female":1,"Map_Accuracy":"قریه"},"geometry":{"x":7770315.22161131,"y":4065655.5713248476}},{"attributes":{"OBJECTID":3316,"ولایت":"لغمان","Province":"LAGHMAN","PC_Code":"0701012","ولسوالي":"مهترلام","District":"MEHTARLAM","د_مرکز_نوم__نام_مرکز":"د ګلارام ښوونځی","Polling_Center_Name":"Gularam School","د_مرکز_ځای__موقعیت_مرکز":"ګلارام","Polling_Center_Location":"Mahtarlam","Verification_Note":"Village","PS_Male":1,"PS_Female":1,"Map_Accuracy":"قریه"},"geometry":{"x":7822318.9009718224,"y":4123672.7748402581}},{"attributes":{"OBJECTID":3317,"ولایت":"غزنى","Province":"GHAZNI","PC_Code":"1101053","ولسوالي":"غزنی","District":"GHAZNI","د_مرکز_نوم__نام_مرکز":"مسجد قلعه کوچی","Polling_Center_Name":"Qala-e-Kochi Mosque","د_مرکز_ځای__موقعیت_مرکز":"قلعه کوچی","Polling_Center_Location":"Qala-e-Kuchi","Verification_Note":"Village","PS_Male":1,"PS_Female":2,"Map_Accuracy":"قریه"},"geometry":{"x":7610053.2862473689,"y":3967817.8426645771}},{"attributes":{"OBJECTID":3318,"ولایت":"لغمان","Province":"LAGHMAN","PC_Code":"0704067","ولسوالي":"علینګار","District":"ALINGAR","د_مرکز_نوم__نام_مرکز":"دنيمنائي دکلي جومات","Polling_Center_Name":"Nimnaye Village Mosque","د_مرکز_ځای__موقعیت_مرکز":"نیمنایی نیازی","Polling_Center_Location":"Nimnaye Niazai","Verification_Note":"Village","PS_Male":3,"PS_Female":2,"Map_Accuracy":"قریه"},"geometry":{"x":7827244.525725428,"y":4131545.66444584}},{"attributes":{"OBJECTID":3319,"ولایت":"لغمان","Province":"LAGHMAN","PC_Code":"0704068","ولسوالي":"علینګار","District":"ALINGAR","د_مرکز_نوم__نام_مرکز":"د شېخانو لېسه ","Polling_Center_Name":"Shekhano High School","د_مرکز_ځای__موقعیت_مرکز":"شیخانو کلی","Polling_Center_Location":"Shekhano Village","Verification_Note":"Building","PS_Male":2,"PS_Female":2,"Map_Accuracy":"تعمیر"},"geometry":{"x":7829442.2696967274,"y":4134140.7572472766}},{"attributes":{"OBJECTID":3320,"ولایت":"لغمان","Province":"LAGHMAN","PC_Code":"0705110","ولسوالي":"دولت شاه","District":"DAWLAT SHAH","د_مرکز_نوم__نام_مرکز":"د کېل جومات ","Polling_Center_Name":"Kel Mosque","د_مرکز_ځای__موقعیت_مرکز":"کیل","Polling_Center_Location":"Kel","Verification_Note":"Village","PS_Male":2,"PS_Female":0,"Map_Accuracy":"قریه"},"geometry":{"x":7792553.2513466924,"y":4163133.593033798}},{"attributes":{"OBJECTID":3321,"ولایت":"لغمان","Province":"LAGHMAN","PC_Code":"0705111","ولسوالي":"دولت شاه","District":"DAWLAT SHAH","د_مرکز_نوم__نام_مرکز":"د نيل خان جومات ","Polling_Center_Name":"Nil Khan Mosque","د_مرکز_ځای__موقعیت_مرکز":"نیل خان","Polling_Center_Location":"Nil Khan","Verification_Note":"Building","PS_Male":1,"PS_Female":1,"Map_Accuracy":"تعمیر"},"geometry":{"x":7788167.4292754792,"y":4166766.5553181171}},{"attributes":{"OBJECTID":3322,"ولایت":"پنجشیر","Province":"PANJSHIR","PC_Code":"0801004","ولسوالي":" بازارک","District":"BAZARAK","د_مرکز_نوم__نام_مرکز":"مکتب متوسط ملسیه","Polling_Center_Name":"Malsapa Secondar School","د_مرکز_ځای__موقعیت_مرکز":"ملسپه","Polling_Center_Location":"Malsapa","Verification_Note":"Building","PS_Male":2,"PS_Female":1,"Map_Accuracy":"تعمیر"},"geometry":{"x":7742446.37595927,"y":4209265.1870652437}},{"attributes":{"OBJECTID":3323,"ولایت":"پنجشیر","Province":"PANJSHIR","PC_Code":"0801005","ولسوالي":" بازارک","District":"BAZARAK","د_مرکز_نوم__نام_مرکز":"مدرسه جامع خانیز","Polling_Center_Name":"Khan Khez Madrassa","د_مرکز_ځای__موقعیت_مرکز":"خانیز","Polling_Center_Location":"Khan khez","Verification_Note":"Building","PS_Male":1,"PS_Female":1,"Map_Accuracy":"تعمیر"},"geometry":{"x":7736545.670389954,"y":4203805.4656482935}},{"attributes":{"OBJECTID":3324,"ولایت":"پنجشیر","Province":"PANJSHIR","PC_Code":"0803060","ولسوالي":"دره","District":"DARAH","د_مرکز_نوم__نام_مرکز":"مکتب تند خو","Polling_Center_Name":"Tund Kho School","د_مرکز_ځای__موقعیت_مرکز":"تند خو ","Polling_Center_Location":"Tund kho","Verification_Note":"Village","PS_Male":1,"PS_Female":1,"Map_Accuracy":"قریه"},"geometry":{"x":7751922.3396331407,"y":4200192.9183081016}},{"attributes":{"OBJECTID":3325,"ولایت":"پنجشیر","Province":"PANJSHIR","PC_Code":"0803061","ولسوالي":"دره","District":"DARAH","د_مرکز_نوم__نام_مرکز":"مسجد جامع پوجاوه ","Polling_Center_Name":"Pojawa Mosque","د_مرکز_ځای__موقعیت_مرکز":"پوجاوه ","Polling_Center_Location":"Pojawa","Verification_Note":"Building","PS_Male":1,"PS_Female":1,"Map_Accuracy":"تعمیر"},"geometry":{"x":7754094.8563814349,"y":4208636.7984247282}},{"attributes":{"OBJECTID":3326,"ولایت":"پنجشیر","Province":"PANJSHIR","PC_Code":"0805037","ولسوالي":"عنابه","District":"UNABA","د_مرکز_نوم__نام_مرکز":"کلینیک زنانه ","Polling_Center_Name":"ladies Clinic ","د_مرکز_ځای__موقعیت_مرکز":"کرگیم ","Polling_Center_Location":"Kargeem","Verification_Note":"Building","PS_Male":0,"PS_Female":2,"Map_Accuracy":"تعمیر"},"geometry":{"x":7727631.4081687033,"y":4193811.4086092785}},{"attributes":{"OBJECTID":3327,"ولایت":"پنجشیر","Province":"PANJSHIR","PC_Code":"0807074","ولسوالي":"پریان","District":"PARYAN","د_مرکز_نوم__نام_مرکز":"مکتب متوسط تل ","Polling_Center_Name":"Tal Secondary School ","د_مرکز_ځای__موقعیت_مرکز":"تل","Polling_Center_Location":"Tal ","Verification_Note":"Village","PS_Male":2,"PS_Female":0,"Map_Accuracy":"قریه"},"geometry":{"x":7777395.066641707,"y":4240636.2744995058}},{"attributes":{"OBJECTID":3328,"ولایت":"پنجشیر","Province":"PANJSHIR","PC_Code":"0807075","ولسوالي":"پریان","District":"PARYAN","د_مرکز_نوم__نام_مرکز":"مکتب خواجه عارف","Polling_Center_Name":"Khwaja Arif School","د_مرکز_ځای__موقعیت_مرکز":"آریوب","Polling_Center_Location":"Aryob ","Verification_Note":"Village","PS_Male":1,"PS_Female":1,"Map_Accuracy":"قریه"},"geometry":{"x":7786179.9388792217,"y":4236153.1093973517}},{"attributes":{"OBJECTID":3329,"ولایت":"پنجشیر","Province":"PANJSHIR","PC_Code":"0808065","ولسوالي":"آبشار","District":"ABSHAR","د_مرکز_نوم__نام_مرکز":"مکتب ذکور پرنګان ","Polling_Center_Name":"Parngan Boys School","د_مرکز_ځای__موقعیت_مرکز":"پرنگال","Polling_Center_Location":"Parngan","Verification_Note":"Village","PS_Male":3,"PS_Female":0,"Map_Accuracy":"قریه"},"geometry":{"x":7763942.5225142315,"y":4195685.154728882}},{"attributes":{"OBJECTID":3330,"ولایت":"بغلان","Province":"BAGHLAN","PC_Code":"0901020","ولسوالي":"پلخمری","District":"PUL-E-KHUMRI","د_مرکز_نوم__نام_مرکز":"کمپ خواجه الوان سرک پلخمری مزار شریف","Polling_Center_Name":"Khawaja Alvan Camp","د_مرکز_ځای__موقعیت_مرکز":"خواجه الوان کمپ کهنه","Polling_Center_Location":"Khwaja Alvan Old Camp","Verification_Note":"Building","PS_Male":1,"PS_Female":1,"Map_Accuracy":"تعمیر"},"geometry":{"x":7631928.6304025874,"y":4314663.0004242212}},{"attributes":{"OBJECTID":3331,"ولایت":"بغلان","Province":"BAGHLAN","PC_Code":"0901039","ولسوالي":"پلخمری","District":"PUL-E-KHUMRI","د_مرکز_نوم__نام_مرکز":" نزدیک رباطک مکتب قره سای","Polling_Center_Name":"Qura Sai School","د_مرکز_ځای__موقعیت_مرکز":"قره سایی پائین","Polling_Center_Location":"Qura Saiee Payin, near to Rubatak","Verification_Note":"Building","PS_Male":2,"PS_Female":1,"Map_Accuracy":"تعمیر"},"geometry":{"x":7624915.9466473758,"y":4315560.93351423}},{"attributes":{"OBJECTID":3332,"ولایت":"بغلان","Province":"BAGHLAN","PC_Code":"0902086","ولسوالي":"دهنه غوری","District":"DAHANA-E-GHURI","د_مرکز_نوم__نام_مرکز":"مکتب متوسطه دره تران ","Polling_Center_Name":"Dara Turan Secondary School","د_مرکز_ځای__موقعیت_مرکز":"دره تران خواجه پاک","Polling_Center_Location":"Toran Khawaja Pak Village","Verification_Note":"Building","PS_Male":1,"PS_Female":1,"Map_Accuracy":"تعمیر"},"geometry":{"x":7608767.6140336022,"y":4282171.0120087638}},{"attributes":{"OBJECTID":3333,"ولایت":"بغلان","Province":"BAGHLAN","PC_Code":"0903105","ولسوالي":"دوشی","District":"DUSHI","د_مرکز_نوم__نام_مرکز":" کلینیک چار در","Polling_Center_Name":"Char Dar Clinic","د_مرکز_ځای__موقعیت_مرکز":"قریه چار در","Polling_Center_Location":"Char Dar Village ","Verification_Note":"Village","PS_Male":2,"PS_Female":2,"Map_Accuracy":"قریه"},"geometry":{"x":7637607.4906982817,"y":4217867.713028051}},{"attributes":{"OBJECTID":3334,"ولایت":"بغلان","Province":"BAGHLAN","PC_Code":"0904142","ولسوالي":"نهرین","District":"NAHREEN","د_مرکز_نوم__نام_مرکز":"مکتب  شیندره ","Polling_Center_Name":"Shindara School","د_مرکز_ځای__موقعیت_مرکز":"قریه شین دره","Polling_Center_Location":"Shindara Village","Verification_Note":"Building","PS_Male":1,"PS_Female":1,"Map_Accuracy":"تعمیر"},"geometry":{"x":7698244.9628229849,"y":4308207.61346288}},{"attributes":{"OBJECTID":3335,"ولایت":"بغلان","Province":"BAGHLAN","PC_Code":"0905053","ولسوالي":"بغلان جدید","District":"BAGLAN-E-JADEED","د_مرکز_نوم__نام_مرکز":"کلینیک شهرقدیم بغلان","Polling_Center_Name":"Shair Qadem Baghlan  Clinic","د_مرکز_ځای__موقعیت_مرکز":"قریه علاوالدین","Polling_Center_Location":"Allawuddin  Village ","Verification_Note":"Building","PS_Male":1,"PS_Female":1,"Map_Accuracy":"تعمیر"},"geometry":{"x":7655710.2195368893,"y":4330729.9057560861}},{"attributes":{"OBJECTID":3336,"ولایت":"بغلان","Province":"BAGHLAN","PC_Code":"0905072","ولسوالي":"بغلان جدید","District":"BAGLAN-E-JADEED","د_مرکز_نوم__نام_مرکز":"عظیم شور","Polling_Center_Name":"Azim Shor","د_مرکز_ځای__موقعیت_مرکز":"قریه ملا قدیر","Polling_Center_Location":"Molla Qadir Village","Verification_Note":"Village","PS_Male":2,"PS_Female":1,"Map_Accuracy":"قریه"},"geometry":{"x":7630620.2614804693,"y":4360485.994360052}},{"attributes":{"OBJECTID":3337,"ولایت":"بغلان","Province":"BAGHLAN","PC_Code":"0905073","ولسوالي":"بغلان جدید","District":"BAGLAN-E-JADEED","د_مرکز_نوم__نام_مرکز":" تعمیر استیشن برق ","Polling_Center_Name":"Cham Qala","د_مرکز_ځای__موقعیت_مرکز":"پتن خیل","Polling_Center_Location":"Patan Khil","Verification_Note":"Building","PS_Male":3,"PS_Female":2,"Map_Accuracy":"تعمیر"},"geometry":{"x":7651504.70832409,"y":4318160.1805867776}},{"attributes":{"OBJECTID":3338,"ولایت":"بغلان","Province":"BAGHLAN","PC_Code":"0907124","ولسوالي":"اندراب","District":"ANDARAB","د_مرکز_نوم__نام_مرکز":"مکتب متوسطه خوش دره ","Polling_Center_Name":"Khoshdara Secondary School","د_مرکز_ځای__موقعیت_مرکز":"مرکز خوشدره","Polling_Center_Location":"Khoshdara Center","Verification_Note":"Building","PS_Male":2,"PS_Female":1,"Map_Accuracy":"تعمیر"},"geometry":{"x":7693147.1557601988,"y":4248186.00302659}},{"attributes":{"OBJECTID":3339,"ولایت":"بغلان","Province":"BAGHLAN","PC_Code":"0909197","ولسوالي":"جلگه","District":"JALGA","د_مرکز_نوم__نام_مرکز":"مسجد جامع چهادر ","Polling_Center_Name":"Chardeh Mosque","د_مرکز_ځای__موقعیت_مرکز":"چارده","Polling_Center_Location":"Chardeh","Verification_Note":"Building","PS_Male":2,"PS_Female":1,"Map_Accuracy":"تعمیر"},"geometry":{"x":7707470.5133023188,"y":4282263.163757585}},{"attributes":{"OBJECTID":3340,"ولایت":"بغلان","Province":"BAGHLAN","PC_Code":"0909198","ولسوالي":"جلگه","District":"JALGA","د_مرکز_نوم__نام_مرکز":"مدرسه و مسجد جامع وریچی ","Polling_Center_Name":"Warichi Mosque and Madrassa","د_مرکز_ځای__موقعیت_مرکز":"وریچی","Polling_Center_Location":"Warichi","Verification_Note":"Building","PS_Male":1,"PS_Female":1,"Map_Accuracy":"تعمیر"},"geometry":{"x":7709822.3223356865,"y":4297083.1421693265}},{"attributes":{"OBJECTID":3341,"ولایت":"بغلان","Province":"BAGHLAN","PC_Code":"0911163","ولسوالي":"تاله و برفک","District":"TALA WA BARFAK","د_مرکز_نوم__نام_مرکز":"مکتب ذکور تاله ","Polling_Center_Name":"Tala Boys High School","د_مرکز_ځای__موقعیت_مرکز":"مرکز ولسوالی تاله ","Polling_Center_Location":"Tala District ","Verification_Note":"Building","PS_Male":2,"PS_Female":1,"Map_Accuracy":"تعمیر"},"geometry":{"x":7593567.8058578074,"y":4215813.8671801388}},{"attributes":{"OBJECTID":3342,"ولایت":"بغلان","Province":"BAGHLAN","PC_Code":"0913203","ولسوالي":"خوست و فرنگ","District":"KHOST WA FIRING","د_مرکز_نوم__نام_مرکز":"مکتب محمد افضل شهید","Polling_Center_Name":"Mohammad Afzal Shaheed School","د_مرکز_ځای__موقعیت_مرکز":"چار قشلاق","Polling_Center_Location":"Char Qeshlaq","Verification_Note":"Building","PS_Male":1,"PS_Female":1,"Map_Accuracy":"تعمیر"},"geometry":{"x":7762128.5012804754,"y":4305020.77206026}},{"attributes":{"OBJECTID":3343,"ولایت":"بغلان","Province":"BAGHLAN","PC_Code":"0914226","ولسوالي":"گذرگاه نور","District":"GOZARGAH-E-NOOR","د_مرکز_نوم__نام_مرکز":"مسجد  یاهور","Polling_Center_Name":"Yahoor Mosque","د_مرکز_ځای__موقعیت_مرکز":"یاهور","Polling_Center_Location":"Yahoor","Verification_Note":"Building","PS_Male":1,"PS_Female":2,"Map_Accuracy":"تعمیر"},"geometry":{"x":7741775.9788162522,"y":4333011.0478050485}},{"attributes":{"OBJECTID":3344,"ولایت":"باميان","Province":"BAMYAN","PC_Code":"1001015","ولسوالي":"بامیان","District":"BAMYAN","د_مرکز_نوم__نام_مرکز":"مکتب  توپ علی","Polling_Center_Name":"Toop Ali School","د_مرکز_ځای__موقعیت_مرکز":"توپ علی، چارچشمه قرغنتو","Polling_Center_Location":"Toop Ali, Char Cheshma Qarghantu","Verification_Note":"Building","PS_Male":1,"PS_Female":1,"Map_Accuracy":"تعمیر"},"geometry":{"x":7504615.9396115169,"y":4132846.5011731833}},{"attributes":{"OBJECTID":3345,"ولایت":"باميان","Province":"BAMYAN","PC_Code":"1001016","ولسوالي":"بامیان","District":"BAMYAN","د_مرکز_نوم__نام_مرکز":"مکتب پیرداد","Polling_Center_Name":"Peerdad School","د_مرکز_ځای__موقعیت_مرکز":"پیرداد شیبرتو","Polling_Center_Location":"Peerdad Shebarto","Verification_Note":"Building","PS_Male":1,"PS_Female":1,"Map_Accuracy":"تعمیر"},"geometry":{"x":7514393.85183819,"y":4136917.6196386665}},{"attributes":{"OBJECTID":3346,"ولایت":"باميان","Province":"BAMYAN","PC_Code":"1003037","ولسوالي":"سیغان","District":"SAIGHAN","د_مرکز_نوم__نام_مرکز":"دفتر شورای کلانتر ها","Polling_Center_Name":"Kalantarha Council Office","د_مرکز_ځای__موقعیت_مرکز":"کلانتر ها","Polling_Center_Location":"Kalantarha","Verification_Note":"Building","PS_Male":3,"PS_Female":0,"Map_Accuracy":"تعمیر"},"geometry":{"x":7541799.6551627181,"y":4191853.7224646732}},{"attributes":{"OBJECTID":3347,"ولایت":"باميان","Province":"BAMYAN","PC_Code":"1004060","ولسوالي":"کهمرد","District":"KAHMARD","د_مرکز_نوم__نام_مرکز":"مدرسه دو آب","Polling_Center_Name":"Do Aab Madrassa","د_مرکز_ځای__موقعیت_مرکز":"دو آب","Polling_Center_Location":"Do Aab","Verification_Note":"Building","PS_Male":2,"PS_Female":1,"Map_Accuracy":"تعمیر"},"geometry":{"x":7568790.0297323391,"y":4199295.1333477795}},{"attributes":{"OBJECTID":3348,"ولایت":"باميان","Province":"BAMYAN","PC_Code":"1004061","ولسوالي":"کهمرد","District":"KAHMARD","د_مرکز_نوم__نام_مرکز":"مدرسه انداب","Polling_Center_Name":"Andaab Madrassa","د_مرکز_ځای__موقعیت_مرکز":"انداب","Polling_Center_Location":"Andaab","Verification_Note":"Building","PS_Male":2,"PS_Female":1,"Map_Accuracy":"تعمیر"},"geometry":{"x":7555278.4005587436,"y":4209911.1605218649}},{"attributes":{"OBJECTID":3349,"ولایت":"باميان","Province":"BAMYAN","PC_Code":"1005083","ولسوالي":"یکاولنگ","District":"YAKAWLANG","د_مرکز_نوم__نام_مرکز":"لیسه نسوان انده","Polling_Center_Name":"Anda Girls High School","د_مرکز_ځای__موقعیت_مرکز":"انده","Polling_Center_Location":"Anda","Verification_Note":"Building","PS_Male":1,"PS_Female":1,"Map_Accuracy":"تعمیر"},"geometry":{"x":7454793.4042598344,"y":4111770.6102656648}},{"attributes":{"OBJECTID":3350,"ولایت":"باميان","Province":"BAMYAN","PC_Code":"1007122","ولسوالي":"ورس","District":"WARAS","د_مرکز_نوم__نام_مرکز":"مسجد جو قول","Polling_Center_Name":"Jawqol Mosque","د_مرکز_ځای__موقعیت_مرکز":"جو قول","Polling_Center_Location":"Jawqol","Verification_Note":"Building","PS_Male":2,"PS_Female":1,"Map_Accuracy":"تعمیر"},"geometry":{"x":7474225.7520207986,"y":4057653.5163326785}},{"attributes":{"OBJECTID":3351,"ولایت":"باميان","Province":"BAMYAN","PC_Code":"1007123","ولسوالي":"ورس","District":"WARAS","د_مرکز_نوم__نام_مرکز":"مسجد خرابه قول","Polling_Center_Name":"Kharaba Qol Mosque","د_مرکز_ځای__موقعیت_مرکز":"خرابه قول","Polling_Center_Location":"Kharaba Qol","Verification_Note":"Building","PS_Male":1,"PS_Female":1,"Map_Accuracy":"تعمیر"},"geometry":{"x":7439820.6577889919,"y":4064587.7824870422}},{"attributes":{"OBJECTID":3352,"ولایت":"باميان","Province":"BAMYAN","PC_Code":"1007144","ولسوالي":"ورس","District":"WARAS","د_مرکز_نوم__نام_مرکز":"مسجد دیرندر","Polling_Center_Name":"Derandar Mosque","د_مرکز_ځای__موقعیت_مرکز":"دیرندر","Polling_Center_Location":"Derandar","Verification_Note":"Building","PS_Male":1,"PS_Female":1,"Map_Accuracy":"تعمیر"},"geometry":{"x":7474405.7901464514,"y":4049746.3230647147}},{"attributes":{"OBJECTID":3353,"ولایت":"باميان","Province":"BAMYAN","PC_Code":"1007145","ولسوالي":"ورس","District":"WARAS","د_مرکز_نوم__نام_مرکز":"مسجد غورزیلو","Polling_Center_Name":"Ghorzelaw Mosque","د_مرکز_ځای__موقعیت_مرکز":"غور زلاب","Polling_Center_Location":"Ghor Zalaab","Verification_Note":"Building","PS_Male":1,"PS_Female":1,"Map_Accuracy":"تعمیر"},"geometry":{"x":7486624.3443601467,"y":4043954.1743587777}},{"attributes":{"OBJECTID":3354,"ولایت":"غزنى","Province":"GHAZNI","PC_Code":"1101005","ولسوالي":"غزنی","District":"GHAZNI","د_مرکز_نوم__نام_مرکز":"لیسه نسوان حیدر آباد بالا","Polling_Center_Name":"Haider Abad Bala Girls School","د_مرکز_ځای__موقعیت_مرکز":"نزدیک سرک اول قلعه قدم خان","Polling_Center_Location":"Near to First Road of Qala e Qadam Khan","Verification_Note":"Building","PS_Male":0,"PS_Female":4,"Map_Accuracy":"تعمیر"},"geometry":{"x":7613947.432391651,"y":3966851.0404366776}},{"attributes":{"OBJECTID":3355,"ولایت":"غزنى","Province":"GHAZNI","PC_Code":"1101026","ولسوالي":"غزنی","District":"GHAZNI","د_مرکز_نوم__نام_مرکز":"مسجد امام زمان","Polling_Center_Name":"Aman Zaman Mosque","د_مرکز_ځای__موقعیت_مرکز":"قریه نوآباد","Polling_Center_Location":"Nawabad Village","Verification_Note":"Building","PS_Male":0,"PS_Female":4,"Map_Accuracy":"تعمیر"},"geometry":{"x":7615079.7564408779,"y":3972514.2738475874}},{"attributes":{"OBJECTID":3356,"ولایت":"غزنى","Province":"GHAZNI","PC_Code":"1101027","ولسوالي":"غزنی","District":"GHAZNI","د_مرکز_نوم__نام_مرکز":"لیسه سنائی","Polling_Center_Name":"Sanayee High School","د_مرکز_ځای__موقعیت_مرکز":"قریه قلعه ریس","Polling_Center_Location":"Qala-e-Raees","Verification_Note":"Building","PS_Male":3,"PS_Female":0,"Map_Accuracy":"تعمیر"},"geometry":{"x":7616240.0161163248,"y":3970591.9802588597}},{"attributes":{"OBJECTID":3357,"ولایت":"غزنى","Province":"GHAZNI","PC_Code":"1101048","ولسوالي":"غزنی","District":"GHAZNI","د_مرکز_نوم__نام_مرکز":"مسجد زرگر","Polling_Center_Name":"Zargar Mosque","د_مرکز_ځای__موقعیت_مرکز":"قریه زرگر ","Polling_Center_Location":"Zargar Village","Verification_Note":"Building","PS_Male":2,"PS_Female":1,"Map_Accuracy":"تعمیر"},"geometry":{"x":7611358.2623740435,"y":3960689.2996946424}},{"attributes":{"OBJECTID":3358,"ولایت":"غزنى","Province":"GHAZNI","PC_Code":"1106106","ولسوالي":"جغتو","District":"JAGHATU","د_مرکز_نوم__نام_مرکز":"مکتب نو قول اصیل","Polling_Center_Name":"Qoul Asil New School","د_مرکز_ځای__موقعیت_مرکز":"قریه قباق","Polling_Center_Location":"Qabaq Village","Verification_Note":"Building","PS_Male":3,"PS_Female":0,"Map_Accuracy":"تعمیر"},"geometry":{"x":7571528.9457270876,"y":3964835.0372704566}},{"attributes":{"OBJECTID":3359,"ولایت":"غزنى","Province":"GHAZNI","PC_Code":"1104127","ولسوالي":"واغظ","District":"WAGHAZ","د_مرکز_نوم__نام_مرکز":"مسجد قلعه محمد خان","Polling_Center_Name":"Qala-e-Mohammad Khan Mosque","د_مرکز_ځای__موقعیت_مرکز":"قلعه محمد خان","Polling_Center_Location":"Qala-e-Mohammad Khan","Verification_Note":"Village","PS_Male":2,"PS_Female":1,"Map_Accuracy":"قریه"},"geometry":{"x":7597311.9667993635,"y":3956714.590428099}},{"attributes":{"OBJECTID":3360,"ولایت":"غزنى","Province":"GHAZNI","PC_Code":"1107217","ولسوالي":"اندر","District":"ANDAR","د_مرکز_نوم__نام_مرکز":"مسجد قریه جوی چهار","Polling_Center_Name":"Joy Chahar Village Mosque","د_مرکز_ځای__موقعیت_مرکز":"قریه جوی چهار","Polling_Center_Location":"Joy Charhar Village","Verification_Note":"Building","PS_Male":2,"PS_Female":0,"Map_Accuracy":"تعمیر"},"geometry":{"x":7630539.3742894344,"y":3931116.319093205}},{"attributes":{"OBJECTID":3361,"ولایت":"غزنى","Province":"GHAZNI","PC_Code":"1107218","ولسوالي":"اندر","District":"ANDAR","د_مرکز_نوم__نام_مرکز":"مسجد عطامحمد قریه جوی چهار","Polling_Center_Name":"Ata Mohammad Mosque","د_مرکز_ځای__موقعیت_مرکز":"قریه جوی چهار","Polling_Center_Location":"Joy Charhar Village","Verification_Note":"Village","PS_Male":0,"PS_Female":2,"Map_Accuracy":"قریه"},"geometry":{"x":7629801.1991612464,"y":3929389.2055762634}},{"attributes":{"OBJECTID":3362,"ولایت":"غزنى","Province":"GHAZNI","PC_Code":"1107238","ولسوالي":"اندر","District":"ANDAR","د_مرکز_نوم__نام_مرکز":"مسجد قریه سرفراز پایین","Polling_Center_Name":"Sarferaz Payen Village Mosque","د_مرکز_ځای__موقعیت_مرکز":"قریه سرفراز پایین","Polling_Center_Location":"Qala-e-Sarferaz Payen","Verification_Note":"Village","PS_Male":0,"PS_Female":2,"Map_Accuracy":"قریه"},"geometry":{"x":7625086.4658433758,"y":3945767.9849931}},{"attributes":{"OBJECTID":3363,"ولایت":"غزنى","Province":"GHAZNI","PC_Code":"1108077","ولسوالي":"زنخان","District":"ZANAKHAN","د_مرکز_نوم__نام_مرکز":"مسجد کلا سبزی","Polling_Center_Name":"Kala-e-Sabzi Mosque","د_مرکز_ځای__موقعیت_مرکز":" قلعه سبزی","Polling_Center_Location":"Kala-e-Sabzi","Verification_Note":"Village","PS_Male":2,"PS_Female":0,"Map_Accuracy":"قریه"},"geometry":{"x":7649570.9496196471,"y":3996747.9111448377}},{"attributes":{"OBJECTID":3364,"ولایت":"غزنى","Province":"GHAZNI","PC_Code":"1111176","ولسوالي":"قره باغ","District":"QARA BAGH","د_مرکز_نوم__نام_مرکز":"مدرسه محمدیه","Polling_Center_Name":"Mohammadia Madrassa","د_مرکز_ځای__موقعیت_مرکز":"قریه قلیاقل","Polling_Center_Location":"Qalia Qul Village","Verification_Note":"Building","PS_Male":3,"PS_Female":0,"Map_Accuracy":"تعمیر"},"geometry":{"x":7568366.5470122695,"y":3946139.9042153433}},{"attributes":{"OBJECTID":3365,"ولایت":"غزنى","Province":"GHAZNI","PC_Code":"1110272","ولسوالي":"ناور","District":"NAWUR","د_مرکز_نوم__نام_مرکز":"مدرسه اهل بیت","Polling_Center_Name":"Ahl-e-Bayt Madrassa","د_مرکز_ځای__موقعیت_مرکز":"قریه سرټوپ ","Polling_Center_Location":"Sartoop Village","Verification_Note":"Building","PS_Male":2,"PS_Female":1,"Map_Accuracy":"تعمیر"},"geometry":{"x":7518147.624104578,"y":4040537.3305959553}},{"attributes":{"OBJECTID":3366,"ولایت":"غزنى","Province":"GHAZNI","PC_Code":"1111138","ولسوالي":"قره باغ","District":"QARA BAGH","د_مرکز_نوم__نام_مرکز":"مکتب اخندخیل شیر","Polling_Center_Name":"Akhund Khel Sheer Mosque","د_مرکز_ځای__موقعیت_مرکز":"قریه شیر","Polling_Center_Location":"Sheer Village","Verification_Note":"Building","PS_Male":3,"PS_Female":0,"Map_Accuracy":"تعمیر"},"geometry":{"x":7564902.0863100849,"y":3912184.8476643786}},{"attributes":{"OBJECTID":3367,"ولایت":"غزنى","Province":"GHAZNI","PC_Code":"1112208","ولسوالي":"گیرو","District":"GIRO","د_مرکز_نوم__نام_مرکز":"مکتب متوسطه قلعه شکور","Polling_Center_Name":"Qala-e-Shukoor Secondary School","د_مرکز_ځای__موقعیت_مرکز":" قلعه شکور","Polling_Center_Location":"Qala-e-Shukur","Verification_Note":"Village","PS_Male":3,"PS_Female":0,"Map_Accuracy":"قریه"},"geometry":{"x":7592552.912739411,"y":3897721.5898603946}},{"attributes":{"OBJECTID":3368,"ولایت":"غزنى","Province":"GHAZNI","PC_Code":"1112201","ولسوالي":"گیرو","District":"GIRO","د_مرکز_نوم__نام_مرکز":"مسجد قریه عظمت ","Polling_Center_Name":"Azamat Village Mosque","د_مرکز_ځای__موقعیت_مرکز":"قریه عظمت","Polling_Center_Location":"Azamat Village","Verification_Note":"Village","PS_Male":0,"PS_Female":2,"Map_Accuracy":"قریه"},"geometry":{"x":7599572.7955261022,"y":3906007.9994962141}},{"attributes":{"OBJECTID":3369,"ولایت":"پکتيکا","Province":"PAKTIKA","PC_Code":"1201011","ولسوالي":"شرن","District":"SHARAN","د_مرکز_نوم__نام_مرکز":"جومات دلاو","Polling_Center_Name":"Dulow Mosque","د_مرکز_ځای__موقعیت_مرکز":"دلاو","Polling_Center_Location":"Dulow","Verification_Note":"Village","PS_Male":2,"PS_Female":0,"Map_Accuracy":"قریه"},"geometry":{"x":7658378.6122965105,"y":3920950.939203687}},{"attributes":{"OBJECTID":3370,"ولایت":"غزنى","Province":"GHAZNI","PC_Code":"1114324","ولسوالي":"جاغوری","District":"JAGHURI","د_مرکز_نوم__نام_مرکز":"لیسه عالی بابه","Polling_Center_Name":"Baba High School","د_مرکز_ځای__موقعیت_مرکز":"قریه بابه ","Polling_Center_Location":"Baba Village ","Verification_Note":"Building","PS_Male":3,"PS_Female":2,"Map_Accuracy":"تعمیر"},"geometry":{"x":7489939.9965066127,"y":3900227.7479980364}},{"attributes":{"OBJECTID":3371,"ولایت":"غزنى","Province":"GHAZNI","PC_Code":"1114344","ولسوالي":"جاغوری","District":"JAGHURI","د_مرکز_نوم__نام_مرکز":"مکتب قریه سه پای خدایداد","Polling_Center_Name":"3 Pay-e-Khudaydad Village  High School","د_مرکز_ځای__موقعیت_مرکز":"قریه سه پای خدایداد","Polling_Center_Location":"3 Pay-e-Khudaydad Village ","Verification_Note":"Building","PS_Male":1,"PS_Female":1,"Map_Accuracy":"تعمیر"},"geometry":{"x":7521928.9056435265,"y":3920984.4402776882}},{"attributes":{"OBJECTID":3372,"ولایت":"غزنى","Province":"GHAZNI","PC_Code":"1115365","ولسوالي":"مقر","District":"MUQUR","د_مرکز_نوم__نام_مرکز":"مکتب شبنم","Polling_Center_Name":"Shabnam School","د_مرکز_ځای__موقعیت_مرکز":"قریه شبنم دولنه","Polling_Center_Location":"Shabnam Dowlana Village","Verification_Note":"Village","PS_Male":2,"PS_Female":1,"Map_Accuracy":"قریه"},"geometry":{"x":7545757.9035225771,"y":3889447.7459799796}},{"attributes":{"OBJECTID":3373,"ولایت":"غزنى","Province":"GHAZNI","PC_Code":"1115366","ولسوالي":"مقر","District":"MUQUR","د_مرکز_نوم__نام_مرکز":"مسجد قریه لړم","Polling_Center_Name":"Laram Village Mosque","د_مرکز_ځای__موقعیت_مرکز":"قریه لړم","Polling_Center_Location":"Laram Village ","Verification_Note":"Building","PS_Male":2,"PS_Female":1,"Map_Accuracy":"تعمیر"},"geometry":{"x":7556501.3230887465,"y":3884384.3921882957}},{"attributes":{"OBJECTID":3374,"ولایت":"غزنى","Province":"GHAZNI","PC_Code":"1116309","ولسوالي":"مالستان","District":"MALISTAN","د_مرکز_نوم__نام_مرکز":"مسجد میراحمد محبت","Polling_Center_Name":"Mir Ahmad Mohabat Mosque","د_مرکز_ځای__موقعیت_مرکز":"قریه محبت لعلچک ","Polling_Center_Location":"Mohabat Lalchak Village","Verification_Note":"Building","PS_Male":2,"PS_Female":1,"Map_Accuracy":"تعمیر"},"geometry":{"x":7484339.8802791275,"y":3938833.7897369191}},{"attributes":{"OBJECTID":3375,"ولایت":"پکتيکا","Province":"PAKTIKA","PC_Code":"1201001","ولسوالي":"شرن","District":"SHARAN","د_مرکز_نوم__نام_مرکز":"علی بابا  لیسه","Polling_Center_Name":"Ali Baba High School","د_مرکز_ځای__موقعیت_مرکز":"شرنه","Polling_Center_Location":"Sharana","Verification_Note":"Building","PS_Male":6,"PS_Female":0,"Map_Accuracy":"تعمیر"},"geometry":{"x":7657372.3920796476,"y":3918633.7497276813}},{"attributes":{"OBJECTID":3376,"ولایت":"پکتيکا","Province":"PAKTIKA","PC_Code":"1203043","ولسوالي":"یوسف خیل","District":"YOSUF KHEL","د_مرکز_نوم__نام_مرکز":"جومات میست","Polling_Center_Name":"Mest Mosque","د_مرکز_ځای__موقعیت_مرکز":"میست سګی","Polling_Center_Location":"Mest Sagi","Verification_Note":"Village","PS_Male":4,"PS_Female":0,"Map_Accuracy":"قریه"},"geometry":{"x":7631884.0369277708,"y":3890599.7431085706}},{"attributes":{"OBJECTID":3377,"ولایت":"پکتيکا","Province":"PAKTIKA","PC_Code":"1203044","ولسوالي":"یوسف خیل","District":"YOSUF KHEL","د_مرکز_نوم__نام_مرکز":"میلمستون رمضان","Polling_Center_Name":"Ramazan Guest House","د_مرکز_ځای__موقعیت_مرکز":"میست","Polling_Center_Location":"Mest","Verification_Note":"Village","PS_Male":0,"PS_Female":3,"Map_Accuracy":"قریه"},"geometry":{"x":7631888.1969371364,"y":3890600.16237735}},{"attributes":{"OBJECTID":3378,"ولایت":"پکتيکا","Province":"PAKTIKA","PC_Code":"1211169","ولسوالي":"اورگون","District":"URGOON","د_مرکز_نوم__نام_مرکز":"باباصاحب شیخان ښوونځی","Polling_Center_Name":"Baba Sahib Shaikhan School","د_مرکز_ځای__موقعیت_مرکز":"شیخیا ارگون","Polling_Center_Location":"Shaikhia Argon","Verification_Note":"Building","PS_Male":2,"PS_Female":0,"Map_Accuracy":"تعمیر"},"geometry":{"x":7697245.9817126133,"y":3880492.3750419468}},{"attributes":{"OBJECTID":3379,"ولایت":"پکتيکا","Province":"PAKTIKA","PC_Code":"1215268","ولسوالي":"گیان","District":"GIYAN","د_مرکز_نوم__نام_مرکز":"شازار میلمستون","Polling_Center_Name":"Shazar Guest House","د_مرکز_ځای__موقعیت_مرکز":"کمال کلی","Polling_Center_Location":"Kamal Village ","Verification_Note":"Village","PS_Male":0,"PS_Female":3,"Map_Accuracy":"قریه"},"geometry":{"x":7723792.5878113545,"y":3885766.6154567748}},{"attributes":{"OBJECTID":3380,"ولایت":"پکتيا","Province":"PAKTYA","PC_Code":"1301203","ولسوالي":"گردیز","District":"GARDEZ","د_مرکز_نوم__نام_مرکز":"دټنډانو مكتب","Polling_Center_Name":"Tandano School","د_مرکز_ځای__موقعیت_مرکز":"ټنډان","Polling_Center_Location":"Tandan","Verification_Note":"Building","PS_Male":1,"PS_Female":1,"Map_Accuracy":"تعمیر"},"geometry":{"x":7698157.1874044947,"y":3995123.94199349}},{"attributes":{"OBJECTID":3381,"ولایت":"پکتيا","Province":"PAKTYA","PC_Code":"1305119","ولسوالي":"وزه ځدراڼ","District":"WUZA ZADRAN","د_مرکز_نوم__نام_مرکز":"موتی میر خاجان دکان","Polling_Center_Name":"Moti Mir Khan Jan Shop","د_مرکز_ځای__موقعیت_مرکز":"موتی","Polling_Center_Location":"Moti","Verification_Note":"Village","PS_Male":3,"PS_Female":0,"Map_Accuracy":"قریه"},"geometry":{"x":7728675.7731222846,"y":3937889.7501225397}},{"attributes":{"OBJECTID":3382,"ولایت":"پکتيا","Province":"PAKTYA","PC_Code":"1305206","ولسوالي":"وزه ځدراڼ","District":"WUZA ZADRAN","د_مرکز_نوم__نام_مرکز":"غورکی خوله مدرسه","Polling_Center_Name":"Ghorkai Khola Madrassa","د_مرکز_ځای__موقعیت_مرکز":"غورکی خوله، ګرده څیړی","Polling_Center_Location":"Ghorkai Khola, Garda Seri","Verification_Note":"Village","PS_Male":1,"PS_Female":1,"Map_Accuracy":"قریه"},"geometry":{"x":7733533.4061573,"y":3944277.7215688974}},{"attributes":{"OBJECTID":3383,"ولایت":"پکتيا","Province":"PAKTYA","PC_Code":"1308136","ولسوالي":" لجه احمد خیل","District":"LAJA AHMAD KHEL","د_مرکز_نوم__نام_مرکز":"د موشکی مسجد","Polling_Center_Name":"Moshaki Mosque","د_مرکز_ځای__موقعیت_مرکز":"موشکه، احمدخیل","Polling_Center_Location":"Moshaka, Ahmad Khel","Verification_Note":"Village","PS_Male":2,"PS_Female":0,"Map_Accuracy":"قریه"},"geometry":{"x":7752384.1719177812,"y":4004959.4709953591}},{"attributes":{"OBJECTID":3384,"ولایت":"پکتيا","Province":"PAKTYA","PC_Code":"1307074","ولسوالي":"ځاځی اریوب","District":"JAJI ARYOB","د_مرکز_نوم__نام_مرکز":"د احمد خیلو مکتب","Polling_Center_Name":"Ahmad Khel School","د_مرکز_ځای__موقعیت_مرکز":"غونزی احمد خیل","Polling_Center_Location":"Ghonzai Ahmad Khel","Verification_Note":"Building","PS_Male":3,"PS_Female":1,"Map_Accuracy":"تعمیر"},"geometry":{"x":7765403.5340579562,"y":4023339.3469497114}},{"attributes":{"OBJECTID":3385,"ولایت":"پکتيا","Province":"PAKTYA","PC_Code":"1310156","ولسوالي":"څمکنی","District":"SAMKANI","د_مرکز_نوم__نام_مرکز":"د ولسوالی کلینیک","Polling_Center_Name":"District Clinic","د_مرکز_ځای__موقعیت_مرکز":"د ولسوالی مرکز، شهرنو","Polling_Center_Location":"Chamkani District Center, Shahr-e-Naw","Verification_Note":"Building","PS_Male":4,"PS_Female":0,"Map_Accuracy":"تعمیر"},"geometry":{"x":7771736.5410773978,"y":4002542.0849183351}},{"attributes":{"OBJECTID":3386,"ولایت":"خوست","Province":"KHOST","PC_Code":"1401009","ولسوالي":"خوست","District":"KHOST","د_مرکز_نوم__نام_مرکز":" د بوده خان جومات شمل مرديخېل","Polling_Center_Name":"Boda Khan Mosque","د_مرکز_ځای__موقعیت_مرکز":"شمل مرديخيل","Polling_Center_Location":"Shamal Mardi Khel","Verification_Note":"Building","PS_Male":1,"PS_Female":1,"Map_Accuracy":"تعمیر"},"geometry":{"x":7781114.8063133657,"y":3936765.2783806324}},{"attributes":{"OBJECTID":3387,"ولایت":"خوست","Province":"KHOST","PC_Code":"1401030","ولسوالي":"خوست","District":"KHOST","د_مرکز_نوم__نام_مرکز":"جومات او د حنيف هجره لکڼ ټانک ټانک کلى","Polling_Center_Name":"Mosque and Hanif Hojra","د_مرکز_ځای__موقعیت_مرکز":" لکڼ ټانګ ټانګ کلى","Polling_Center_Location":"Lakan Tang  Tang Village","Verification_Note":"Village","PS_Male":3,"PS_Female":2,"Map_Accuracy":"قریه"},"geometry":{"x":7801928.5488050431,"y":3946854.2182909697}},{"attributes":{"OBJECTID":3388,"ولایت":"خوست","Province":"KHOST","PC_Code":"1402082","ولسوالي":"مندوزی","District":"MANDUZAY","د_مرکز_نوم__نام_مرکز":"د حيدرخيلو محمد صديق روهي ليسه","Polling_Center_Name":"Mohammad Sedeq HighSchool","د_مرکز_ځای__موقعیت_مرکز":"حيدرخيل","Polling_Center_Location":"Haider Khel","Verification_Note":"Building","PS_Male":3,"PS_Female":1,"Map_Accuracy":"تعمیر"},"geometry":{"x":7774912.5796580948,"y":3938459.7825494707}},{"attributes":{"OBJECTID":3389,"ولایت":"خوست","Province":"KHOST","PC_Code":"1403153","ولسوالي":"گربز","District":"GURBUZ","د_مرکز_نوم__نام_مرکز":"د بوري خيلو جومات","Polling_Center_Name":"Bori Khelo Mosque","د_مرکز_ځای__موقعیت_مرکز":" بورو خيل","Polling_Center_Location":"Boro Khel","Verification_Note":"Building","PS_Male":1,"PS_Female":2,"Map_Accuracy":"تعمیر"},"geometry":{"x":7784043.8425287306,"y":3926643.6483090445}},{"attributes":{"OBJECTID":3390,"ولایت":"خوست","Province":"KHOST","PC_Code":"1405072","ولسوالي":"موسی خیل","District":"MUSA KHEL","د_مرکز_نوم__نام_مرکز":"د موسى خيل ولسوالۍ مرکزي جومات","Polling_Center_Name":"Musa Khel District Central Mosque","د_مرکز_ځای__موقعیت_مرکز":"دوه منده","Polling_Center_Location":"Dwa Manda","Verification_Note":"Village","PS_Male":2,"PS_Female":1,"Map_Accuracy":"قریه"},"geometry":{"x":7762809.3446445093,"y":3967377.8572823256}},{"attributes":{"OBJECTID":3391,"ولایت":"خوست","Province":"KHOST","PC_Code":"1407065","ولسوالي":"صبری","District":"SABARI","د_مرکز_نوم__نام_مرکز":" زمبرجوات","Polling_Center_Name":"Zambar Mosque","د_مرکز_ځای__موقعیت_مرکز":" زمبر","Polling_Center_Location":"Zambar","Verification_Note":"Village","PS_Male":5,"PS_Female":3,"Map_Accuracy":"قریه"},"geometry":{"x":7778853.8373240754,"y":3970819.74210532}},{"attributes":{"OBJECTID":3392,"ولایت":"خوست","Province":"KHOST","PC_Code":"1407066","ولسوالي":"صبری","District":"SABARI","د_مرکز_نوم__نام_مرکز":"جومات کاريز کلى","Polling_Center_Name":"Kariz Village Mosque","د_مرکز_ځای__موقعیت_مرکز":"کاريز کلى","Polling_Center_Location":"Kariz Village","Verification_Note":"Village","PS_Male":4,"PS_Female":3,"Map_Accuracy":"قریه"},"geometry":{"x":7787369.5379196592,"y":3963166.4773068205}},{"attributes":{"OBJECTID":3393,"ولایت":"خوست","Province":"KHOST","PC_Code":"1411127","ولسوالي":"سپیره","District":"SPERA","د_مرکز_نوم__نام_مرکز":" سپيره کلى ښوونځى","Polling_Center_Name":"Spera Village School ","د_مرکز_ځای__موقعیت_مرکز":" سپيره کلى","Polling_Center_Location":"Spera Village","Verification_Note":"Village","PS_Male":2,"PS_Female":0,"Map_Accuracy":"قریه"},"geometry":{"x":7738247.598462455,"y":3922045.4887170121}},{"attributes":{"OBJECTID":3394,"ولایت":"کنړ ","Province":"KUNAR","PC_Code":"1515106","ولسوالي":"نری","District":"NARI","د_مرکز_نوم__نام_مرکز":"لیسه ناری","Polling_Center_Name":"Naray High School","د_مرکز_ځای__موقعیت_مرکز":"ناری","Polling_Center_Location":"Naray","Verification_Note":"Village","PS_Male":3,"PS_Female":1,"Map_Accuracy":"قریه"},"geometry":{"x":7962244.3138219491,"y":4194170.3373606578}},{"attributes":{"OBJECTID":3395,"ولایت":"کنړ ","Province":"KUNAR","PC_Code":"1515107","ولسوالي":"نری","District":"NARI","د_مرکز_نوم__نام_مرکز":"کلینیک","Polling_Center_Name":"Naray Clinic","د_مرکز_ځای__موقعیت_مرکز":"ناری","Polling_Center_Location":"Naray","Verification_Note":"Village","PS_Male":3,"PS_Female":1,"Map_Accuracy":"قریه"},"geometry":{"x":7962247.6211240217,"y":4194415.0768605247}},{"attributes":{"OBJECTID":3396,"ولایت":"خوست","Province":"KHOST","PC_Code":"1413101","ولسوالي":"ځاځي میدان","District":"JAJI MAIDAN","د_مرکز_نوم__نام_مرکز":"د الګاډې ليسه ","Polling_Center_Name":"Algada High School ","د_مرکز_ځای__موقعیت_مرکز":"الګاډه ","Polling_Center_Location":"Algada","Verification_Note":"Building","PS_Male":3,"PS_Female":2,"Map_Accuracy":"تعمیر"},"geometry":{"x":7793101.309482526,"y":3981321.3809792846}},{"attributes":{"OBJECTID":3397,"ولایت":"خوست","Province":"KHOST","PC_Code":"1413102","ولسوالي":"ځاځي میدان","District":"JAJI MAIDAN","د_مرکز_نوم__نام_مرکز":"د داڼي ښوونځی","Polling_Center_Name":"Dani School ","د_مرکز_ځای__موقعیت_مرکز":"داني خيل","Polling_Center_Location":"Dani Khel","Verification_Note":"Village","PS_Male":2,"PS_Female":2,"Map_Accuracy":"قریه"},"geometry":{"x":7802261.77368198,"y":3975247.7169457972}},{"attributes":{"OBJECTID":3398,"ولایت":"کنړ ","Province":"KUNAR","PC_Code":"1503013","ولسوالي":"واټه پور","District":"WATAPOOR","د_مرکز_نوم__نام_مرکز":"لیسه قمچی","Polling_Center_Name":"Qamchi High School","د_مرکز_ځای__موقعیت_مرکز":"قمچی","Polling_Center_Location":"Qamchi","Verification_Note":"Building","PS_Male":2,"PS_Female":1,"Map_Accuracy":"تعمیر"},"geometry":{"x":7916008.929949224,"y":4153327.6531300843}},{"attributes":{"OBJECTID":3399,"ولایت":"کنړ ","Province":"KUNAR","PC_Code":"1509091","ولسوالي":"څوکی","District":"SAWKAI","د_مرکز_نوم__نام_مرکز":"مسجد قریه","Polling_Center_Name":"Kalmani Village Mosque","د_مرکز_ځای__موقعیت_مرکز":"کلمانی","Polling_Center_Location":"Kalmani","Verification_Note":"Village","PS_Male":3,"PS_Female":2,"Map_Accuracy":"قریه"},"geometry":{"x":7894654.597746361,"y":4121193.47575216}}]}