{"objectIdFieldName":"OBJECTID","globalIdFieldName":"","geometryType":"esriGeometryPoint","spatialReference":{"wkid":102100,"latestWkid":3857},"fields":[{"name":"OBJECTID","type":"esriFieldTypeOID","alias":"OBJECTID","sqlType":"sqlTypeOther","domain":null,"defaultValue":null},{"name":"ولایت","type":"esriFieldTypeString","alias":"ولایت","sqlType":"sqlTypeOther","length":255,"domain":null,"defaultValue":null},{"name":"Province","type":"esriFieldTypeString","alias":"Province","sqlType":"sqlTypeOther","length":255,"domain":null,"defaultValue":null},{"name":"PC_Code","type":"esriFieldTypeString","alias":"PC_Code","sqlType":"sqlTypeOther","length":255,"domain":null,"defaultValue":null},{"name":"ولسوالي","type":"esriFieldTypeString","alias":"ولسوالي","sqlType":"sqlTypeOther","length":255,"domain":null,"defaultValue":null},{"name":"District","type":"esriFieldTypeString","alias":"District","sqlType":"sqlTypeOther","length":255,"domain":null,"defaultValue":null},{"name":"د_مرکز_نوم__نام_مرکز","type":"esriFieldTypeString","alias":"د_مرکز_نوم__نام_مرکز","sqlType":"sqlTypeOther","length":255,"domain":null,"defaultValue":null},{"name":"Polling_Center_Name","type":"esriFieldTypeString","alias":"Polling_Center_Name","sqlType":"sqlTypeOther","length":255,"domain":null,"defaultValue":null},{"name":"د_مرکز_ځای__موقعیت_مرکز","type":"esriFieldTypeString","alias":"د_مرکز_ځای__موقعیت_مرکز","sqlType":"sqlTypeOther","length":255,"domain":null,"defaultValue":null},{"name":"Polling_Center_Location","type":"esriFieldTypeString","alias":"Polling_Center_Location","sqlType":"sqlTypeOther","length":255,"domain":null,"defaultValue":null},{"name":"Verification_Note","type":"esriFieldTypeString","alias":"Verification_Note","sqlType":"sqlTypeOther","length":250,"domain":null,"defaultValue":null},{"name":"PS_Male","type":"esriFieldTypeSmallInteger","alias":"PS_Male","sqlType":"sqlTypeOther","domain":null,"defaultValue":null},{"name":"PS_Female","type":"esriFieldTypeSmallInteger","alias":"PS_Female","sqlType":"sqlTypeOther","domain":null,"defaultValue":null},{"name":"Map_Accuracy","type":"esriFieldTypeString","alias":"Map_Accuracy","sqlType":"sqlTypeOther","length":10,"domain":null,"defaultValue":null}],"features":[{"attributes":{"OBJECTID":3400,"ولایت":"کنړ ","Province":"KUNAR","PC_Code":"1509092","ولسوالي":"څوکی","District":"SAWKAI","د_مرکز_نوم__نام_مرکز":"مکتب فیض الله","Polling_Center_Name":"Faizullah School","د_مرکز_ځای__موقعیت_مرکز":"قندهارو کلی","Polling_Center_Location":"Kandaharo Village","Verification_Note":"Building","PS_Male":3,"PS_Female":2,"Map_Accuracy":"تعمیر"},"geometry":{"x":7892984.8053844608,"y":4121193.47575216}},{"attributes":{"OBJECTID":3401,"ولایت":"بلخ","Province":"BALKH","PC_Code":"2107248","ولسوالي":"شولگره","District":"SHOLGARA","د_مرکز_نوم__نام_مرکز":"مکتب پل برق","Polling_Center_Name":"Pul Barq School","د_مرکز_ځای__موقعیت_مرکز":"قریه پل برق","Polling_Center_Location":"Pul Barq Village","Verification_Note":"Village","PS_Male":2,"PS_Female":1,"Map_Accuracy":"قریه"},"geometry":{"x":7448047.63458728,"y":4331182.3506134525}},{"attributes":{"OBJECTID":3402,"ولایت":"نورستان","Province":"NOORISTAN","PC_Code":"1605023","ولسوالي":"دو آب","District":"DUAB","د_مرکز_نوم__نام_مرکز":"مکتب قریه نیلاب","Polling_Center_Name":"Nelab Village School","د_مرکز_ځای__موقعیت_مرکز":"نیلاب پوکع","Polling_Center_Location":"Nilab Poka","Verification_Note":"Village","PS_Male":1,"PS_Female":1,"Map_Accuracy":"قریه"},"geometry":{"x":7824210.3983447812,"y":4194918.5350353941}},{"attributes":{"OBJECTID":3403,"ولایت":"نورستان","Province":"NOORISTAN","PC_Code":"1607051","ولسوالي":"منډول","District":"MANDOL","د_مرکز_نوم__نام_مرکز":"مکتب قریه لینر","Polling_Center_Name":"Lenar Village  School","د_مرکز_ځای__موقعیت_مرکز":"قریه لینر","Polling_Center_Location":"Lenar Village","Verification_Note":"Village","PS_Male":1,"PS_Female":1,"Map_Accuracy":"قریه"},"geometry":{"x":7808332.1123441383,"y":4212377.21598877}},{"attributes":{"OBJECTID":3404,"ولایت":"نورستان","Province":"NOORISTAN","PC_Code":"1607052","ولسوالي":"منډول","District":"MANDOL","د_مرکز_نوم__نام_مرکز":"مکتب قریه ګدوال","Polling_Center_Name":"Gadwal Village School","د_مرکز_ځای__موقعیت_مرکز":"قریه ګدوال","Polling_Center_Location":"Gadwal Village","Verification_Note":"Village","PS_Male":1,"PS_Female":1,"Map_Accuracy":"قریه"},"geometry":{"x":7816716.080793906,"y":4210184.7826663777}},{"attributes":{"OBJECTID":3405,"ولایت":"بدخشان","Province":"BADAKHSHAN","PC_Code":"1701010","ولسوالي":"فیض آباد","District":"FAIZ ABAD","د_مرکز_نوم__نام_مرکز":"لیسه نسوان الجهاد ","Polling_Center_Name":"Aljehad Girls High School","د_مرکز_ځای__موقعیت_مرکز":"دشت قرغ","Polling_Center_Location":"Dasht Qorogh","Verification_Note":"Building","PS_Male":3,"PS_Female":1,"Map_Accuracy":"تعمیر"},"geometry":{"x":7852897.7149869129,"y":4453144.31166511}},{"attributes":{"OBJECTID":3406,"ولایت":"بدخشان","Province":"BADAKHSHAN","PC_Code":"1702045","ولسوالي":"ارگو","District":"ARGO","د_مرکز_نوم__نام_مرکز":"مکتب یرنشه ","Polling_Center_Name":"Yarnasha School","د_مرکز_ځای__موقعیت_مرکز":"یرنشه","Polling_Center_Location":"Yarnasha","Verification_Note":"Building","PS_Male":2,"PS_Female":1,"Map_Accuracy":"تعمیر"},"geometry":{"x":7848530.1648969166,"y":4446820.3834881783}},{"attributes":{"OBJECTID":3407,"ولایت":"بدخشان","Province":"BADAKHSHAN","PC_Code":"1702046","ولسوالي":"ارگو","District":"ARGO","د_مرکز_نوم__نام_مرکز":"مکتب برلاس وخیان ","Polling_Center_Name":"Barlaas-o-Khyan School","د_مرکز_ځای__موقعیت_مرکز":"برلاس وخیان ","Polling_Center_Location":"Barlaas-o-khyan","Verification_Note":"Building","PS_Male":2,"PS_Female":1,"Map_Accuracy":"تعمیر"},"geometry":{"x":7850597.7607987486,"y":4436618.121970728}},{"attributes":{"OBJECTID":3408,"ولایت":"بدخشان","Province":"BADAKHSHAN","PC_Code":"1706102","ولسوالي":"بهارک","District":"BAHARAK","د_مرکز_نوم__نام_مرکز":"لیسه بهارستان ","Polling_Center_Name":"Baharestan High School","د_مرکز_ځای__موقعیت_مرکز":"بهارستان","Polling_Center_Location":"Baharestan","Verification_Note":"Building","PS_Male":3,"PS_Female":1,"Map_Accuracy":"تعمیر"},"geometry":{"x":7892803.474839516,"y":4439373.1161424965}},{"attributes":{"OBJECTID":3409,"ولایت":"بدخشان","Province":"BADAKHSHAN","PC_Code":"1706103","ولسوالي":"بهارک","District":"BAHARAK","د_مرکز_نوم__نام_مرکز":"مکتب ملنگ اب ","Polling_Center_Name":"Malang Aab School","د_مرکز_ځای__موقعیت_مرکز":"ملنگ اب ","Polling_Center_Location":"Malang Aab","Verification_Note":"Building","PS_Male":1,"PS_Female":1,"Map_Accuracy":"تعمیر"},"geometry":{"x":7897147.6689871512,"y":4439915.8390034065}},{"attributes":{"OBJECTID":3410,"ولایت":"بدخشان","Province":"BADAKHSHAN","PC_Code":"1708120","ولسوالي":"کوهستان","District":"KOHISTAN","د_مرکز_نوم__نام_مرکز":"لیسه پس پل","Polling_Center_Name":"Pas Pul High School","د_مرکز_ځای__موقعیت_مرکز":"پس پل","Polling_Center_Location":"Pas Pul","Verification_Note":"Building","PS_Male":1,"PS_Female":1,"Map_Accuracy":"تعمیر"},"geometry":{"x":7861352.0774298683,"y":4505222.17423255}},{"attributes":{"OBJECTID":3411,"ولایت":"بدخشان","Province":"BADAKHSHAN","PC_Code":"1708121","ولسوالي":"کوهستان","District":"KOHISTAN","د_مرکز_نوم__نام_مرکز":"مکتب لخش ","Polling_Center_Name":"Lakhsh School","د_مرکز_ځای__موقعیت_مرکز":"لخش","Polling_Center_Location":"Lakhsh","Verification_Note":"Building","PS_Male":1,"PS_Female":1,"Map_Accuracy":"تعمیر"},"geometry":{"x":7866616.0722472817,"y":4500132.8331873938}},{"attributes":{"OBJECTID":3412,"ولایت":"بدخشان","Province":"BADAKHSHAN","PC_Code":"1712118","ولسوالي":"شهدا","District":"SHUHADA","د_مرکز_نوم__نام_مرکز":"مکتب ایزرو","Polling_Center_Name":"Ezro School","د_مرکز_ځای__موقعیت_مرکز":"ایزرو","Polling_Center_Location":"Ezro","Verification_Note":"Building","PS_Male":1,"PS_Female":1,"Map_Accuracy":"تعمیر"},"geometry":{"x":7927977.1511184089,"y":4446249.9697674215}},{"attributes":{"OBJECTID":3413,"ولایت":"بدخشان","Province":"BADAKHSHAN","PC_Code":"1714236","ولسوالي":"راغستان ","District":"RAGHISTAN","د_مرکز_نوم__نام_مرکز":"مکتب علیا خم ","Polling_Center_Name":"Ulya Khum School","د_مرکز_ځای__موقعیت_مرکز":"علیا خم","Polling_Center_Location":"Ulya Khum","Verification_Note":"Building","PS_Male":2,"PS_Female":2,"Map_Accuracy":"تعمیر"},"geometry":{"x":7844718.4964765646,"y":4523762.2015552074}},{"attributes":{"OBJECTID":3414,"ولایت":"بدخشان","Province":"BADAKHSHAN","PC_Code":"1716097","ولسوالي":"وردوج","District":"WARDOOJ","د_مرکز_نوم__نام_مرکز":"لیسه باشند ","Polling_Center_Name":"Bashand High School","د_مرکز_ځای__موقعیت_مرکز":"باشند","Polling_Center_Location":"Bashand","Verification_Note":"Building","PS_Male":2,"PS_Female":1,"Map_Accuracy":"تعمیر"},"geometry":{"x":7910800.0516381077,"y":4416103.2296668589}},{"attributes":{"OBJECTID":3415,"ولایت":"بدخشان","Province":"BADAKHSHAN","PC_Code":"1718260","ولسوالي":"یمگان","District":"YAMGAN","د_مرکز_نوم__نام_مرکز":"مکتب آب اشنام ","Polling_Center_Name":"Aab Ashnam School","د_مرکز_ځای__موقعیت_مرکز":"سناوری ","Polling_Center_Location":"Sanawari","Verification_Note":"Building","PS_Male":2,"PS_Female":1,"Map_Accuracy":"تعمیر"},"geometry":{"x":7873450.7205144688,"y":4374305.63604635}},{"attributes":{"OBJECTID":3416,"ولایت":"بدخشان","Province":"BADAKHSHAN","PC_Code":"1719213","ولسوالي":"شغنان","District":"SHIGHNAN","د_مرکز_نوم__نام_مرکز":"لیسه رحمت ","Polling_Center_Name":"Rahmat High School","د_مرکز_ځای__موقعیت_مرکز":"بهشار","Polling_Center_Location":"Bahshaar","Verification_Note":"Building","PS_Male":2,"PS_Female":1,"Map_Accuracy":"تعمیر"},"geometry":{"x":7954944.2020283155,"y":4516992.4071687758}},{"attributes":{"OBJECTID":3417,"ولایت":"بدخشان","Province":"BADAKHSHAN","PC_Code":"1721251","ولسوالي":"کوف آب","District":"KUFAB","د_مرکز_نوم__نام_مرکز":"مکتب پای مزار ","Polling_Center_Name":"Pay Mazar School","د_مرکز_ځای__موقعیت_مرکز":"پای مزار ","Polling_Center_Location":"Pay Mazar","Verification_Note":"Building","PS_Male":2,"PS_Female":1,"Map_Accuracy":"تعمیر"},"geometry":{"x":7874280.3479439206,"y":4571375.016090706}},{"attributes":{"OBJECTID":3418,"ولایت":"بدخشان","Province":"BADAKHSHAN","PC_Code":"1724282","ولسوالي":"شکی","District":"SHIKI","د_مرکز_نوم__نام_مرکز":"مکتب ابتدائیه سنگ لیچ","Polling_Center_Name":"Sang Lech Primary School","د_مرکز_ځای__موقعیت_مرکز":"سنگ لیچ","Polling_Center_Location":"Sang Lech","Verification_Note":"Village","PS_Male":1,"PS_Female":1,"Map_Accuracy":"قریه"},"geometry":{"x":7863676.4172656834,"y":4613142.6832463369}},{"attributes":{"OBJECTID":3419,"ولایت":"بدخشان","Province":"BADAKHSHAN","PC_Code":"1728208","ولسوالي":"واخان","District":"WAKHAN","د_مرکز_نوم__نام_مرکز":"بوزای گمباد","Polling_Center_Name":"Bozay Gombaad","د_مرکز_ځای__موقعیت_مرکز":"پامیر","Polling_Center_Location":"Pamir","Verification_Note":"Village","PS_Male":1,"PS_Female":1,"Map_Accuracy":"قریه"},"geometry":{"x":8238213.8040249161,"y":4458325.082162261}},{"attributes":{"OBJECTID":3420,"ولایت":"بدخشان","Province":"BADAKHSHAN","PC_Code":"1728209","ولسوالي":"واخان","District":"WAKHAN","د_مرکز_نوم__نام_مرکز":"لنگر","Polling_Center_Name":"Langar","د_مرکز_ځای__موقعیت_مرکز":" پامیر","Polling_Center_Location":"Pamir","Verification_Note":"Village","PS_Male":1,"PS_Female":1,"Map_Accuracy":"قریه"},"geometry":{"x":8008536.6788024232,"y":4403353.0027181208}},{"attributes":{"OBJECTID":3421,"ولایت":"تخار","Province":"TAKHAR","PC_Code":"1802036","ولسوالي":"هزارسموچ","District":"HAZAR SUMUCH","د_مرکز_نوم__نام_مرکز":"مکتب ابتدائیه اچه","Polling_Center_Name":"Aacha Primary School","د_مرکز_ځای__موقعیت_مرکز":"اچه","Polling_Center_Location":"Aacha","Verification_Note":"Building","PS_Male":2,"PS_Female":1,"Map_Accuracy":"تعمیر"},"geometry":{"x":7742360.4506707117,"y":4432188.618724741}},{"attributes":{"OBJECTID":3422,"ولایت":"تخار","Province":"TAKHAR","PC_Code":"1805080","ولسوالي":"چال","District":"CHAL","د_مرکز_نوم__نام_مرکز":"مسجد خواجه بنا","Polling_Center_Name":"Khwaja Bana Mosque","د_مرکز_ځای__موقعیت_مرکز":"خواجه بنا","Polling_Center_Location":"Khwaja Bana","Verification_Note":"Building","PS_Male":1,"PS_Female":1,"Map_Accuracy":"تعمیر"},"geometry":{"x":7749285.6061367057,"y":4362474.4850965366}},{"attributes":{"OBJECTID":3423,"ولایت":"تخار","Province":"TAKHAR","PC_Code":"1805193","ولسوالي":"چال","District":"CHAL","د_مرکز_نوم__نام_مرکز":"مسجد جامع صیاد ","Polling_Center_Name":"Sayaad Mosque","د_مرکز_ځای__موقعیت_مرکز":"صیاد","Polling_Center_Location":"Sayaad","Verification_Note":"Building","PS_Male":1,"PS_Female":1,"Map_Accuracy":"تعمیر"},"geometry":{"x":7756373.0887973532,"y":4367441.546492964}},{"attributes":{"OBJECTID":3424,"ولایت":"تخار","Province":"TAKHAR","PC_Code":"1808092","ولسوالي":"فرخار","District":"FARKHAR","د_مرکز_نوم__نام_مرکز":"لیسه محمد نبی شهید","Polling_Center_Name":"Mohammad Nabi Shaheed High School","د_مرکز_ځای__موقعیت_مرکز":"خفدره","Polling_Center_Location":"Khufdara","Verification_Note":"Building","PS_Male":1,"PS_Female":1,"Map_Accuracy":"تعمیر"},"geometry":{"x":7778175.5732326508,"y":4374208.6113538}},{"attributes":{"OBJECTID":3425,"ولایت":"تخار","Province":"TAKHAR","PC_Code":"1810106","ولسوالي":"رستاق","District":"RUSTAQ","د_مرکز_نوم__نام_مرکز":"مکتب حضرت ابی ابن کعب","Polling_Center_Name":"Hazrat Obai Ibn Kaab School","د_مرکز_ځای__موقعیت_مرکز":"یکه توت نوآباد","Polling_Center_Location":"Yaka Toot Nawabad","Verification_Note":"Building","PS_Male":3,"PS_Female":2,"Map_Accuracy":"تعمیر"},"geometry":{"x":7762561.2791780271,"y":4470956.1305711716}},{"attributes":{"OBJECTID":3426,"ولایت":"تخار","Province":"TAKHAR","PC_Code":"1810128","ولسوالي":"رستاق","District":"RUSTAQ","د_مرکز_نوم__نام_مرکز":"مکتب متوسطه دشتک علیا","Polling_Center_Name":"Dashtak Ulya Secondary School","د_مرکز_ځای__موقعیت_مرکز":"دشتک علیا","Polling_Center_Location":"Dashtak Ulya","Verification_Note":"Building","PS_Male":2,"PS_Female":2,"Map_Accuracy":"تعمیر"},"geometry":{"x":7791792.0787249133,"y":4466205.3166352361}},{"attributes":{"OBJECTID":3427,"ولایت":"تخار","Province":"TAKHAR","PC_Code":"1812171","ولسوالي":"دشت قلعه","District":"DASHT-E-QALA","د_مرکز_نوم__نام_مرکز":"لیسه باغ بایان","Polling_Center_Name":"Bagh Bayan High School","د_مرکز_ځای__موقعیت_مرکز":"باغ بایان","Polling_Center_Location":"Bagh Bayan","Verification_Note":"Building","PS_Male":2,"PS_Female":1,"Map_Accuracy":"تعمیر"},"geometry":{"x":7734948.8535202518,"y":4466809.4211933389}},{"attributes":{"OBJECTID":3428,"ولایت":"تخار","Province":"TAKHAR","PC_Code":"1812172","ولسوالي":"دشت قلعه","District":"DASHT-E-QALA","د_مرکز_نوم__نام_مرکز":"مسجد غاز تیپه","Polling_Center_Name":"Ghaz Tipa Mosque","د_مرکز_ځای__موقعیت_مرکز":"غاز تیپه","Polling_Center_Location":"Ghaz Tipa","Verification_Note":"Building","PS_Male":3,"PS_Female":2,"Map_Accuracy":"تعمیر"},"geometry":{"x":7733928.11612859,"y":4467340.8822015449}},{"attributes":{"OBJECTID":3429,"ولایت":"تخار","Province":"TAKHAR","PC_Code":"1814199","ولسوالي":"خواجه بهاوالدین","District":"KHWAJA BAHAWUDIN","د_مرکز_نوم__نام_مرکز":"مکتب ابتدائیه عروق قشلاق ","Polling_Center_Name":"Aroq Qashlaq Primary School","د_مرکز_ځای__موقعیت_مرکز":"عرق قشلاق","Polling_Center_Location":"Aroq Qashlaq","Verification_Note":"Building","PS_Male":1,"PS_Female":1,"Map_Accuracy":"تعمیر"},"geometry":{"x":7747128.5739295706,"y":4492656.5371265858}},{"attributes":{"OBJECTID":3430,"ولایت":"تخار","Province":"TAKHAR","PC_Code":"1816145","ولسوالي":"چا آب","District":"CHAH AB","د_مرکز_نوم__نام_مرکز":"مسجد مرکزی انجیز","Polling_Center_Name":"Enjeez Central Mosque","د_مرکز_ځای__موقعیت_مرکز":"مرکزی انجیز","Polling_Center_Location":"Markazi Enjeez","Verification_Note":"Building","PS_Male":1,"PS_Female":1,"Map_Accuracy":"تعمیر"},"geometry":{"x":7787116.9161464237,"y":4518112.0998232216}},{"attributes":{"OBJECTID":3431,"ولایت":"کندز","Province":"KUNDUZ","PC_Code":"1901012","ولسوالي":"کندز","District":"KUNDUZ","د_مرکز_نوم__نام_مرکز":"ریاست امور زنان","Polling_Center_Name":"Women Affairs Department","د_مرکز_ځای__موقعیت_مرکز":"ناحیه دوم","Polling_Center_Location":"D02 - Nahia 2","Verification_Note":"Building","PS_Male":1,"PS_Female":3,"Map_Accuracy":"تعمیر"},"geometry":{"x":7665786.1496251449,"y":4399678.4863487929}},{"attributes":{"OBJECTID":3432,"ولایت":"کندز","Province":"KUNDUZ","PC_Code":"1901034","ولسوالي":"کندز","District":"KUNDUZ","د_مرکز_نوم__نام_مرکز":"لیسه باغ میری","Polling_Center_Name":"Bagh Meri High School","د_مرکز_ځای__موقعیت_مرکز":"باغ میری  پایین","Polling_Center_Location":"Bagh Meri Payeen","Verification_Note":"Building","PS_Male":3,"PS_Female":1,"Map_Accuracy":"تعمیر"},"geometry":{"x":7675065.2937601283,"y":4395745.3317525685}},{"attributes":{"OBJECTID":3433,"ولایت":"کندز","Province":"KUNDUZ","PC_Code":"1901035","ولسوالي":"کندز","District":"KUNDUZ","د_مرکز_نوم__نام_مرکز":"لیسه وکیل قره","Polling_Center_Name":"Wakil Qara High School","د_مرکز_ځای__موقعیت_مرکز":"وکیل قره","Polling_Center_Location":"Wakil Qara","Verification_Note":"Building","PS_Male":1,"PS_Female":2,"Map_Accuracy":"تعمیر"},"geometry":{"x":7645604.47697581,"y":4415274.1178703681}},{"attributes":{"OBJECTID":3434,"ولایت":"کندز","Province":"KUNDUZ","PC_Code":"1901056","ولسوالي":"کندز","District":"KUNDUZ","د_مرکز_نوم__نام_مرکز":"مکتب متوسطه دمشاخ","Polling_Center_Name":"Damshaakh Secondary School","د_مرکز_ځای__موقعیت_مرکز":"دمشاخ آلچین","Polling_Center_Location":"Damshaakh Aalchin","Verification_Note":"Building","PS_Male":2,"PS_Female":2,"Map_Accuracy":"تعمیر"},"geometry":{"x":7662443.0238283463,"y":4410580.218909353}},{"attributes":{"OBJECTID":3435,"ولایت":"کندز","Province":"KUNDUZ","PC_Code":"1903130","ولسوالي":"علی آباد","District":"ALI ABAD","د_مرکز_نوم__نام_مرکز":"لیسه میرشیخ","Polling_Center_Name":"Mir Shekh High School","د_مرکز_ځای__موقعیت_مرکز":"قریه میرشیخ","Polling_Center_Location":"Mir Shekh Village","Verification_Note":"Building","PS_Male":2,"PS_Female":1,"Map_Accuracy":"تعمیر"},"geometry":{"x":7666793.9973329715,"y":4380906.2555169538}},{"attributes":{"OBJECTID":3436,"ولایت":"کندز","Province":"KUNDUZ","PC_Code":"1904147","ولسوالي":"خان آباد","District":"KHAN ABAD","د_مرکز_نوم__نام_مرکز":"مکتب ابتدائیه سویدن","Polling_Center_Name":"Swedan Primary School","د_مرکز_ځای__موقعیت_مرکز":"قریه آدم خان","Polling_Center_Location":"Adam Khan Village","Verification_Note":"Building","PS_Male":1,"PS_Female":1,"Map_Accuracy":"تعمیر"},"geometry":{"x":7685527.3210306652,"y":4391728.213785708}},{"attributes":{"OBJECTID":3437,"ولایت":"کندز","Province":"KUNDUZ","PC_Code":"1904148","ولسوالي":"خان آباد","District":"KHAN ABAD","د_مرکز_نوم__نام_مرکز":"مسجد سویکه","Polling_Center_Name":"Sweka Mosque","د_مرکز_ځای__موقعیت_مرکز":"قریه سویکه","Polling_Center_Location":"Sweka Village","Verification_Note":"Building","PS_Male":1,"PS_Female":1,"Map_Accuracy":"تعمیر"},"geometry":{"x":7700405.49936768,"y":4384317.8010201976}},{"attributes":{"OBJECTID":3438,"ولایت":"کندز","Province":"KUNDUZ","PC_Code":"1904167","ولسوالي":"خان آباد","District":"KHAN ABAD","د_مرکز_نوم__نام_مرکز":"مسجد باسوس","Polling_Center_Name":"Basoos Mosaque","د_مرکز_ځای__موقعیت_مرکز":"قریه باسوس","Polling_Center_Location":"Basoos Village","Verification_Note":"Building","PS_Male":1,"PS_Female":1,"Map_Accuracy":"تعمیر"},"geometry":{"x":7690221.4223941267,"y":4399047.1090544909}},{"attributes":{"OBJECTID":3439,"ولایت":"کندز","Province":"KUNDUZ","PC_Code":"1904168","ولسوالي":"خان آباد","District":"KHAN ABAD","د_مرکز_نوم__نام_مرکز":"مکتب پرچه دشت","Polling_Center_Name":"Parcha Dasht School","د_مرکز_ځای__موقعیت_مرکز":"قریه پرچه دشت","Polling_Center_Location":"Parcha Dasht Village","Verification_Note":"Building","PS_Male":1,"PS_Female":1,"Map_Accuracy":"تعمیر"},"geometry":{"x":7681095.8045348711,"y":4410461.1143569648}},{"attributes":{"OBJECTID":3440,"ولایت":"کندز","Province":"KUNDUZ","PC_Code":"1905062","ولسوالي":"حضرت امام صاحب","District":"HAZRAT-E-IMAM SAHIB","د_مرکز_نوم__نام_مرکز":"مکتب جان چشمه","Polling_Center_Name":"Jan Chashma School","د_مرکز_ځای__موقعیت_مرکز":"قریه جان چشمه","Polling_Center_Location":"Jan Chashma Village","Verification_Note":"Village","PS_Male":1,"PS_Female":1,"Map_Accuracy":"قریه"},"geometry":{"x":7681342.82693772,"y":4445410.337770924}},{"attributes":{"OBJECTID":3441,"ولایت":"کندز","Province":"KUNDUZ","PC_Code":"1905082","ولسوالي":"حضرت امام صاحب","District":"HAZRAT-E-IMAM SAHIB","د_مرکز_نوم__نام_مرکز":"مکتب نمبر ۱ امام صاحب","Polling_Center_Name":"Imam Sahib Number 1 School","د_مرکز_ځای__موقعیت_مرکز":"ناحیه چهارم","Polling_Center_Location":"D04 - Nahia 4","Verification_Note":"Building","PS_Male":2,"PS_Female":2,"Map_Accuracy":"تعمیر"},"geometry":{"x":7672619.4019459262,"y":4464481.6191399023}},{"attributes":{"OBJECTID":3442,"ولایت":"کندز","Province":"KUNDUZ","PC_Code":"1906214","ولسوالي":"دشت ارچی","District":"DASHT-E-ARCHI","د_مرکز_نوم__نام_مرکز":"مسجد آمر صادق","Polling_Center_Name":"Aamer Sadeq Mosque","د_مرکز_ځای__موقعیت_مرکز":"قریه آمر صادق","Polling_Center_Location":"Aamer Sadeq Village","Verification_Note":"Building","PS_Male":1,"PS_Female":1,"Map_Accuracy":"تعمیر"},"geometry":{"x":7696444.0605912283,"y":4446737.1062989384}},{"attributes":{"OBJECTID":3443,"ولایت":"سمنگان","Province":"SAMANGAN","PC_Code":"2001002","ولسوالي":"ایبک","District":"AYBAK","د_مرکز_نوم__نام_مرکز":"مکتب متوسطه قوچ نهال","Polling_Center_Name":"Qoch Nehal Secondary School","د_مرکز_ځای__موقعیت_مرکز":"قریه قوچ نهال","Polling_Center_Location":"Qoch Nehal Village","Verification_Note":"Building","PS_Male":1,"PS_Female":1,"Map_Accuracy":"تعمیر"},"geometry":{"x":7565387.1487460732,"y":4337134.7557557374}},{"attributes":{"OBJECTID":3444,"ولایت":"سمنگان","Province":"SAMANGAN","PC_Code":"2002020","ولسوالي":"حضرت سلطان","District":"HAZRAT-E-SULTAN","د_مرکز_نوم__نام_مرکز":"مکتب متوسطه نسوان کلچه ","Polling_Center_Name":"Kulcha Girls Secondary School","د_مرکز_ځای__موقعیت_مرکز":"قریه کلچه","Polling_Center_Location":"Kulcha Village","Verification_Note":"Building","PS_Male":2,"PS_Female":2,"Map_Accuracy":"تعمیر"},"geometry":{"x":7578482.8404346891,"y":4369395.2263016552}},{"attributes":{"OBJECTID":3445,"ولایت":"سمنگان","Province":"SAMANGAN","PC_Code":"2003086","ولسوالي":"خرم و سارباغ","District":"KHURAM WA SARBAGH","د_مرکز_نوم__نام_مرکز":"مکتب متوسطه قینر","Polling_Center_Name":"Qenar Secondary School","د_مرکز_ځای__موقعیت_مرکز":"قریه قینر","Polling_Center_Location":"Qenar Village","Verification_Note":"Building","PS_Male":2,"PS_Female":1,"Map_Accuracy":"تعمیر"},"geometry":{"x":7584211.4627691545,"y":4271785.66062472}},{"attributes":{"OBJECTID":3446,"ولایت":"سمنگان","Province":"SAMANGAN","PC_Code":"2006049","ولسوالي":"دره صوف پائین","District":"DARA-E-SOOF-E-PAYIN","د_مرکز_نوم__نام_مرکز":"مکتب متوسطه بیانان","Polling_Center_Name":"Bayanan Secondary School","د_مرکز_ځای__موقعیت_مرکز":"قریه بیانان","Polling_Center_Location":"Bayanan Village","Verification_Note":"Building","PS_Male":2,"PS_Female":1,"Map_Accuracy":"تعمیر"},"geometry":{"x":7501019.4551064484,"y":4291327.2277085781}},{"attributes":{"OBJECTID":3447,"ولایت":"سمنگان","Province":"SAMANGAN","PC_Code":"2007034","ولسوالي":"دره صوف بالا","District":"DARA-E-SOOF-E-BALA","د_مرکز_نوم__نام_مرکز":"مکتب دهن شوراب ","Polling_Center_Name":"Dahan Shorab School","د_مرکز_ځای__موقعیت_مرکز":"قریه دهن شوراب","Polling_Center_Location":"Dahan Shorab Village","Verification_Note":"Building","PS_Male":2,"PS_Female":1,"Map_Accuracy":"تعمیر"},"geometry":{"x":7489683.9371875,"y":4280312.7283208966}},{"attributes":{"OBJECTID":3448,"ولایت":"بلخ","Province":"BALKH","PC_Code":"2101005","ولسوالي":"مزار شریف","District":"MAZAR-E-SHARIF","د_مرکز_نوم__نام_مرکز":"ریاست زراعت ","Polling_Center_Name":"Agriculture Department ","د_مرکز_ځای__موقعیت_مرکز":"ناحیه دوم مزار شاروالی ","Polling_Center_Location":"D02 - Nahia 2","Verification_Note":"Building","PS_Male":5,"PS_Female":3,"Map_Accuracy":"تعمیر"},"geometry":{"x":7467737.8450431079,"y":4399231.9900570735}},{"attributes":{"OBJECTID":3449,"ولایت":"بلخ","Province":"BALKH","PC_Code":"2101025","ولسوالي":"مزار شریف","District":"MAZAR-E-SHARIF","د_مرکز_نوم__نام_مرکز":"مکتب شیخ شهاب","Polling_Center_Name":"Shaikh Shahab School","د_مرکز_ځای__موقعیت_مرکز":"ناحیه ششم مزار شاروالی ","Polling_Center_Location":"D06 - Nahia 6","Verification_Note":"Building","PS_Male":4,"PS_Female":4,"Map_Accuracy":"تعمیر"},"geometry":{"x":7473358.5720743276,"y":4397629.6801336333}},{"attributes":{"OBJECTID":3450,"ولایت":"بلخ","Province":"BALKH","PC_Code":"2101043","ولسوالي":"مزار شریف","District":"MAZAR-E-SHARIF","د_مرکز_نوم__نام_مرکز":"مکتب یُلمرب ازبکیه ","Polling_Center_Name":"Yolmareb Uzbekya School","د_مرکز_ځای__موقعیت_مرکز":"ناحیه پنجم مزار شاروالی ","Polling_Center_Location":"D05 - Nahia 5","Verification_Note":"Building","PS_Male":2,"PS_Female":2,"Map_Accuracy":"تعمیر"},"geometry":{"x":7469337.93693224,"y":4395826.7652814239}},{"attributes":{"OBJECTID":3451,"ولایت":"بلخ","Province":"BALKH","PC_Code":"2101044","ولسوالي":"مزار شریف","District":"MAZAR-E-SHARIF","د_مرکز_نوم__نام_مرکز":"سیلو","Polling_Center_Name":"Cilo","د_مرکز_ځای__موقعیت_مرکز":"سیلو ، ناحیه اول مزار شاروالی ","Polling_Center_Location":"D01 - Nahia 1 Cilo","Verification_Note":"Building","PS_Male":4,"PS_Female":2,"Map_Accuracy":"تعمیر"},"geometry":{"x":7471618.8710722029,"y":4394654.7631537914}},{"attributes":{"OBJECTID":3452,"ولایت":"بلخ","Province":"BALKH","PC_Code":"2103054","ولسوالي":"دهدادی ","District":"DEHDADI","د_مرکز_نوم__نام_مرکز":"کلینیک شیرآباد","Polling_Center_Name":"Sher Abad Clinic","د_مرکز_ځای__موقعیت_مرکز":"دهدادی شیرآباد علیا","Polling_Center_Location":"Dehdadi Sher Abad Ulya","Verification_Note":"Building","PS_Male":1,"PS_Female":1,"Map_Accuracy":"تعمیر"},"geometry":{"x":7462507.3473736793,"y":4396914.7338394225}},{"attributes":{"OBJECTID":3453,"ولایت":"بلخ","Province":"BALKH","PC_Code":"2104286","ولسوالي":"چارکنت","District":"CHAR KENT","د_مرکز_نوم__نام_مرکز":"مکتب خواجه بندی","Polling_Center_Name":"Khwaja Bandi School","د_مرکز_ځای__موقعیت_مرکز":"قریه خواجه بندی","Polling_Center_Location":"Khwaja Bandi Village","Verification_Note":"Building","PS_Male":1,"PS_Female":1,"Map_Accuracy":"تعمیر"},"geometry":{"x":7490804.2865991071,"y":4350437.9772610888}},{"attributes":{"OBJECTID":3454,"ولایت":"بلخ","Province":"BALKH","PC_Code":"2105071","ولسوالي":"مارمل ","District":"MARMUL","د_مرکز_نوم__نام_مرکز":"کلینیک پسته قلیچ ","Polling_Center_Name":"Pasta Qaleech Clinic","د_مرکز_ځای__موقعیت_مرکز":"قریه پسته قلیچ","Polling_Center_Location":"Pasta Qaleech Village","Verification_Note":"Building","PS_Male":2,"PS_Female":1,"Map_Accuracy":"تعمیر"},"geometry":{"x":7492928.9081364907,"y":4375601.4923720211}},{"attributes":{"OBJECTID":3455,"ولایت":"بلخ","Province":"BALKH","PC_Code":"2106164","ولسوالي":"بلخ","District":"BALKH","د_مرکز_نوم__نام_مرکز":"مکتب دهرازی","Polling_Center_Name":"Dehrazi School","د_مرکز_ځای__موقعیت_مرکز":"قریه دهرازی","Polling_Center_Location":"Dehrazi Village","Verification_Note":"Building","PS_Male":2,"PS_Female":1,"Map_Accuracy":"تعمیر"},"geometry":{"x":7443836.4516464211,"y":4400932.1420271546}},{"attributes":{"OBJECTID":3456,"ولایت":"بلخ","Province":"BALKH","PC_Code":"2106165","ولسوالي":"بلخ","District":"BALKH","د_مرکز_نوم__نام_مرکز":"مکتب دیره گی","Polling_Center_Name":"Deragi School","د_مرکز_ځای__موقعیت_مرکز":"قریه هیواد","Polling_Center_Location":"Hewad Village","Verification_Note":"Building","PS_Male":2,"PS_Female":1,"Map_Accuracy":"تعمیر"},"geometry":{"x":7452891.217989374,"y":4404591.7214522511}},{"attributes":{"OBJECTID":3457,"ولایت":"بلخ","Province":"BALKH","PC_Code":"2107246","ولسوالي":"شولگره","District":"SHOLGARA","د_مرکز_نوم__نام_مرکز":"لیسه باغ پهلوان","Polling_Center_Name":"Bagh Pahlawan High School","د_مرکز_ځای__موقعیت_مرکز":"باغ پهلوان","Polling_Center_Location":"Bagh Pahlawan","Verification_Note":"Building","PS_Male":2,"PS_Female":1,"Map_Accuracy":"تعمیر"},"geometry":{"x":7448088.2072020955,"y":4361826.185526222}},{"attributes":{"OBJECTID":3458,"ولایت":"بلخ","Province":"BALKH","PC_Code":"2107247","ولسوالي":"شولگره","District":"SHOLGARA","د_مرکز_نوم__نام_مرکز":"مکتب استر کوت","Polling_Center_Name":"Astar Kot School","د_مرکز_ځای__موقعیت_مرکز":"قریه استرکوت","Polling_Center_Location":"Astar Kot Village","Verification_Note":"Building","PS_Male":3,"PS_Female":1,"Map_Accuracy":"تعمیر"},"geometry":{"x":7448793.6688715182,"y":4368434.8844515681}},{"attributes":{"OBJECTID":3459,"ولایت":"بلخ","Province":"BALKH","PC_Code":"2107270","ولسوالي":"شولگره","District":"SHOLGARA","د_مرکز_نوم__نام_مرکز":"منزل خیر محمد","Polling_Center_Name":"Khair Mohammad Private House","د_مرکز_ځای__موقعیت_مرکز":"قریه خواجه سکندر","Polling_Center_Location":"Khwaja Sikandar Village","Verification_Note":"Building","PS_Male":1,"PS_Female":1,"Map_Accuracy":"تعمیر"},"geometry":{"x":7448724.891237326,"y":4347562.3831737861}},{"attributes":{"OBJECTID":3460,"ولایت":"زابل","Province":"ZABUL","PC_Code":"2607022","ولسوالي":"دایچوپان","District":"DAICHOPAN","د_مرکز_نوم__نام_مرکز":"مسجد دايچوپان","Polling_Center_Name":"Daichopan Mosque","د_مرکز_ځای__موقعیت_مرکز":"دايچوپان","Polling_Center_Location":"Daichopan","Verification_Note":"Village","PS_Male":2,"PS_Female":0,"Map_Accuracy":"قریه"},"geometry":{"x":7432394.4377102219,"y":3846600.8275749236}},{"attributes":{"OBJECTID":3461,"ولایت":"بلخ","Province":"BALKH","PC_Code":"2108230","ولسوالي":"چمتال","District":"CHIMTAL","د_مرکز_نوم__نام_مرکز":"تعمیر جدید ولسوالی","Polling_Center_Name":"District New Building","د_مرکز_ځای__موقعیت_مرکز":"مرکز ولسوالی","Polling_Center_Location":"District Compound","Verification_Note":"Building","PS_Male":1,"PS_Female":1,"Map_Accuracy":"تعمیر"},"geometry":{"x":7430984.7444517538,"y":4392321.3377947658}},{"attributes":{"OBJECTID":3462,"ولایت":"بلخ","Province":"BALKH","PC_Code":"2109131","ولسوالي":"دولت آباد","District":"DAWLAT ABAD","د_مرکز_نوم__نام_مرکز":"مکتب بیدو","Polling_Center_Name":"Bedo School","د_مرکز_ځای__موقعیت_مرکز":"قریه بیدو","Polling_Center_Location":"Bedo Village","Verification_Note":"Building","PS_Male":3,"PS_Female":2,"Map_Accuracy":"تعمیر"},"geometry":{"x":7430977.621117536,"y":4431216.8089764267}},{"attributes":{"OBJECTID":3463,"ولایت":"بلخ","Province":"BALKH","PC_Code":"2110081","ولسوالي":"خلم","District":"KHULM","د_مرکز_نوم__نام_مرکز":"لیسه پوهاند عبدالروف خلمی ","Polling_Center_Name":"Pohand Abdul Rawoof Khulmi High School","د_مرکز_ځای__موقعیت_مرکز":"سیرت ","Polling_Center_Location":"Seerat","Verification_Note":"Building","PS_Male":2,"PS_Female":1,"Map_Accuracy":"تعمیر"},"geometry":{"x":7534884.0186263956,"y":4395789.2614417}},{"attributes":{"OBJECTID":3464,"ولایت":"بلخ","Province":"BALKH","PC_Code":"2111182","ولسوالي":"چار بولک","District":"CHAR BOLAK","د_مرکز_نوم__نام_مرکز":"مکتب سالار تپه","Polling_Center_Name":"Salar Tapa School","د_مرکز_ځای__موقعیت_مرکز":"قریه سالار تپه","Polling_Center_Location":"Salar Tapa Village","Verification_Note":"Building","PS_Male":1,"PS_Female":1,"Map_Accuracy":"تعمیر"},"geometry":{"x":7395310.2061615549,"y":4405509.4751980826}},{"attributes":{"OBJECTID":3465,"ولایت":"بلخ","Province":"BALKH","PC_Code":"2111203","ولسوالي":"چار بولک","District":"CHAR BOLAK","د_مرکز_نوم__نام_مرکز":"تعمیر شورای انکشافی","Polling_Center_Name":"Shoray Inkeshafi Building","د_مرکز_ځای__موقعیت_مرکز":"قریه ژنگوره معاون زمان","Polling_Center_Location":"Zhangora Maawen Zaman Village","Verification_Note":"Building","PS_Male":2,"PS_Female":1,"Map_Accuracy":"تعمیر"},"geometry":{"x":7427888.0288006067,"y":4407952.0572000071}},{"attributes":{"OBJECTID":3466,"ولایت":"بلخ","Province":"BALKH","PC_Code":"2113103","ولسوالي":"کلدار","District":"KALDAR","د_مرکز_نوم__نام_مرکز":"مکتب متوسطه قریه کهنه کلدار","Polling_Center_Name":"Kuhna Kaldar Village Secondary School","د_مرکز_ځای__موقعیت_مرکز":"قریه کهنه کلدار","Polling_Center_Location":"Kuhna Kaldar Village","Verification_Note":"Building","PS_Male":1,"PS_Female":1,"Map_Accuracy":"تعمیر"},"geometry":{"x":7544000.9513389729,"y":4462819.0506486744}},{"attributes":{"OBJECTID":3467,"ولایت":"بلخ","Province":"BALKH","PC_Code":"2115303","ولسوالي":"زاری","District":"ZARI","د_مرکز_نوم__نام_مرکز":"مکتب ابو القاسم","Polling_Center_Name":"Abul Qasim School","د_مرکز_ځای__موقعیت_مرکز":"قریه ناقیچی","Polling_Center_Location":"Naqichi Village","Verification_Note":"Building","PS_Male":2,"PS_Female":1,"Map_Accuracy":"تعمیر"},"geometry":{"x":7424355.30587348,"y":4295058.5348675251}},{"attributes":{"OBJECTID":3468,"ولایت":"بلخ","Province":"BALKH","PC_Code":"2115304","ولسوالي":"زاری","District":"ZARI","د_مرکز_نوم__نام_مرکز":"مکتب خواجه احمد سیوی ","Polling_Center_Name":"Khwaja Ahmad Siwi School","د_مرکز_ځای__موقعیت_مرکز":"قریه میرزایی","Polling_Center_Location":"Mirzayee Village","Verification_Note":"Building","PS_Male":2,"PS_Female":1,"Map_Accuracy":"تعمیر"},"geometry":{"x":7427442.2075983174,"y":4295972.4480550587}},{"attributes":{"OBJECTID":3469,"ولایت":"سرپل","Province":"SAR-E-PUL","PC_Code":"2201005","ولسوالي":"سرپل","District":"SAR-E-PUL","د_مرکز_نوم__نام_مرکز":"مسجد  جامع القانی","Polling_Center_Name":"Alqani Mosque","د_مرکز_ځای__موقعیت_مرکز":"قریه القانی کلان ","Polling_Center_Location":"Alqani Kalan Village","Verification_Note":"Building","PS_Male":2,"PS_Female":2,"Map_Accuracy":"تعمیر"},"geometry":{"x":7338127.0913820341,"y":4330841.3583590016}},{"attributes":{"OBJECTID":3470,"ولایت":"سرپل","Province":"SAR-E-PUL","PC_Code":"2201006","ولسوالي":"سرپل","District":"SAR-E-PUL","د_مرکز_نوم__نام_مرکز":"لیسه قراغو","Polling_Center_Name":"Qaragho High School","د_مرکز_ځای__موقعیت_مرکز":"قریه قراغو","Polling_Center_Location":"Qaragho Village","Verification_Note":"Building","PS_Male":2,"PS_Female":2,"Map_Accuracy":"تعمیر"},"geometry":{"x":7335428.0957812,"y":4336404.2301060557}},{"attributes":{"OBJECTID":3471,"ولایت":"سرپل","Province":"SAR-E-PUL","PC_Code":"2202059","ولسوالي":"صیاد","District":"SAYAD","د_مرکز_نوم__نام_مرکز":"مکتب ابتدائیه","Polling_Center_Name":"Primary School","د_مرکز_ځای__موقعیت_مرکز":"قریه بلندغور","Polling_Center_Location":"Beland Ghor Village","Verification_Note":"Village","PS_Male":1,"PS_Female":2,"Map_Accuracy":"قریه"},"geometry":{"x":7327434.475805074,"y":4314331.98834341}},{"attributes":{"OBJECTID":3472,"ولایت":"سرپل","Province":"SAR-E-PUL","PC_Code":"2202060","ولسوالي":"صیاد","District":"SAYAD","د_مرکز_نوم__نام_مرکز":"مکتب ابتدائیه","Polling_Center_Name":"Primary School","د_مرکز_ځای__موقعیت_مرکز":"قریه هجده بلا","Polling_Center_Location":"Hajda Bala Village","Verification_Note":"Village","PS_Male":1,"PS_Female":1,"Map_Accuracy":"قریه"},"geometry":{"x":7306698.8617848121,"y":4308797.5992158949}},{"attributes":{"OBJECTID":3473,"ولایت":"سرپل","Province":"SAR-E-PUL","PC_Code":"2205101","ولسوالي":"سنگ چارک","District":"SANG CHARAK","د_مرکز_نوم__نام_مرکز":"مدرسه قریه قشلاق کهنه","Polling_Center_Name":"Qashlaq Kuhna Village Madrassa","د_مرکز_ځای__موقعیت_مرکز":"قریه قشلاق کهنه","Polling_Center_Location":"Qashlaq Kuhna Village","Verification_Note":"Building","PS_Male":2,"PS_Female":1,"Map_Accuracy":"تعمیر"},"geometry":{"x":7392580.1245929152,"y":4261421.457795307}},{"attributes":{"OBJECTID":3474,"ولایت":"سرپل","Province":"SAR-E-PUL","PC_Code":"2207092","ولسوالي":"بلخآب","District":"BALKHAB","د_مرکز_نوم__نام_مرکز":"مکتب قریه اوش","Polling_Center_Name":"Qarya Osh School","د_مرکز_ځای__موقعیت_مرکز":"قریه اوش","Polling_Center_Location":"Osh Village","Verification_Note":"Building","PS_Male":3,"PS_Female":2,"Map_Accuracy":"تعمیر"},"geometry":{"x":7413589.154867284,"y":4232004.5257632211}},{"attributes":{"OBJECTID":3475,"ولایت":"غور","Province":"GHOR","PC_Code":"2301014","ولسوالي":"چغچران","District":"CHIGHCHERAN","د_مرکز_نوم__نام_مرکز":"مکتب آهنگران","Polling_Center_Name":"Ahengaran School","د_مرکز_ځای__موقعیت_مرکز":" آهنگران","Polling_Center_Location":"Ahengaran","Verification_Note":"Village","PS_Male":3,"PS_Female":2,"Map_Accuracy":"قریه"},"geometry":{"x":7242403.7785094418,"y":4092193.9503068775}},{"attributes":{"OBJECTID":3476,"ولایت":"غور","Province":"GHOR","PC_Code":"2301015","ولسوالي":"چغچران","District":"CHIGHCHERAN","د_مرکز_نوم__نام_مرکز":"مسجد امروتک","Polling_Center_Name":"Amrotak Mosque","د_مرکز_ځای__موقعیت_مرکز":" امروتک","Polling_Center_Location":"Amrotak","Verification_Note":"Village","PS_Male":2,"PS_Female":2,"Map_Accuracy":"قریه"},"geometry":{"x":7234159.2110052183,"y":4087196.8732911348}},{"attributes":{"OBJECTID":3477,"ولایت":"غور","Province":"GHOR","PC_Code":"2305126","ولسوالي":"پسابند ","District":"PASABAND","د_مرکز_نوم__نام_مرکز":"خیمه بازار خشک آبه","Polling_Center_Name":"Khushka Aab Bazar Tent","د_مرکز_ځای__موقعیت_مرکز":"قریه خشک آبه","Polling_Center_Location":"Khushka Aba","Verification_Note":"Building","PS_Male":1,"PS_Female":1,"Map_Accuracy":"تعمیر"},"geometry":{"x":7235070.9955584556,"y":3973057.3027637452}},{"attributes":{"OBJECTID":3478,"ولایت":"غور","Province":"GHOR","PC_Code":"2306084","ولسوالي":"شهرک ","District":"SHAHRAK","د_مرکز_نوم__نام_مرکز":"مکتب ابتدائیه جلگه مزار","Polling_Center_Name":"Jalga Mazar Primary School","د_مرکز_ځای__موقعیت_مرکز":" جلگه مزار","Polling_Center_Location":"Jalga Mazar","Verification_Note":"Village","PS_Male":2,"PS_Female":2,"Map_Accuracy":"قریه"},"geometry":{"x":7163374.4507722631,"y":4100526.2543565929}},{"attributes":{"OBJECTID":3479,"ولایت":"غور","Province":"GHOR","PC_Code":"2307145","ولسوالي":"لعل و سرجنگل ","District":"LAL WA SARJANGAL","د_مرکز_نوم__نام_مرکز":"مسجد جامع لال","Polling_Center_Name":"Laal Mosque","د_مرکز_ځای__موقعیت_مرکز":"دهن سقاوه","Polling_Center_Location":"Dahan Saqawa","Verification_Note":"Building","PS_Male":3,"PS_Female":2,"Map_Accuracy":"تعمیر"},"geometry":{"x":7378450.44738004,"y":4096161.8020905554}},{"attributes":{"OBJECTID":3480,"ولایت":"غور","Province":"GHOR","PC_Code":"2307165","ولسوالي":"لعل و سرجنگل ","District":"LAL WA SARJANGAL","د_مرکز_نوم__نام_مرکز":"مکتب قلعه کشک","Polling_Center_Name":"Qala-e-Koshk School","د_مرکز_ځای__موقعیت_مرکز":" قلعه کشک","Polling_Center_Location":"Qala-e-Koshk","Verification_Note":"Building","PS_Male":2,"PS_Female":1,"Map_Accuracy":"تعمیر"},"geometry":{"x":7377894.7928021587,"y":4107279.8107656091}},{"attributes":{"OBJECTID":3481,"ولایت":"غور","Province":"GHOR","PC_Code":"2309183","ولسوالي":"تولک ","District":"TULAK","د_مرکز_نوم__نام_مرکز":"مکتب ابتدائیه کاه ده رو","Polling_Center_Name":"Kaah Dehro Primary School","د_مرکز_ځای__موقعیت_مرکز":"کاه ده رو","Polling_Center_Location":"Kaah Dehro","Verification_Note":"Village","PS_Male":2,"PS_Female":1,"Map_Accuracy":"قریه"},"geometry":{"x":7092977.2270826064,"y":4018099.54106614}},{"attributes":{"OBJECTID":3482,"ولایت":"غور","Province":"GHOR","PC_Code":"2310206","ولسوالي":"ساغر ","District":"SAGHAR","د_مرکز_نوم__نام_مرکز":"زیرتنگی قریه زال","Polling_Center_Name":"Zer Tangi Qarya Zaal","د_مرکز_ځای__موقعیت_مرکز":" قریه زال","Polling_Center_Location":"Zaal Village","Verification_Note":"Village","PS_Male":1,"PS_Female":1,"Map_Accuracy":"قریه"},"geometry":{"x":7079942.5963610783,"y":3963031.8119187951}},{"attributes":{"OBJECTID":3483,"ولایت":"دایکندی","Province":"DAYKUNDI","PC_Code":"2402021","ولسوالي":"شهرستان","District":"SHAHRISTAN","د_مرکز_نوم__نام_مرکز":"مسجد چپراسک","Polling_Center_Name":"Chaprasak Mosque","د_مرکز_ځای__موقعیت_مرکز":"چپراسک","Polling_Center_Location":"Chaprasak","Verification_Note":"Building","PS_Male":1,"PS_Female":1,"Map_Accuracy":"تعمیر"},"geometry":{"x":7427291.2494632415,"y":3999575.4904439971}},{"attributes":{"OBJECTID":3484,"ولایت":"دایکندی","Province":"DAYKUNDI","PC_Code":"2402022","ولسوالي":"شهرستان","District":"SHAHRISTAN","د_مرکز_نوم__نام_مرکز":"مسجد غوجگرد","Polling_Center_Name":"Ghojgard Mosque","د_مرکز_ځای__موقعیت_مرکز":"غوجگرد","Polling_Center_Location":"Ghojgard","Verification_Note":"Building","PS_Male":1,"PS_Female":1,"Map_Accuracy":"تعمیر"},"geometry":{"x":7399978.837625511,"y":3994957.8651950061}},{"attributes":{"OBJECTID":3485,"ولایت":"دایکندی","Province":"DAYKUNDI","PC_Code":"2403111","ولسوالي":"گیزاب","District":"GIZAB","د_مرکز_نوم__نام_مرکز":"مسجد حاجی عبدالکریم","Polling_Center_Name":"Haji Abdul Kareem Mosque","د_مرکز_ځای__موقعیت_مرکز":"برمنی","Polling_Center_Location":"Barmani","Verification_Note":"Village","PS_Male":1,"PS_Female":1,"Map_Accuracy":"قریه"},"geometry":{"x":7352633.9835950173,"y":3962716.7750596553}},{"attributes":{"OBJECTID":3486,"ولایت":"دایکندی","Province":"DAYKUNDI","PC_Code":"2403112","ولسوالي":"گیزاب","District":"GIZAB","د_مرکز_نوم__نام_مرکز":"مسجد جامع شیران","Polling_Center_Name":"Shiran Mosque","د_مرکز_ځای__موقعیت_مرکز":"شیران","Polling_Center_Location":"Shiran","Verification_Note":"Building","PS_Male":1,"PS_Female":1,"Map_Accuracy":"تعمیر"},"geometry":{"x":7380037.4636817761,"y":3960948.3124960735}},{"attributes":{"OBJECTID":3487,"ولایت":"دایکندی","Province":"DAYKUNDI","PC_Code":"2404044","ولسوالي":"اشترلی","District":"ISHTERLAI","د_مرکز_نوم__نام_مرکز":"خیمه بازار قریه  ده عروس","Polling_Center_Name":"Deh Aroos Village Bazar Tent","د_مرکز_ځای__موقعیت_مرکز":"ده عروس خوشک","Polling_Center_Location":"Deh Aroos Khushk","Verification_Note":"Building","PS_Male":2,"PS_Female":2,"Map_Accuracy":"تعمیر"},"geometry":{"x":7377537.3826526552,"y":4015119.7669784725}},{"attributes":{"OBJECTID":3488,"ولایت":"دایکندی","Province":"DAYKUNDI","PC_Code":"2405097","ولسوالي":"خدیر","District":"KHEDIR","د_مرکز_نوم__نام_مرکز":"مکتب وییر","Polling_Center_Name":"Weer School","د_مرکز_ځای__موقعیت_مرکز":"وییر","Polling_Center_Location":"Weer","Verification_Note":"Building","PS_Male":1,"PS_Female":1,"Map_Accuracy":"تعمیر"},"geometry":{"x":7333256.7445479743,"y":3994059.6804811954}},{"attributes":{"OBJECTID":3489,"ولایت":"دایکندی","Province":"DAYKUNDI","PC_Code":"2405098","ولسوالي":"خدیر","District":"KHEDIR","د_مرکز_نوم__نام_مرکز":"مسجد سراب سنگ چلک","Polling_Center_Name":"Sarab Sang Chelak Mosque","د_مرکز_ځای__موقعیت_مرکز":"سنگ چلک","Polling_Center_Location":"Sang Chelak","Verification_Note":"Building","PS_Male":1,"PS_Female":1,"Map_Accuracy":"تعمیر"},"geometry":{"x":7346152.186944183,"y":4023189.6553483009}},{"attributes":{"OBJECTID":3490,"ولایت":"دایکندی","Province":"DAYKUNDI","PC_Code":"2406141","ولسوالي":"کیتی","District":"KITI","د_مرکز_نوم__نام_مرکز":"مسجد سویک","Polling_Center_Name":"Soyak Mosque","د_مرکز_ځای__موقعیت_مرکز":"سویک","Polling_Center_Location":"Soyak","Verification_Note":"Building","PS_Male":2,"PS_Female":1,"Map_Accuracy":"تعمیر"},"geometry":{"x":7313326.0817656368,"y":3952631.6193006933}},{"attributes":{"OBJECTID":3491,"ولایت":"دایکندی","Province":"DAYKUNDI","PC_Code":"2409056","ولسوالي":"کجران","District":"KEJRAN","د_مرکز_نوم__نام_مرکز":"مسجد جامع بوکا","Polling_Center_Name":"Boka Mosque","د_مرکز_ځای__موقعیت_مرکز":"کندو","Polling_Center_Location":"Kando","Verification_Note":"Building","PS_Male":1,"PS_Female":1,"Map_Accuracy":"تعمیر"},"geometry":{"x":7300563.9088374153,"y":3916975.1571926922}},{"attributes":{"OBJECTID":3492,"ولایت":"دایکندی","Province":"DAYKUNDI","PC_Code":"2409057","ولسوالي":"کجران","District":"KEJRAN","د_مرکز_نوم__نام_مرکز":"مسجد جامع زرد گلان","Polling_Center_Name":"Zard Gulan Mosque","د_مرکز_ځای__موقعیت_مرکز":"زردگلان","Polling_Center_Location":"Zard Gulan","Verification_Note":"Building","PS_Male":2,"PS_Female":1,"Map_Accuracy":"تعمیر"},"geometry":{"x":7305255.5567192994,"y":3921041.4338286817}},{"attributes":{"OBJECTID":3493,"ولایت":"ارزگان","Province":"UROZGAN","PC_Code":"2501008","ولسوالي":"ترینکوټ","District":"TIRINKOT","د_مرکز_نوم__نام_مرکز":"لیسه سلام بابا","Polling_Center_Name":"Salam Baba High School","د_مرکز_ځای__موقعیت_مرکز":"قریه خانقه","Polling_Center_Location":"Khanqa Village","Verification_Note":"Building","PS_Male":3,"PS_Female":2,"Map_Accuracy":"تعمیر"},"geometry":{"x":7338210.4006625488,"y":3849841.5387305096}},{"attributes":{"OBJECTID":3494,"ولایت":"ارزگان","Province":"UROZGAN","PC_Code":"2503019","ولسوالي":"چوره","District":"CHORA","د_مرکز_نوم__نام_مرکز":"لیسه دولت زايي","Polling_Center_Name":"Dawlatzai High School","د_مرکز_ځای__موقعیت_مرکز":"دولت زی کلی","Polling_Center_Location":"Dawlatzai Village","Verification_Note":"Building","PS_Male":1,"PS_Female":1,"Map_Accuracy":"تعمیر"},"geometry":{"x":7356434.5879711807,"y":3875720.7701233104}},{"attributes":{"OBJECTID":3495,"ولایت":"ارزگان","Province":"UROZGAN","PC_Code":"2506049","ولسوالي":"چنارتو","District":"CHENARTO","د_مرکز_نوم__نام_مرکز":"د سیا غار ابتدائیه مکتب","Polling_Center_Name":"Siyaghar Primary School","د_مرکز_ځای__موقعیت_مرکز":"سیا غار","Polling_Center_Location":"Siyaghar","Verification_Note":"Building","PS_Male":2,"PS_Female":0,"Map_Accuracy":"تعمیر"},"geometry":{"x":7379127.530371666,"y":3868834.6631684527}},{"attributes":{"OBJECTID":3496,"ولایت":"زابل","Province":"ZABUL","PC_Code":"2605018","ولسوالي":"ارغنداب","District":"ARGHANDAB","د_مرکز_نوم__نام_مرکز":"شورواني مسجد","Polling_Center_Name":"Shorwani Mosque","د_مرکز_ځای__موقعیت_مرکز":"قریه باغ","Polling_Center_Location":"Bagh Village","Verification_Note":"Building","PS_Male":2,"PS_Female":2,"Map_Accuracy":"تعمیر"},"geometry":{"x":7441279.6076957509,"y":3825502.8010689616}},{"attributes":{"OBJECTID":3497,"ولایت":"کندهار","Province":"کندهار","PC_Code":"2703076","ولسوالي":"دامان","District":"DAMAN","د_مرکز_نوم__نام_مرکز":"مكتب مومند قلعه","Polling_Center_Name":"Momand Qala School","د_مرکز_ځای__موقعیت_مرکز":"مومند قلعه","Polling_Center_Location":"Momand Qala","Verification_Note":"Village","PS_Male":2,"PS_Female":0,"Map_Accuracy":"قریه"},"geometry":{"x":7336641.3624585755,"y":3709773.7006278485}},{"attributes":{"OBJECTID":3498,"ولایت":"کندهار","Province":"کندهار","PC_Code":"2701014","ولسوالي":"کندهار","District":"KANDAHAR","د_مرکز_نوم__نام_مرکز":"محمديه مدرسه","Polling_Center_Name":"Mohammadia Madrassa","د_مرکز_ځای__موقعیت_مرکز":"اوله ناحيه","Polling_Center_Location":"D01 - Nahia 1","Verification_Note":"Building","PS_Male":5,"PS_Female":0,"Map_Accuracy":"تعمیر"},"geometry":{"x":7312985.7958934009,"y":3715065.4013724327}},{"attributes":{"OBJECTID":3499,"ولایت":"کندهار","Province":"کندهار","PC_Code":"2701059","ولسوالي":"کندهار","District":"KANDAHAR","د_مرکز_نوم__نام_مرکز":"د مينا برج","Polling_Center_Name":"Meena Borj ","د_مرکز_ځای__موقعیت_مرکز":"د مينا برج","Polling_Center_Location":"Meena Borj","Verification_Note":"District","PS_Male":3,"PS_Female":2,"Map_Accuracy":"ولسوالی"},"geometry":{"x":7309981.1142991856,"y":3711528.2568042055}},{"attributes":{"OBJECTID":3500,"ولایت":"کندهار","Province":"کندهار","PC_Code":"2702115","ولسوالي":"ارغنداب","District":"ARGHANDAB","د_مرکز_نوم__نام_مرکز":"مسجد كښته چهارغلبه","Polling_Center_Name":"Kakhta Chahar Ghalba Mosque","د_مرکز_ځای__موقعیت_مرکز":"كښته چهارغلبه","Polling_Center_Location":"Kakhta Chahar Ghalba","Verification_Note":"Building","PS_Male":3,"PS_Female":2,"Map_Accuracy":"تعمیر"},"geometry":{"x":7307799.0456706621,"y":3721679.2907746583}},{"attributes":{"OBJECTID":3501,"ولایت":"کندهار","Province":"کندهار","PC_Code":"2711210","ولسوالي":"سپین بولدک","District":"SPIN BOLDAK","د_مرکز_نوم__نام_مرکز":"د عبدالصمد خان مكتب","Polling_Center_Name":"Abdul Samad Khan School","د_مرکز_ځای__موقعیت_مرکز":"رباط","Polling_Center_Location":"Rabat","Verification_Note":"Village","PS_Male":5,"PS_Female":1,"Map_Accuracy":"قریه"},"geometry":{"x":7392790.9670480527,"y":3638082.4380972609}},{"attributes":{"OBJECTID":3502,"ولایت":"کندهار","Province":"کندهار","PC_Code":"2705170","ولسوالي":"ژیړی","District":"ZHIRE","د_مرکز_نوم__نام_مرکز":"د كمپ مكتب","Polling_Center_Name":"Camp School","د_مرکز_ځای__موقعیت_مرکز":"د كوچيانو كمپ","Polling_Center_Location":"Kochiano Camp","Verification_Note":"Village","PS_Male":3,"PS_Female":3,"Map_Accuracy":"قریه"},"geometry":{"x":7274775.419640433,"y":3714770.039241001}},{"attributes":{"OBJECTID":3503,"ولایت":"کندهار","Province":"کندهار","PC_Code":"2707126","ولسوالي":"خاک ریز","District":"KHAKREZ","د_مرکز_نوم__نام_مرکز":"د حاجي محمد ايوب خان سراچه","Polling_Center_Name":"Haji Mohamamd Ayub Khan Saracha","د_مرکز_ځای__موقعیت_مرکز":"دوخانه","Polling_Center_Location":"Dokhana","Verification_Note":"Building","PS_Male":2,"PS_Female":0,"Map_Accuracy":"تعمیر"},"geometry":{"x":7278504.6014313065,"y":3746805.2567235827}},{"attributes":{"OBJECTID":3504,"ولایت":"کندهار","Province":"کندهار","PC_Code":"2710139","ولسوالي":"میوند","District":"MAIWAND","د_مرکز_نوم__نام_مرکز":"د حاجي معصوم خان كور","Polling_Center_Name":"Haji Masoom Khan Private House","د_مرکز_ځای__موقعیت_مرکز":"دواب","Polling_Center_Location":"Do Aab","Verification_Note":"Village","PS_Male":2,"PS_Female":0,"Map_Accuracy":"قریه"},"geometry":{"x":7262439.5669661015,"y":3694282.5104173794}},{"attributes":{"OBJECTID":3505,"ولایت":"کندهار","Province":"کندهار","PC_Code":"2712265","ولسوالي":"نيش","District":"NISH","د_مرکز_نوم__نام_مرکز":"د حاجي نعمت الله كور","Polling_Center_Name":"Haji Naimatullah Private House","د_مرکز_ځای__موقعیت_مرکز":"نوي كاريز","Polling_Center_Location":"Nawai Karez","Verification_Note":"Village","PS_Male":2,"PS_Female":0,"Map_Accuracy":"قریه"},"geometry":{"x":7309009.7241698764,"y":3820798.4473096356}},{"attributes":{"OBJECTID":3506,"ولایت":"کندهار","Province":"کندهار","PC_Code":"2716198","ولسوالي":"ریګ","District":"REG","د_مرکز_نوم__نام_مرکز":"د ولسوالي مركز","Polling_Center_Name":"District Building Office","د_مرکز_ځای__موقعیت_مرکز":"د ريګ منطقه","Polling_Center_Location":"Reg Manteqa","Verification_Note":"Village","PS_Male":4,"PS_Female":2,"Map_Accuracy":"قریه"},"geometry":{"x":7315878.0321115032,"y":3468850.249490194}},{"attributes":{"OBJECTID":3507,"ولایت":"جوزجان","Province":"JAWZJAN","PC_Code":"2801013","ولسوالي":"شبرغان","District":"SHEBERGHAN","د_مرکز_نوم__نام_مرکز":"لیسه بابا علی","Polling_Center_Name":"Baba Ali High School","د_مرکز_ځای__موقعیت_مرکز":"ناحیه دوم","Polling_Center_Location":"D02 - Nahia 2","Verification_Note":"Building","PS_Male":3,"PS_Female":2,"Map_Accuracy":"تعمیر"},"geometry":{"x":7318240.17159361,"y":4395674.9266296923}},{"attributes":{"OBJECTID":3508,"ولایت":"جوزجان","Province":"JAWZJAN","PC_Code":"2802110","ولسوالي":"خواجه دوکوه","District":"KHWAJA DUKOH","د_مرکز_نوم__نام_مرکز":"لیسه ذکور خواجه دوکوه","Polling_Center_Name":"Khwaja Do Koh Boys High School","د_مرکز_ځای__موقعیت_مرکز":"مرکز ولسوالی ","Polling_Center_Location":"District Compound","Verification_Note":"Building","PS_Male":3,"PS_Female":3,"Map_Accuracy":"تعمیر"},"geometry":{"x":7304200.8557509892,"y":4414520.0583080724}},{"attributes":{"OBJECTID":3509,"ولایت":"جوزجان","Province":"JAWZJAN","PC_Code":"2804077","ولسوالي":"منگجیک","District":"MINGAJIK","د_مرکز_نوم__نام_مرکز":"مکتب قورشنغو","Polling_Center_Name":"Qorshangho School","د_مرکز_ځای__موقعیت_مرکز":"قورشنغو","Polling_Center_Location":"Qorshangho","Verification_Note":"Building","PS_Male":2,"PS_Female":1,"Map_Accuracy":"تعمیر"},"geometry":{"x":7347931.4186106734,"y":4444871.2843075991}},{"attributes":{"OBJECTID":3510,"ولایت":"جوزجان","Province":"JAWZJAN","PC_Code":"2807040","ولسوالي":"آقچه","District":"AQCHAH","د_مرکز_نوم__نام_مرکز":"مسجد آقچه نمای","Polling_Center_Name":"Aqcha Namai Mosque","د_مرکز_ځای__موقعیت_مرکز":"بتی کوت اربکیه","Polling_Center_Location":"Bati Kot Arbakia","Verification_Note":"Building","PS_Male":2,"PS_Female":2,"Map_Accuracy":"تعمیر"},"geometry":{"x":7369070.6225580014,"y":4425612.5729727969}},{"attributes":{"OBJECTID":3511,"ولایت":"جوزجان","Province":"JAWZJAN","PC_Code":"2809060","ولسوالي":"مردیان","District":"MARDYAN","د_مرکز_نوم__نام_مرکز":"لیسه مردیان","Polling_Center_Name":"Mardiyan High School","د_مرکز_ځای__موقعیت_مرکز":"قریه مردیان","Polling_Center_Location":"Mardiyan Village","Verification_Note":"Building","PS_Male":2,"PS_Female":2,"Map_Accuracy":"تعمیر"},"geometry":{"x":7382058.1228335127,"y":4438237.5324366838}},{"attributes":{"OBJECTID":3512,"ولایت":"جوزجان","Province":"JAWZJAN","PC_Code":"2811104","ولسوالي":"درز آب","District":"DARZAB","د_مرکز_نوم__نام_مرکز":"مکتب قرغ ستون","Polling_Center_Name":"Qarogh Satoon School","د_مرکز_ځای__موقعیت_مرکز":"قرغ ستون","Polling_Center_Location":"Qarogh Satoon ","Verification_Note":"Building","PS_Male":1,"PS_Female":1,"Map_Accuracy":"تعمیر"},"geometry":{"x":7263210.8340393081,"y":4308582.5586308837}},{"attributes":{"OBJECTID":3513,"ولایت":"فارياب","Province":"FARYAB","PC_Code":"2901016","ولسوالي":"میمنه ","District":"MAIMANA","د_مرکز_نوم__نام_مرکز":"لیسه نسوان کوهی خانه میمنه","Polling_Center_Name":"Kohi Khana Maimana Girls High School","د_مرکز_ځای__موقعیت_مرکز":"ناحیه اول ","Polling_Center_Location":"D01 - Nahia 1","Verification_Note":"Building","PS_Male":3,"PS_Female":2,"Map_Accuracy":"تعمیر"},"geometry":{"x":7213751.6866937876,"y":4290017.6787313074}},{"attributes":{"OBJECTID":3514,"ولایت":"فارياب","Province":"FARYAB","PC_Code":"2902036","ولسوالي":"پشتون کوت","District":"PASHTUN KOT","د_مرکز_نوم__نام_مرکز":"مسجد چقماق","Polling_Center_Name":"Chaqmaq Mosque","د_مرکز_ځای__موقعیت_مرکز":"چقماق","Polling_Center_Location":"Chaqmaq","Verification_Note":"Village","PS_Male":1,"PS_Female":1,"Map_Accuracy":"قریه"},"geometry":{"x":7243102.6545177884,"y":4283447.62735036}},{"attributes":{"OBJECTID":3515,"ولایت":"فارياب","Province":"FARYAB","PC_Code":"2903054","ولسوالي":"خواجه سبز پوش ولی","District":"KHWAJA SABZ POSH-E-WALI","د_مرکز_نوم__نام_مرکز":"لیسه نسوان غذاری ","Polling_Center_Name":"Ghazari Girls High School","د_مرکز_ځای__موقعیت_مرکز":"قریه غذاری","Polling_Center_Location":"Ghazari Village","Verification_Note":"Building","PS_Male":2,"PS_Female":2,"Map_Accuracy":"تعمیر"},"geometry":{"x":7220187.1710968688,"y":4306783.8248279765}},{"attributes":{"OBJECTID":3516,"ولایت":"فارياب","Province":"FARYAB","PC_Code":"2904074","ولسوالي":"المار","District":"ALMAR","د_مرکز_نوم__نام_مرکز":"مکتب متوسطه خواجه باغچه","Polling_Center_Name":"Khwaja Baghcha Secondary School","د_مرکز_ځای__موقعیت_مرکز":"خواجه باغچه","Polling_Center_Location":"Khwaja Baghcha","Verification_Note":"Building","PS_Male":2,"PS_Female":1,"Map_Accuracy":"تعمیر"},"geometry":{"x":7192509.9897780977,"y":4242043.4784807563}},{"attributes":{"OBJECTID":3517,"ولایت":"فارياب","Province":"FARYAB","PC_Code":"2906151","ولسوالي":"شیرین تگاب","District":"SHIRIN TAGAB","د_مرکز_نوم__نام_مرکز":"مکتب متوسطه ذکور سردابه","Polling_Center_Name":"Sardaba Boys Secondary School","د_مرکز_ځای__موقعیت_مرکز":"سردابه","Polling_Center_Location":"Sardaba","Verification_Note":"Building","PS_Male":2,"PS_Female":2,"Map_Accuracy":"تعمیر"},"geometry":{"x":7246139.0483632684,"y":4335927.7017910033}},{"attributes":{"OBJECTID":3518,"ولایت":"فارياب","Province":"FARYAB","PC_Code":"2907093","ولسوالي":"قیصار ","District":"QAISAR","د_مرکز_نوم__نام_مرکز":"مکتب خواجه تبجاق","Polling_Center_Name":"Khwaja Tabjaq School","د_مرکز_ځای__موقعیت_مرکز":"خواجه تبجاق","Polling_Center_Location":"Khwaja Tabjaq","Verification_Note":"Building","PS_Male":1,"PS_Female":1,"Map_Accuracy":"تعمیر"},"geometry":{"x":7167007.6105967648,"y":4272566.035198167}},{"attributes":{"OBJECTID":3519,"ولایت":"فارياب","Province":"FARYAB","PC_Code":"2908124","ولسوالي":"گرزیوان","District":"GURZIWAN","د_مرکز_نوم__نام_مرکز":"لیسه ذکور ده میران","Polling_Center_Name":"Deh Miran Boys High School","د_مرکز_ځای__موقعیت_مرکز":"قریه ده میران","Polling_Center_Location":"Deh Miran Village","Verification_Note":"Building","PS_Male":3,"PS_Female":2,"Map_Accuracy":"تعمیر"},"geometry":{"x":7268579.0305792615,"y":4266648.622466892}},{"attributes":{"OBJECTID":3520,"ولایت":"فارياب","Province":"FARYAB","PC_Code":"2909166","ولسوالي":"دولت آباد","District":"DAWLAT ABAD","د_مرکز_نوم__نام_مرکز":"مکتب ابتدای تخت پلوردی","Polling_Center_Name":"Takht Palordi Primar School","د_مرکز_ځای__موقعیت_مرکز":"تخت پلوردی","Polling_Center_Location":"Takht Plordi","Verification_Note":"Building","PS_Male":3,"PS_Female":1,"Map_Accuracy":"تعمیر"},"geometry":{"x":7226353.3658593558,"y":4370324.5906857252}},{"attributes":{"OBJECTID":3521,"ولایت":"فارياب","Province":"FARYAB","PC_Code":"2912190","ولسوالي":"قرغان","District":"QURGHAN","د_مرکز_نوم__نام_مرکز":"لیسه محمد کاول شهید ","Polling_Center_Name":"Mohmmad Kawal Shaheed High School","د_مرکز_ځای__موقعیت_مرکز":"قرغان","Polling_Center_Location":"Qarghan","Verification_Note":"Building","PS_Male":2,"PS_Female":2,"Map_Accuracy":"تعمیر"},"geometry":{"x":7245834.1832398139,"y":4427869.6843409538}},{"attributes":{"OBJECTID":3522,"ولایت":"فارياب","Province":"FARYAB","PC_Code":"2914178","ولسوالي":"خان چار باغ","District":"KHANI CHARBAGH","د_مرکز_نوم__نام_مرکز":"آق مسجد","Polling_Center_Name":"Aaq Mosque","د_مرکز_ځای__موقعیت_مرکز":"کهنه قلعه","Polling_Center_Location":"Kuhna Qala","Verification_Note":"Building","PS_Male":3,"PS_Female":1,"Map_Accuracy":"تعمیر"},"geometry":{"x":7252396.7043325827,"y":4436675.4344029576}},{"attributes":{"OBJECTID":3523,"ولایت":"هلمند","Province":"HELMAND","PC_Code":"3001020","ولسوالي":"لشکرگاه","District":"LASHKARGAH","د_مرکز_نوم__نام_مرکز":"د محمد ابراهیم کور","Polling_Center_Name":"Mohammad Ibrahim Private House","د_مرکز_ځای__موقعیت_مرکز":"قلعه بست","Polling_Center_Location":"Qala-e-Bost","Verification_Note":"Building","PS_Male":2,"PS_Female":2,"Map_Accuracy":"تعمیر"},"geometry":{"x":7164614.5743899867,"y":3696624.5147970468}},{"attributes":{"OBJECTID":3524,"ولایت":"هلمند","Province":"HELMAND","PC_Code":"3001021","ولسوالي":"لشکرگاه","District":"LASHKARGAH","د_مرکز_نوم__نام_مرکز":"د سید نبی کور","Polling_Center_Name":"Sayed Nabi Private House","د_مرکز_ځای__موقعیت_مرکز":"قلعه بست","Polling_Center_Location":"Qala-e-Bost","Verification_Note":"Building","PS_Male":3,"PS_Female":2,"Map_Accuracy":"تعمیر"},"geometry":{"x":7166443.982203763,"y":3694125.0659909844}},{"attributes":{"OBJECTID":3525,"ولایت":"هلمند","Province":"HELMAND","PC_Code":"3002078","ولسوالي":"نادعلی","District":"NAD ALI","د_مرکز_نوم__نام_مرکز":"مکتب  زرغون کلی","Polling_Center_Name":"Zarghoon Village School","د_مرکز_ځای__موقعیت_مرکز":" زرغون کلی","Polling_Center_Location":"Zarghoon Village","Verification_Note":"Village","PS_Male":3,"PS_Female":5,"Map_Accuracy":"قریه"},"geometry":{"x":7153416.9189812206,"y":3718023.0489868373}},{"attributes":{"OBJECTID":3526,"ولایت":"هلمند","Province":"HELMAND","PC_Code":"3003105","ولسوالي":"ناوه بارکزایی","District":"NAWA-E-BARAKZAYI","د_مرکز_نوم__نام_مرکز":"مسجد خسرآباد غربی","Polling_Center_Name":"Khusr Abad Gharbi Mosque","د_مرکز_ځای__موقعیت_مرکز":"خسرآباد غربی","Polling_Center_Location":"Khusr Abad Gharbi","Verification_Note":"Village","PS_Male":4,"PS_Female":0,"Map_Accuracy":"قریه"},"geometry":{"x":7156921.8387523331,"y":3685075.5525473803}},{"attributes":{"OBJECTID":3527,"ولایت":"هلمند","Province":"HELMAND","PC_Code":"3006111","ولسوالي":"گرم سیر","District":"GARM SER","د_مرکز_نوم__نام_مرکز":"مكتب هزار جفت","Polling_Center_Name":"Hazar Joft School","د_مرکز_ځای__موقعیت_مرکز":"د میرا خان نوی کلی","Polling_Center_Location":"Mira Khan New Village","Verification_Note":"Building","PS_Male":3,"PS_Female":0,"Map_Accuracy":"تعمیر"},"geometry":{"x":7145791.7353501618,"y":3649657.11640767}},{"attributes":{"OBJECTID":3528,"ولایت":"هلمند","Province":"HELMAND","PC_Code":"3006110","ولسوالي":"گرم سیر","District":"GARM SER","د_مرکز_نوم__نام_مرکز":"مكتب کټوری","Polling_Center_Name":"katorai School","د_مرکز_ځای__موقعیت_مرکز":"مکتب کو چنی در ویشان","Polling_Center_Location":"Maktab Kochnai Darweshan","Verification_Note":"Building","PS_Male":2,"PS_Female":1,"Map_Accuracy":"تعمیر"},"geometry":{"x":7137591.2781941593,"y":3602740.2296279892}},{"attributes":{"OBJECTID":3529,"ولایت":"هلمند","Province":"HELMAND","PC_Code":"3008131","ولسوالي":"سنگین قلعه","District":"SANGIN QALA","د_مرکز_نوم__نام_مرکز":"اغا نورخان مسجد","Polling_Center_Name":"Agha Noor Khan Mosque","د_مرکز_ځای__موقعیت_مرکز":"بوستانزاي","Polling_Center_Location":"Bostanzai ","Verification_Note":"Village","PS_Male":3,"PS_Female":2,"Map_Accuracy":"قریه"},"geometry":{"x":7235988.2726153806,"y":3793872.9623290524}},{"attributes":{"OBJECTID":3530,"ولایت":"هلمند","Province":"HELMAND","PC_Code":"3008127","ولسوالي":"سنگین قلعه","District":"SANGIN QALA","د_مرکز_نوم__نام_مرکز":"مكتب نسوزي عليا","Polling_Center_Name":"Nasozi Ulya School","د_مرکز_ځای__موقعیت_مرکز":"نسوزي عليا","Polling_Center_Location":"Nasozi Ulya","Verification_Note":"Village","PS_Male":5,"PS_Female":0,"Map_Accuracy":"قریه"},"geometry":{"x":7231261.0870992541,"y":3783209.1656821594}},{"attributes":{"OBJECTID":3531,"ولایت":"هرات","Province":"HERAT","PC_Code":"3205271","ولسوالي":"زنده جان ","District":"ZENDAJAN","د_مرکز_نوم__نام_مرکز":"فارم پیله وری قلعه ریگ","Polling_Center_Name":"Farm-e- Pelawari ","د_مرکز_ځای__موقعیت_مرکز":"قلعه ریگ","Polling_Center_Location":"Qala-e- Rig ","Verification_Note":"Village","PS_Male":2,"PS_Female":0,"Map_Accuracy":"قریه"},"geometry":{"x":6875074.9376966953,"y":4074187.3355442137}},{"attributes":{"OBJECTID":3532,"ولایت":"هلمند","Province":"HELMAND","PC_Code":"3011216","ولسوالي":"ریگ خانشین","District":"REG-E-KHAN NISHIN","د_مرکز_نوم__نام_مرکز":"مکتب مرکز ولسوالی","Polling_Center_Name":"District Center School","د_مرکز_ځای__موقعیت_مرکز":"خانشین","Polling_Center_Location":"Khanesheen","Verification_Note":"Building","PS_Male":2,"PS_Female":1,"Map_Accuracy":"تعمیر"},"geometry":{"x":7101886.8895824961,"y":3575049.6597419307}},{"attributes":{"OBJECTID":3533,"ولایت":"بادغيس","Province":"BADGHIS","PC_Code":"3101004","ولسوالي":"قلعه نو","District":"QALA-E-NOW","د_مرکز_نوم__نام_مرکز":"مکتب خم عباسی ","Polling_Center_Name":"Khum Abasi School","د_مرکز_ځای__موقعیت_مرکز":"خم عباسی ","Polling_Center_Location":"khum Abasi ","Verification_Note":"Building","PS_Male":2,"PS_Female":2,"Map_Accuracy":"تعمیر"},"geometry":{"x":7025417.2188395262,"y":4172458.7342072576}},{"attributes":{"OBJECTID":3534,"ولایت":"بادغيس","Province":"BADGHIS","PC_Code":"3104066","ولسوالي":"قادس","District":"QADIS","د_مرکز_نوم__نام_مرکز":"مکتب ملایان","Polling_Center_Name":"Malayan Village ","د_مرکز_ځای__موقعیت_مرکز":"ملا یان","Polling_Center_Location":"Mullahyan ","Verification_Note":"Building","PS_Male":1,"PS_Female":1,"Map_Accuracy":"تعمیر"},"geometry":{"x":7050729.415350005,"y":4147977.2463935688}},{"attributes":{"OBJECTID":3535,"ولایت":"بادغيس","Province":"BADGHIS","PC_Code":"3104088","ولسوالي":"قادس","District":"QADIS","د_مرکز_نوم__نام_مرکز":"مسجد قریه دهن خشک خیرخانه","Polling_Center_Name":"Dahan-e- Khushk -e- Khair Khana","د_مرکز_ځای__موقعیت_مرکز":"قریه دهن خشک خیرخانه","Polling_Center_Location":"Dahan- e- khushk- e- Khair Khana Village","Verification_Note":"Village","PS_Male":1,"PS_Female":1,"Map_Accuracy":"قریه"},"geometry":{"x":7084217.9449696392,"y":4158817.8520334288}},{"attributes":{"OBJECTID":3536,"ولایت":"بادغيس","Province":"BADGHIS","PC_Code":"3106095","ولسوالي":"جوند","District":"JAWAND","د_مرکز_نوم__نام_مرکز":"مکتب جیجانی","Polling_Center_Name":"Jeeghani School","د_مرکز_ځای__موقعیت_مرکز":"جیجانی","Polling_Center_Location":"Jeejani ","Verification_Note":"Building","PS_Male":1,"PS_Female":1,"Map_Accuracy":"تعمیر"},"geometry":{"x":7139553.47123614,"y":4152541.8764721304}},{"attributes":{"OBJECTID":3537,"ولایت":"بادغيس","Province":"BADGHIS","PC_Code":"3106096","ولسوالي":"جوند","District":"JAWAND","د_مرکز_نوم__نام_مرکز":"مکتب خامین","Polling_Center_Name":"Khameen School","د_مرکز_ځای__موقعیت_مرکز":" خامین","Polling_Center_Location":"Khameen ","Verification_Note":"Building","PS_Male":1,"PS_Female":1,"Map_Accuracy":"تعمیر"},"geometry":{"x":7142670.4904492125,"y":4136978.5534187779}},{"attributes":{"OBJECTID":3538,"ولایت":"بادغيس","Province":"BADGHIS","PC_Code":"3107137","ولسوالي":"غورماچ","District":"GHORMACH","د_مرکز_نوم__نام_مرکز":"مسجد قریه فتح خان","Polling_Center_Name":"Fateh Khan Village Mosque ","د_مرکز_ځای__موقعیت_مرکز":"فتح خان","Polling_Center_Location":"Fateh Khan ","Verification_Note":"Village","PS_Male":1,"PS_Female":1,"Map_Accuracy":"قریه"},"geometry":{"x":7083222.9023428373,"y":4262645.4672676623}},{"attributes":{"OBJECTID":3539,"ولایت":"هرات","Province":"HERAT","PC_Code":"3201013","ولسوالي":"هرات","District":"HERAT","د_مرکز_نوم__نام_مرکز":"لیسه انقلاب","Polling_Center_Name":"Inqelab High School","د_مرکز_ځای__موقعیت_مرکز":" ناحیه پنجم","Polling_Center_Location":"D05 - Nahia 5","Verification_Note":"Building","PS_Male":3,"PS_Female":2,"Map_Accuracy":"تعمیر"},"geometry":{"x":6923839.858849,"y":4075893.1486172378}},{"attributes":{"OBJECTID":3540,"ولایت":"هرات","Province":"HERAT","PC_Code":"3201427","ولسوالي":"هرات","District":"HERAT","د_مرکز_نوم__نام_مرکز":"مکتب متوسطه کارته امین","Polling_Center_Name":"Karti-e-Amin Secondary School","د_مرکز_ځای__موقعیت_مرکز":"ناحیه ششم","Polling_Center_Location":"D06 - Nahia 6","Verification_Note":"Building","PS_Male":3,"PS_Female":3,"Map_Accuracy":"تعمیر"},"geometry":{"x":6928589.5921279825,"y":4075084.4159030989}},{"attributes":{"OBJECTID":3541,"ولایت":"هرات","Province":"HERAT","PC_Code":"3202048","ولسوالي":"انجیل","District":"ENJIL","د_مرکز_نوم__نام_مرکز":"لیسه صفی الدین","Polling_Center_Name":"Safiudeen High School ","د_مرکز_ځای__موقعیت_مرکز":"قبول دراز","Polling_Center_Location":"Qabul Daraz ","Verification_Note":"Building","PS_Male":1,"PS_Female":1,"Map_Accuracy":"تعمیر"},"geometry":{"x":6933789.1362998039,"y":4074645.744990766}},{"attributes":{"OBJECTID":3542,"ولایت":"هرات","Province":"HERAT","PC_Code":"3203086","ولسوالي":"گذره","District":"GUZARA","د_مرکز_نوم__نام_مرکز":"نساجی","Polling_Center_Name":"Nasaji","د_مرکز_ځای__موقعیت_مرکز":"قریه گواشان(مرکز گذره اول)","Polling_Center_Location":"Gawashan Village (Markaz Guzara Awal)","Verification_Note":"Building","PS_Male":5,"PS_Female":0,"Map_Accuracy":"تعمیر"},"geometry":{"x":6926508.5521712452,"y":4063431.0912558362}},{"attributes":{"OBJECTID":3543,"ولایت":"هرات","Province":"HERAT","PC_Code":"3203107","ولسوالي":"گذره","District":"GUZARA","د_مرکز_نوم__نام_مرکز":"لیسه امیر شاهی ","Polling_Center_Name":"Amir Shahi High School ","د_مرکز_ځای__موقعیت_مرکز":"سر اسیاب ","Polling_Center_Location":"Sar Asyab ","Verification_Note":"Building","PS_Male":2,"PS_Female":1,"Map_Accuracy":"تعمیر"},"geometry":{"x":6921403.9368083924,"y":4059166.5327597558}},{"attributes":{"OBJECTID":3544,"ولایت":"هرات","Province":"HERAT","PC_Code":"3204157","ولسوالي":"کرخ ","District":"KARRUKH","د_مرکز_نوم__نام_مرکز":"مکتب جنده خان ","Polling_Center_Name":"Janda Khan School ","د_مرکز_ځای__موقعیت_مرکز":"قریه جنده خان ","Polling_Center_Location":"Janda Khan Village","Verification_Note":"Building","PS_Male":2,"PS_Female":1,"Map_Accuracy":"تعمیر"},"geometry":{"x":6951282.2617957182,"y":4072097.5037651882}},{"attributes":{"OBJECTID":3545,"ولایت":"هرات","Province":"HERAT","PC_Code":"3212366","ولسوالي":"اوبه ","District":"OBE","د_مرکز_نوم__نام_مرکز":"مکتب بند بنفش ","Polling_Center_Name":"Band-e- Benafsh School","د_مرکز_ځای__موقعیت_مرکز":"قریه بند بنفش","Polling_Center_Location":"Band-e- Benafsh Village","Verification_Note":"Village","PS_Male":2,"PS_Female":0,"Map_Accuracy":"قریه"},"geometry":{"x":7035948.74064178,"y":4079512.6716554463}},{"attributes":{"OBJECTID":3546,"ولایت":"هرات","Province":"HERAT","PC_Code":"3206136","ولسوالي":"پشتون زرغون","District":"PASHTUN ZARGHUN","د_مرکز_نوم__نام_مرکز":"مکتب منزل ","Polling_Center_Name":"Manzil School ","د_مرکز_ځای__موقعیت_مرکز":"قریه منزل ","Polling_Center_Location":"Manzel Vilage ","Verification_Note":"Building","PS_Male":2,"PS_Female":1,"Map_Accuracy":"تعمیر"},"geometry":{"x":6963029.4703610688,"y":4061954.2873297334}},{"attributes":{"OBJECTID":3547,"ولایت":"هرات","Province":"HERAT","PC_Code":"3207169","ولسوالي":"کشک (رباط سنگی)","District":"KUSHK (RUBAT-E-SANGI)","د_مرکز_نوم__نام_مرکز":"مکتب عقابی","Polling_Center_Name":"Oqabi School ","د_مرکز_ځای__موقعیت_مرکز":"قریه عقابی","Polling_Center_Location":"Oqabi Village ","Verification_Note":"Building","PS_Male":1,"PS_Female":1,"Map_Accuracy":"تعمیر"},"geometry":{"x":6938732.4001833163,"y":4148388.68596036}},{"attributes":{"OBJECTID":3548,"ولایت":"کاپيسا","Province":"KAPISA","PC_Code":"0205051","ولسوالي":"نجراب ","District":"NIJRAB","د_مرکز_نوم__نام_مرکز":"باغ امان دره پته ","Polling_Center_Name":"Bagh Aman Dara-e-Pata","د_مرکز_ځای__موقعیت_مرکز":"باغ امان دره پته ","Polling_Center_Location":"Baghi Aman Dara-e-Pata","Verification_Note":"Building","PS_Male":2,"PS_Female":1,"Map_Accuracy":"تعمیر"},"geometry":{"x":7752700.4751189239,"y":4169083.3078030571}},{"attributes":{"OBJECTID":3549,"ولایت":"کاپيسا","Province":"KAPISA","PC_Code":"0205052","ولسوالي":"نجراب ","District":"NIJRAB","د_مرکز_نوم__نام_مرکز":"مدرسه خروستان دره پته  ","Polling_Center_Name":"Madrasa Khrustan Dara-e-Pata ","د_مرکز_ځای__موقعیت_مرکز":"خروستان دره پته ","Polling_Center_Location":"Khrustan Dara-e-Pata","Verification_Note":"Building","PS_Male":1,"PS_Female":1,"Map_Accuracy":"تعمیر"},"geometry":{"x":7755883.5145824067,"y":4170797.128155373}},{"attributes":{"OBJECTID":3550,"ولایت":"ننگرهار","Province":"NANGARHAR","PC_Code":"0605171","ولسوالي":"کامه","District":"KAMA","د_مرکز_نوم__نام_مرکز":"ارباپان باغ","Polling_Center_Name":"Arbapan Bagh","د_مرکز_ځای__موقعیت_مرکز":"ارباپان","Polling_Center_Location":"Arbapan","Verification_Note":"Village","PS_Male":0,"PS_Female":2,"Map_Accuracy":"قریه"},"geometry":{"x":7857279.692082908,"y":4087898.8144555539}},{"attributes":{"OBJECTID":3551,"ولایت":"ننگرهار","Province":"NANGARHAR","PC_Code":"0605172","ولسوالي":"کامه","District":"KAMA","د_مرکز_نوم__نام_مرکز":"ارباپان جومات","Polling_Center_Name":"Arbapan Mosque","د_مرکز_ځای__موقعیت_مرکز":"ارباپان","Polling_Center_Location":"Arbapan","Verification_Note":"Village","PS_Male":2,"PS_Female":0,"Map_Accuracy":"قریه"},"geometry":{"x":7857927.51474639,"y":4087978.1663939804}},{"attributes":{"OBJECTID":3552,"ولایت":"ننگرهار","Province":"NANGARHAR","PC_Code":"0606195","ولسوالي":"کوز کنړ","District":"KUZ KUNAR","د_مرکز_نوم__نام_مرکز":"کوز کوټی جومات","Polling_Center_Name":"Koz Kotai Mosque","د_مرکز_ځای__موقعیت_مرکز":"کوزکوټۍ","Polling_Center_Location":"Koz Kotai","Verification_Note":"Village","PS_Male":1,"PS_Female":1,"Map_Accuracy":"قریه"},"geometry":{"x":7857651.1707896627,"y":4096474.8343969434}},{"attributes":{"OBJECTID":3553,"ولایت":"ننگرهار","Province":"NANGARHAR","PC_Code":"0606196","ولسوالي":"کوز کنړ","District":"KUZ KUNAR","د_مرکز_نوم__نام_مرکز":"ګوریک جومات","Polling_Center_Name":"Goreek Mosque","د_مرکز_ځای__موقعیت_مرکز":"ګوریک","Polling_Center_Location":"Goreek","Verification_Note":"Village","PS_Male":4,"PS_Female":0,"Map_Accuracy":"قریه"},"geometry":{"x":7861576.9428012744,"y":4104690.6864659414}},{"attributes":{"OBJECTID":3554,"ولایت":"ننگرهار","Province":"NANGARHAR","PC_Code":"0613351","ولسوالي":"کوټ","District":"KOT","د_مرکز_نوم__نام_مرکز":"تریلې زوړ لوي جومات","Polling_Center_Name":"Trelay Zawar  Mosque","د_مرکز_ځای__موقعیت_مرکز":"تريلي کلي","Polling_Center_Location":"Trelay Village","Verification_Note":"Village","PS_Male":2,"PS_Female":0,"Map_Accuracy":"قریه"},"geometry":{"x":7866964.3664436862,"y":4061956.7934952527}},{"attributes":{"OBJECTID":3555,"ولایت":"ننگرهار","Province":"NANGARHAR","PC_Code":"0613352","ولسوالي":"کوټ","District":"KOT","د_مرکز_نوم__نام_مرکز":"ترلې ميدان","Polling_Center_Name":"Trelay Maidan","د_مرکز_ځای__موقعیت_مرکز":"تريلي کلي","Polling_Center_Location":"Trelay Village","Verification_Note":"Village","PS_Male":0,"PS_Female":2,"Map_Accuracy":"قریه"},"geometry":{"x":7867553.0662123971,"y":4061077.0516680703}},{"attributes":{"OBJECTID":3556,"ولایت":"ننگرهار","Province":"NANGARHAR","PC_Code":"0615360","ولسوالي":"اچین","District":"ACHIN","د_مرکز_نوم__نام_مرکز":"پیښی ابتدائیه ښوونځی","Polling_Center_Name":"Pekhe Primary School","د_مرکز_ځای__موقعیت_مرکز":"مکتبه کلي","Polling_Center_Location":"Maktaba Village","Verification_Note":"Village","PS_Male":2,"PS_Female":0,"Map_Accuracy":"قریه"},"geometry":{"x":7865565.4644966573,"y":4036410.8298082575}},{"attributes":{"OBJECTID":3557,"ولایت":"ننگرهار","Province":"NANGARHAR","PC_Code":"0615361","ولسوالي":"اچین","District":"ACHIN","د_مرکز_نوم__نام_مرکز":"پیښی کلي مکتب","Polling_Center_Name":"Pekhe Village School","د_مرکز_ځای__موقعیت_مرکز":"پیښه کلي","Polling_Center_Location":"Pekha Village","Verification_Note":"Village","PS_Male":0,"PS_Female":3,"Map_Accuracy":"قریه"},"geometry":{"x":7865564.2544537894,"y":4036341.3134776354}},{"attributes":{"OBJECTID":3558,"ولایت":"ننگرهار","Province":"NANGARHAR","PC_Code":"0616423","ولسوالي":"شینوار","District":"SHINWAR","د_مرکز_نوم__نام_مرکز":"قاريان جومات","Polling_Center_Name":"Qaryan Mosque","د_مرکز_ځای__موقعیت_مرکز":"٢٧ وياله","Polling_Center_Location":"27 Viyala","Verification_Note":"Village","PS_Male":3,"PS_Female":0,"Map_Accuracy":"قریه"},"geometry":{"x":7886963.4272607416,"y":4060469.9697839022}},{"attributes":{"OBJECTID":3559,"ولایت":"ننگرهار","Province":"NANGARHAR","PC_Code":"0616424","ولسوالي":"شینوار","District":"SHINWAR","د_مرکز_نوم__نام_مرکز":"ميرانو جومات","Polling_Center_Name":"Milano Mosque","د_مرکز_ځای__موقعیت_مرکز":"کتيلي","Polling_Center_Location":"Katelay","Verification_Note":"Village","PS_Male":3,"PS_Female":0,"Map_Accuracy":"قریه"},"geometry":{"x":7884513.1494586021,"y":4054060.5047709569}},{"attributes":{"OBJECTID":3560,"ولایت":"ننگرهار","Province":"NANGARHAR","PC_Code":"0620397","ولسوالي":"نازیان","District":"NAZYAN","د_مرکز_نوم__نام_مرکز":"للمه جومات","Polling_Center_Name":"Lalma Mosque","د_مرکز_ځای__موقعیت_مرکز":"للمه بارو خوله","Polling_Center_Location":"Lalma Baroo Khola","Verification_Note":"Village","PS_Male":2,"PS_Female":1,"Map_Accuracy":"قریه"},"geometry":{"x":7883094.4927547351,"y":4032459.8736928627}},{"attributes":{"OBJECTID":3561,"ولایت":"ننگرهار","Province":"NANGARHAR","PC_Code":"0620399","ولسوالي":"نازیان","District":"NAZYAN","د_مرکز_نوم__نام_مرکز":"لال منديي جومات","Polling_Center_Name":"Lal Mandayee Mosque","د_مرکز_ځای__موقعیت_مرکز":"لال منډي","Polling_Center_Location":"Lal Mandayee","Verification_Note":"Village","PS_Male":2,"PS_Female":1,"Map_Accuracy":"قریه"},"geometry":{"x":7881268.8931807429,"y":4033485.824237749}},{"attributes":{"OBJECTID":3562,"ولایت":"لغمان","Province":"LAGHMAN","PC_Code":"0702039","ولسوالي":"قرغه یي","District":"QARGHAYEE","د_مرکز_نوم__نام_مرکز":"د مشه خيلو  دهلکانو ليسه","Polling_Center_Name":"Masha Khel Boys High School","د_مرکز_ځای__موقعیت_مرکز":"مشه خیل","Polling_Center_Location":"MashaKhel","Verification_Note":"Village","PS_Male":3,"PS_Female":1,"Map_Accuracy":"قریه"},"geometry":{"x":7815529.9426764362,"y":4107100.7081127465}},{"attributes":{"OBJECTID":3563,"ولایت":"غزنى","Province":"GHAZNI","PC_Code":"1102102","ولسوالي":"ولی محمد شهید","District":"WALI MOHAMMAD SHAHID","د_مرکز_نوم__نام_مرکز":"مسجد کهنه ده","Polling_Center_Name":"Kohna Deh Mosque","د_مرکز_ځای__موقعیت_مرکز":"کهنه ده","Polling_Center_Location":"Kohna Deh","Verification_Note":"Village","PS_Male":2,"PS_Female":2,"Map_Accuracy":"قریه"},"geometry":{"x":7607217.9209307283,"y":3969702.7095184177}},{"attributes":{"OBJECTID":3564,"ولایت":"غزنى","Province":"GHAZNI","PC_Code":"1106115","ولسوالي":"جغتو","District":"JAGHATU","د_مرکز_نوم__نام_مرکز":"مسجد ده نورالله","Polling_Center_Name":"Deh Noorullah Mosque","د_مرکز_ځای__موقعیت_مرکز":" ده نورالله ترگن","Polling_Center_Location":"Deh Noorullah Torgan","Verification_Note":"Village","PS_Male":4,"PS_Female":0,"Map_Accuracy":"قریه"},"geometry":{"x":7592404.7676478736,"y":3964997.6062871218}},{"attributes":{"OBJECTID":3565,"ولایت":"غزنى","Province":"GHAZNI","PC_Code":"1106116","ولسوالي":"جغتو","District":"JAGHATU","د_مرکز_نوم__نام_مرکز":"مهمان خانه عزیز الله","Polling_Center_Name":"Azizullah Guest House","د_مرکز_ځای__موقعیت_مرکز":" ده نورالله ترگن","Polling_Center_Location":"Deh Noorullah Torgan","Verification_Note":"Village","PS_Male":0,"PS_Female":2,"Map_Accuracy":"قریه"},"geometry":{"x":7592422.7802546769,"y":3965098.64573922}},{"attributes":{"OBJECTID":3566,"ولایت":"غزنى","Province":"GHAZNI","PC_Code":"1110261","ولسوالي":"ناور","District":"NAWUR","د_مرکز_نوم__نام_مرکز":"لیسه خواط","Polling_Center_Name":"Khawat High School","د_مرکز_ځای__موقعیت_مرکز":"قریه چاه اسپ","Polling_Center_Location":"Chah Asp Village","Verification_Note":"Building","PS_Male":3,"PS_Female":1,"Map_Accuracy":"تعمیر"},"geometry":{"x":7571338.0449341983,"y":4037910.9176150635}},{"attributes":{"OBJECTID":3567,"ولایت":"غزنى","Province":"GHAZNI","PC_Code":"1110262","ولسوالي":"ناور","District":"NAWUR","د_مرکز_نوم__نام_مرکز":"لیسه اتفاق","Polling_Center_Name":"Etifaq High School","د_مرکز_ځای__موقعیت_مرکز":"قریه دوآبی ","Polling_Center_Location":"Do Aabi Village","Verification_Note":"Building","PS_Male":2,"PS_Female":1,"Map_Accuracy":"تعمیر"},"geometry":{"x":7557332.2462770678,"y":4014900.25802131}},{"attributes":{"OBJECTID":3568,"ولایت":"غزنى","Province":"GHAZNI","PC_Code":"1111189","ولسوالي":"قره باغ","District":"QARA BAGH","د_مرکز_نوم__نام_مرکز":"مکتب نی قلعه","Polling_Center_Name":"Ny Qala School","د_مرکز_ځای__موقعیت_مرکز":" نی قلعه","Polling_Center_Location":"Ny Qala","Verification_Note":"Building","PS_Male":3,"PS_Female":2,"Map_Accuracy":"تعمیر"},"geometry":{"x":7545559.424210079,"y":3931305.4185239822}},{"attributes":{"OBJECTID":3569,"ولایت":"پکتيکا","Province":"PAKTIKA","PC_Code":"1204052","ولسوالي":"یحی خیل","District":"YAHYA KHEL","د_مرکز_نوم__نام_مرکز":"میلمستون مردانه وزنانه نیک محمد ","Polling_Center_Name":"Nik Mohammad Male & Female Guest House ","د_مرکز_ځای__موقعیت_مرکز":"نیک محمد خیل،غیبی خیل","Polling_Center_Location":"Nik muhammad khil_Ghaibi khil","Verification_Note":"Village","PS_Male":0,"PS_Female":4,"Map_Accuracy":"قریه"},"geometry":{"x":7640025.7474488951,"y":3888633.0957004279}},{"attributes":{"OBJECTID":3570,"ولایت":"پکتيکا","Province":"PAKTIKA","PC_Code":"1205083","ولسوالي":"سروضه ","District":"SAR RAWZA","د_مرکز_نوم__نام_مرکز":"ملاح جمعه گل جومات","Polling_Center_Name":"Molla Joma Gul Mosque","د_مرکز_ځای__موقعیت_مرکز":"گلر الدین","Polling_Center_Location":"Gularuddin","Verification_Note":"Building","PS_Male":2,"PS_Female":0,"Map_Accuracy":"تعمیر"},"geometry":{"x":7692853.38696358,"y":3899349.6252436116}},{"attributes":{"OBJECTID":3571,"ولایت":"پکتيکا","Province":"PAKTIKA","PC_Code":"1205084","ولسوالي":"سروضه ","District":"SAR RAWZA","د_مرکز_نوم__نام_مرکز":"گلرالدین میلمستون","Polling_Center_Name":"Gularddin Guest House","د_مرکز_ځای__موقعیت_مرکز":"گلر الدین","Polling_Center_Location":"Gularuddin","Verification_Note":"Village","PS_Male":0,"PS_Female":2,"Map_Accuracy":"قریه"},"geometry":{"x":7692952.3856131323,"y":3898713.6874617785}},{"attributes":{"OBJECTID":3572,"ولایت":"پکتيکا","Province":"PAKTIKA","PC_Code":"1208141","ولسوالي":"گومل","District":"GOMAL","د_مرکز_نوم__نام_مرکز":"ولسوالی مرکز چهار بران ","Polling_Center_Name":"District Center","د_مرکز_ځای__موقعیت_مرکز":"چهار بران ","Polling_Center_Location":"Charhar Baran","Verification_Note":"Village","PS_Male":2,"PS_Female":0,"Map_Accuracy":"قریه"},"geometry":{"x":7673398.01053955,"y":3868159.7358610928}},{"attributes":{"OBJECTID":3573,"ولایت":"پکتيکا","Province":"PAKTIKA","PC_Code":"1210294","ولسوالي":"سروبی","District":"SURUBI","د_مرکز_نوم__نام_مرکز":"ابتدائيه ښوونځي ربات اضعر كلا","Polling_Center_Name":"Rebat Asghar Kala Primary School","د_مرکز_ځای__موقعیت_مرکز":"اضعر كلا","Polling_Center_Location":"Asghar Kala","Verification_Note":"District","PS_Male":0,"PS_Female":2,"Map_Accuracy":"ولسوالی"},"geometry":{"x":7686402.96682442,"y":3863636.7520496696}},{"attributes":{"OBJECTID":3574,"ولایت":"پکتيکا","Province":"PAKTIKA","PC_Code":"1212190","ولسوالي":"زیړوک","District":"ZIRUK","د_مرکز_نوم__نام_مرکز":"کلینیک","Polling_Center_Name":"Clinic","د_مرکز_ځای__موقعیت_مرکز":"بازارعمومی کلینیک","Polling_Center_Location":"Bazar","Verification_Note":"Building","PS_Male":0,"PS_Female":2,"Map_Accuracy":"تعمیر"},"geometry":{"x":7715408.8954339176,"y":3916098.5336454585}},{"attributes":{"OBJECTID":3575,"ولایت":"پکتيکا","Province":"PAKTIKA","PC_Code":"1212191","ولسوالي":"زیړوک","District":"ZIRUK","د_مرکز_نوم__نام_مرکز":"بوستان کلینیک","Polling_Center_Name":"Bostan Clinic","د_مرکز_ځای__موقعیت_مرکز":"ستر کلی","Polling_Center_Location":"Ster Kalai","Verification_Note":"Village","PS_Male":0,"PS_Female":2,"Map_Accuracy":"قریه"},"geometry":{"x":7717631.0417508,"y":3917595.1022849753}},{"attributes":{"OBJECTID":3576,"ولایت":"پکتيکا","Province":"PAKTIKA","PC_Code":"1214261","ولسوالي":"برمل","District":"BARMAL","د_مرکز_نوم__نام_مرکز":"پیتوګی منځنی ښوونځی","Polling_Center_Name":"Petogay Secondary School","د_مرکز_ځای__موقعیت_مرکز":"ﭙﯾتوگی","Polling_Center_Location":"Petogay","Verification_Note":"Building","PS_Male":2,"PS_Female":0,"Map_Accuracy":"تعمیر"},"geometry":{"x":7703332.3860036843,"y":3836090.4992830679}},{"attributes":{"OBJECTID":3577,"ولایت":"پکتيکا","Province":"PAKTIKA","PC_Code":"1215275","ولسوالي":"گیان","District":"GIYAN","د_مرکز_نوم__نام_مرکز":"اسلا شاه جومات","Polling_Center_Name":"Esla Shah Mosque","د_مرکز_ځای__موقعیت_مرکز":"اسلا شاه","Polling_Center_Location":"Esla Shah","Verification_Note":"District","PS_Male":2,"PS_Female":0,"Map_Accuracy":"ولسوالی"},"geometry":{"x":7721996.1472647823,"y":3896633.8511131927}},{"attributes":{"OBJECTID":3578,"ولایت":"پکتيکا","Province":"PAKTIKA","PC_Code":"1216218","ولسوالي":"دیله و خوش امند","District":"DILA WA KHUSHAMAND","د_مرکز_نوم__نام_مرکز":"د میراگل زوړ کور","Polling_Center_Name":"Mera Gul Old House","د_مرکز_ځای__موقعیت_مرکز":"ﮀوری","Polling_Center_Location":"Chori","Verification_Note":"Building","PS_Male":0,"PS_Female":2,"Map_Accuracy":"تعمیر"},"geometry":{"x":7590203.5638668016,"y":3847468.6269841269}},{"attributes":{"OBJECTID":3579,"ولایت":"پکتيا","Province":"PAKTYA","PC_Code":"1303088","ولسوالي":"زرمت","District":"ZURMAT","د_مرکز_نوم__نام_مرکز":"کولالگو لیسه","Polling_Center_Name":"Kolalgo High School","د_مرکز_ځای__موقعیت_مرکز":"کولالگو","Polling_Center_Location":"Kolalgo","Verification_Note":"Building","PS_Male":2,"PS_Female":0,"Map_Accuracy":"تعمیر"},"geometry":{"x":7668669.5403965041,"y":3955572.4590787515}},{"attributes":{"OBJECTID":3580,"ولایت":"پکتيا","Province":"PAKTYA","PC_Code":"1306027","ولسوالي":"سید کرم","District":"SAYYID KARAM","د_مرکز_نوم__نام_مرکز":"د خوشحال خیلو مدرسه","Polling_Center_Name":"Khushal Khel Madrassa","د_مرکز_ځای__موقعیت_مرکز":"خوشحال خیل","Polling_Center_Location":"Khushal Khel","Verification_Note":"Building","PS_Male":2,"PS_Female":0,"Map_Accuracy":"تعمیر"},"geometry":{"x":7730159.3001462184,"y":3985709.1090542376}},{"attributes":{"OBJECTID":3581,"ولایت":"پکتيا","Province":"PAKTYA","PC_Code":"1307060","ولسوالي":"ځاځی اریوب","District":"JAJI ARYOB","د_مرکز_نوم__نام_مرکز":"کوټکئ شیشتی مسجد","Polling_Center_Name":"Kotkai Sheshti Mosque","د_مرکز_ځای__موقعیت_مرکز":"شیشته","Polling_Center_Location":"Shishta ","Verification_Note":"Building","PS_Male":0,"PS_Female":4,"Map_Accuracy":"تعمیر"},"geometry":{"x":7758884.2572477609,"y":4019531.5131476074}},{"attributes":{"OBJECTID":3582,"ولایت":"پکتيا","Province":"PAKTYA","PC_Code":"1308142","ولسوالي":" لجه احمد خیل","District":"LAJA AHMAD KHEL","د_مرکز_نوم__نام_مرکز":"سکندر خیل عالی لیسه","Polling_Center_Name":"Sakandar Khel High School","د_مرکز_ځای__موقعیت_مرکز":"ورسک کلی، احمدخیل","Polling_Center_Location":"Woersak Village","Verification_Note":"Building","PS_Male":2,"PS_Female":0,"Map_Accuracy":"تعمیر"},"geometry":{"x":7756901.6971917488,"y":4014188.5291302949}},{"attributes":{"OBJECTID":3583,"ولایت":"پکتيا","Province":"PAKTYA","PC_Code":"1313051","ولسوالي":"میرزکه","District":"MEERZAKA","د_مرکز_نوم__نام_مرکز":"مسجد چورړکای ","Polling_Center_Name":"Chorrkay Mosque","د_مرکز_ځای__موقعیت_مرکز":"چورړکای  میرزکه ","Polling_Center_Location":"Chorrkay, Merzaka","Verification_Note":"Village","PS_Male":2,"PS_Female":0,"Map_Accuracy":"قریه"},"geometry":{"x":7740030.8454229832,"y":3997922.1850414798}},{"attributes":{"OBJECTID":3584,"ولایت":"خوست","Province":"KHOST","PC_Code":"1401019","ولسوالي":"خوست","District":"KHOST","د_مرکز_نوم__نام_مرکز":"عسکري روغتون","Polling_Center_Name":"Askari Hospital ","د_مرکز_ځای__موقعیت_مرکز":"خوست ښار","Polling_Center_Location":"Khost City","Verification_Note":"Building","PS_Male":2,"PS_Female":2,"Map_Accuracy":"تعمیر"},"geometry":{"x":7783801.452129893,"y":3940859.4810237363}},{"attributes":{"OBJECTID":3585,"ولایت":"خوست","Province":"KHOST","PC_Code":"1401020","ولسوالي":"خوست","District":"KHOST","د_مرکز_نوم__نام_مرکز":"معيوبينو رياست","Polling_Center_Name":"Disabled Department ","د_مرکز_ځای__موقعیت_مرکز":"ازادى مينه معيوبينو رياست","Polling_Center_Location":"Azadi Mena","Verification_Note":"Building","PS_Male":2,"PS_Female":1,"Map_Accuracy":"تعمیر"},"geometry":{"x":7781294.2499929368,"y":3940779.8213184774}},{"attributes":{"OBJECTID":3586,"ولایت":"خوست","Province":"KHOST","PC_Code":"1409060","ولسوالي":"باک","District":"BAAK","د_مرکز_نوم__نام_مرکز":"توتک ښوونځى ","Polling_Center_Name":"Totak Village School ","د_مرکز_ځای__موقعیت_مرکز":" توتک","Polling_Center_Location":"Totak","Verification_Note":"Village","PS_Male":2,"PS_Female":1,"Map_Accuracy":"قریه"},"geometry":{"x":7794824.5719354413,"y":3973246.9187381491}},{"attributes":{"OBJECTID":3587,"ولایت":"خوست","Province":"KHOST","PC_Code":"1409061","ولسوالي":"باک","District":"BAAK","د_مرکز_نوم__نام_مرکز":"د نور افضل هجره","Polling_Center_Name":"Noor Afzal Hojra","د_مرکز_ځای__موقعیت_مرکز":" مانه کهول","Polling_Center_Location":"Mana Kahol","Verification_Note":"Village","PS_Male":2,"PS_Female":1,"Map_Accuracy":"قریه"},"geometry":{"x":7795157.3971754014,"y":3966851.4384233803}},{"attributes":{"OBJECTID":3588,"ولایت":"نورستان","Province":"NOORISTAN","PC_Code":"1601005","ولسوالي":"پارون","District":"PAROON","د_مرکز_نوم__نام_مرکز":"مکتب ابتدائیه ذکور کشتکی","Polling_Center_Name":"Kashtaki Boys Primary School","د_مرکز_ځای__موقعیت_مرکز":"کشتکی","Polling_Center_Location":"Kashtaki","Verification_Note":"Village","PS_Male":2,"PS_Female":2,"Map_Accuracy":"قریه"},"geometry":{"x":7896071.30301955,"y":4213726.8092059791}},{"attributes":{"OBJECTID":3589,"ولایت":"نورستان","Province":"NOORISTAN","PC_Code":"1601006","ولسوالي":"پارون","District":"PAROON","د_مرکز_نوم__نام_مرکز":"متوسطه ذکور پرونز","Polling_Center_Name":"Pronz Boys Secondary School","د_مرکز_ځای__موقعیت_مرکز":"پرونز","Polling_Center_Location":"Pronz","Verification_Note":"Building","PS_Male":2,"PS_Female":1,"Map_Accuracy":"تعمیر"},"geometry":{"x":7895204.4559183531,"y":4221157.9397115409}},{"attributes":{"OBJECTID":3590,"ولایت":"بلخ","Province":"BALKH","PC_Code":"2107258","ولسوالي":"شولگره","District":"SHOLGARA","د_مرکز_نوم__نام_مرکز":"مکتب نسوان دالان","Polling_Center_Name":"Dalan Girls School","د_مرکز_ځای__موقعیت_مرکز":"قریه دالان","Polling_Center_Location":"Dalan Village","Verification_Note":"Building","PS_Male":2,"PS_Female":1,"Map_Accuracy":"تعمیر"},"geometry":{"x":7477147.02481487,"y":4330352.6977416575}},{"attributes":{"OBJECTID":3591,"ولایت":"بلخ","Province":"BALKH","PC_Code":"2107259","ولسوالي":"شولگره","District":"SHOLGARA","د_مرکز_نوم__نام_مرکز":"مکتب پیکان دره","Polling_Center_Name":"Paikan Dara School","د_مرکز_ځای__موقعیت_مرکز":"قریه پیکان دره","Polling_Center_Location":"Paikan Dara Village","Verification_Note":"Building","PS_Male":3,"PS_Female":1,"Map_Accuracy":"تعمیر"},"geometry":{"x":7453432.2418465763,"y":4369477.5604332685}},{"attributes":{"OBJECTID":3592,"ولایت":"بلخ","Province":"BALKH","PC_Code":"2108218","ولسوالي":"چمتال","District":"CHIMTAL","د_مرکز_نوم__نام_مرکز":"مکتب پشم قلعه","Polling_Center_Name":"Pashm Qala School","د_مرکز_ځای__موقعیت_مرکز":"قریه پشمه قلعه","Polling_Center_Location":"Pashm Qala Village","Verification_Note":"Village","PS_Male":2,"PS_Female":1,"Map_Accuracy":"قریه"},"geometry":{"x":7410282.6209003031,"y":4393425.1834491268}},{"attributes":{"OBJECTID":3593,"ولایت":"بلخ","Province":"BALKH","PC_Code":"2108219","ولسوالي":"چمتال","District":"CHIMTAL","د_مرکز_نوم__نام_مرکز":"مسجد اسیاب گرگ","Polling_Center_Name":"Asyab Gorg Mosque","د_مرکز_ځای__موقعیت_مرکز":"قریه اسیا ب گرگ","Polling_Center_Location":"Asyab Gorg Village","Verification_Note":"Building","PS_Male":2,"PS_Female":1,"Map_Accuracy":"تعمیر"},"geometry":{"x":7422815.0793801025,"y":4393572.4474554211}},{"attributes":{"OBJECTID":3594,"ولایت":"زابل","Province":"ZABUL","PC_Code":"2610040","ولسوالي":"شملزایي","District":"SHEMEL ZAYI","د_مرکز_نوم__نام_مرکز":"ميرويس خان مكتب","Polling_Center_Name":"Mirwais Khan School","د_مرکز_ځای__موقعیت_مرکز":"ځنځير","Polling_Center_Location":"Zanzeer","Verification_Note":"Building","PS_Male":2,"PS_Female":0,"Map_Accuracy":"تعمیر"},"geometry":{"x":7550103.9811959937,"y":3717575.9952413291}},{"attributes":{"OBJECTID":3595,"ولایت":"زابل","Province":"ZABUL","PC_Code":"2610041","ولسوالي":"شملزایي","District":"SHEMEL ZAYI","د_مرکز_نوم__نام_مرکز":"د معارف مديريت","Polling_Center_Name":"Maaref Mudiryat","د_مرکز_ځای__موقعیت_مرکز":"مرکز شملزائي","Polling_Center_Location":"Shamalzai Markaz","Verification_Note":"Building","PS_Male":2,"PS_Female":2,"Map_Accuracy":"تعمیر"},"geometry":{"x":7530301.3959405981,"y":3751385.6452264413}},{"attributes":{"OBJECTID":3596,"ولایت":"کندهار","Province":"کندهار","PC_Code":"2704181","ولسوالي":"پنجوایې","District":"PANJWAYEE","د_مرکز_نوم__نام_مرکز":"محمد جان كمپ","Polling_Center_Name":"Mohammad Jan Camp","د_مرکز_ځای__موقعیت_مرکز":"ټالكان","Polling_Center_Location":"Talgan","Verification_Note":"Village","PS_Male":2,"PS_Female":1,"Map_Accuracy":"قریه"},"geometry":{"x":7272065.8787442371,"y":3690799.2741428092}},{"attributes":{"OBJECTID":3597,"ولایت":"کندهار","Province":"کندهار","PC_Code":"2705157","ولسوالي":"ژیړی","District":"ZHIRE","د_مرکز_نوم__نام_مرکز":"څلورم كمپ مسجد","Polling_Center_Name":"4th Camp Mosque","د_مرکز_ځای__موقعیت_مرکز":"د ژړي دښت","Polling_Center_Location":"Zharee Dasht","Verification_Note":"Building","PS_Male":3,"PS_Female":2,"Map_Accuracy":"تعمیر"},"geometry":{"x":7278378.1079807244,"y":3721009.2954178154}},{"attributes":{"OBJECTID":3598,"ولایت":"کندهار","Province":"کندهار","PC_Code":"2705158","ولسوالي":"ژیړی","District":"ZHIRE","د_مرکز_نوم__نام_مرکز":"دوهم كمپ مسجد","Polling_Center_Name":"2nd Camp Mosque","د_مرکز_ځای__موقعیت_مرکز":"د ژړي دښت","Polling_Center_Location":"Zharee Dasht","Verification_Note":"Building","PS_Male":1,"PS_Female":1,"Map_Accuracy":"تعمیر"},"geometry":{"x":7279230.1295521334,"y":3719872.3826124519}},{"attributes":{"OBJECTID":3599,"ولایت":"کندهار","Province":"کندهار","PC_Code":"2711220","ولسوالي":"سپین بولدک","District":"SPIN BOLDAK","د_مرکز_نوم__نام_مرکز":"د شهيد عبدالله جان مكتب","Polling_Center_Name":"Shaheed Abdullah Jan School","د_مرکز_ځای__موقعیت_مرکز":"رباط","Polling_Center_Location":"Rabat","Verification_Note":"Village","PS_Male":4,"PS_Female":1,"Map_Accuracy":"قریه"},"geometry":{"x":7393843.9325454906,"y":3638458.0622057244}}]}