{"objectIdFieldName":"OBJECTID","globalIdFieldName":"","geometryType":"esriGeometryPoint","spatialReference":{"wkid":102100,"latestWkid":3857},"fields":[{"name":"OBJECTID","type":"esriFieldTypeOID","alias":"OBJECTID","sqlType":"sqlTypeOther","domain":null,"defaultValue":null},{"name":"ولایت","type":"esriFieldTypeString","alias":"ولایت","sqlType":"sqlTypeOther","length":255,"domain":null,"defaultValue":null},{"name":"Province","type":"esriFieldTypeString","alias":"Province","sqlType":"sqlTypeOther","length":255,"domain":null,"defaultValue":null},{"name":"PC_Code","type":"esriFieldTypeString","alias":"PC_Code","sqlType":"sqlTypeOther","length":255,"domain":null,"defaultValue":null},{"name":"ولسوالي","type":"esriFieldTypeString","alias":"ولسوالي","sqlType":"sqlTypeOther","length":255,"domain":null,"defaultValue":null},{"name":"District","type":"esriFieldTypeString","alias":"District","sqlType":"sqlTypeOther","length":255,"domain":null,"defaultValue":null},{"name":"د_مرکز_نوم__نام_مرکز","type":"esriFieldTypeString","alias":"د_مرکز_نوم__نام_مرکز","sqlType":"sqlTypeOther","length":255,"domain":null,"defaultValue":null},{"name":"Polling_Center_Name","type":"esriFieldTypeString","alias":"Polling_Center_Name","sqlType":"sqlTypeOther","length":255,"domain":null,"defaultValue":null},{"name":"د_مرکز_ځای__موقعیت_مرکز","type":"esriFieldTypeString","alias":"د_مرکز_ځای__موقعیت_مرکز","sqlType":"sqlTypeOther","length":255,"domain":null,"defaultValue":null},{"name":"Polling_Center_Location","type":"esriFieldTypeString","alias":"Polling_Center_Location","sqlType":"sqlTypeOther","length":255,"domain":null,"defaultValue":null},{"name":"Verification_Note","type":"esriFieldTypeString","alias":"Verification_Note","sqlType":"sqlTypeOther","length":250,"domain":null,"defaultValue":null},{"name":"PS_Male","type":"esriFieldTypeSmallInteger","alias":"PS_Male","sqlType":"sqlTypeOther","domain":null,"defaultValue":null},{"name":"PS_Female","type":"esriFieldTypeSmallInteger","alias":"PS_Female","sqlType":"sqlTypeOther","domain":null,"defaultValue":null},{"name":"Map_Accuracy","type":"esriFieldTypeString","alias":"Map_Accuracy","sqlType":"sqlTypeOther","length":10,"domain":null,"defaultValue":null}],"features":[{"attributes":{"OBJECTID":3800,"ولایت":"بغلان","Province":"BAGHLAN","PC_Code":"0901009","ولسوالي":"پلخمری","District":"PUL-E-KHUMRI","د_مرکز_نوم__نام_مرکز":"لیسه حضرت زید","Polling_Center_Name":"Hazrat Zaid School","د_مرکز_ځای__موقعیت_مرکز":"ناحیه اول","Polling_Center_Location":"First Nahia","Verification_Note":"Building","PS_Male":2,"PS_Female":2,"Map_Accuracy":"تعمیر"},"geometry":{"x":7648413.8113427237,"y":4293271.2693835348}},{"attributes":{"OBJECTID":3801,"ولایت":"بغلان","Province":"BAGHLAN","PC_Code":"0901010","ولسوالي":"پلخمری","District":"PUL-E-KHUMRI","د_مرکز_نوم__نام_مرکز":"مکتب نمبر 2","Polling_Center_Name":"Number 2 School","د_مرکز_ځای__موقعیت_مرکز":"ناحیه سوم","Polling_Center_Location":"Third Nahia","Verification_Note":"Building","PS_Male":2,"PS_Female":1,"Map_Accuracy":"تعمیر"},"geometry":{"x":7648443.4312328286,"y":4295092.7092466131}},{"attributes":{"OBJECTID":3802,"ولایت":"بغلان","Province":"BAGHLAN","PC_Code":"0901014","ولسوالي":"پلخمری","District":"PUL-E-KHUMRI","د_مرکز_نوم__نام_مرکز":"مکتب قلعه خواجه","Polling_Center_Name":"Qala Khwaja School","د_مرکز_ځای__موقعیت_مرکز":"قلعه خواجه","Polling_Center_Location":"Qala -e-Khawja","Verification_Note":"Building","PS_Male":1,"PS_Female":1,"Map_Accuracy":"تعمیر"},"geometry":{"x":7636632.5345603973,"y":4295143.4105860069}},{"attributes":{"OBJECTID":3803,"ولایت":"بغلان","Province":"BAGHLAN","PC_Code":"0901015","ولسوالي":"پلخمری","District":"PUL-E-KHUMRI","د_مرکز_نوم__نام_مرکز":"قریه قاضی","Polling_Center_Name":"Qazi Village","د_مرکز_ځای__موقعیت_مرکز":"قریه قاضی","Polling_Center_Location":"Qazi Village","Verification_Note":"Building","PS_Male":1,"PS_Female":1,"Map_Accuracy":"تعمیر"},"geometry":{"x":7642360.3053007573,"y":4297180.1206501424}},{"attributes":{"OBJECTID":3804,"ولایت":"بغلان","Province":"BAGHLAN","PC_Code":"0901029","ولسوالي":"پلخمری","District":"PUL-E-KHUMRI","د_مرکز_نوم__نام_مرکز":"مکتب تاجکان شیر علی داخل قریه","Polling_Center_Name":"Tajikan Sher Ali School","د_مرکز_ځای__موقعیت_مرکز":"تاجکان شیر علی","Polling_Center_Location":"Tajikan Sher Ali","Verification_Note":"Building","PS_Male":2,"PS_Female":1,"Map_Accuracy":"تعمیر"},"geometry":{"x":7630973.4034180641,"y":4296360.1817004979}},{"attributes":{"OBJECTID":3805,"ولایت":"بغلان","Province":"BAGHLAN","PC_Code":"0901033","ولسوالي":"پلخمری","District":"PUL-E-KHUMRI","د_مرکز_نوم__نام_مرکز":"مکتب علی خیل ","Polling_Center_Name":"Ali Khel School","د_مرکز_ځای__موقعیت_مرکز":"قریه علی خیل","Polling_Center_Location":"Ali Khil Village","Verification_Note":"Building","PS_Male":2,"PS_Female":1,"Map_Accuracy":"تعمیر"},"geometry":{"x":7631927.7365070768,"y":4309463.842462711}},{"attributes":{"OBJECTID":3806,"ولایت":"بغلان","Province":"BAGHLAN","PC_Code":"0901034","ولسوالي":"پلخمری","District":"PUL-E-KHUMRI","د_مرکز_نوم__نام_مرکز":" مرکز شهر مسجد جامع پلخمری","Polling_Center_Name":"Pul-e-Khomri  Mosque","د_مرکز_ځای__موقعیت_مرکز":"مرکز شهر","Polling_Center_Location":"Center of the City","Verification_Note":"Building","PS_Male":2,"PS_Female":2,"Map_Accuracy":"تعمیر"},"geometry":{"x":7649565.9602800608,"y":4292189.568672426}},{"attributes":{"OBJECTID":3807,"ولایت":"بغلان","Province":"BAGHLAN","PC_Code":"0902076","ولسوالي":"دهنه غوری","District":"DAHANA-E-GHURI","د_مرکز_نوم__نام_مرکز":"لیسه ذکور شلکتو","Polling_Center_Name":"Shalakto Boys High School","د_مرکز_ځای__موقعیت_مرکز":"شلکتو","Polling_Center_Location":"Shalakto","Verification_Note":"Building","PS_Male":1,"PS_Female":1,"Map_Accuracy":"تعمیر"},"geometry":{"x":7628027.2073031925,"y":4266199.8415197209}},{"attributes":{"OBJECTID":3808,"ولایت":"بغلان","Province":"BAGHLAN","PC_Code":"0903094","ولسوالي":"دوشی","District":"DUSHI","د_مرکز_نوم__نام_مرکز":"مکتب تلختان","Polling_Center_Name":"Talkhan School","د_مرکز_ځای__موقعیت_مرکز":"قریه تلختان","Polling_Center_Location":"Talkhan Village","Verification_Note":"Village","PS_Male":1,"PS_Female":1,"Map_Accuracy":"قریه"},"geometry":{"x":7628070.2200412378,"y":4229888.2581169084}},{"attributes":{"OBJECTID":3809,"ولایت":"بغلان","Province":"BAGHLAN","PC_Code":"0903095","ولسوالي":"دوشی","District":"DUSHI","د_مرکز_نوم__نام_مرکز":" لیسه  شتر جنگل","Polling_Center_Name":"Shotor Jangal High School","د_مرکز_ځای__موقعیت_مرکز":"شترجنگل","Polling_Center_Location":"Shutor Jungle","Verification_Note":"Building","PS_Male":1,"PS_Female":1,"Map_Accuracy":"تعمیر"},"geometry":{"x":7606517.0946049094,"y":4234090.716887489}},{"attributes":{"OBJECTID":3810,"ولایت":"بغلان","Province":"BAGHLAN","PC_Code":"0904130","ولسوالي":"نهرین","District":"NAHREEN","د_مرکز_نوم__نام_مرکز":"خیمه در جامی و سید ","Polling_Center_Name":"Dar Jami and Sayed Tent","د_مرکز_ځای__موقعیت_مرکز":"بریم وسید جامی","Polling_Center_Location":"Barem Wa Sayed Jami","Verification_Note":"Building","PS_Male":1,"PS_Female":1,"Map_Accuracy":"تعمیر"},"geometry":{"x":7682190.3601072654,"y":4289059.4498642012}},{"attributes":{"OBJECTID":3811,"ولایت":"بغلان","Province":"BAGHLAN","PC_Code":"0904131","ولسوالي":"نهرین","District":"NAHREEN","د_مرکز_نوم__نام_مرکز":"مکتب لیسه المتو","Polling_Center_Name":"Almato High School","د_مرکز_ځای__موقعیت_مرکز":"المتو","Polling_Center_Location":"Almato","Verification_Note":"Building","PS_Male":1,"PS_Female":1,"Map_Accuracy":"تعمیر"},"geometry":{"x":7684224.7917063981,"y":4295322.28371007}},{"attributes":{"OBJECTID":3812,"ولایت":"بغلان","Province":"BAGHLAN","PC_Code":"0904135","ولسوالي":"نهرین","District":"NAHREEN","د_مرکز_نوم__نام_مرکز":"مکتب سجان ","Polling_Center_Name":"Sobhan School","د_مرکز_ځای__موقعیت_مرکز":"قریه سجان","Polling_Center_Location":"Sobhan Village","Verification_Note":"Building","PS_Male":1,"PS_Female":1,"Map_Accuracy":"تعمیر"},"geometry":{"x":7689826.643404752,"y":4288368.6280729324}},{"attributes":{"OBJECTID":3813,"ولایت":"بغلان","Province":"BAGHLAN","PC_Code":"0905043","ولسوالي":"بغلان جدید","District":"BAGLAN-E-JADEED","د_مرکز_نوم__نام_مرکز":"مکتب چهاد شنبه تیپه","Polling_Center_Name":"Chahar Shanba Tapa School","د_مرکز_ځای__موقعیت_مرکز":"قریه طاهری ها","Polling_Center_Location":"Taheri Ha Village","Verification_Note":"Building","PS_Male":2,"PS_Female":1,"Map_Accuracy":"تعمیر"},"geometry":{"x":7661797.39415884,"y":4343819.5157008469}},{"attributes":{"OBJECTID":3814,"ولایت":"بغلان","Province":"BAGHLAN","PC_Code":"0905062","ولسوالي":"بغلان جدید","District":"BAGLAN-E-JADEED","د_مرکز_نوم__نام_مرکز":"مسجد جامع بغلان مرکزی","Polling_Center_Name":"Central Baghlan Mosque","د_مرکز_ځای__موقعیت_مرکز":"شهر جدید","Polling_Center_Location":"Shahr-e-Jadeed","Verification_Note":"Building","PS_Male":1,"PS_Female":1,"Map_Accuracy":"تعمیر"},"geometry":{"x":7653004.5525589734,"y":4325495.4131110907}},{"attributes":{"OBJECTID":3815,"ولایت":"بغلان","Province":"BAGHLAN","PC_Code":"0906113","ولسوالي":"خنجان","District":"KHINJAN","د_مرکز_نوم__نام_مرکز":"مکتب لیسه حارث","Polling_Center_Name":"Haris School","د_مرکز_ځای__موقعیت_مرکز":"قریه ولیان","Polling_Center_Location":"Waliyan Village","Verification_Note":"Building","PS_Male":2,"PS_Female":1,"Map_Accuracy":"تعمیر"},"geometry":{"x":7667994.7093981728,"y":4240156.1217048094}},{"attributes":{"OBJECTID":3816,"ولایت":"بغلان","Province":"BAGHLAN","PC_Code":"0906114","ولسوالي":"خنجان","District":"KHINJAN","د_مرکز_نوم__نام_مرکز":"مکتب احمد شاه مسعود ","Polling_Center_Name":"Ahmad Shah Masoud School","د_مرکز_ځای__موقعیت_مرکز":"قریه خوشکک","Polling_Center_Location":"Khoshkak Village","Verification_Note":"Building","PS_Male":2,"PS_Female":1,"Map_Accuracy":"تعمیر"},"geometry":{"x":7687654.8313088343,"y":4235100.2740915194}},{"attributes":{"OBJECTID":3817,"ولایت":"بغلان","Province":"BAGHLAN","PC_Code":"0906118","ولسوالي":"خنجان","District":"KHINJAN","د_مرکز_نوم__نام_مرکز":"مکتب امرود ","Polling_Center_Name":"Amrod School","د_مرکز_ځای__موقعیت_مرکز":"دشت امرود","Polling_Center_Location":"Dasht-e-Amrod","Verification_Note":"Building","PS_Male":1,"PS_Female":1,"Map_Accuracy":"تعمیر"},"geometry":{"x":7677214.97665447,"y":4245859.3060483783}},{"attributes":{"OBJECTID":3818,"ولایت":"بغلان","Province":"BAGHLAN","PC_Code":"0908187","ولسوالي":"ده صلاح ","District":"DEH SALAH","د_مرکز_نوم__نام_مرکز":"مکتب بازار ده صلاح","Polling_Center_Name":"Deh Salah  Bazar School","د_مرکز_ځای__موقعیت_مرکز":"بازار ده صلاح","Polling_Center_Location":"Deh Salah Bazaar","Verification_Note":"Building","PS_Male":1,"PS_Female":1,"Map_Accuracy":"تعمیر"},"geometry":{"x":7715719.7796022519,"y":4257543.3195455894}},{"attributes":{"OBJECTID":3819,"ولایت":"بغلان","Province":"BAGHLAN","PC_Code":"0908188","ولسوالي":"ده صلاح ","District":"DEH SALAH","د_مرکز_نوم__نام_مرکز":"مکتب تل میر غازی ","Polling_Center_Name":"Tel Merghazi School","د_مرکز_ځای__موقعیت_مرکز":"تل میر غازی","Polling_Center_Location":"Tel Merghazi","Verification_Note":"Building","PS_Male":1,"PS_Female":1,"Map_Accuracy":"تعمیر"},"geometry":{"x":7715922.7027888261,"y":4267042.085507825}},{"attributes":{"OBJECTID":3820,"ولایت":"بغلان","Province":"BAGHLAN","PC_Code":"0910153","ولسوالي":"برکه","District":"BURKA","د_مرکز_نوم__نام_مرکز":"لیسه نسوان مرکز ","Polling_Center_Name":"Markaz Girls School","د_مرکز_ځای__موقعیت_مرکز":"مرکز ولسوالی برکه","Polling_Center_Location":"Barka District Center","Verification_Note":"Building","PS_Male":1,"PS_Female":1,"Map_Accuracy":"تعمیر"},"geometry":{"x":7697880.5451115333,"y":4331031.3215158582}},{"attributes":{"OBJECTID":3821,"ولایت":"بغلان","Province":"BAGHLAN","PC_Code":"0910154","ولسوالي":"برکه","District":"BURKA","د_مرکز_نوم__نام_مرکز":"مکتب شرشر","Polling_Center_Name":"Sharshar School","د_مرکز_ځای__موقعیت_مرکز":"شرشر","Polling_Center_Location":"Shar Shar","Verification_Note":"Building","PS_Male":1,"PS_Female":1,"Map_Accuracy":"تعمیر"},"geometry":{"x":7701914.9471350461,"y":4320644.5708401725}},{"attributes":{"OBJECTID":3822,"ولایت":"بغلان","Province":"BAGHLAN","PC_Code":"0910158","ولسوالي":"برکه","District":"BURKA","د_مرکز_نوم__نام_مرکز":"مدرسه  جمعلی عرب سای","Polling_Center_Name":"Jamali Arab Sai Mosque","د_مرکز_ځای__موقعیت_مرکز":"جمعلی","Polling_Center_Location":"Jomali ","Verification_Note":"Building","PS_Male":1,"PS_Female":1,"Map_Accuracy":"تعمیر"},"geometry":{"x":7681589.3461764753,"y":4345349.8375760913}},{"attributes":{"OBJECTID":3823,"ولایت":"بغلان","Province":"BAGHLAN","PC_Code":"0911249","ولسوالي":"تاله و برفک","District":"TALA WA BARFAK","د_مرکز_نوم__نام_مرکز":"مسجد هر دو آب","Polling_Center_Name":"Har Do Aab Mosque","د_مرکز_ځای__موقعیت_مرکز":"هر دو آب","Polling_Center_Location":"Har Do Aab","Verification_Note":"Building","PS_Male":1,"PS_Female":1,"Map_Accuracy":"تعمیر"},"geometry":{"x":7584580.4100706875,"y":4189041.347415}},{"attributes":{"OBJECTID":3824,"ولایت":"بغلان","Province":"BAGHLAN","PC_Code":"0912173","ولسوالي":"پل حصار","District":"PUL-E-HISAR","د_مرکز_نوم__نام_مرکز":"مکتب نوبهار","Polling_Center_Name":"Naw Bahar School","د_مرکز_ځای__موقعیت_مرکز":"نوبهار","Polling_Center_Location":"Naw Bahar","Verification_Note":"Building","PS_Male":1,"PS_Female":1,"Map_Accuracy":"تعمیر"},"geometry":{"x":7719305.2980242744,"y":4255289.0806838572}},{"attributes":{"OBJECTID":3825,"ولایت":"بغلان","Province":"BAGHLAN","PC_Code":"0912177","ولسوالي":"پل حصار","District":"PUL-E-HISAR","د_مرکز_نوم__نام_مرکز":"مسجد جامع تغانک","Polling_Center_Name":"Taghanak Mosque","د_مرکز_ځای__موقعیت_مرکز":"تغانک","Polling_Center_Location":"Taghanak","Verification_Note":"Building","PS_Male":1,"PS_Female":1,"Map_Accuracy":"تعمیر"},"geometry":{"x":7730239.4023122042,"y":4240938.9103007391}},{"attributes":{"OBJECTID":3826,"ولایت":"بغلان","Province":"BAGHLAN","PC_Code":"0913213","ولسوالي":"خوست و فرنگ","District":"KHOST WA FIRING","د_مرکز_نوم__نام_مرکز":"مکتب عبدالحق نارزو","Polling_Center_Name":"Abdul Haq Narzo School","د_مرکز_ځای__موقعیت_مرکز":"ده ملاخطیب","Polling_Center_Location":"Deh Mollah Khatib","Verification_Note":"Building","PS_Male":1,"PS_Female":1,"Map_Accuracy":"تعمیر"},"geometry":{"x":7739597.3962689005,"y":4294459.691329971}},{"attributes":{"OBJECTID":3827,"ولایت":"بغلان","Province":"BAGHLAN","PC_Code":"0913253","ولسوالي":"خوست و فرنگ","District":"KHOST WA FIRING","د_مرکز_نوم__نام_مرکز":"مدرسه ده میرک","Polling_Center_Name":"Deh Merak Madressa","د_مرکز_ځای__موقعیت_مرکز":"دره گی ","Polling_Center_Location":"Daragee","Verification_Note":"Building","PS_Male":2,"PS_Female":1,"Map_Accuracy":"تعمیر"},"geometry":{"x":7737212.2837834768,"y":4291114.897639893}},{"attributes":{"OBJECTID":3828,"ولایت":"بغلان","Province":"BAGHLAN","PC_Code":"0913254","ولسوالي":"خوست و فرنگ","District":"KHOST WA FIRING","د_مرکز_نوم__نام_مرکز":"مدرسه ده کلان","Polling_Center_Name":"Deh Kalan Madressa","د_مرکز_ځای__موقعیت_مرکز":"ده کلان","Polling_Center_Location":"Deh Kalan","Verification_Note":"Building","PS_Male":1,"PS_Female":1,"Map_Accuracy":"تعمیر"},"geometry":{"x":7769642.5657958277,"y":4303790.3337682933}},{"attributes":{"OBJECTID":3829,"ولایت":"باميان","Province":"BAMYAN","PC_Code":"1001003","ولسوالي":"بامیان","District":"BAMYAN","د_مرکز_نوم__نام_مرکز":"مکتب آق رباط","Polling_Center_Name":"Aaq Rubat School","د_مرکز_ځای__موقعیت_مرکز":"آق رباط","Polling_Center_Location":"Aaq Rubat","Verification_Note":"Building","PS_Male":2,"PS_Female":1,"Map_Accuracy":"تعمیر"},"geometry":{"x":7531344.1846101843,"y":4154247.1446891725}},{"attributes":{"OBJECTID":3830,"ولایت":"باميان","Province":"BAMYAN","PC_Code":"1002026","ولسوالي":"شیبر","District":"SHEBAR","د_مرکز_نوم__نام_مرکز":"مسجد سبز آب","Polling_Center_Name":"Sabz Aab Mosque","د_مرکز_ځای__موقعیت_مرکز":"سبز آب","Polling_Center_Location":"Sabz Aab","Verification_Note":"Building","PS_Male":1,"PS_Female":1,"Map_Accuracy":"تعمیر"},"geometry":{"x":7570593.1783914305,"y":4130603.3839531466}},{"attributes":{"OBJECTID":3831,"ولایت":"باميان","Province":"BAMYAN","PC_Code":"1002027","ولسوالي":"شیبر","District":"SHEBAR","د_مرکز_نوم__نام_مرکز":"لیسه دهن دیوالک","Polling_Center_Name":"Dahan-e-Dewalak High School","د_مرکز_ځای__موقعیت_مرکز":"دهن دیوالک","Polling_Center_Location":"Dahan-e-Dewalak","Verification_Note":"Building","PS_Male":2,"PS_Female":1,"Map_Accuracy":"تعمیر"},"geometry":{"x":7570797.16245275,"y":4120223.5335029587}},{"attributes":{"OBJECTID":3832,"ولایت":"باميان","Province":"BAMYAN","PC_Code":"1002031","ولسوالي":"شیبر","District":"SHEBAR","د_مرکز_نوم__نام_مرکز":"مکتب نسوان دهن غندک","Polling_Center_Name":"Dahan-e-Ghundak Girls School","د_مرکز_ځای__موقعیت_مرکز":"دهن غندک","Polling_Center_Location":"Dahan-e-Ghundak ","Verification_Note":"Building","PS_Male":0,"PS_Female":2,"Map_Accuracy":"تعمیر"},"geometry":{"x":7572190.1366368905,"y":4163038.5881338939}},{"attributes":{"OBJECTID":3833,"ولایت":"باميان","Province":"BAMYAN","PC_Code":"1003048","ولسوالي":"سیغان","District":"SAIGHAN","د_مرکز_نوم__نام_مرکز":"مسجد کوگدای","Polling_Center_Name":"Kogdaay Mosque","د_مرکز_ځای__موقعیت_مرکز":"کوگدای","Polling_Center_Location":"Kogdaay","Verification_Note":"Building","PS_Male":1,"PS_Female":1,"Map_Accuracy":"تعمیر"},"geometry":{"x":7529515.143037539,"y":4167869.9058523998}},{"attributes":{"OBJECTID":3834,"ولایت":"باميان","Province":"BAMYAN","PC_Code":"1003049","ولسوالي":"سیغان","District":"SAIGHAN","د_مرکز_نوم__نام_مرکز":"دفتر شورای سوخته چنار","Polling_Center_Name":"Sokhta Chenar Council Office","د_مرکز_ځای__موقعیت_مرکز":"سوخته چنار","Polling_Center_Location":"Sokhta Chenar","Verification_Note":"Building","PS_Male":1,"PS_Female":1,"Map_Accuracy":"تعمیر"},"geometry":{"x":7535364.1228922606,"y":4179907.6517159417}},{"attributes":{"OBJECTID":3835,"ولایت":"باميان","Province":"BAMYAN","PC_Code":"1004052","ولسوالي":"کهمرد","District":"KAHMARD","د_مرکز_نوم__نام_مرکز":"مسجد دوشاخ","Polling_Center_Name":"Du Shaakh Mosque","د_مرکز_ځای__موقعیت_مرکز":"دوشاخ","Polling_Center_Location":"Du Shaakh","Verification_Note":"Building","PS_Male":1,"PS_Female":1,"Map_Accuracy":"تعمیر"},"geometry":{"x":7546015.8775369264,"y":4214591.157337971}},{"attributes":{"OBJECTID":3836,"ولایت":"باميان","Province":"BAMYAN","PC_Code":"1005072","ولسوالي":"یکاولنگ","District":"YAKAWLANG","د_مرکز_نوم__نام_مرکز":"منبر سر کنک","Polling_Center_Name":"Munbar-e-Sarkanak ","د_مرکز_ځای__موقعیت_مرکز":"سر کنک","Polling_Center_Location":"Sarkanak","Verification_Note":"Building","PS_Male":1,"PS_Female":1,"Map_Accuracy":"تعمیر"},"geometry":{"x":7440866.5867814235,"y":4119438.6730454639}},{"attributes":{"OBJECTID":3837,"ولایت":"باميان","Province":"BAMYAN","PC_Code":"1005073","ولسوالي":"یکاولنگ","District":"YAKAWLANG","د_مرکز_نوم__نام_مرکز":"منبرسرخک پایین","Polling_Center_Name":"Munbar-e-Surkhake Payeen ","د_مرکز_ځای__موقعیت_مرکز":"سرخک ","Polling_Center_Location":"Surkhak","Verification_Note":"Building","PS_Male":1,"PS_Female":1,"Map_Accuracy":"تعمیر"},"geometry":{"x":7430298.1915110424,"y":4111986.8854708895}},{"attributes":{"OBJECTID":3838,"ولایت":"باميان","Province":"BAMYAN","PC_Code":"1005093","ولسوالي":"یکاولنگ","District":"YAKAWLANG","د_مرکز_نوم__نام_مرکز":"منبرشینیه سر مرغی","Polling_Center_Name":"Munbar-e-Shenia Sare Murghi ","د_مرکز_ځای__موقعیت_مرکز":"شینیه سر مرغی","Polling_Center_Location":"Shenia Sare Murghi","Verification_Note":"Building","PS_Male":1,"PS_Female":1,"Map_Accuracy":"تعمیر"},"geometry":{"x":7398459.8108159676,"y":4154688.1902555004}},{"attributes":{"OBJECTID":3839,"ولایت":"باميان","Province":"BAMYAN","PC_Code":"1006111","ولسوالي":"پنجاب","District":"PANJAB","د_مرکز_نوم__نام_مرکز":"مسجد گرد نی","Polling_Center_Name":"Girdenay Mosque","د_مرکز_ځای__موقعیت_مرکز":"ینقول","Polling_Center_Location":"Yanqol","Verification_Note":"Building","PS_Male":2,"PS_Female":1,"Map_Accuracy":"تعمیر"},"geometry":{"x":7447257.5478409715,"y":4072803.931383431}},{"attributes":{"OBJECTID":3840,"ولایت":"باميان","Province":"BAMYAN","PC_Code":"1006112","ولسوالي":"پنجاب","District":"PANJAB","د_مرکز_نوم__نام_مرکز":"مسجد چارده","Polling_Center_Name":"Char Deh Mosque","د_مرکز_ځای__موقعیت_مرکز":"چارده","Polling_Center_Location":"Char Deh","Verification_Note":"Building","PS_Male":2,"PS_Female":1,"Map_Accuracy":"تعمیر"},"geometry":{"x":7420040.7060124725,"y":4069954.0974906832}},{"attributes":{"OBJECTID":3841,"ولایت":"باميان","Province":"BAMYAN","PC_Code":"1007133","ولسوالي":"ورس","District":"WARAS","د_مرکز_نوم__نام_مرکز":"مسجد زردک بیرانه قول مسوت","Polling_Center_Name":"Zardak Berana Qol-e-Masot Mosque","د_مرکز_ځای__موقعیت_مرکز":"دهن نو شدی قول مسوت","Polling_Center_Location":"Dahan-e-Naw Shadi Qol-e-Masot","Verification_Note":"Building","PS_Male":2,"PS_Female":1,"Map_Accuracy":"تعمیر"},"geometry":{"x":7415787.43317214,"y":4035780.6111300439}},{"attributes":{"OBJECTID":3842,"ولایت":"باميان","Province":"BAMYAN","PC_Code":"1007137","ولسوالي":"ورس","District":"WARAS","د_مرکز_نوم__نام_مرکز":"مسجد دهن منگوس شینیه اوبه","Polling_Center_Name":"Dahan-e-Mangos Shenia Awba Mosque","د_مرکز_ځای__موقعیت_مرکز":"دهن منگوس شینیه اوبه","Polling_Center_Location":"Dahan-e-Mangos Shenia Awba ","Verification_Note":"Building","PS_Male":1,"PS_Female":1,"Map_Accuracy":"تعمیر"},"geometry":{"x":7480302.392479334,"y":4063467.5829269886}},{"attributes":{"OBJECTID":3843,"ولایت":"باميان","Province":"BAMYAN","PC_Code":"1007155","ولسوالي":"ورس","District":"WARAS","د_مرکز_نوم__نام_مرکز":"مسجد پیش ده","Polling_Center_Name":"Pesh Deh Mosque","د_مرکز_ځای__موقعیت_مرکز":"التر غنه گک","Polling_Center_Location":"Altar Ghana Gak","Verification_Note":"Building","PS_Male":2,"PS_Female":1,"Map_Accuracy":"تعمیر"},"geometry":{"x":7443485.7585149929,"y":4044987.1491368935}},{"attributes":{"OBJECTID":3844,"ولایت":"باميان","Province":"BAMYAN","PC_Code":"1007156","ولسوالي":"ورس","District":"WARAS","د_مرکز_نوم__نام_مرکز":"مکتب آچه مزار","Polling_Center_Name":"Aacha Mazaar Madrassa","د_مرکز_ځای__موقعیت_مرکز":"آچه مزار","Polling_Center_Location":"Aacha Mazaar","Verification_Note":"Building","PS_Male":2,"PS_Female":1,"Map_Accuracy":"تعمیر"},"geometry":{"x":7436807.905976966,"y":4068143.1755603254}},{"attributes":{"OBJECTID":3845,"ولایت":"باميان","Province":"BAMYAN","PC_Code":"1007160","ولسوالي":"ورس","District":"WARAS","د_مرکز_نوم__نام_مرکز":"مسجد خیمه کلان زمین","Polling_Center_Name":"Khaima-e-Kalan Zamen Mosque","د_مرکز_ځای__موقعیت_مرکز":"خیمه کلان زمین","Polling_Center_Location":"Khaima-e-Kalan Zamen","Verification_Note":"Building","PS_Male":1,"PS_Female":1,"Map_Accuracy":"تعمیر"},"geometry":{"x":7495716.634277042,"y":4044565.0113787726}},{"attributes":{"OBJECTID":3846,"ولایت":"غزنى","Province":"GHAZNI","PC_Code":"1101015","ولسوالي":"غزنی","District":"GHAZNI","د_مرکز_نوم__نام_مرکز":"مسجد برج برق","Polling_Center_Name":"Burj-e-Barq Mosque","د_مرکز_ځای__موقعیت_مرکز":"ناحیه دوم","Polling_Center_Location":"Nahia 2","Verification_Note":"Building","PS_Male":4,"PS_Female":0,"Map_Accuracy":"تعمیر"},"geometry":{"x":7616532.8353576884,"y":3969003.0749097914}},{"attributes":{"OBJECTID":3847,"ولایت":"غزنى","Province":"GHAZNI","PC_Code":"1101016","ولسوالي":"غزنی","District":"GHAZNI","د_مرکز_نوم__نام_مرکز":"مسجد خاتم المرسلین","Polling_Center_Name":"Khatem ul Mursaleen Mosque","د_مرکز_ځای__موقعیت_مرکز":"کلا سبز","Polling_Center_Location":"Kala-e-Sabz","Verification_Note":"Building","PS_Male":5,"PS_Female":0,"Map_Accuracy":"تعمیر"},"geometry":{"x":7616853.5824329,"y":3968986.6248545721}},{"attributes":{"OBJECTID":3848,"ولایت":"غزنى","Province":"GHAZNI","PC_Code":"1101036","ولسوالي":"غزنی","District":"GHAZNI","د_مرکز_نوم__نام_مرکز":"مسجد حضرت علی","Polling_Center_Name":"Hazrat-e-Ali Mosque","د_مرکز_ځای__موقعیت_مرکز":"قلعه شهاده","Polling_Center_Location":"Qala-e-Shahada","Verification_Note":"Building","PS_Male":0,"PS_Female":6,"Map_Accuracy":"تعمیر"},"geometry":{"x":7614826.7472758219,"y":3974598.1302458718}},{"attributes":{"OBJECTID":3849,"ولایت":"غزنى","Province":"GHAZNI","PC_Code":"1101041","ولسوالي":"غزنی","District":"GHAZNI","د_مرکز_نوم__نام_مرکز":"مکتب ابو نصر مشکان","Polling_Center_Name":"Abu Nasr-e-Mushkan School","د_مرکز_ځای__موقعیت_مرکز":"قریه نغی","Polling_Center_Location":"Naghi Village","Verification_Note":"Village","PS_Male":1,"PS_Female":2,"Map_Accuracy":"قریه"},"geometry":{"x":7612507.4691372439,"y":3954347.3802253008}},{"attributes":{"OBJECTID":3850,"ولایت":"غزنى","Province":"GHAZNI","PC_Code":"1101057","ولسوالي":"غزنی","District":"GHAZNI","د_مرکز_نوم__نام_مرکز":"مکتب پشتون آباد","Polling_Center_Name":"Pashtoon Abad School","د_مرکز_ځای__موقعیت_مرکز":"ساحه پشتون آباد","Polling_Center_Location":"Pashtoon Abad","Verification_Note":"Building","PS_Male":3,"PS_Female":1,"Map_Accuracy":"تعمیر"},"geometry":{"x":7616197.9707446508,"y":3965232.8478273153}},{"attributes":{"OBJECTID":3851,"ولایت":"غزنى","Province":"GHAZNI","PC_Code":"1101058","ولسوالي":"غزنی","District":"GHAZNI","د_مرکز_نوم__نام_مرکز":"مکتب شهرک مهاجرین","Polling_Center_Name":"Shahrak-e-Muhajerin School","د_مرکز_ځای__موقعیت_مرکز":"مکتب شهرک مهاجرین ","Polling_Center_Location":"Shahrak-e-Muhajerin","Verification_Note":"Village","PS_Male":3,"PS_Female":1,"Map_Accuracy":"قریه"},"geometry":{"x":7611963.252637051,"y":3966015.2986477092}},{"attributes":{"OBJECTID":3852,"ولایت":"غزنى","Province":"GHAZNI","PC_Code":"1105063","ولسوالي":"ده یک","District":"DEH YAK","د_مرکز_نوم__نام_مرکز":"مکتب سلیمان زی","Polling_Center_Name":"Sulaiman Zai School","د_مرکز_ځای__موقعیت_مرکز":"سلیمان زی","Polling_Center_Location":"Sulaiman Zai","Verification_Note":"Village","PS_Male":2,"PS_Female":1,"Map_Accuracy":"قریه"},"geometry":{"x":7638686.7899344563,"y":3952504.4007999897}},{"attributes":{"OBJECTID":3853,"ولایت":"غزنى","Province":"GHAZNI","PC_Code":"1105064","ولسوالي":"ده یک","District":"DEH YAK","د_مرکز_نوم__نام_مرکز":"مسجد ده یک","Polling_Center_Name":"Deh Yak Mosque","د_مرکز_ځای__موقعیت_مرکز":" ده یک","Polling_Center_Location":"Deh Yak","Verification_Note":"Village","PS_Male":2,"PS_Female":1,"Map_Accuracy":"قریه"},"geometry":{"x":7642356.2944595069,"y":3958617.8572668433}},{"attributes":{"OBJECTID":3854,"ولایت":"غزنى","Province":"GHAZNI","PC_Code":"1105068","ولسوالي":"ده یک","District":"DEH YAK","د_مرکز_نوم__نام_مرکز":"مسجد قریه رامک","Polling_Center_Name":"Ramak Village Mosque","د_مرکز_ځای__موقعیت_مرکز":"قریه رامک","Polling_Center_Location":"Ramak Village","Verification_Note":"Village","PS_Male":2,"PS_Female":1,"Map_Accuracy":"قریه"},"geometry":{"x":7638761.3394842446,"y":3961974.8901197761}},{"attributes":{"OBJECTID":3855,"ولایت":"غزنى","Province":"GHAZNI","PC_Code":"1106110","ولسوالي":"جغتو","District":"JAGHATU","د_مرکز_نوم__نام_مرکز":"لیسه البیرونی جرمتو","Polling_Center_Name":"Alberooni Jarmato High School ","د_مرکز_ځای__موقعیت_مرکز":"قریه سرخی ","Polling_Center_Location":"Sorkhi Village","Verification_Note":"Building","PS_Male":0,"PS_Female":3,"Map_Accuracy":"تعمیر"},"geometry":{"x":7587335.5084684938,"y":3978090.1699117571}},{"attributes":{"OBJECTID":3856,"ولایت":"غزنى","Province":"GHAZNI","PC_Code":"1107227","ولسوالي":"اندر","District":"ANDAR","د_مرکز_نوم__نام_مرکز":"مسجد قریه بخشی","Polling_Center_Name":"Bakhshi Village Mosque","د_مرکز_ځای__موقعیت_مرکز":"قریه بخشی","Polling_Center_Location":"Bakhshi Village","Verification_Note":"Building","PS_Male":4,"PS_Female":0,"Map_Accuracy":"تعمیر"},"geometry":{"x":7617148.2562569864,"y":3945859.4796012044}},{"attributes":{"OBJECTID":3857,"ولایت":"غزنى","Province":"GHAZNI","PC_Code":"1107228","ولسوالي":"اندر","District":"ANDAR","د_مرکز_نوم__نام_مرکز":"مکتب قریه بخشی","Polling_Center_Name":"Bakhshi Village School","د_مرکز_ځای__موقعیت_مرکز":"قریه بخشی","Polling_Center_Location":"Bakhshi Village","Verification_Note":"Building","PS_Male":0,"PS_Female":3,"Map_Accuracy":"تعمیر"},"geometry":{"x":7618758.1854495108,"y":3945995.2877633497}},{"attributes":{"OBJECTID":3858,"ولایت":"غزنى","Province":"GHAZNI","PC_Code":"1107248","ولسوالي":"اندر","District":"ANDAR","د_مرکز_نوم__نام_مرکز":"مسجد قریه صاحب خان","Polling_Center_Name":"Sahib Khan Village Mosque","د_مرکز_ځای__موقعیت_مرکز":"قریه صاحب خان ","Polling_Center_Location":"Sahib Khan Village","Verification_Note":"Building","PS_Male":0,"PS_Female":3,"Map_Accuracy":"تعمیر"},"geometry":{"x":7616012.6338112392,"y":3938494.1574329734}},{"attributes":{"OBJECTID":3859,"ولایت":"غزنى","Province":"GHAZNI","PC_Code":"1107253","ولسوالي":"اندر","District":"ANDAR","د_مرکز_نوم__نام_مرکز":"مسجد قریه سرکی","Polling_Center_Name":"Sarki Village Mosque","د_مرکز_ځای__موقعیت_مرکز":"قریه سرکی","Polling_Center_Location":"Sarki Village","Verification_Note":"Village","PS_Male":2,"PS_Female":2,"Map_Accuracy":"قریه"},"geometry":{"x":7629717.8319945969,"y":3938004.9504202604}},{"attributes":{"OBJECTID":3860,"ولایت":"غزنى","Province":"GHAZNI","PC_Code":"1108071","ولسوالي":"زنخان","District":"ZANAKHAN","د_مرکز_نوم__نام_مرکز":"مرکز ولسوالی حویلی کمشنر","Polling_Center_Name":"Commissionar House","د_مرکز_ځای__موقعیت_مرکز":" مر کز ولسوالی","Polling_Center_Location":"District Compound","Verification_Note":"Village","PS_Male":2,"PS_Female":1,"Map_Accuracy":"قریه"},"geometry":{"x":7637521.4195811935,"y":3986279.1803060323}},{"attributes":{"OBJECTID":3861,"ولایت":"غزنى","Province":"GHAZNI","PC_Code":"1110281","ولسوالي":"ناور","District":"NAWUR","د_مرکز_نوم__نام_مرکز":"مسجد قریه میانه بید","Polling_Center_Name":"Miana Bad Village Mosque","د_مرکز_ځای__موقعیت_مرکز":"قریه میانه بید ","Polling_Center_Location":"Miana Bed Village","Verification_Note":"Building","PS_Male":1,"PS_Female":1,"Map_Accuracy":"تعمیر"},"geometry":{"x":7547938.4976131245,"y":4029235.381906949}},{"attributes":{"OBJECTID":3862,"ولایت":"غزنى","Province":"GHAZNI","PC_Code":"1110282","ولسوالي":"ناور","District":"NAWUR","د_مرکز_نوم__نام_مرکز":"مسجد فراخ تاله","Polling_Center_Name":"Farkhtala Mosque","د_مرکز_ځای__موقعیت_مرکز":"قریه فراخ تاله ","Polling_Center_Location":"Farakhtala Village","Verification_Note":"Building","PS_Male":1,"PS_Female":1,"Map_Accuracy":"تعمیر"},"geometry":{"x":7522816.57728187,"y":4003727.4912013635}},{"attributes":{"OBJECTID":3863,"ولایت":"غزنى","Province":"GHAZNI","PC_Code":"1110285","ولسوالي":"ناور","District":"NAWUR","د_مرکز_نوم__نام_مرکز":"مکتب ابتدائیه شهید محمد علی","Polling_Center_Name":"Shaheed Mohammad Ali Primary School","د_مرکز_ځای__موقعیت_مرکز":"قریه قاش ","Polling_Center_Location":"Qaash Village","Verification_Note":"Building","PS_Male":2,"PS_Female":1,"Map_Accuracy":"تعمیر"},"geometry":{"x":7568430.8340182044,"y":3989256.0354322344}},{"attributes":{"OBJECTID":3864,"ولایت":"غزنى","Province":"GHAZNI","PC_Code":"1111148","ولسوالي":"قره باغ","District":"QARA BAGH","د_مرکز_نوم__نام_مرکز":"مسجد بالا قلعه باران","Polling_Center_Name":"Qala-e-Baran Upper Mosque","د_مرکز_ځای__موقعیت_مرکز":"قلعه باران","Polling_Center_Location":"Qala-e-Baran","Verification_Note":"Village","PS_Male":4,"PS_Female":0,"Map_Accuracy":"قریه"},"geometry":{"x":7596006.9383525252,"y":3928161.4601227865}},{"attributes":{"OBJECTID":3865,"ولایت":"غزنى","Province":"GHAZNI","PC_Code":"1111166","ولسوالي":"قره باغ","District":"QARA BAGH","د_مرکز_نوم__نام_مرکز":"مکتب سلطان ابراهیم","Polling_Center_Name":"Sultan Ibrahim School","د_مرکز_ځای__موقعیت_مرکز":"قریه آهین","Polling_Center_Location":"Aaheen Village","Verification_Note":"Building","PS_Male":2,"PS_Female":0,"Map_Accuracy":"تعمیر"},"geometry":{"x":7582562.1843630224,"y":3930685.6895957068}},{"attributes":{"OBJECTID":3866,"ولایت":"غزنى","Province":"GHAZNI","PC_Code":"1111170","ولسوالي":"قره باغ","District":"QARA BAGH","د_مرکز_نوم__نام_مرکز":"مسجد قرچه","Polling_Center_Name":"Qarcha Mosque","د_مرکز_ځای__موقعیت_مرکز":"قریه قرچه","Polling_Center_Location":"Qarch Village","Verification_Note":"Building","PS_Male":2,"PS_Female":0,"Map_Accuracy":"تعمیر"},"geometry":{"x":7581942.29732576,"y":3923751.5274155512}},{"attributes":{"OBJECTID":3867,"ولایت":"غزنى","Province":"GHAZNI","PC_Code":"1111171","ولسوالي":"قره باغ","District":"QARA BAGH","د_مرکز_نوم__نام_مرکز":"مسجد میرک","Polling_Center_Name":"Meerak Mosque","د_مرکز_ځای__موقعیت_مرکز":"قریه میرک","Polling_Center_Location":"Meerak Village","Verification_Note":"Village","PS_Male":0,"PS_Female":2,"Map_Accuracy":"قریه"},"geometry":{"x":7580865.8901699521,"y":3926911.75340195}},{"attributes":{"OBJECTID":3868,"ولایت":"غزنى","Province":"GHAZNI","PC_Code":"1112211","ولسوالي":"گیرو","District":"GIRO","د_مرکز_نوم__نام_مرکز":"مکتب قریه زیګی","Polling_Center_Name":"Zygi Village School","د_مرکز_ځای__موقعیت_مرکز":"قریه زیګی","Polling_Center_Location":"Zygi Village","Verification_Note":"Village","PS_Male":0,"PS_Female":2,"Map_Accuracy":"قریه"},"geometry":{"x":7596579.98660085,"y":3889425.4433594942}},{"attributes":{"OBJECTID":3869,"ولایت":"غزنى","Province":"GHAZNI","PC_Code":"1113380","ولسوالي":"آب بند","District":"AB BAND","د_مرکز_نوم__نام_مرکز":" مسجد  قریه لنده خیل  ","Polling_Center_Name":"Landa Khel Village Mosque","د_مرکز_ځای__موقعیت_مرکز":" قریه لنده خیل  ","Polling_Center_Location":"Landa Khel Village","Verification_Note":"Village","PS_Male":2,"PS_Female":0,"Map_Accuracy":"قریه"},"geometry":{"x":7561758.02091353,"y":3892943.7297373191}},{"attributes":{"OBJECTID":3870,"ولایت":"غزنى","Province":"GHAZNI","PC_Code":"1114338","ولسوالي":"جاغوری","District":"JAGHURI","د_مرکز_نوم__نام_مرکز":"مکتب ابتدائیه مهاجرین","Polling_Center_Name":"Immigrants Primary School","د_مرکز_ځای__موقعیت_مرکز":"قریه مهاجرین","Polling_Center_Location":"Immigrants Village","Verification_Note":"Building","PS_Male":3,"PS_Female":1,"Map_Accuracy":"تعمیر"},"geometry":{"x":7523141.0279565379,"y":3903981.1872251034}},{"attributes":{"OBJECTID":3871,"ولایت":"غزنى","Province":"GHAZNI","PC_Code":"1114339","ولسوالي":"جاغوری","District":"JAGHURI","د_مرکز_نوم__نام_مرکز":"لیسه عالی قریه پاتو","Polling_Center_Name":"Patoo Village High School","د_مرکز_ځای__موقعیت_مرکز":"قریه پاتو ","Polling_Center_Location":"Patoo Village","Verification_Note":"Building","PS_Male":2,"PS_Female":2,"Map_Accuracy":"تعمیر"},"geometry":{"x":7498796.8290025666,"y":3926186.1654343903}},{"attributes":{"OBJECTID":3872,"ولایت":"غزنى","Province":"GHAZNI","PC_Code":"1114353","ولسوالي":"جاغوری","District":"JAGHURI","د_مرکز_نوم__نام_مرکز":"مسجد عمومی پیدګه","Polling_Center_Name":"Payedgah Public Mosque","د_مرکز_ځای__موقعیت_مرکز":"قریه پیدګه ","Polling_Center_Location":"Payedga Village","Verification_Note":"Building","PS_Male":1,"PS_Female":1,"Map_Accuracy":"تعمیر"},"geometry":{"x":7496886.2214126252,"y":3905159.1201414466}},{"attributes":{"OBJECTID":3873,"ولایت":"غزنى","Province":"GHAZNI","PC_Code":"1114354","ولسوالي":"جاغوری","District":"JAGHURI","د_مرکز_نوم__نام_مرکز":"مسجد عامه بارک","Polling_Center_Name":"Barak Public Mosque","د_مرکز_ځای__موقعیت_مرکز":"قریه بارک","Polling_Center_Location":"Barak Village","Verification_Note":"Village","PS_Male":1,"PS_Female":1,"Map_Accuracy":"قریه"},"geometry":{"x":7533122.8863959052,"y":3929344.6578814164}},{"attributes":{"OBJECTID":3874,"ولایت":"غزنى","Province":"GHAZNI","PC_Code":"1115358","ولسوالي":"مقر","District":"MUQUR","د_مرکز_نوم__نام_مرکز":"مسجد نو آباد خانه دار","Polling_Center_Name":"Naw Abad Khanadar Mosque","د_مرکز_ځای__موقعیت_مرکز":"قریه خاندار ","Polling_Center_Location":"Khanadar Village","Verification_Note":"Building","PS_Male":3,"PS_Female":1,"Map_Accuracy":"تعمیر"},"geometry":{"x":7543743.0797385462,"y":3871976.3523142934}},{"attributes":{"OBJECTID":3875,"ولایت":"غزنى","Province":"GHAZNI","PC_Code":"1116298","ولسوالي":"مالستان","District":"MALISTAN","د_مرکز_نوم__نام_مرکز":"مسجد ولیعصر شیرداغ","Polling_Center_Name":"Wali Asr Sherdagh Mosque","د_مرکز_ځای__موقعیت_مرکز":"قریه دادی","Polling_Center_Location":"Payen Village","Verification_Note":"Village","PS_Male":3,"PS_Female":1,"Map_Accuracy":"قریه"},"geometry":{"x":7459331.3844902329,"y":3904972.6230021268}},{"attributes":{"OBJECTID":3876,"ولایت":"غزنى","Province":"GHAZNI","PC_Code":"1116303","ولسوالي":"مالستان","District":"MALISTAN","د_مرکز_نوم__نام_مرکز":"لیسه نسوان جمبود","Polling_Center_Name":"Jambood Girls High School","د_مرکز_ځای__موقعیت_مرکز":"قریه جمبود ","Polling_Center_Location":"Jambood Village","Verification_Note":"Building","PS_Male":2,"PS_Female":1,"Map_Accuracy":"تعمیر"},"geometry":{"x":7491773.4930852838,"y":3940660.0522931367}},{"attributes":{"OBJECTID":3877,"ولایت":"غزنى","Province":"GHAZNI","PC_Code":"1116304","ولسوالي":"مالستان","District":"MALISTAN","د_مرکز_نوم__نام_مرکز":"مسجد شفالی","Polling_Center_Name":"Shafali Mosque","د_مرکز_ځای__موقعیت_مرکز":"قریه جانی شیرداغ ","Polling_Center_Location":"Jani Shir Dagh Village","Verification_Note":"Building","PS_Male":1,"PS_Female":1,"Map_Accuracy":"تعمیر"},"geometry":{"x":7454616.2515353784,"y":3906402.4280938953}},{"attributes":{"OBJECTID":3878,"ولایت":"غزنى","Province":"GHAZNI","PC_Code":"1117386","ولسوالي":"گیلان","District":"GELAN","د_مرکز_نوم__نام_مرکز":"مسجد قریه شینکی","Polling_Center_Name":"Sheenki Village Mosque","د_مرکز_ځای__موقعیت_مرکز":"قریه شینکی","Polling_Center_Location":"Sheenki Village","Verification_Note":"Building","PS_Male":2,"PS_Female":1,"Map_Accuracy":"تعمیر"},"geometry":{"x":7527065.7090371437,"y":3865919.7083071321}},{"attributes":{"OBJECTID":3879,"ولایت":"غزنى","Province":"GHAZNI","PC_Code":"1118294","ولسوالي":"اجرستان","District":"AJRISTAN","د_مرکز_نوم__نام_مرکز":"مکتب قریه چقمق","Polling_Center_Name":"Chaghmaq Village School","د_مرکز_ځای__موقعیت_مرکز":"قریه چقمق","Polling_Center_Location":"Chaghmaq Village","Verification_Note":"Building","PS_Male":4,"PS_Female":2,"Map_Accuracy":"تعمیر"},"geometry":{"x":7449867.3564921692,"y":3941865.7327494919}},{"attributes":{"OBJECTID":3880,"ولایت":"پکتيکا","Province":"PAKTIKA","PC_Code":"1201022","ولسوالي":"شرن","District":"SHARAN","د_مرکز_نوم__نام_مرکز":"جومات شهاب الدین","Polling_Center_Name":"Shahabuddin Mosque","د_مرکز_ځای__موقعیت_مرکز":"شهاب الدین","Polling_Center_Location":"Shahabuddin","Verification_Note":"Village","PS_Male":0,"PS_Female":2,"Map_Accuracy":"قریه"},"geometry":{"x":7656801.9509337991,"y":3921030.8861961961}},{"attributes":{"OBJECTID":3881,"ولایت":"پکتيکا","Province":"PAKTIKA","PC_Code":"1202034","ولسوالي":"مټا خان","District":"MATA KHAN","د_مرکز_نوم__نام_مرکز":"ښوونځی ذکور و اناث لاغړ","Polling_Center_Name":"Laghar Village Boys & Girls School","د_مرکز_ځای__موقعیت_مرکز":"لاغړ","Polling_Center_Location":"Laghar Village","Verification_Note":"Village","PS_Male":3,"PS_Female":1,"Map_Accuracy":"قریه"},"geometry":{"x":7660654.0183105618,"y":3929586.5026374236}},{"attributes":{"OBJECTID":3882,"ولایت":"پکتيکا","Province":"PAKTIKA","PC_Code":"1204058","ولسوالي":"یحی خیل","District":"YAHYA KHEL","د_مرکز_نوم__نام_مرکز":"جومات محمد یعقوب ","Polling_Center_Name":"Mohammd Yaqoob Mosque","د_مرکز_ځای__موقعیت_مرکز":"محمد یعقوب کلی","Polling_Center_Location":"Mohammd Yaqoob Village","Verification_Note":"District","PS_Male":3,"PS_Female":1,"Map_Accuracy":"ولسوالی"},"geometry":{"x":7643909.9082348384,"y":3894122.5720678195}},{"attributes":{"OBJECTID":3883,"ولایت":"پکتيکا","Province":"PAKTIKA","PC_Code":"1206068","ولسوالي":"اومنه","District":"OMNA","د_مرکز_نوم__نام_مرکز":"مرکز ولسوالی خیمه ","Polling_Center_Name":"Raji Khel Mosque","د_مرکز_ځای__موقعیت_مرکز":"مرکز ولسوالی","Polling_Center_Location":"District Center","Verification_Note":"Village","PS_Male":2,"PS_Female":1,"Map_Accuracy":"قریه"},"geometry":{"x":7658366.4105671272,"y":3882103.1156464741}},{"attributes":{"OBJECTID":3884,"ولایت":"پکتيکا","Province":"PAKTIKA","PC_Code":"1207089","ولسوالي":"زرغون شهر ","District":"ZARGHUN SHAHR","د_مرکز_نوم__نام_مرکز":"پاینده خیل کلی ښوونځی ","Polling_Center_Name":"Payanda Khel Village School","د_مرکز_ځای__موقعیت_مرکز":"پاینده خیل کلی ","Polling_Center_Location":"Payanda Khil Village","Verification_Note":"Village","PS_Male":2,"PS_Female":0,"Map_Accuracy":"قریه"},"geometry":{"x":7628997.6216058433,"y":3877333.7869339138}},{"attributes":{"OBJECTID":3885,"ولایت":"پکتيکا","Province":"PAKTIKA","PC_Code":"1207100","ولسوالي":"زرغون شهر ","District":"ZARGHUN SHAHR","د_مرکز_نوم__نام_مرکز":"فاصله کام ﭙاوند","Polling_Center_Name":"Fasela Compound","د_مرکز_ځای__موقعیت_مرکز":"زرغون شهر ","Polling_Center_Location":"Zarghon Shahr","Verification_Note":"Village","PS_Male":2,"PS_Female":2,"Map_Accuracy":"قریه"},"geometry":{"x":7620103.3712894544,"y":3875154.1269519851}},{"attributes":{"OBJECTID":3886,"ولایت":"پکتيکا","Province":"PAKTIKA","PC_Code":"1207107","ولسوالي":"زرغون شهر ","District":"ZARGHUN SHAHR","د_مرکز_نوم__نام_مرکز":"حاجی خیال گل جومات","Polling_Center_Name":"Haji Kheyal Gul Mosque","د_مرکز_ځای__موقعیت_مرکز":"حاجی خیال گل","Polling_Center_Location":"Haji Kheyal Gul","Verification_Note":"Village","PS_Male":2,"PS_Female":0,"Map_Accuracy":"قریه"},"geometry":{"x":7630148.9835143872,"y":3871437.2379121631}},{"attributes":{"OBJECTID":3887,"ولایت":"پکتيکا","Province":"PAKTIKA","PC_Code":"1208144","ولسوالي":"گومل","District":"GOMAL","د_مرکز_نوم__نام_مرکز":"سعید خیل جومات","Polling_Center_Name":"Saied Khel Mosque","د_مرکز_ځای__موقعیت_مرکز":"سعید خیل","Polling_Center_Location":"Saied Khel","Verification_Note":"Village","PS_Male":0,"PS_Female":2,"Map_Accuracy":"قریه"},"geometry":{"x":7670394.3479639515,"y":3861574.4127114937}},{"attributes":{"OBJECTID":3888,"ولایت":"پکتيکا","Province":"PAKTIKA","PC_Code":"1209124","ولسوالي":"جانی خیل","District":"JANI KHEL","د_مرکز_نوم__نام_مرکز":"د حاجی حریم خان کور","Polling_Center_Name":"Haji Hareem Khan House","د_مرکز_ځای__موقعیت_مرکز":"شهنشاه حاجی حریم خان کلی","Polling_Center_Location":"Shahen Shah Haji Hareem Khan Village","Verification_Note":"Village","PS_Male":0,"PS_Female":2,"Map_Accuracy":"قریه"},"geometry":{"x":7627965.36376008,"y":3834061.0266748741}},{"attributes":{"OBJECTID":3889,"ولایت":"پکتيکا","Province":"PAKTIKA","PC_Code":"1211180","ولسوالي":"اورگون","District":"URGOON","د_مرکز_نوم__نام_مرکز":"علی باز میلمستون","Polling_Center_Name":"Ali Baz Guest House","د_مرکز_ځای__موقعیت_مرکز":"ﭙشتی کلی","Polling_Center_Location":"Pashti Village","Verification_Note":"Village","PS_Male":0,"PS_Female":2,"Map_Accuracy":"قریه"},"geometry":{"x":7705569.2253801487,"y":3892417.1660315022}},{"attributes":{"OBJECTID":3890,"ولایت":"پکتيکا","Province":"PAKTIKA","PC_Code":"1211181","ولسوالي":"اورگون","District":"URGOON","د_مرکز_نوم__نام_مرکز":"گربوزی میلمستون","Polling_Center_Name":"Garbozi Guest House","د_مرکز_ځای__موقعیت_مرکز":"گربوزی کلی","Polling_Center_Location":"Garbozi Village","Verification_Note":"Village","PS_Male":2,"PS_Female":0,"Map_Accuracy":"قریه"},"geometry":{"x":7711758.9219135344,"y":3895281.319119148}},{"attributes":{"OBJECTID":3891,"ولایت":"پکتيکا","Province":"PAKTIKA","PC_Code":"1212194","ولسوالي":"زیړوک","District":"ZIRUK","د_مرکز_نوم__نام_مرکز":"جمیل حان جومات","Polling_Center_Name":"Jamil Khan Mosque","د_مرکز_ځای__موقعیت_مرکز":"سرو میدان","Polling_Center_Location":"Sro Maidan","Verification_Note":"Village","PS_Male":0,"PS_Female":2,"Map_Accuracy":"قریه"},"geometry":{"x":7709301.4773625731,"y":3911967.8827311173}},{"attributes":{"OBJECTID":3892,"ولایت":"پکتيکا","Province":"PAKTIKA","PC_Code":"1214265","ولسوالي":"برمل","District":"BARMAL","د_مرکز_نوم__نام_مرکز":"مسجد باډر احمدزی","Polling_Center_Name":"Saif-u-Rahman Guest House","د_مرکز_ځای__موقعیت_مرکز":"اتی کلی","Polling_Center_Location":"Aati Village","Verification_Note":"District","PS_Male":2,"PS_Female":2,"Map_Accuracy":"ولسوالی"},"geometry":{"x":7709123.0377848074,"y":3832126.7494213432}},{"attributes":{"OBJECTID":3893,"ولایت":"پکتيکا","Province":"PAKTIKA","PC_Code":"1215278","ولسوالي":"گیان","District":"GIYAN","د_مرکز_نوم__نام_مرکز":"لطیف میلمستون","Polling_Center_Name":"Latif Guest House","د_مرکز_ځای__موقعیت_مرکز":"ګلی","Polling_Center_Location":"Gali","Verification_Note":"District","PS_Male":3,"PS_Female":1,"Map_Accuracy":"ولسوالی"},"geometry":{"x":7724616.3631751724,"y":3892684.8433864266}},{"attributes":{"OBJECTID":3894,"ولایت":"پکتيکا","Province":"PAKTIKA","PC_Code":"1215279","ولسوالي":"گیان","District":"GIYAN","د_مرکز_نوم__نام_مرکز":"گیان ولسوالی مرکز جومات","Polling_Center_Name":"Geyan District Mosque","د_مرکز_ځای__موقعیت_مرکز":"گیان ولسوالی مرکز","Polling_Center_Location":"Geyan District Center","Verification_Note":"Village","PS_Male":3,"PS_Female":0,"Map_Accuracy":"قریه"},"geometry":{"x":7722541.33781052,"y":3892233.458131738}},{"attributes":{"OBJECTID":3895,"ولایت":"پکتيکا","Province":"PAKTIKA","PC_Code":"1217222","ولسوالي":"وازه خواه","District":"WAZAKHWAH","د_مرکز_نوم__نام_مرکز":"حاجی فتح خان جومات","Polling_Center_Name":"Haji Fateh Khan Mosque","د_مرکز_ځای__موقعیت_مرکز":"مرجان کلی","Polling_Center_Location":"Marjan Village","Verification_Note":"Village","PS_Male":0,"PS_Female":4,"Map_Accuracy":"قریه"},"geometry":{"x":7598729.4936103933,"y":3787546.5648174062}},{"attributes":{"OBJECTID":3896,"ولایت":"پکتيکا","Province":"PAKTIKA","PC_Code":"1217224","ولسوالي":"وازه خواه","District":"WAZAKHWAH","د_مرکز_نوم__نام_مرکز":"مرکز ولسوالی خیمه ","Polling_Center_Name":"District Compound Tent","د_مرکز_ځای__موقعیت_مرکز":"مرکز ولسوالی","Polling_Center_Location":"District Center","Verification_Note":"Building","PS_Male":3,"PS_Female":1,"Map_Accuracy":"تعمیر"},"geometry":{"x":7610054.5697611086,"y":3787233.870193705}},{"attributes":{"OBJECTID":3897,"ولایت":"پکتيکا","Province":"PAKTIKA","PC_Code":"1218239","ولسوالي":"وړممی","District":"WOR MAMY","د_مرکز_نوم__نام_مرکز":"حاجی بلول میلمستون","Polling_Center_Name":"Haji Balol Guest House","د_مرکز_ځای__موقعیت_مرکز":"مامی","Polling_Center_Location":"Mami","Verification_Note":"Building","PS_Male":3,"PS_Female":1,"Map_Accuracy":"تعمیر"},"geometry":{"x":7663735.8494325951,"y":3766788.0426014364}},{"attributes":{"OBJECTID":3898,"ولایت":"پکتيکا","Province":"PAKTIKA","PC_Code":"1219236","ولسوالي":"تروو","District":"TURWO","د_مرکز_نوم__نام_مرکز":"د دوست محمد دوکان","Polling_Center_Name":"Dost Mohammad Shop","د_مرکز_ځای__موقعیت_مرکز":"ولسوالی مرکز بازار","Polling_Center_Location":"District Center Bazar","Verification_Note":"Village","PS_Male":2,"PS_Female":2,"Map_Accuracy":"قریه"},"geometry":{"x":7614816.92333075,"y":3736329.4256722331}},{"attributes":{"OBJECTID":3899,"ولایت":"پکتيا","Province":"PAKTYA","PC_Code":"1301013","ولسوالي":"گردیز","District":"GARDEZ","د_مرکز_نوم__نام_مرکز":"د کجیر خیمه","Polling_Center_Name":"Kajeer Tent","د_مرکز_ځای__موقعیت_مرکز":"  بنوزی","Polling_Center_Location":"Banozai","Verification_Note":"Village","PS_Male":1,"PS_Female":1,"Map_Accuracy":"قریه"},"geometry":{"x":7711083.9439734668,"y":3966440.5124503374}},{"attributes":{"OBJECTID":3900,"ولایت":"پکتيا","Province":"PAKTYA","PC_Code":"1302193","ولسوالي":"احمد آبا","District":"AHMADABA","د_مرکز_نوم__نام_مرکز":"خواجه علی زیارت","Polling_Center_Name":"Khwaja Ali Ziarat","د_مرکز_ځای__موقعیت_مرکز":"عیسی خیل","Polling_Center_Location":"Esa Khel","Verification_Note":"Village","PS_Male":3,"PS_Female":0,"Map_Accuracy":"قریه"},"geometry":{"x":7714665.8623231649,"y":3979731.5347286612}},{"attributes":{"OBJECTID":3901,"ولایت":"پکتيا","Province":"PAKTYA","PC_Code":"1303093","ولسوالي":"زرمت","District":"ZURMAT","د_مرکز_نوم__نام_مرکز":"د حسین هجره","Polling_Center_Name":"Hussain Hojra","د_مرکز_ځای__موقعیت_مرکز":"گلدت خیل","Polling_Center_Location":"Guldat Khel","Verification_Note":"Village","PS_Male":0,"PS_Female":2,"Map_Accuracy":"قریه"},"geometry":{"x":7678378.2452957556,"y":3953388.6366392076}},{"attributes":{"OBJECTID":3902,"ولایت":"پکتيا","Province":"PAKTYA","PC_Code":"1304112","ولسوالي":"شواک","District":"SHWAK","د_مرکز_نوم__نام_مرکز":"لیسه ابراهیم خیل","Polling_Center_Name":"Ibrahim Khel High School","د_مرکز_ځای__موقعیت_مرکز":"ابراهیم خیل","Polling_Center_Location":"Ibrahim Khel","Verification_Note":"Building","PS_Male":3,"PS_Female":1,"Map_Accuracy":"تعمیر"},"geometry":{"x":7722842.5906165056,"y":3954200.6174749061}},{"attributes":{"OBJECTID":3903,"ولایت":"پکتيا","Province":"PAKTYA","PC_Code":"1305126","ولسوالي":"وزه ځدراڼ","District":"WUZA ZADRAN","د_مرکز_نوم__نام_مرکز":"کلیژه خوله","Polling_Center_Name":"Kalazai Khola","د_مرکز_ځای__موقعیت_مرکز":"کلیژه خوله","Polling_Center_Location":"Kaliza Khola","Verification_Note":"Village","PS_Male":0,"PS_Female":3,"Map_Accuracy":"قریه"},"geometry":{"x":7719189.0515328236,"y":3933436.2217692062}},{"attributes":{"OBJECTID":3904,"ولایت":"پکتيا","Province":"PAKTYA","PC_Code":"1307053","ولسوالي":"ځاځی اریوب","District":"JAJI ARYOB","د_مرکز_نوم__نام_مرکز":"د هاشم دوکان","Polling_Center_Name":"Hashim Shop","د_مرکز_ځای__موقعیت_مرکز":"علی خیل","Polling_Center_Location":"Ali Khel","Verification_Note":"Building","PS_Male":4,"PS_Female":0,"Map_Accuracy":"تعمیر"},"geometry":{"x":7760731.1978813335,"y":4021080.8530337662}},{"attributes":{"OBJECTID":3905,"ولایت":"پکتيا","Province":"PAKTYA","PC_Code":"1307064","ولسوالي":"ځاځی اریوب","District":"JAJI ARYOB","د_مرکز_نوم__نام_مرکز":"د حسن الگادی مسجد","Polling_Center_Name":"Hassan Algadi Mosque","د_مرکز_ځای__موقعیت_مرکز":"حسن لګاډه","Polling_Center_Location":"Hassan Lagada","Verification_Note":"Village","PS_Male":0,"PS_Female":3,"Map_Accuracy":"قریه"},"geometry":{"x":7751574.3816215917,"y":4030338.0836220756}},{"attributes":{"OBJECTID":3906,"ولایت":"پکتيا","Province":"PAKTYA","PC_Code":"1307213","ولسوالي":"ځاځی اریوب","District":"JAJI ARYOB","د_مرکز_نوم__نام_مرکز":"دسورګل مكتب","Polling_Center_Name":"Sor Gul School","د_مرکز_ځای__موقعیت_مرکز":"سورګل","Polling_Center_Location":"Sor Gul ","Verification_Note":"Building","PS_Male":1,"PS_Female":2,"Map_Accuracy":"تعمیر"},"geometry":{"x":7774133.3777315877,"y":4028049.4404329062}},{"attributes":{"OBJECTID":3907,"ولایت":"پکتيا","Province":"PAKTYA","PC_Code":"1309171","ولسوالي":"جانی خیل","District":"JANI KHEL","د_مرکز_نوم__نام_مرکز":"عجب خان هجره","Polling_Center_Name":"Ajab Khan Hojra","د_مرکز_ځای__موقعیت_مرکز":"کوټکی، سترکلی","Polling_Center_Location":"Kotkai, Setar Kalai","Verification_Note":"Building","PS_Male":0,"PS_Female":2,"Map_Accuracy":"تعمیر"},"geometry":{"x":7778357.4069416858,"y":3980964.6875453666}},{"attributes":{"OBJECTID":3908,"ولایت":"پکتيا","Province":"PAKTYA","PC_Code":"1310165","ولسوالي":"څمکنی","District":"SAMKANI","د_مرکز_نوم__نام_مرکز":"د نرګسی مکتب","Polling_Center_Name":"Nargisi School","د_مرکز_ځای__موقعیت_مرکز":"نرگسی","Polling_Center_Location":"Nargisi","Verification_Note":"Village","PS_Male":3,"PS_Female":1,"Map_Accuracy":"قریه"},"geometry":{"x":7768691.9173819683,"y":4002251.1244613454}},{"attributes":{"OBJECTID":3909,"ولایت":"پکتيا","Province":"PAKTYA","PC_Code":"1310166","ولسوالي":"څمکنی","District":"SAMKANI","د_مرکز_نوم__نام_مرکز":"د لوا ړی مدرسه","Polling_Center_Name":"Lowarry Madrassa","د_مرکز_ځای__موقعیت_مرکز":"لوا ړی","Polling_Center_Location":"Lowarry ","Verification_Note":"Village","PS_Male":4,"PS_Female":0,"Map_Accuracy":"قریه"},"geometry":{"x":7768600.1088583171,"y":3991479.3674401864}},{"attributes":{"OBJECTID":3910,"ولایت":"خوست","Province":"KHOST","PC_Code":"1401002","ولسوالي":"خوست","District":"KHOST","د_مرکز_نوم__نام_مرکز":"د شربت خان حجره","Polling_Center_Name":"Sharbat Khan Hojra","د_مرکز_ځای__موقعیت_مرکز":"د شمل زوړ کلى","Polling_Center_Location":"Shamal Old Village","Verification_Note":"Building","PS_Male":2,"PS_Female":1,"Map_Accuracy":"تعمیر"},"geometry":{"x":7790418.1368341073,"y":3937856.2842466533}},{"attributes":{"OBJECTID":3911,"ولایت":"خوست","Province":"KHOST","PC_Code":"1401013","ولسوالي":"خوست","District":"KHOST","د_مرکز_نوم__نام_مرکز":"د تازه کلي جومات متون ","Polling_Center_Name":"Taza Village Mosque","د_مرکز_ځای__موقعیت_مرکز":"متون شکرې کلى","Polling_Center_Location":"Maton Shakari Village","Verification_Note":"Village","PS_Male":2,"PS_Female":2,"Map_Accuracy":"قریه"},"geometry":{"x":7781652.669810228,"y":3943854.210422799}},{"attributes":{"OBJECTID":3912,"ولایت":"خوست","Province":"KHOST","PC_Code":"1401014","ولسوالي":"خوست","District":"KHOST","د_مرکز_نوم__نام_مرکز":"متون منديخيل جومات","Polling_Center_Name":"Maton Mandikhel Mosque","د_مرکز_ځای__موقعیت_مرکز":"متون منديخيل ","Polling_Center_Location":"Maton Mandikhel","Verification_Note":"Village","PS_Male":1,"PS_Female":1,"Map_Accuracy":"قریه"},"geometry":{"x":7783252.77283131,"y":3941370.838703312}},{"attributes":{"OBJECTID":3913,"ولایت":"خوست","Province":"KHOST","PC_Code":"1401025","ولسوالي":"خوست","District":"KHOST","د_مرکز_نوم__نام_مرکز":"د منګسو کلي جومات","Polling_Center_Name":"Mangaso Village Mosque","د_مرکز_ځای__موقعیت_مرکز":" منګس","Polling_Center_Location":"Mangas ","Verification_Note":"Village","PS_Male":2,"PS_Female":1,"Map_Accuracy":"قریه"},"geometry":{"x":7794021.8593324684,"y":3944316.5643361583}},{"attributes":{"OBJECTID":3914,"ولایت":"خوست","Province":"KHOST","PC_Code":"1401041","ولسوالي":"خوست","District":"KHOST","د_مرکز_نوم__نام_مرکز":"جومات کاروان سراى","Polling_Center_Name":"Mosque","د_مرکز_ځای__موقعیت_مرکز":"کاروان سراى","Polling_Center_Location":"Karwan Sarai","Verification_Note":"Village","PS_Male":2,"PS_Female":1,"Map_Accuracy":"قریه"},"geometry":{"x":7789475.8919286095,"y":3941161.8999933824}},{"attributes":{"OBJECTID":3915,"ولایت":"خوست","Province":"KHOST","PC_Code":"1401042","ولسوالي":"خوست","District":"KHOST","د_مرکز_نوم__نام_مرکز":"د ګل بادشاه هجره ","Polling_Center_Name":"Gul Badsha Hojra","د_مرکز_ځای__موقعیت_مرکز":" لټک حاجي ګل بادشاه کلى","Polling_Center_Location":"Latak Haji Gul Badsha Village","Verification_Note":"Village","PS_Male":2,"PS_Female":1,"Map_Accuracy":"قریه"},"geometry":{"x":7790317.868029166,"y":3940020.7649532035}},{"attributes":{"OBJECTID":3916,"ولایت":"خوست","Province":"KHOST","PC_Code":"1401046","ولسوالي":"خوست","District":"KHOST","د_مرکز_نوم__نام_مرکز":"د تورغونډى مکتب","Polling_Center_Name":"Toor Ghondy School ","د_مرکز_ځای__موقعیت_مرکز":"د تورغونډى وزیان کلی","Polling_Center_Location":"Tori Ghonday Wazian Village","Verification_Note":"Building","PS_Male":2,"PS_Female":1,"Map_Accuracy":"تعمیر"},"geometry":{"x":7781711.0435248166,"y":3935871.9332814589}},{"attributes":{"OBJECTID":3917,"ولایت":"خوست","Province":"KHOST","PC_Code":"1404140","ولسوالي":"تڼي","District":"TANAY","د_مرکز_نوم__نام_مرکز":"د بنده خيلو جومات","Polling_Center_Name":"Banda Khel Mosque","د_مرکز_ځای__موقعیت_مرکز":" بنده خيل","Polling_Center_Location":"Banda Khel ","Verification_Note":"Village","PS_Male":2,"PS_Female":1,"Map_Accuracy":"قریه"},"geometry":{"x":7753086.0591183528,"y":3918659.2588851526}},{"attributes":{"OBJECTID":3918,"ولایت":"خوست","Province":"KHOST","PC_Code":"1404141","ولسوالي":"تڼي","District":"TANAY","د_مرکز_نوم__نام_مرکز":"د نريزيې جومات","Polling_Center_Name":"Narzaye Mosque","د_مرکز_ځای__موقعیت_مرکز":" نريزي","Polling_Center_Location":"Narezi","Verification_Note":"Building","PS_Male":2,"PS_Female":1,"Map_Accuracy":"تعمیر"},"geometry":{"x":7759282.1754467711,"y":3915631.105415903}},{"attributes":{"OBJECTID":3919,"ولایت":"خوست","Province":"KHOST","PC_Code":"1404145","ولسوالي":"تڼي","District":"TANAY","د_مرکز_نوم__نام_مرکز":"د داخيو کلي جومات","Polling_Center_Name":"Dakhi Village Mosque","د_مرکز_ځای__موقعیت_مرکز":"داخي کلى","Polling_Center_Location":"Dakhi Village","Verification_Note":"Building","PS_Male":2,"PS_Female":1,"Map_Accuracy":"تعمیر"},"geometry":{"x":7759480.98548948,"y":3936083.0868620276}},{"attributes":{"OBJECTID":3920,"ولایت":"خوست","Province":"KHOST","PC_Code":"1406116","ولسوالي":"نادرشاه کوت","District":"NADIRSHAH KOT","د_مرکز_نوم__نام_مرکز":"د کيخې کلي جومات","Polling_Center_Name":"Kekha Village Mosque","د_مرکز_ځای__موقعیت_مرکز":"کيخه کلى","Polling_Center_Location":"Kekha Village ","Verification_Note":"Building","PS_Male":1,"PS_Female":1,"Map_Accuracy":"تعمیر"},"geometry":{"x":7750511.1224108487,"y":3934209.2762083784}},{"attributes":{"OBJECTID":3921,"ولایت":"خوست","Province":"KHOST","PC_Code":"1406117","ولسوالي":"نادرشاه کوت","District":"NADIRSHAH KOT","د_مرکز_نوم__نام_مرکز":"د شمبوات کلينيک","Polling_Center_Name":"Shambowat Clinic","د_مرکز_ځای__موقعیت_مرکز":"شمبوات","Polling_Center_Location":"Shambowat","Verification_Note":"Building","PS_Male":1,"PS_Female":1,"Map_Accuracy":"تعمیر"},"geometry":{"x":7763301.375680618,"y":3944859.0224225745}},{"attributes":{"OBJECTID":3922,"ولایت":"خوست","Province":"KHOST","PC_Code":"1406121","ولسوالي":"نادرشاه کوت","District":"NADIRSHAH KOT","د_مرکز_نوم__نام_مرکز":"د کاڼي جومات","Polling_Center_Name":"Kani Mosque","د_مرکز_ځای__موقعیت_مرکز":"کاڼى","Polling_Center_Location":"Kani","Verification_Note":"Village","PS_Male":1,"PS_Female":1,"Map_Accuracy":"قریه"},"geometry":{"x":7758704.3304415978,"y":3947652.3280104622}},{"attributes":{"OBJECTID":3923,"ولایت":"خوست","Province":"KHOST","PC_Code":"1410105","ولسوالي":"قلندر","District":"QALANDAR","د_مرکز_نوم__نام_مرکز":"د حاجي ګلستان کور مل کلى","Polling_Center_Name":"Haji Gulstan House","د_مرکز_ځای__موقعیت_مرکز":"مل کلى","Polling_Center_Location":"Mal Village","Verification_Note":"Building","PS_Male":2,"PS_Female":1,"Map_Accuracy":"تعمیر"},"geometry":{"x":7751401.0649667941,"y":3966769.6457688734}},{"attributes":{"OBJECTID":3924,"ولایت":"خوست","Province":"KHOST","PC_Code":"1411131","ولسوالي":"سپیره","District":"SPERA","د_مرکز_نوم__نام_مرکز":"شينشوبي کاڅکى","Polling_Center_Name":"Shinshobi Kaski","د_مرکز_ځای__موقعیت_مرکز":" جهانګير کلى","Polling_Center_Location":"Jahangeer Village","Verification_Note":"Village","PS_Male":2,"PS_Female":1,"Map_Accuracy":"قریه"},"geometry":{"x":7740548.9853324592,"y":3919119.6821753979}},{"attributes":{"OBJECTID":3925,"ولایت":"خوست","Province":"KHOST","PC_Code":"1412159","ولسوالي":"شمل","District":"SHAMUL","د_مرکز_نوم__نام_مرکز":"د بورگى کلي دمکتب او مدرسې ترمنځ هوار ميدان","Polling_Center_Name":"Open Space","د_مرکز_ځای__موقعیت_مرکز":"د بورگى کلي","Polling_Center_Location":"Borgie Village","Verification_Note":"Building","PS_Male":1,"PS_Female":1,"Map_Accuracy":"تعمیر"},"geometry":{"x":7743065.795454666,"y":3935500.18450211}},{"attributes":{"OBJECTID":3926,"ولایت":"خوست","Province":"KHOST","PC_Code":"1412160","ولسوالي":"شمل","District":"SHAMUL","د_مرکز_نوم__نام_مرکز":"د خلوټي کلي جومات","Polling_Center_Name":"Khaloti Village Mosque","د_مرکز_ځای__موقعیت_مرکز":" خلوټى","Polling_Center_Location":"Khalotai","Verification_Note":"Building","PS_Male":1,"PS_Female":1,"Map_Accuracy":"تعمیر"},"geometry":{"x":7746062.8990858756,"y":3932908.7119346783}},{"attributes":{"OBJECTID":3927,"ولایت":"کنړ ","Province":"KUNAR","PC_Code":"1501008","ولسوالي":"اسعد آباد","District":"ASAD ABAD","د_مرکز_نوم__نام_مرکز":"شهید مینا ابتدائیه ","Polling_Center_Name":"Shaheed Minaa Primary School","د_مرکز_ځای__موقعیت_مرکز":"یارګل","Polling_Center_Location":"Yar Gul ","Verification_Note":"Village","PS_Male":3,"PS_Female":1,"Map_Accuracy":"قریه"},"geometry":{"x":7919555.7770933434,"y":4144997.5347336754}},{"attributes":{"OBJECTID":3928,"ولایت":"کنړ ","Province":"KUNAR","PC_Code":"1501009","ولسوالي":"اسعد آباد","District":"ASAD ABAD","د_مرکز_نوم__نام_مرکز":"ریاست مخابرات","Polling_Center_Name":"Communications Department","د_مرکز_ځای__موقعیت_مرکز":"دم کلی","Polling_Center_Location":"Dam Village","Verification_Note":"Village","PS_Male":4,"PS_Female":2,"Map_Accuracy":"قریه"},"geometry":{"x":7920515.04608858,"y":4146648.9488097653}},{"attributes":{"OBJECTID":3929,"ولایت":"کنړ ","Province":"KUNAR","PC_Code":"1502045","ولسوالي":"مره وره","District":"MARA WARA","د_مرکز_نوم__نام_مرکز":"مسجد قریه","Polling_Center_Name":"Dary Dam Village Mosque","د_مرکز_ځای__موقعیت_مرکز":"دړیدم ","Polling_Center_Location":"Dary Dam","Verification_Note":"Village","PS_Male":2,"PS_Female":2,"Map_Accuracy":"قریه"},"geometry":{"x":7927709.7527959645,"y":4146340.9704735875}},{"attributes":{"OBJECTID":3930,"ولایت":"کنړ ","Province":"KUNAR","PC_Code":"1504037","ولسوالي":"نرنګ","District":"NARANG","د_مرکز_نوم__نام_مرکز":"لیسه بر نرنګ","Polling_Center_Name":"Bar Narang High School","د_مرکز_ځای__موقعیت_مرکز":"بر نرنګ ","Polling_Center_Location":"Bar Narang","Verification_Note":"Building","PS_Male":2,"PS_Female":1,"Map_Accuracy":"تعمیر"},"geometry":{"x":7911210.9329918176,"y":4132859.5177173913}},{"attributes":{"OBJECTID":3931,"ولایت":"کنړ ","Province":"KUNAR","PC_Code":"1505038","ولسوالي":"سرکاڼو","District":"SAR KANI","د_مرکز_نوم__نام_مرکز":"سرکاڼو مرکزي لیسه","Polling_Center_Name":"Sarkany Central High School","د_مرکز_ځای__موقعیت_مرکز":"سرکاڼو مرکزی  کلی","Polling_Center_Location":"Sarkany","Verification_Note":"Building","PS_Male":4,"PS_Female":3,"Map_Accuracy":"تعمیر"},"geometry":{"x":7915616.386255227,"y":4134968.5362054557}},{"attributes":{"OBJECTID":3932,"ولایت":"کنړ ","Province":"KUNAR","PC_Code":"1507028","ولسوالي":"دره پیچ","District":"DARA-E-PECH","د_مرکز_نوم__نام_مرکز":"مسجد قریه","Polling_Center_Name":"Khara Village Mosque","د_مرکز_ځای__موقعیت_مرکز":"خاره","Polling_Center_Location":"Khara","Verification_Note":"Village","PS_Male":1,"PS_Female":2,"Map_Accuracy":"قریه"},"geometry":{"x":7903246.39411946,"y":4155607.8891889825}},{"attributes":{"OBJECTID":3933,"ولایت":"کنړ ","Province":"KUNAR","PC_Code":"1507029","ولسوالي":"دره پیچ","District":"DARA-E-PECH","د_مرکز_نوم__نام_مرکز":"مدرسه قریه","Polling_Center_Name":"Tarra Village Madrassa","د_مرکز_ځای__موقعیت_مرکز":"ترړه","Polling_Center_Location":"Tarra","Verification_Note":"Village","PS_Male":2,"PS_Female":1,"Map_Accuracy":"قریه"},"geometry":{"x":7906220.141363021,"y":4156107.3482002914}},{"attributes":{"OBJECTID":3934,"ولایت":"کنړ ","Province":"KUNAR","PC_Code":"1508058","ولسوالي":"بر کنړ ","District":"BAR KUNAR","د_مرکز_نوم__نام_مرکز":"مکتب دخترانه","Polling_Center_Name":"Zor Asmar Girls School","د_مرکز_ځای__موقعیت_مرکز":"زور اسمار","Polling_Center_Location":"Zor Asmar","Verification_Note":"Building","PS_Male":2,"PS_Female":1,"Map_Accuracy":"تعمیر"},"geometry":{"x":7943482.1516969651,"y":4168371.3290899247}},{"attributes":{"OBJECTID":3935,"ولایت":"کنړ ","Province":"KUNAR","PC_Code":"1510102","ولسوالي":"خاص کنړ","District":"KHAS KUNAR","د_مرکز_نوم__نام_مرکز":"مکتب متوسطه","Polling_Center_Name":"Khas Kunar Primary School","د_مرکز_ځای__موقعیت_مرکز":"خاص کنر","Polling_Center_Location":"Khas Kunar","Verification_Note":"Village","PS_Male":2,"PS_Female":2,"Map_Accuracy":"قریه"},"geometry":{"x":7888902.9066738151,"y":4114663.0437596366}},{"attributes":{"OBJECTID":3936,"ولایت":"کنړ ","Province":"KUNAR","PC_Code":"1510103","ولسوالي":"خاص کنړ","District":"KHAS KUNAR","د_مرکز_نوم__نام_مرکز":"مسجد قریه","Polling_Center_Name":"Koza Arazi Village Mosque","د_مرکز_ځای__موقعیت_مرکز":"کوزه اراضی","Polling_Center_Location":"Koza Arazi","Verification_Note":"Village","PS_Male":4,"PS_Female":2,"Map_Accuracy":"قریه"},"geometry":{"x":7891228.5578532293,"y":4116723.6445957348}},{"attributes":{"OBJECTID":3937,"ولایت":"کنړ ","Province":"KUNAR","PC_Code":"1514084","ولسوالي":"نور ګل","District":"NOOR GAL","د_مرکز_نوم__نام_مرکز":"سرکاری قلعه مسجد","Polling_Center_Name":"Sarkari Qala Mosque","د_مرکز_ځای__موقعیت_مرکز":"سرکاری قلعه","Polling_Center_Location":"Sarkari Qala","Verification_Note":"Village","PS_Male":3,"PS_Female":2,"Map_Accuracy":"قریه"},"geometry":{"x":7877170.3533194251,"y":4110239.1130692363}},{"attributes":{"OBJECTID":3938,"ولایت":"نورستان","Province":"NOORISTAN","PC_Code":"1604011","ولسوالي":"نورګرام","District":"NOOR GRAM","د_مرکز_نوم__نام_مرکز":"لیسه عالی ننګراج","Polling_Center_Name":"Nangraj High School","د_مرکز_ځای__موقعیت_مرکز":"ننګراج","Polling_Center_Location":"Nangraj","Verification_Note":"Building","PS_Male":2,"PS_Female":1,"Map_Accuracy":"تعمیر"},"geometry":{"x":7834824.21753338,"y":4156067.8975063935}},{"attributes":{"OBJECTID":3939,"ولایت":"نورستان","Province":"NOORISTAN","PC_Code":"1604012","ولسوالي":"نورګرام","District":"NOOR GRAM","د_مرکز_نوم__نام_مرکز":"مکتب متوسطه ودهو","Polling_Center_Name":"Wadaho Secondary School","د_مرکز_ځای__موقعیت_مرکز":"ودهو مامو","Polling_Center_Location":"Wadaho","Verification_Note":"Building","PS_Male":1,"PS_Female":1,"Map_Accuracy":"تعمیر"},"geometry":{"x":7831601.8010264225,"y":4157638.0657471269}},{"attributes":{"OBJECTID":3940,"ولایت":"نورستان","Province":"NOORISTAN","PC_Code":"1604016","ولسوالي":"نورګرام","District":"NOOR GRAM","د_مرکز_نوم__نام_مرکز":"مکتب متوسطه تیتین","Polling_Center_Name":"Teteen Secondary School","د_مرکز_ځای__موقعیت_مرکز":"تروت","Polling_Center_Location":"Tarwat","Verification_Note":"Village","PS_Male":2,"PS_Female":1,"Map_Accuracy":"قریه"},"geometry":{"x":7847189.2047448456,"y":4164371.8903180584}},{"attributes":{"OBJECTID":3941,"ولایت":"نورستان","Province":"NOORISTAN","PC_Code":"1606073","ولسوالي":"کامدیش","District":"KAMDESH","د_مرکز_نوم__نام_مرکز":"مکتب قریه کامدیش","Polling_Center_Name":"Kamdesh Village School","د_مرکز_ځای__موقعیت_مرکز":"قریه کامدیش","Polling_Center_Location":"Kamdesh Village","Verification_Note":"Village","PS_Male":1,"PS_Female":1,"Map_Accuracy":"قریه"},"geometry":{"x":7940280.2769756392,"y":4219628.2762050256}},{"attributes":{"OBJECTID":3942,"ولایت":"نورستان","Province":"NOORISTAN","PC_Code":"1608071","ولسوالي":"برګ مټال","District":"BARG-E-MATAL","د_مرکز_نوم__نام_مرکز":"خانه ملک قریه افسی","Polling_Center_Name":"Afsi Village Malak House","د_مرکز_ځای__موقعیت_مرکز":"قریه افسی","Polling_Center_Location":"Afsi Village","Verification_Note":"Village","PS_Male":2,"PS_Female":1,"Map_Accuracy":"قریه"},"geometry":{"x":7943152.1283685863,"y":4268998.2026478276}},{"attributes":{"OBJECTID":3943,"ولایت":"بدخشان","Province":"BADAKHSHAN","PC_Code":"1701020","ولسوالي":"فیض آباد","District":"FAIZ ABAD","د_مرکز_نوم__نام_مرکز":"مکتب شور ابک","Polling_Center_Name":"Shorabak School","د_مرکز_ځای__موقعیت_مرکز":"شور ابک","Polling_Center_Location":"Shorabak","Verification_Note":"Building","PS_Male":1,"PS_Female":1,"Map_Accuracy":"تعمیر"},"geometry":{"x":7859259.6394704729,"y":4449266.93180377}},{"attributes":{"OBJECTID":3944,"ولایت":"بدخشان","Province":"BADAKHSHAN","PC_Code":"1701021","ولسوالي":"فیض آباد","District":"FAIZ ABAD","د_مرکز_نوم__نام_مرکز":"مکتب دیگه ","Polling_Center_Name":"Dega School","د_مرکز_ځای__موقعیت_مرکز":"دیگه","Polling_Center_Location":"Dega","Verification_Note":"Building","PS_Male":1,"PS_Female":1,"Map_Accuracy":"تعمیر"},"geometry":{"x":7862118.0824307539,"y":4472010.4160287455}},{"attributes":{"OBJECTID":3945,"ولایت":"بدخشان","Province":"BADAKHSHAN","PC_Code":"1702039","ولسوالي":"ارگو","District":"ARGO","د_مرکز_نوم__نام_مرکز":"مکتب برلاس شمر","Polling_Center_Name":"Barlaas Shamar School","د_مرکز_ځای__موقعیت_مرکز":"نسوان شمر","Polling_Center_Location":"Naswan Shamar","Verification_Note":"Building","PS_Male":2,"PS_Female":1,"Map_Accuracy":"تعمیر"},"geometry":{"x":7828657.1422337219,"y":4443694.8023516908}},{"attributes":{"OBJECTID":3946,"ولایت":"بدخشان","Province":"BADAKHSHAN","PC_Code":"1702040","ولسوالي":"ارگو","District":"ARGO","د_مرکز_نوم__نام_مرکز":"مکتب بوینی قره","Polling_Center_Name":"Boyeni Qara School","د_مرکز_ځای__موقعیت_مرکز":"قریه بوینی قره","Polling_Center_Location":"Boyeni Qara Village","Verification_Note":"Building","PS_Male":1,"PS_Female":2,"Map_Accuracy":"تعمیر"},"geometry":{"x":7832173.4143665023,"y":4456281.2515987605}},{"attributes":{"OBJECTID":3947,"ولایت":"بدخشان","Province":"BADAKHSHAN","PC_Code":"1704033","ولسوالي":"یفتل سفلا","District":"YAFTAL-E-SUFLA","د_مرکز_نوم__نام_مرکز":"لیسه اناث شکر لب ","Polling_Center_Name":"Shakarlab Girls High School","د_مرکز_ځای__موقعیت_مرکز":"شکر لب ","Polling_Center_Location":"Shakarlab","Verification_Note":"Building","PS_Male":3,"PS_Female":1,"Map_Accuracy":"تعمیر"},"geometry":{"x":7840979.8046615906,"y":4484845.8459116817}},{"attributes":{"OBJECTID":3948,"ولایت":"بدخشان","Province":"BADAKHSHAN","PC_Code":"1707067","ولسوالي":"درایم","District":"DARAYIM","د_مرکز_نوم__نام_مرکز":"مسجد جامع قریشی ","Polling_Center_Name":"Quraishi Mosque","د_مرکز_ځای__موقعیت_مرکز":"قریشی ","Polling_Center_Location":"Quraishi","Verification_Note":"Building","PS_Male":1,"PS_Female":1,"Map_Accuracy":"تعمیر"},"geometry":{"x":7843233.2350949682,"y":4427697.0844227076}},{"attributes":{"OBJECTID":3949,"ولایت":"بدخشان","Province":"BADAKHSHAN","PC_Code":"1709131","ولسوالي":"یاوان","District":"YAWAN","د_مرکز_نوم__نام_مرکز":"مسجد روی رزا ","Polling_Center_Name":"Roy Raza Mosque","د_مرکز_ځای__موقعیت_مرکز":"روی رزا","Polling_Center_Location":"Roy Raza","Verification_Note":"Building","PS_Male":1,"PS_Female":1,"Map_Accuracy":"تعمیر"},"geometry":{"x":7820836.7008762248,"y":4516516.1631801128}},{"attributes":{"OBJECTID":3950,"ولایت":"بدخشان","Province":"BADAKHSHAN","PC_Code":"1709132","ولسوالي":"یاوان","District":"YAWAN","د_مرکز_نوم__نام_مرکز":"سنگ پایان ","Polling_Center_Name":"Sang Payan","د_مرکز_ځای__موقعیت_مرکز":"درنگ پایان ","Polling_Center_Location":"Darang Payan","Verification_Note":"Building","PS_Male":1,"PS_Female":1,"Map_Accuracy":"تعمیر"},"geometry":{"x":7842037.05373304,"y":4507097.222058028}},{"attributes":{"OBJECTID":3951,"ولایت":"بدخشان","Province":"BADAKHSHAN","PC_Code":"1709136","ولسوالي":"یاوان","District":"YAWAN","د_مرکز_نوم__نام_مرکز":"مسجد آب زمچ","Polling_Center_Name":"Aab Zamach Mosque","د_مرکز_ځای__موقعیت_مرکز":"آب زمچ","Polling_Center_Location":"Aab Zamach","Verification_Note":"Building","PS_Male":1,"PS_Female":1,"Map_Accuracy":"تعمیر"},"geometry":{"x":7852261.6042470634,"y":4514336.3541765139}},{"attributes":{"OBJECTID":3952,"ولایت":"بدخشان","Province":"BADAKHSHAN","PC_Code":"1711181","ولسوالي":"تشکان ","District":"TASHKAN","د_مرکز_نوم__نام_مرکز":"مکتب ارغندکان","Polling_Center_Name":"Arghandkan School","د_مرکز_ځای__موقعیت_مرکز":"ارغندکان","Polling_Center_Location":"Arghandkan","Verification_Note":"Building","PS_Male":1,"PS_Female":1,"Map_Accuracy":"تعمیر"},"geometry":{"x":7826491.8579127453,"y":4417866.442635484}},{"attributes":{"OBJECTID":3953,"ولایت":"بدخشان","Province":"BADAKHSHAN","PC_Code":"1711182","ولسوالي":"تشکان ","District":"TASHKAN","د_مرکز_نوم__نام_مرکز":"مکتب یاولی بالا ","Polling_Center_Name":"Yawli Bala School","د_مرکز_ځای__موقعیت_مرکز":"یاولی بالا","Polling_Center_Location":"Yawli Bala","Verification_Note":"Building","PS_Male":1,"PS_Female":1,"Map_Accuracy":"تعمیر"},"geometry":{"x":7823871.0943104513,"y":4412984.8063304722}},{"attributes":{"OBJECTID":3954,"ولایت":"بدخشان","Province":"BADAKHSHAN","PC_Code":"1711186","ولسوالي":"تشکان ","District":"TASHKAN","د_مرکز_نوم__نام_مرکز":"مکتب دشت لارینگ","Polling_Center_Name":"Dasht Laryang School","د_مرکز_ځای__موقعیت_مرکز":"دشت لارینگ","Polling_Center_Location":"Dasht Laryang","Verification_Note":"Building","PS_Male":1,"PS_Female":1,"Map_Accuracy":"تعمیر"},"geometry":{"x":7834811.5694128349,"y":4406162.591343008}},{"attributes":{"OBJECTID":3955,"ولایت":"بدخشان","Province":"BADAKHSHAN","PC_Code":"1713145","ولسوالي":"شهر بزرگ","District":"SHAHR-E-BUZURG","د_مرکز_نوم__نام_مرکز":"مکتب سنگی خواه ","Polling_Center_Name":"Sangi Khwah School","د_مرکز_ځای__موقعیت_مرکز":"سنگی خواه ","Polling_Center_Location":"Sangi Khwah","Verification_Note":"Building","PS_Male":1,"PS_Female":1,"Map_Accuracy":"تعمیر"},"geometry":{"x":7795811.350203231,"y":4495992.7474797666}},{"attributes":{"OBJECTID":3956,"ولایت":"بدخشان","Province":"BADAKHSHAN","PC_Code":"1714229","ولسوالي":"راغستان ","District":"RAGHISTAN","د_مرکز_نوم__نام_مرکز":"مسجد زیرکی ","Polling_Center_Name":"Zerakai Mosque","د_مرکز_ځای__موقعیت_مرکز":"زیرکی","Polling_Center_Location":"Zerakai","Verification_Note":"Building","PS_Male":3,"PS_Female":1,"Map_Accuracy":"تعمیر"},"geometry":{"x":7854008.9640301466,"y":4522140.3052067757}},{"attributes":{"OBJECTID":3957,"ولایت":"بدخشان","Province":"BADAKHSHAN","PC_Code":"1715159","ولسوالي":"کشم","District":"KISHM","د_مرکز_نوم__نام_مرکز":"مکتب خشکه دره ","Polling_Center_Name":"Khushka Dara School","د_مرکز_ځای__موقعیت_مرکز":"خشکه دره ","Polling_Center_Location":"Khushka Dara","Verification_Note":"Building","PS_Male":1,"PS_Female":1,"Map_Accuracy":"تعمیر"},"geometry":{"x":7805951.6006932668,"y":4406805.9630533084}},{"attributes":{"OBJECTID":3958,"ولایت":"بدخشان","Province":"BADAKHSHAN","PC_Code":"1715160","ولسوالي":"کشم","District":"KISHM","د_مرکز_نوم__نام_مرکز":"مکتب دشت خاورک ","Polling_Center_Name":"Dasht Khawrak School","د_مرکز_ځای__موقعیت_مرکز":"دشت خاورک","Polling_Center_Location":"Dasht Khawrak","Verification_Note":"Building","PS_Male":2,"PS_Female":2,"Map_Accuracy":"تعمیر"},"geometry":{"x":7812283.6704025976,"y":4392058.98172126}},{"attributes":{"OBJECTID":3959,"ولایت":"بدخشان","Province":"BADAKHSHAN","PC_Code":"1715164","ولسوالي":"کشم","District":"KISHM","د_مرکز_نوم__نام_مرکز":"مسجد محمد حسن","Polling_Center_Name":"Mohammad Hassan Mosque","د_مرکز_ځای__موقعیت_مرکز":"دره جیم","Polling_Center_Location":"Dara-e-Jeem","Verification_Note":"Building","PS_Male":1,"PS_Female":1,"Map_Accuracy":"تعمیر"},"geometry":{"x":7805674.4964244217,"y":4400152.4184639379}},{"attributes":{"OBJECTID":3960,"ولایت":"بدخشان","Province":"BADAKHSHAN","PC_Code":"1717173","ولسوالي":"تگاب","District":"TAGAB","د_مرکز_نوم__نام_مرکز":"مسجد دو آبی ","Polling_Center_Name":"Do-Aabi Mosque","د_مرکز_ځای__موقعیت_مرکز":"دو آبی","Polling_Center_Location":"Do-Aabi","Verification_Note":"Building","PS_Male":1,"PS_Female":1,"Map_Accuracy":"تعمیر"},"geometry":{"x":7832789.0501124114,"y":4377918.3015930876}},{"attributes":{"OBJECTID":3961,"ولایت":"بدخشان","Province":"BADAKHSHAN","PC_Code":"1718253","ولسوالي":"یمگان","District":"YAMGAN","د_مرکز_نوم__نام_مرکز":"مکتب چهار مغزستان ","Polling_Center_Name":"Chahar Maghzistan School","د_مرکز_ځای__موقعیت_مرکز":"چهار مغزستان","Polling_Center_Location":"Chahar Maghzistan","Verification_Note":"Building","PS_Male":2,"PS_Female":1,"Map_Accuracy":"تعمیر"},"geometry":{"x":7894717.4709947594,"y":4377434.8193050027}},{"attributes":{"OBJECTID":3962,"ولایت":"بدخشان","Province":"BADAKHSHAN","PC_Code":"1720239","ولسوالي":"خواهان","District":"KHWAHAN","د_مرکز_نوم__نام_مرکز":"لیسه ذکور چشمه توت","Polling_Center_Name":"Chashma Toot Boys High School","د_مرکز_ځای__موقعیت_مرکز":"چشمه توت","Polling_Center_Location":"Chashma Toot","Verification_Note":"Building","PS_Male":2,"PS_Female":1,"Map_Accuracy":"تعمیر"},"geometry":{"x":7816664.2259487025,"y":4564300.3362557143}},{"attributes":{"OBJECTID":3963,"ولایت":"بدخشان","Province":"BADAKHSHAN","PC_Code":"1720240","ولسوالي":"خواهان","District":"KHWAHAN","د_مرکز_نوم__نام_مرکز":"مکتب ته کمر ","Polling_Center_Name":"Teh Kamar School","د_مرکز_ځای__موقعیت_مرکز":"ته کمر","Polling_Center_Location":"Teh Kamar","Verification_Note":"Building","PS_Male":1,"PS_Female":1,"Map_Accuracy":"تعمیر"},"geometry":{"x":7814902.9323049523,"y":4568623.1708626971}},{"attributes":{"OBJECTID":3964,"ولایت":"بدخشان","Province":"BADAKHSHAN","PC_Code":"1720244","ولسوالي":"خواهان","District":"KHWAHAN","د_مرکز_نوم__نام_مرکز":"مسجد جر پایان ","Polling_Center_Name":"Jar Payan Mosque","د_مرکز_ځای__موقعیت_مرکز":"جر پایان ","Polling_Center_Location":"Jar Payan","Verification_Note":"Building","PS_Male":1,"PS_Female":1,"Map_Accuracy":"تعمیر"},"geometry":{"x":7837807.67005543,"y":4556735.6732845306}},{"attributes":{"OBJECTID":3965,"ولایت":"بدخشان","Province":"BADAKHSHAN","PC_Code":"1723196","ولسوالي":"اشکاشم","District":"ESHKASHIM","د_مرکز_نوم__نام_مرکز":"لیسه بازگیر ","Polling_Center_Name":"Bazgir High School","د_مرکز_ځای__موقعیت_مرکز":"بازگیر ","Polling_Center_Location":"Bazgir","Verification_Note":"Building","PS_Male":1,"PS_Female":1,"Map_Accuracy":"تعمیر"},"geometry":{"x":7954815.7738449834,"y":4389438.853873305}},{"attributes":{"OBJECTID":3966,"ولایت":"بدخشان","Province":"BADAKHSHAN","PC_Code":"1723197","ولسوالي":"اشکاشم","District":"ESHKASHIM","د_مرکز_نوم__نام_مرکز":"لیسه اشکاشم ","Polling_Center_Name":"Ashkasham High School","د_مرکز_ځای__موقعیت_مرکز":"اشکاشم ","Polling_Center_Location":"Ashkashm","Verification_Note":"Building","PS_Male":2,"PS_Female":1,"Map_Accuracy":"تعمیر"},"geometry":{"x":7967603.2240899876,"y":4398594.3003556579}},{"attributes":{"OBJECTID":3967,"ولایت":"بدخشان","Province":"BADAKHSHAN","PC_Code":"1723201","ولسوالي":"اشکاشم","District":"ESHKASHIM","د_مرکز_نوم__نام_مرکز":"مکتب گل باغ","Polling_Center_Name":"Gul Bagh School","د_مرکز_ځای__موقعیت_مرکز":"گل باغ","Polling_Center_Location":"Gul Bagh","Verification_Note":"Building","PS_Male":1,"PS_Female":1,"Map_Accuracy":"تعمیر"},"geometry":{"x":7954587.8427348062,"y":4469440.8844873831}},{"attributes":{"OBJECTID":3968,"ولایت":"بدخشان","Province":"BADAKHSHAN","PC_Code":"1727269","ولسوالي":"درواز بالا (نسی) ","District":"DARWAZ-E-BALA","د_مرکز_نوم__نام_مرکز":"مکتب سرپل","Polling_Center_Name":"Sar-e-Pul School","د_مرکز_ځای__موقعیت_مرکز":"سرپل","Polling_Center_Location":"Sare-e-Pul","Verification_Note":"Village","PS_Male":2,"PS_Female":1,"Map_Accuracy":"قریه"},"geometry":{"x":7884381.2859557793,"y":4619487.0613376349}},{"attributes":{"OBJECTID":3969,"ولایت":"بدخشان","Province":"BADAKHSHAN","PC_Code":"1727270","ولسوالي":"درواز بالا (نسی) ","District":"DARWAZ-E-BALA","د_مرکز_نوم__نام_مرکز":"مکتب زوغار","Polling_Center_Name":"Zoghar School","د_مرکز_ځای__موقعیت_مرکز":"زوغار","Polling_Center_Location":"Zoghar","Verification_Note":"Village","PS_Male":2,"PS_Female":1,"Map_Accuracy":"قریه"},"geometry":{"x":7886014.5132045373,"y":4634533.74685476}},{"attributes":{"OBJECTID":3970,"ولایت":"بدخشان","Province":"BADAKHSHAN","PC_Code":"1727274","ولسوالي":"درواز بالا (نسی) ","District":"DARWAZ-E-BALA","د_مرکز_نوم__نام_مرکز":"مکتب مگی","Polling_Center_Name":"Magai School","د_مرکز_ځای__موقعیت_مرکز":"مگی","Polling_Center_Location":"Magai","Verification_Note":"Village","PS_Male":1,"PS_Female":1,"Map_Accuracy":"قریه"},"geometry":{"x":7894178.4976425692,"y":4613313.7973758951}},{"attributes":{"OBJECTID":3971,"ولایت":"تخار","Province":"TAKHAR","PC_Code":"1801012","ولسوالي":"تالقان","District":"TALUQAN","د_مرکز_نوم__نام_مرکز":"لیسه ملا عبدالودود","Polling_Center_Name":"Mullah Abdul Wodood High School","د_مرکز_ځای__موقعیت_مرکز":"گولایی باغ","Polling_Center_Location":"Golayee Bagh","Verification_Note":"Building","PS_Male":6,"PS_Female":3,"Map_Accuracy":"تعمیر"},"geometry":{"x":7738587.3700386509,"y":4401596.6562004015}},{"attributes":{"OBJECTID":3972,"ولایت":"تخار","Province":"TAKHAR","PC_Code":"1801013","ولسوالي":"تالقان","District":"TALUQAN","د_مرکز_نوم__نام_مرکز":"لیسه بی بی مریم","Polling_Center_Name":"Bibi Maryam High School","د_مرکز_ځای__موقعیت_مرکز":"ناحیه چهارم","Polling_Center_Location":"D04 - Nahia 4","Verification_Note":"Building","PS_Male":2,"PS_Female":2,"Map_Accuracy":"تعمیر"},"geometry":{"x":7739949.1703125834,"y":4401685.29038696}},{"attributes":{"OBJECTID":3973,"ولایت":"تخار","Province":"TAKHAR","PC_Code":"1803045","ولسوالي":"بهارک","District":"BAHARAK","د_مرکز_نوم__نام_مرکز":"مکتب شور قدوق","Polling_Center_Name":"Shor Qadoq School","د_مرکز_ځای__موقعیت_مرکز":"شور قدوق","Polling_Center_Location":"Shor Qadoq","Verification_Note":"Building","PS_Male":1,"PS_Female":1,"Map_Accuracy":"تعمیر"},"geometry":{"x":7737296.2398302406,"y":4423109.610028483}},{"attributes":{"OBJECTID":3974,"ولایت":"تخار","Province":"TAKHAR","PC_Code":"1803188","ولسوالي":"بهارک","District":"BAHARAK","د_مرکز_نوم__نام_مرکز":"مکتب قزل سای ","Polling_Center_Name":"Qazal Say School","د_مرکز_ځای__موقعیت_مرکز":"قزل سای ","Polling_Center_Location":"Qazal Say","Verification_Note":"Building","PS_Male":1,"PS_Female":1,"Map_Accuracy":"تعمیر"},"geometry":{"x":7731805.5562281758,"y":4429953.392549023}},{"attributes":{"OBJECTID":3975,"ولایت":"تخار","Province":"TAKHAR","PC_Code":"1804061","ولسوالي":"بنگی","District":"BANGI","د_مرکز_نوم__نام_مرکز":"لیسه چارچنار","Polling_Center_Name":"Chaar Chenar High School","د_مرکز_ځای__موقعیت_مرکز":"چارچنار","Polling_Center_Location":"Chaar Chenar","Verification_Note":"Building","PS_Male":2,"PS_Female":2,"Map_Accuracy":"تعمیر"},"geometry":{"x":7727266.6609515585,"y":4378176.0451320633}},{"attributes":{"OBJECTID":3976,"ولایت":"تخار","Province":"TAKHAR","PC_Code":"1807099","ولسوالي":"کلفگان","District":"KALAFGAN","د_مرکز_نوم__نام_مرکز":"مکتب متوسطۀ گزستان","Polling_Center_Name":"Gazestan Secondary School","د_مرکز_ځای__موقعیت_مرکز":"گزستان","Polling_Center_Location":"Gazestan","Verification_Note":"Building","PS_Male":2,"PS_Female":2,"Map_Accuracy":"تعمیر"},"geometry":{"x":7772708.826660689,"y":4396624.5513077453}},{"attributes":{"OBJECTID":3977,"ولایت":"تخار","Province":"TAKHAR","PC_Code":"1810121","ولسوالي":"رستاق","District":"RUSTAQ","د_مرکز_نوم__نام_مرکز":"لیسه ابوالقاسم گرگانی","Polling_Center_Name":"Abul Qaasam Gorgany High School","د_مرکز_ځای__موقعیت_مرکز":"گرگان","Polling_Center_Location":"Gorgan","Verification_Note":"Building","PS_Male":2,"PS_Female":2,"Map_Accuracy":"تعمیر"},"geometry":{"x":7781011.8847649582,"y":4472731.9109530225}},{"attributes":{"OBJECTID":3978,"ولایت":"تخار","Province":"TAKHAR","PC_Code":"1811068","ولسوالي":"اشکمش","District":"ESHKAMESH","د_مرکز_نوم__نام_مرکز":"مکتب کوکه بلا ق","Polling_Center_Name":"Koka Balaq School","د_مرکز_ځای__موقعیت_مرکز":"کوکه بلا ق","Polling_Center_Location":"Koka Balaq","Verification_Note":"Building","PS_Male":2,"PS_Female":2,"Map_Accuracy":"تعمیر"},"geometry":{"x":7708675.7182221711,"y":4343689.165628396}},{"attributes":{"OBJECTID":3979,"ولایت":"تخار","Province":"TAKHAR","PC_Code":"1811069","ولسوالي":"اشکمش","District":"ESHKAMESH","د_مرکز_نوم__نام_مرکز":"مکتب متوسطه قينر","Polling_Center_Name":"Qenar Secondary School","د_مرکز_ځای__موقعیت_مرکز":"قينر","Polling_Center_Location":"Qenar","Verification_Note":"Building","PS_Male":3,"PS_Female":2,"Map_Accuracy":"تعمیر"},"geometry":{"x":7725947.3969682492,"y":4360133.8718463928}},{"attributes":{"OBJECTID":3980,"ولایت":"تخار","Province":"TAKHAR","PC_Code":"1811073","ولسوالي":"اشکمش","District":"ESHKAMESH","د_مرکز_نوم__نام_مرکز":"مسجد مرکز نو آباد","Polling_Center_Name":"Nawabad Markaz Mosque","د_مرکز_ځای__موقعیت_مرکز":"نو آباد","Polling_Center_Location":"Nawabad","Verification_Note":"Building","PS_Male":2,"PS_Female":1,"Map_Accuracy":"تعمیر"},"geometry":{"x":7729520.0646682568,"y":4358353.9864762649}},{"attributes":{"OBJECTID":3981,"ولایت":"تخار","Province":"TAKHAR","PC_Code":"1813180","ولسوالي":"ورسج","District":"WARSAJ","د_مرکز_نوم__نام_مرکز":"مکتب متوسطه پست آب","Polling_Center_Name":"Past Aab Secondary School","د_مرکز_ځای__موقعیت_مرکز":"پست آب","Polling_Center_Location":"Past Aab","Verification_Note":"Building","PS_Male":2,"PS_Female":1,"Map_Accuracy":"تعمیر"},"geometry":{"x":7788582.5407698527,"y":4339461.6912663281}},{"attributes":{"OBJECTID":3982,"ولایت":"تخار","Province":"TAKHAR","PC_Code":"1813181","ولسوالي":"ورسج","District":"WARSAJ","د_مرکز_نوم__نام_مرکز":"لیسه اشرفیه","Polling_Center_Name":"Ishrafia High School","د_مرکز_ځای__موقعیت_مرکز":"میان شهر","Polling_Center_Location":"Miyan Shahr","Verification_Note":"Building","PS_Male":2,"PS_Female":2,"Map_Accuracy":"تعمیر"},"geometry":{"x":7795113.3836751282,"y":4321452.0296882018}},{"attributes":{"OBJECTID":3983,"ولایت":"تخار","Province":"TAKHAR","PC_Code":"1816133","ولسوالي":"چا آب","District":"CHAH AB","د_مرکز_نوم__نام_مرکز":"لیسه ذکور چاه آب","Polling_Center_Name":"Chaah Aab Boys High School","د_مرکز_ځای__موقعیت_مرکز":"مرکز شهر","Polling_Center_Location":"Markaz Shahr","Verification_Note":"Building","PS_Male":4,"PS_Female":2,"Map_Accuracy":"تعمیر"},"geometry":{"x":7771082.325335566,"y":4494654.207670033}},{"attributes":{"OBJECTID":3984,"ولایت":"تخار","Province":"TAKHAR","PC_Code":"1816134","ولسوالي":"چا آب","District":"CHAH AB","د_مرکز_نوم__نام_مرکز":"مکتب ابتدائیه چاه اب","Polling_Center_Name":"Chaah Aab Primary School","د_مرکز_ځای__موقعیت_مرکز":"مرکز شهر","Polling_Center_Location":"Markaz Shahr","Verification_Note":"Building","PS_Male":3,"PS_Female":3,"Map_Accuracy":"تعمیر"},"geometry":{"x":7772223.0540063493,"y":4494253.9400537312}},{"attributes":{"OBJECTID":3985,"ولایت":"تخار","Province":"TAKHAR","PC_Code":"1816138","ولسوالي":"چا آب","District":"CHAH AB","د_مرکز_نوم__نام_مرکز":"مکتب ابتدائیه خاسار","Polling_Center_Name":"Khasaar Primary School","د_مرکز_ځای__موقعیت_مرکز":"خاسار","Polling_Center_Location":"Khasaar","Verification_Note":"Building","PS_Male":2,"PS_Female":2,"Map_Accuracy":"تعمیر"},"geometry":{"x":7772775.1586056687,"y":4508122.85540735}},{"attributes":{"OBJECTID":3986,"ولایت":"تخار","Province":"TAKHAR","PC_Code":"1817154","ولسوالي":"ینگی قلعه","District":"YANGI QALA","د_مرکز_نوم__نام_مرکز":"لیسه ایشان آباد","Polling_Center_Name":"Eshan Abad High School","د_مرکز_ځای__موقعیت_مرکز":"ایشان آباد","Polling_Center_Location":"Eshan Abad","Verification_Note":"Building","PS_Male":1,"PS_Female":1,"Map_Accuracy":"تعمیر"},"geometry":{"x":7746243.3591123894,"y":4512322.141550459}},{"attributes":{"OBJECTID":3987,"ولایت":"کندز","Province":"KUNDUZ","PC_Code":"1901001","ولسوالي":"کندز","District":"KUNDUZ","د_مرکز_نوم__نام_مرکز":"مسجد جامع تخارستان","Polling_Center_Name":"Takharestan Mosque","د_مرکز_ځای__موقعیت_مرکز":"ناحیه دوم","Polling_Center_Location":"D02 - Nahia 2","Verification_Note":"Building","PS_Male":6,"PS_Female":0,"Map_Accuracy":"تعمیر"},"geometry":{"x":7665683.4173198715,"y":4400927.9226249829}},{"attributes":{"OBJECTID":3988,"ولایت":"کندز","Province":"KUNDUZ","PC_Code":"1901005","ولسوالي":"کندز","District":"KUNDUZ","د_مرکز_نوم__نام_مرکز":"شرکت سپین زر","Polling_Center_Name":"Speen Zar Company","د_مرکز_ځای__موقعیت_مرکز":"ناحیه سوم","Polling_Center_Location":"D03 - Nahia 3","Verification_Note":"Building","PS_Male":2,"PS_Female":2,"Map_Accuracy":"تعمیر"},"geometry":{"x":7665137.2527285814,"y":4401288.3389204592}},{"attributes":{"OBJECTID":3989,"ولایت":"کندز","Province":"KUNDUZ","PC_Code":"1901022","ولسوالي":"کندز","District":"KUNDUZ","د_مرکز_نوم__نام_مرکز":"لیسه بته کشان","Polling_Center_Name":"Bota Kashan High School","د_مرکز_ځای__موقعیت_مرکز":"قریه بته کشان","Polling_Center_Location":"Bota Kashan Village","Verification_Note":"Building","PS_Male":2,"PS_Female":2,"Map_Accuracy":"تعمیر"},"geometry":{"x":7673036.6418689527,"y":4405077.1415296942}},{"attributes":{"OBJECTID":3990,"ولایت":"کندز","Province":"KUNDUZ","PC_Code":"1901023","ولسوالي":"کندز","District":"KUNDUZ","د_مرکز_نوم__نام_مرکز":"لیسه عسقلان","Polling_Center_Name":"Asqalan High School","د_مرکز_ځای__موقعیت_مرکز":"قریه عسقلان","Polling_Center_Location":"Asqalan Village","Verification_Note":"Building","PS_Male":2,"PS_Female":2,"Map_Accuracy":"تعمیر"},"geometry":{"x":7656831.7444823161,"y":4414737.6704821661}},{"attributes":{"OBJECTID":3991,"ولایت":"کندز","Province":"KUNDUZ","PC_Code":"1901027","ولسوالي":"کندز","District":"KUNDUZ","د_مرکز_نوم__نام_مرکز":"لیسه حضرت سلطان","Polling_Center_Name":"Hazrat Sultan High School","د_مرکز_ځای__موقعیت_مرکز":"حضرت سلطان","Polling_Center_Location":"Hazrat Sultan","Verification_Note":"Building","PS_Male":4,"PS_Female":3,"Map_Accuracy":"تعمیر"},"geometry":{"x":7670964.2659081854,"y":4405590.679008916}},{"attributes":{"OBJECTID":3992,"ولایت":"کندز","Province":"KUNDUZ","PC_Code":"1901045","ولسوالي":"کندز","District":"KUNDUZ","د_مرکز_نوم__نام_مرکز":"مکتب ترنو","Polling_Center_Name":"Tarno School","د_مرکز_ځای__موقعیت_مرکز":"قریه ترنو","Polling_Center_Location":"Tarnaw Village","Verification_Note":"Building","PS_Male":2,"PS_Female":2,"Map_Accuracy":"تعمیر"},"geometry":{"x":7678492.4535273276,"y":4397812.7759997621}},{"attributes":{"OBJECTID":3993,"ولایت":"کندز","Province":"KUNDUZ","PC_Code":"1901046","ولسوالي":"کندز","District":"KUNDUZ","د_مرکز_نوم__نام_مرکز":"مکتب متوسطه باغ شرکت","Polling_Center_Name":"Bagh Shirkat Secondary School","د_مرکز_ځای__موقعیت_مرکز":"باغ شرکت","Polling_Center_Location":"Bagh Shirkat","Verification_Note":"Building","PS_Male":1,"PS_Female":2,"Map_Accuracy":"تعمیر"},"geometry":{"x":7660178.9646099955,"y":4405327.4740305915}},{"attributes":{"OBJECTID":3994,"ولایت":"کندز","Province":"KUNDUZ","PC_Code":"1902119","ولسوالي":"چاردره","District":"CHAR DARA","د_مرکز_نوم__نام_مرکز":"لیسه باسوس","Polling_Center_Name":"Basos High School","د_مرکز_ځای__موقعیت_مرکز":"منگ تیپه ","Polling_Center_Location":"Mang Tipa","Verification_Note":"Building","PS_Male":2,"PS_Female":1,"Map_Accuracy":"تعمیر"},"geometry":{"x":7652566.61055024,"y":4404966.6210644245}},{"attributes":{"OBJECTID":3995,"ولایت":"کندز","Province":"KUNDUZ","PC_Code":"1902120","ولسوالي":"چاردره","District":"CHAR DARA","د_مرکز_نوم__نام_مرکز":"مکتب قریه یتیم","Polling_Center_Name":"Yateem Village School","د_مرکز_ځای__موقعیت_مرکز":"قریه یتیم","Polling_Center_Location":"Yateem Village","Verification_Note":"Building","PS_Male":5,"PS_Female":2,"Map_Accuracy":"تعمیر"},"geometry":{"x":7660674.5968316309,"y":4402190.9386681914}},{"attributes":{"OBJECTID":3996,"ولایت":"کندز","Province":"KUNDUZ","PC_Code":"1902124","ولسوالي":"چاردره","District":"CHAR DARA","د_مرکز_نوم__نام_مرکز":"ساحه آزاد ضدران","Polling_Center_Name":"Zadran Open Space","د_مرکز_ځای__موقعیت_مرکز":"ضدران","Polling_Center_Location":"Zadran","Verification_Note":"Village","PS_Male":1,"PS_Female":1,"Map_Accuracy":"قریه"},"geometry":{"x":7653343.3178069629,"y":4400921.49769257}},{"attributes":{"OBJECTID":3997,"ولایت":"کندز","Province":"KUNDUZ","PC_Code":"1904141","ولسوالي":"خان آباد","District":"KHAN ABAD","د_مرکز_نوم__نام_مرکز":"لیسه محمد حسن میاخیل","Polling_Center_Name":"Mohammad Hassan Miakhel High School","د_مرکز_ځای__موقعیت_مرکز":"ناحیه اول","Polling_Center_Location":"D01 - Nahia 1","Verification_Note":"Building","PS_Male":4,"PS_Female":0,"Map_Accuracy":"تعمیر"},"geometry":{"x":7694398.347874891,"y":4395166.8121730015}},{"attributes":{"OBJECTID":3998,"ولایت":"کندز","Province":"KUNDUZ","PC_Code":"1904142","ولسوالي":"خان آباد","District":"KHAN ABAD","د_مرکز_نوم__نام_مرکز":"لیسه چوغه","Polling_Center_Name":"Chogha High School","د_مرکز_ځای__موقعیت_مرکز":"قریه چوغه","Polling_Center_Location":"Chogha Village","Verification_Note":"Building","PS_Male":2,"PS_Female":1,"Map_Accuracy":"تعمیر"},"geometry":{"x":7701527.0198603347,"y":4397336.8860063329}},{"attributes":{"OBJECTID":3999,"ولایت":"کندز","Province":"KUNDUZ","PC_Code":"1904157","ولسوالي":"خان آباد","District":"KHAN ABAD","د_مرکز_نوم__نام_مرکز":"مکتب زرد کمر","Polling_Center_Name":"Zard Kamar School","د_مرکز_ځای__موقعیت_مرکز":"زرد کمر","Polling_Center_Location":"Zard Kamar","Verification_Note":"Building","PS_Male":1,"PS_Female":1,"Map_Accuracy":"تعمیر"},"geometry":{"x":7683842.2656533793,"y":4389082.5484857112}}]}