{"objectIdFieldName":"OBJECTID","globalIdFieldName":"","geometryType":"esriGeometryPoint","spatialReference":{"wkid":102100,"latestWkid":3857},"fields":[{"name":"OBJECTID","type":"esriFieldTypeOID","alias":"OBJECTID","sqlType":"sqlTypeOther","domain":null,"defaultValue":null},{"name":"ولایت","type":"esriFieldTypeString","alias":"ولایت","sqlType":"sqlTypeOther","length":255,"domain":null,"defaultValue":null},{"name":"Province","type":"esriFieldTypeString","alias":"Province","sqlType":"sqlTypeOther","length":255,"domain":null,"defaultValue":null},{"name":"PC_Code","type":"esriFieldTypeString","alias":"PC_Code","sqlType":"sqlTypeOther","length":255,"domain":null,"defaultValue":null},{"name":"ولسوالي","type":"esriFieldTypeString","alias":"ولسوالي","sqlType":"sqlTypeOther","length":255,"domain":null,"defaultValue":null},{"name":"District","type":"esriFieldTypeString","alias":"District","sqlType":"sqlTypeOther","length":255,"domain":null,"defaultValue":null},{"name":"د_مرکز_نوم__نام_مرکز","type":"esriFieldTypeString","alias":"د_مرکز_نوم__نام_مرکز","sqlType":"sqlTypeOther","length":255,"domain":null,"defaultValue":null},{"name":"Polling_Center_Name","type":"esriFieldTypeString","alias":"Polling_Center_Name","sqlType":"sqlTypeOther","length":255,"domain":null,"defaultValue":null},{"name":"د_مرکز_ځای__موقعیت_مرکز","type":"esriFieldTypeString","alias":"د_مرکز_ځای__موقعیت_مرکز","sqlType":"sqlTypeOther","length":255,"domain":null,"defaultValue":null},{"name":"Polling_Center_Location","type":"esriFieldTypeString","alias":"Polling_Center_Location","sqlType":"sqlTypeOther","length":255,"domain":null,"defaultValue":null},{"name":"Verification_Note","type":"esriFieldTypeString","alias":"Verification_Note","sqlType":"sqlTypeOther","length":250,"domain":null,"defaultValue":null},{"name":"PS_Male","type":"esriFieldTypeSmallInteger","alias":"PS_Male","sqlType":"sqlTypeOther","domain":null,"defaultValue":null},{"name":"PS_Female","type":"esriFieldTypeSmallInteger","alias":"PS_Female","sqlType":"sqlTypeOther","domain":null,"defaultValue":null},{"name":"Map_Accuracy","type":"esriFieldTypeString","alias":"Map_Accuracy","sqlType":"sqlTypeOther","length":10,"domain":null,"defaultValue":null}],"features":[{"attributes":{"OBJECTID":4200,"ولایت":"هرات","Province":"HERAT","PC_Code":"3201024","ولسوالي":"هرات","District":"HERAT","د_مرکز_نوم__نام_مرکز":"مسجد جامع گازرگاه","Polling_Center_Name":"Guzarga  Mosque","د_مرکز_ځای__موقعیت_مرکز":" ناحیه هشتم","Polling_Center_Location":"D08 - Nahia 8","Verification_Note":"Building","PS_Male":3,"PS_Female":3,"Map_Accuracy":"تعمیر"},"geometry":{"x":6928583.7845901512,"y":4079166.0449364185}},{"attributes":{"OBJECTID":4201,"ولایت":"هرات","Province":"HERAT","PC_Code":"3201028","ولسوالي":"هرات","District":"HERAT","د_مرکز_نوم__نام_مرکز":"مكتب بابا زنگي عطا","Polling_Center_Name":"Baba Zangi Ata School","د_مرکز_ځای__موقعیت_مرکز":" ناحیه نهم","Polling_Center_Location":"D09 - Nahia 9","Verification_Note":"Village","PS_Male":4,"PS_Female":4,"Map_Accuracy":"قریه"},"geometry":{"x":6921751.9694039971,"y":4077048.4525727704}},{"attributes":{"OBJECTID":4202,"ولایت":"هرات","Province":"HERAT","PC_Code":"3202035","ولسوالي":"انجیل","District":"ENJIL","د_مرکز_نوم__نام_مرکز":"مسجد شهداء کارته","Polling_Center_Name":"Karti-e-Shohada Mosque ","د_مرکز_ځای__موقعیت_مرکز":"کارته ","Polling_Center_Location":"Karta","Verification_Note":"Building","PS_Male":2,"PS_Female":3,"Map_Accuracy":"تعمیر"},"geometry":{"x":6925275.593075946,"y":4072204.0571588278}},{"attributes":{"OBJECTID":4203,"ولایت":"هرات","Province":"HERAT","PC_Code":"3202036","ولسوالي":"انجیل","District":"ENJIL","د_مرکز_نوم__نام_مرکز":"مسجد شیمان","Polling_Center_Name":"Sheman Mosque","د_مرکز_ځای__موقعیت_مرکز":" قریه شیمان","Polling_Center_Location":"Sheman Village ","Verification_Note":"Building","PS_Male":2,"PS_Female":1,"Map_Accuracy":"تعمیر"},"geometry":{"x":6920479.7846597321,"y":4071746.9678126276}},{"attributes":{"OBJECTID":4204,"ولایت":"هرات","Province":"HERAT","PC_Code":"3202041","ولسوالي":"انجیل","District":"ENJIL","د_مرکز_نوم__نام_مرکز":"مکتب متوسطه دخترانه سفید روان","Polling_Center_Name":"Safid Rawan Gilrs Secondary School ","د_مرکز_ځای__موقعیت_مرکز":" قریه سفید روان","Polling_Center_Location":"Safid Rawan Village","Verification_Note":"Building","PS_Male":2,"PS_Female":1,"Map_Accuracy":"تعمیر"},"geometry":{"x":6916676.7757825628,"y":4079660.20356448}},{"attributes":{"OBJECTID":4205,"ولایت":"هرات","Province":"HERAT","PC_Code":"3203096","ولسوالي":"گذره","District":"GUZARA","د_مرکز_نوم__نام_مرکز":"لیسه زیارت جا ","Polling_Center_Name":"Zeyarat Ja High School ","د_مرکز_ځای__موقعیت_مرکز":"زیارت جا","Polling_Center_Location":"Zeyarat Ja","Verification_Note":"Building","PS_Male":3,"PS_Female":1,"Map_Accuracy":"تعمیر"},"geometry":{"x":6917270.0329712369,"y":4055316.2341954708}},{"attributes":{"OBJECTID":4206,"ولایت":"هرات","Province":"HERAT","PC_Code":"3203101","ولسوالي":"گذره","District":"GUZARA","د_مرکز_نوم__نام_مرکز":"مسجد جامع کول","Polling_Center_Name":"Kool Mosque ","د_مرکز_ځای__موقعیت_مرکز":"قریه کول","Polling_Center_Location":"Kool Village","Verification_Note":"Building","PS_Male":1,"PS_Female":1,"Map_Accuracy":"تعمیر"},"geometry":{"x":6946180.2579881139,"y":4061347.628428407}},{"attributes":{"OBJECTID":4207,"ولایت":"هرات","Province":"HERAT","PC_Code":"3203102","ولسوالي":"گذره","District":"GUZARA","د_مرکز_نوم__نام_مرکز":"مکتب ابتدایی رباط سفچی","Polling_Center_Name":"Rubat Safchi Primary School ","د_مرکز_ځای__موقعیت_مرکز":"قریه رباط سفچی","Polling_Center_Location":"Rubat Safchi Village ","Verification_Note":"Building","PS_Male":1,"PS_Female":1,"Map_Accuracy":"تعمیر"},"geometry":{"x":6937061.0031509623,"y":4045831.5698414296}},{"attributes":{"OBJECTID":4208,"ولایت":"هرات","Province":"HERAT","PC_Code":"3204150","ولسوالي":"کرخ ","District":"KARRUKH","د_مرکز_نوم__نام_مرکز":"مکتب قلعه شربت ","Polling_Center_Name":"Qala-e -Sharbat School ","د_مرکز_ځای__موقعیت_مرکز":"قریه قلعه شربت ","Polling_Center_Location":"Qala-e- Sharbat Village ","Verification_Note":"Building","PS_Male":2,"PS_Female":1,"Map_Accuracy":"تعمیر"},"geometry":{"x":6972856.7628006712,"y":4098109.5173933357}},{"attributes":{"OBJECTID":4209,"ولایت":"هرات","Province":"HERAT","PC_Code":"3204442","ولسوالي":"کرخ ","District":"KARRUKH","د_مرکز_نوم__نام_مرکز":"مكتب ارملق","Polling_Center_Name":"Armalaq School ","د_مرکز_ځای__موقعیت_مرکز":"ارملق ","Polling_Center_Location":"Armalaq ","Verification_Note":"Building","PS_Male":1,"PS_Female":1,"Map_Accuracy":"تعمیر"},"geometry":{"x":6994121.3726071529,"y":4103621.7904276997}},{"attributes":{"OBJECTID":4210,"ولایت":"هرات","Province":"HERAT","PC_Code":"3206130","ولسوالي":"پشتون زرغون","District":"PASHTUN ZARGHUN","د_مرکز_نوم__نام_مرکز":"مکتب سر آب ","Polling_Center_Name":"Saraab School ","د_مرکز_ځای__موقعیت_مرکز":"قریه سرآب ","Polling_Center_Location":"Saraab Village ","Verification_Note":"Building","PS_Male":1,"PS_Female":1,"Map_Accuracy":"تعمیر"},"geometry":{"x":6959116.5312603526,"y":4064619.3007423058}},{"attributes":{"OBJECTID":4211,"ولایت":"هرات","Province":"HERAT","PC_Code":"3206131","ولسوالي":"پشتون زرغون","District":"PASHTUN ZARGHUN","د_مرکز_نوم__نام_مرکز":"مکتب سلیمی ","Polling_Center_Name":"Salimi School ","د_مرکز_ځای__موقعیت_مرکز":"قریه سلیمی ","Polling_Center_Location":"Salimi Village ","Verification_Note":"Building","PS_Male":1,"PS_Female":1,"Map_Accuracy":"تعمیر"},"geometry":{"x":6957347.3528570794,"y":4063361.4457447231}},{"attributes":{"OBJECTID":4212,"ولایت":"هرات","Province":"HERAT","PC_Code":"3206145","ولسوالي":"پشتون زرغون","District":"PASHTUN ZARGHUN","د_مرکز_نوم__نام_مرکز":"مسجد کارو","Polling_Center_Name":"Karo Mosque","د_مرکز_ځای__موقعیت_مرکز":"قریه کارو","Polling_Center_Location":"Karo Village ","Verification_Note":"Building","PS_Male":1,"PS_Female":1,"Map_Accuracy":"تعمیر"},"geometry":{"x":6983979.8107735105,"y":4048817.8116093054}},{"attributes":{"OBJECTID":4213,"ولایت":"هرات","Province":"HERAT","PC_Code":"3206146","ولسوالي":"پشتون زرغون","District":"PASHTUN ZARGHUN","د_مرکز_نوم__نام_مرکز":"مسجد خسرو ","Polling_Center_Name":"Khesrow Mosque ","د_مرکز_ځای__موقعیت_مرکز":"قریه خسرو","Polling_Center_Location":"Khesrow Village ","Verification_Note":"Building","PS_Male":1,"PS_Female":1,"Map_Accuracy":"تعمیر"},"geometry":{"x":6972652.1052564234,"y":4049048.22066094}},{"attributes":{"OBJECTID":4214,"ولایت":"هرات","Province":"HERAT","PC_Code":"3206440","ولسوالي":"پشتون زرغون","District":"PASHTUN ZARGHUN","د_مرکز_نوم__نام_مرکز":"مکتب ابتدائی کشک سیروان ","Polling_Center_Name":"Kashak Sairwan Primary School","د_مرکز_ځای__موقعیت_مرکز":"سیروان ","Polling_Center_Location":"Sairawan ","Verification_Note":"Building","PS_Male":1,"PS_Female":1,"Map_Accuracy":"تعمیر"},"geometry":{"x":6977446.6023290418,"y":4062017.6742301956}},{"attributes":{"OBJECTID":4215,"ولایت":"هرات","Province":"HERAT","PC_Code":"3207177","ولسوالي":"کشک (رباط سنگی)","District":"KUSHK (RUBAT-E-SANGI)","د_مرکز_نوم__نام_مرکز":"مكتب دوغی قنات وكيل","Polling_Center_Name":"Doghi Qanat Wakil School ","د_مرکز_ځای__موقعیت_مرکز":"قریه دوغی قنات وكيل","Polling_Center_Location":"Doghi Qanat Wakil Village ","Verification_Note":"Building","PS_Male":2,"PS_Female":1,"Map_Accuracy":"تعمیر"},"geometry":{"x":6923156.91488618,"y":4160824.2967980653}},{"attributes":{"OBJECTID":4216,"ولایت":"هرات","Province":"HERAT","PC_Code":"3207181","ولسوالي":"کشک (رباط سنگی)","District":"KUSHK (RUBAT-E-SANGI)","د_مرکز_نوم__نام_مرکز":"مسجد قلعه سفید ایوبی","Polling_Center_Name":"Qala-e- safed Ayoubi Mosque ","د_مرکز_ځای__موقعیت_مرکز":" قلعه سفید ایوبی","Polling_Center_Location":"Qala -e- Safid Ayoubi","Verification_Note":"Building","PS_Male":1,"PS_Female":1,"Map_Accuracy":"تعمیر"},"geometry":{"x":6906835.0340730622,"y":4141287.369601734}},{"attributes":{"OBJECTID":4217,"ولایت":"هرات","Province":"HERAT","PC_Code":"3207443","ولسوالي":"کشک (رباط سنگی)","District":"KUSHK (RUBAT-E-SANGI)","د_مرکز_نوم__نام_مرکز":"مكتب شرخليل","Polling_Center_Name":"Shar Khalil School","د_مرکز_ځای__موقعیت_مرکز":"شر خلیل ","Polling_Center_Location":"Shar Khalil ","Verification_Note":"Village","PS_Male":1,"PS_Female":1,"Map_Accuracy":"قریه"},"geometry":{"x":6934786.6936338916,"y":4171733.6184758618}},{"attributes":{"OBJECTID":4218,"ولایت":"هرات","Province":"HERAT","PC_Code":"3208197","ولسوالي":"گلران ","District":"GULRAN","د_مرکز_نوم__نام_مرکز":"مسجد آسیاب دیو","Polling_Center_Name":"Asyab Deu Mosque ","د_مرکز_ځای__موقعیت_مرکز":"قریه  آسیاب دیو","Polling_Center_Location":"Asyab Deu Village ","Verification_Note":"Village","PS_Male":2,"PS_Female":1,"Map_Accuracy":"قریه"},"geometry":{"x":6866900.78422318,"y":4153786.7241365165}},{"attributes":{"OBJECTID":4219,"ولایت":"هرات","Province":"HERAT","PC_Code":"3208198","ولسوالي":"گلران ","District":"GULRAN","د_مرکز_نوم__نام_مرکز":"کلینیک گلران خاوگیانی","Polling_Center_Name":"Gulran khawgiani Clinic","د_مرکز_ځای__موقعیت_مرکز":" گلران خاوگیانی","Polling_Center_Location":"Gulran khawgiani","Verification_Note":"Village","PS_Male":3,"PS_Female":2,"Map_Accuracy":"قریه"},"geometry":{"x":6866791.9749869034,"y":4177190.9304622039}},{"attributes":{"OBJECTID":4220,"ولایت":"هرات","Province":"HERAT","PC_Code":"3208214","ولسوالي":"گلران ","District":"GULRAN","د_مرکز_نوم__نام_مرکز":"مسجد درخت توت","Polling_Center_Name":"Darakht-e- Toot  Mosque","د_مرکز_ځای__موقعیت_مرکز":" درخت توت","Polling_Center_Location":"Darakht-e- Tot","Verification_Note":"Village","PS_Male":2,"PS_Female":1,"Map_Accuracy":"قریه"},"geometry":{"x":6833855.523249913,"y":4197321.9389291629}},{"attributes":{"OBJECTID":4221,"ولایت":"هرات","Province":"HERAT","PC_Code":"3208215","ولسوالي":"گلران ","District":"GULRAN","د_مرکز_نوم__نام_مرکز":"کلینیک لهراب","Polling_Center_Name":"Lahrab Clinic","د_مرکز_ځای__موقعیت_مرکز":" لهراب","Polling_Center_Location":"Lahrab","Verification_Note":"Village","PS_Male":1,"PS_Female":1,"Map_Accuracy":"قریه"},"geometry":{"x":6841517.8809117265,"y":4209453.9347007722}},{"attributes":{"OBJECTID":4222,"ولایت":"هرات","Province":"HERAT","PC_Code":"3208219","ولسوالي":"گلران ","District":"GULRAN","د_مرکز_نوم__نام_مرکز":"مسجد سیاه خوال","Polling_Center_Name":"Seya Khoal Mosque ","د_مرکز_ځای__موقعیت_مرکز":"سیاه خوال","Polling_Center_Location":"Sia khoal","Verification_Note":"Village","PS_Male":1,"PS_Female":1,"Map_Accuracy":"قریه"},"geometry":{"x":6896602.0989749916,"y":4207793.8885163665}},{"attributes":{"OBJECTID":4223,"ولایت":"هرات","Province":"HERAT","PC_Code":"3209281","ولسوالي":"ادرسکن ","District":"ADRASKAN","د_مرکز_نوم__نام_مرکز":"مسجد کارتون","Polling_Center_Name":"Kartoon Mosque ","د_مرکز_ځای__موقعیت_مرکز":" کارتون","Polling_Center_Location":"Kartoon ","Verification_Note":"Building","PS_Male":1,"PS_Female":1,"Map_Accuracy":"تعمیر"},"geometry":{"x":6971971.2763639353,"y":4002906.4798006564}},{"attributes":{"OBJECTID":4224,"ولایت":"هرات","Province":"HERAT","PC_Code":"3209282","ولسوالي":"ادرسکن ","District":"ADRASKAN","د_مرکز_نوم__نام_مرکز":"مسجد هامش افغانی","Polling_Center_Name":"Hamsh Afghani Mosque ","د_مرکز_ځای__موقعیت_مرکز":"قریه هامش","Polling_Center_Location":"Hamsh Village ","Verification_Note":"Village","PS_Male":1,"PS_Female":1,"Map_Accuracy":"قریه"},"geometry":{"x":6982766.8958657235,"y":3962305.4861942381}},{"attributes":{"OBJECTID":4225,"ولایت":"هرات","Province":"HERAT","PC_Code":"3209286","ولسوالي":"ادرسکن ","District":"ADRASKAN","د_مرکز_نوم__نام_مرکز":"مسجد نگل","Polling_Center_Name":"Nigl Mosque ","د_مرکز_ځای__موقعیت_مرکز":" نگل","Polling_Center_Location":"Nigl ","Verification_Note":"Building","PS_Male":1,"PS_Female":1,"Map_Accuracy":"تعمیر"},"geometry":{"x":6946352.0896409154,"y":3962866.4068507925}},{"attributes":{"OBJECTID":4226,"ولایت":"هرات","Province":"HERAT","PC_Code":"3210405","ولسوالي":"کشک کهنه ","District":"KUSHK-E-KUHNA","د_مرکز_نوم__نام_مرکز":"مسجد بازار کهنه","Polling_Center_Name":"Bazar-e- Kuhna Mosque","د_مرکز_ځای__موقعیت_مرکز":"بازار کهنه ","Polling_Center_Location":"Bazar-e- Kuhna ","Verification_Note":"Building","PS_Male":5,"PS_Female":1,"Map_Accuracy":"تعمیر"},"geometry":{"x":6958380.3309399411,"y":4146434.0583228543}},{"attributes":{"OBJECTID":4227,"ولایت":"هرات","Province":"HERAT","PC_Code":"3211245","ولسوالي":"غوریان ","District":"GHORYAN","د_مرکز_نوم__نام_مرکز":"مکتب دخترانه","Polling_Center_Name":"Girls School ","د_مرکز_ځای__موقعیت_مرکز":"مرکز ولسوالی سرک شفاخانه ","Polling_Center_Location":"District Center Hospitol Road","Verification_Note":"Building","PS_Male":3,"PS_Female":1,"Map_Accuracy":"تعمیر"},"geometry":{"x":6845162.0914220847,"y":4075517.98572208}},{"attributes":{"OBJECTID":4228,"ولایت":"هرات","Province":"HERAT","PC_Code":"3211250","ولسوالي":"غوریان ","District":"GHORYAN","د_مرکز_نوم__نام_مرکز":"مسجد جامع برنآباد مردانه","Polling_Center_Name":"Barna Abad Mardana Mosque","د_مرکز_ځای__موقعیت_مرکز":"قریه برنآباد","Polling_Center_Location":"Barnabad Village","Verification_Note":"Building","PS_Male":2,"PS_Female":0,"Map_Accuracy":"تعمیر"},"geometry":{"x":6856128.8067548312,"y":4080160.5331960544}},{"attributes":{"OBJECTID":4229,"ولایت":"هرات","Province":"HERAT","PC_Code":"3211251","ولسوالي":"غوریان ","District":"GHORYAN","د_مرکز_نوم__نام_مرکز":"مسجد جامع روج","Polling_Center_Name":"Rooj  Mosque","د_مرکز_ځای__موقعیت_مرکز":"قریه روج","Polling_Center_Location":"Rooj Village","Verification_Note":"Building","PS_Male":2,"PS_Female":1,"Map_Accuracy":"تعمیر"},"geometry":{"x":6853692.6631884463,"y":4084048.3131661341}},{"attributes":{"OBJECTID":4230,"ولایت":"هرات","Province":"HERAT","PC_Code":"3212370","ولسوالي":"اوبه ","District":"OBE","د_مرکز_نوم__نام_مرکز":"مسجد جامع کرغوض","Polling_Center_Name":"Kar Ghawz Mosque ","د_مرکز_ځای__موقعیت_مرکز":"کر غوض ","Polling_Center_Location":"Kar Ghawz","Verification_Note":"Building","PS_Male":2,"PS_Female":1,"Map_Accuracy":"تعمیر"},"geometry":{"x":7052941.5273279771,"y":4079232.4092263207}},{"attributes":{"OBJECTID":4231,"ولایت":"هرات","Province":"HERAT","PC_Code":"3212383","ولسوالي":"اوبه ","District":"OBE","د_مرکز_نوم__نام_مرکز":"مکتب چناران زنانه","Polling_Center_Name":"Chenarana Girls School ","د_مرکز_ځای__موقعیت_مرکز":"قریه چناران","Polling_Center_Location":"Chenaran Village","Verification_Note":"Building","PS_Male":0,"PS_Female":3,"Map_Accuracy":"تعمیر"},"geometry":{"x":7012125.2308136225,"y":4063885.7289765254}},{"attributes":{"OBJECTID":4232,"ولایت":"هرات","Province":"HERAT","PC_Code":"3212384","ولسوالي":"اوبه ","District":"OBE","د_مرکز_نوم__نام_مرکز":"مکتب پسرانه ناب","Polling_Center_Name":"Nab Boys School ","د_مرکز_ځای__موقعیت_مرکز":"ناب ","Polling_Center_Location":"Nab ","Verification_Note":"Village","PS_Male":2,"PS_Female":1,"Map_Accuracy":"قریه"},"geometry":{"x":7041214.2839132957,"y":4078039.2764245644}},{"attributes":{"OBJECTID":4233,"ولایت":"هرات","Province":"HERAT","PC_Code":"3212388","ولسوالي":"اوبه ","District":"OBE","د_مرکز_نوم__نام_مرکز":"مکتب سرا پرده","Polling_Center_Name":"Sara Pardah School ","د_مرکز_ځای__موقعیت_مرکز":"سرا پرده ","Polling_Center_Location":"Sara Pardah ","Verification_Note":"Village","PS_Male":1,"PS_Female":1,"Map_Accuracy":"قریه"},"geometry":{"x":7043036.7965978086,"y":4077847.5918595791}},{"attributes":{"OBJECTID":4234,"ولایت":"هرات","Province":"HERAT","PC_Code":"3214299","ولسوالي":"شیندند","District":"SHINDAND","د_مرکز_نوم__نام_مرکز":"صحت عامه","Polling_Center_Name":"Public Health","د_مرکز_ځای__موقعیت_مرکز":"تحت بازار","Polling_Center_Location":"Takht-e-Bazar","Verification_Note":"Building","PS_Male":0,"PS_Female":3,"Map_Accuracy":"تعمیر"},"geometry":{"x":6919695.2739066966,"y":3936185.0035073459}},{"attributes":{"OBJECTID":4235,"ولایت":"هرات","Province":"HERAT","PC_Code":"3214316","ولسوالي":"شیندند","District":"SHINDAND","د_مرکز_نوم__نام_مرکز":"مسجد جامع مندل","Polling_Center_Name":"Mandil Mosque ","د_مرکز_ځای__موقعیت_مرکز":"قریه مندل","Polling_Center_Location":"Mandil Village ","Verification_Note":"Building","PS_Male":2,"PS_Female":2,"Map_Accuracy":"تعمیر"},"geometry":{"x":6886383.118888285,"y":3932199.3500051051}},{"attributes":{"OBJECTID":4236,"ولایت":"هرات","Province":"HERAT","PC_Code":"3214317","ولسوالي":"شیندند","District":"SHINDAND","د_مرکز_نوم__نام_مرکز":"مسجد قلعه پایین اوکل","Polling_Center_Name":"Qala-e- paheem Okil Mosque ","د_مرکز_ځای__موقعیت_مرکز":" قلعه پایین اوکل","Polling_Center_Location":"Qala-e-Paheen Okil ","Verification_Note":"Building","PS_Male":1,"PS_Female":1,"Map_Accuracy":"تعمیر"},"geometry":{"x":6893903.0966949835,"y":3930928.0402121171}},{"attributes":{"OBJECTID":4237,"ولایت":"هرات","Province":"HERAT","PC_Code":"3214321","ولسوالي":"شیندند","District":"SHINDAND","د_مرکز_نوم__نام_مرکز":"مسجد سنگبر","Polling_Center_Name":"Sangbar Mosque ","د_مرکز_ځای__موقعیت_مرکز":"سنگبر ","Polling_Center_Location":"Sangbar ","Verification_Note":"Building","PS_Male":1,"PS_Female":2,"Map_Accuracy":"تعمیر"},"geometry":{"x":6907536.5049387366,"y":3956238.9187183678}},{"attributes":{"OBJECTID":4238,"ولایت":"هرات","Province":"HERAT","PC_Code":"3215357","ولسوالي":"فرسی ","District":"FERSI","د_مرکز_نوم__نام_مرکز":"تعمیر شورای انکشافی","Polling_Center_Name":"Shura-e- Ankishafi Building","د_مرکز_ځای__موقعیت_مرکز":"قریه سفیدان ","Polling_Center_Location":"Safidan Village ","Verification_Note":"Village","PS_Male":1,"PS_Female":2,"Map_Accuracy":"قریه"},"geometry":{"x":7049059.1565594412,"y":4016023.5352954566}},{"attributes":{"OBJECTID":4239,"ولایت":"هرات","Province":"HERAT","PC_Code":"3215358","ولسوالي":"فرسی ","District":"FERSI","د_مرکز_نوم__نام_مرکز":"مسجد دهن جر","Polling_Center_Name":"Dahan-e-Jar Mosque ","د_مرکز_ځای__موقعیت_مرکز":"دهن جر برپل ","Polling_Center_Location":"Dahan Jar-e-Bar Pul ","Verification_Note":"Village","PS_Male":2,"PS_Female":1,"Map_Accuracy":"قریه"},"geometry":{"x":7053379.1598685272,"y":4022914.3224102184}},{"attributes":{"OBJECTID":4240,"ولایت":"هرات","Province":"HERAT","PC_Code":"3216402","ولسوالي":"چشت شریف","District":"CHISHT-E-SHARIF","د_مرکز_نوم__نام_مرکز":"مسجد رغواجه","Polling_Center_Name":"Rghwaja Mosque","د_مرکز_ځای__موقعیت_مرکز":"رغواجه ","Polling_Center_Location":"Rghwaja","Verification_Note":"Building","PS_Male":1,"PS_Female":1,"Map_Accuracy":"تعمیر"},"geometry":{"x":7065064.4146844782,"y":4078322.0649024472}},{"attributes":{"OBJECTID":4241,"ولایت":"هرات","Province":"HERAT","PC_Code":"3216403","ولسوالي":"چشت شریف","District":"CHISHT-E-SHARIF","د_مرکز_نوم__نام_مرکز":"فضای باز مسجد مرغه","Polling_Center_Name":"Margha Mosque Open Space","د_مرکز_ځای__موقعیت_مرکز":"مرغه ","Polling_Center_Location":"Margha","Verification_Note":"Village","PS_Male":1,"PS_Female":2,"Map_Accuracy":"قریه"},"geometry":{"x":7117042.2356404737,"y":4070999.4875306115}},{"attributes":{"OBJECTID":4242,"ولایت":" فراه","Province":"FARAH","PC_Code":"3301002","ولسوالي":"فراه","District":"FARAH","د_مرکز_نوم__نام_مرکز":" لیسه ابونصرفراهی","Polling_Center_Name":"Abu Nasr Farahi High School","د_مرکز_ځای__موقعیت_مرکز":"مرکز ( شهر فراه )","Polling_Center_Location":"Farah City","Verification_Note":"Building","PS_Male":3,"PS_Female":1,"Map_Accuracy":"تعمیر"},"geometry":{"x":6915408.7844435051,"y":3812583.9609112963}},{"attributes":{"OBJECTID":4243,"ولایت":" فراه","Province":"FARAH","PC_Code":"3301003","ولسوالي":"فراه","District":"FARAH","د_مرکز_نوم__نام_مرکز":"انستیتوت زراعت","Polling_Center_Name":"Agriculture Institute","د_مرکز_ځای__موقعیت_مرکز":"مرکز ( شهر فراه )","Polling_Center_Location":"Farah City","Verification_Note":"Building","PS_Male":3,"PS_Female":1,"Map_Accuracy":"تعمیر"},"geometry":{"x":6913682.5074587874,"y":3812599.8779157028}},{"attributes":{"OBJECTID":4244,"ولایت":" فراه","Province":"FARAH","PC_Code":"3301020","ولسوالي":"فراه","District":"FARAH","د_مرکز_نوم__نام_مرکز":"لیسه نسوان شهید بنفشه ","Polling_Center_Name":"Shaheed Benafsha Girls High School","د_مرکز_ځای__موقعیت_مرکز":"تویسک ","Polling_Center_Location":"Towisak ","Verification_Note":"Building","PS_Male":3,"PS_Female":1,"Map_Accuracy":"تعمیر"},"geometry":{"x":6901031.2432524376,"y":3790622.3961038962}},{"attributes":{"OBJECTID":4245,"ولایت":" فراه","Province":"FARAH","PC_Code":"3301021","ولسوالي":"فراه","District":"FARAH","د_مرکز_نوم__نام_مرکز":"مسجد کوک شیب","Polling_Center_Name":"Kok Sheeb Mosque","د_مرکز_ځای__موقعیت_مرکز":"کوک شیب","Polling_Center_Location":"Kok Sheeb","Verification_Note":"Building","PS_Male":3,"PS_Female":1,"Map_Accuracy":"تعمیر"},"geometry":{"x":6898849.9077740759,"y":3792399.1527834162}},{"attributes":{"OBJECTID":4246,"ولایت":" فراه","Province":"FARAH","PC_Code":"3301025","ولسوالي":"فراه","District":"FARAH","د_مرکز_نوم__نام_مرکز":"مکتب متوسطه ","Polling_Center_Name":"Secondary School","د_مرکز_ځای__موقعیت_مرکز":"ریگی کلان مکتب متوسطه ","Polling_Center_Location":"Regi Kalan","Verification_Note":"Building","PS_Male":2,"PS_Female":2,"Map_Accuracy":"تعمیر"},"geometry":{"x":6914951.8524428457,"y":3817348.6003181785}},{"attributes":{"OBJECTID":4247,"ولایت":" فراه","Province":"FARAH","PC_Code":"3302049","ولسوالي":"پشت رود","District":"PUSHTRUD","د_مرکز_نوم__نام_مرکز":"مسجد خطیبان ","Polling_Center_Name":"Khatiban Mosque ","د_مرکز_ځای__موقعیت_مرکز":"قریه خطیبان ","Polling_Center_Location":"Khatiban Village ","Verification_Note":"Building","PS_Male":2,"PS_Female":1,"Map_Accuracy":"تعمیر"},"geometry":{"x":6909539.3999487683,"y":3819682.2172506005}},{"attributes":{"OBJECTID":4248,"ولایت":" فراه","Province":"FARAH","PC_Code":"3303236","ولسوالي":"خاک سفید ","District":"KHAK-E-SAFED","د_مرکز_نوم__نام_مرکز":"مسجد مهرآباد ","Polling_Center_Name":"Mehr Abad Mosque","د_مرکز_ځای__موقعیت_مرکز":"مهر آباد","Polling_Center_Location":"Mehr Abad ","Verification_Note":"Building","PS_Male":1,"PS_Female":1,"Map_Accuracy":"تعمیر"},"geometry":{"x":6894928.0864911973,"y":3871601.9298465252}},{"attributes":{"OBJECTID":4249,"ولایت":" فراه","Province":"FARAH","PC_Code":"3305090","ولسوالي":"شیب کوه ","District":"SHIB KOH","د_مرکز_نوم__نام_مرکز":"لیسه دوره جوی","Polling_Center_Name":"Dawra Joy High School ","د_مرکز_ځای__موقعیت_مرکز":"لیسه دوره جوی","Polling_Center_Location":"Dawra Joy ","Verification_Note":"Building","PS_Male":1,"PS_Female":1,"Map_Accuracy":"تعمیر"},"geometry":{"x":6885017.7385795154,"y":3786340.6130080223}},{"attributes":{"OBJECTID":4250,"ولایت":" فراه","Province":"FARAH","PC_Code":"3305091","ولسوالي":"شیب کوه ","District":"SHIB KOH","د_مرکز_نوم__نام_مرکز":"مکتب ابتدائیه","Polling_Center_Name":"Ilyas Abad Primary School ","د_مرکز_ځای__موقعیت_مرکز":"الیاس باد","Polling_Center_Location":"Ilyas Abad","Verification_Note":"Building","PS_Male":2,"PS_Female":1,"Map_Accuracy":"تعمیر"},"geometry":{"x":6888916.0770158246,"y":3785118.1144463122}},{"attributes":{"OBJECTID":4251,"ولایت":" فراه","Province":"FARAH","PC_Code":"3307069","ولسوالي":"انار دره ","District":"ANAR DARA","د_مرکز_نوم__نام_مرکز":"مسجد پدهی","Polling_Center_Name":"Padhe Mosque","د_مرکز_ځای__موقعیت_مرکز":"پدهی","Polling_Center_Location":"Padhe","Verification_Note":"Village","PS_Male":1,"PS_Female":1,"Map_Accuracy":"قریه"},"geometry":{"x":6823981.97867509,"y":3855662.3978784755}},{"attributes":{"OBJECTID":4252,"ولایت":" فراه","Province":"FARAH","PC_Code":"3307070","ولسوالي":"انار دره ","District":"ANAR DARA","د_مرکز_نوم__نام_مرکز":"مسجد دغال","Polling_Center_Name":"Daghal Mosque","د_مرکز_ځای__موقعیت_مرکز":"دغال","Polling_Center_Location":"Daghal ","Verification_Note":"Village","PS_Male":1,"PS_Female":1,"Map_Accuracy":"قریه"},"geometry":{"x":6840904.4915931486,"y":3869008.4051472545}},{"attributes":{"OBJECTID":4253,"ولایت":" فراه","Province":"FARAH","PC_Code":"3308110","ولسوالي":"بکواه","District":"BAKWA","د_مرکز_نوم__نام_مرکز":" مکتب ابتدائیه ملانواب ","Polling_Center_Name":"Mulla Nawab Neka Primary School ","د_مرکز_ځای__موقعیت_مرکز":"ملا نواب نیکه","Polling_Center_Location":"Mulla Nawab Neka ","Verification_Note":"Village","PS_Male":1,"PS_Female":1,"Map_Accuracy":"قریه"},"geometry":{"x":7024621.8689076751,"y":3789844.3904105052}},{"attributes":{"OBJECTID":4254,"ولایت":" فراه","Province":"FARAH","PC_Code":"3311197","ولسوالي":"پرچمن","District":"PUR CHAMAN","د_مرکز_نوم__نام_مرکز":"مسجد برفشار","Polling_Center_Name":"Barfshar Mosque  ","د_مرکز_ځای__موقعیت_مرکز":" برفشار","Polling_Center_Location":"Barfshar ","Verification_Note":"Building","PS_Male":1,"PS_Female":1,"Map_Accuracy":"تعمیر"},"geometry":{"x":7082177.7748507485,"y":3897230.1838400885}},{"attributes":{"OBJECTID":4255,"ولایت":" فراه","Province":"FARAH","PC_Code":"3311198","ولسوالي":"پرچمن","District":"PUR CHAMAN","د_مرکز_نوم__نام_مرکز":" مسجد کوت","Polling_Center_Name":"Kot Mosque  ","د_مرکز_ځای__موقعیت_مرکز":" کوت","Polling_Center_Location":"Kot ","Verification_Note":"Building","PS_Male":1,"PS_Female":1,"Map_Accuracy":"تعمیر"},"geometry":{"x":7137836.6708796658,"y":3928201.7158798426}},{"attributes":{"OBJECTID":4256,"ولایت":" فراه","Province":"FARAH","PC_Code":"3311245","ولسوالي":"پرچمن ","District":"PUR CHAMAN","د_مرکز_نوم__نام_مرکز":"مسجد قریه وال","Polling_Center_Name":"Wal Village Mosque ","د_مرکز_ځای__موقعیت_مرکز":"قریه وال","Polling_Center_Location":"Wal Village","Verification_Note":"Building","PS_Male":2,"PS_Female":1,"Map_Accuracy":"تعمیر"},"geometry":{"x":7111382.180546362,"y":3877617.0721578151}},{"attributes":{"OBJECTID":4257,"ولایت":"نيمروز","Province":"NIMROZ","PC_Code":"3401001","ولسوالي":" زرنج","District":"ZARANJ","د_مرکز_نوم__نام_مرکز":"لیسه استقلال","Polling_Center_Name":"Estiqlal High School ","د_مرکز_ځای__موقعیت_مرکز":"زرنج ","Polling_Center_Location":"Zaranj ","Verification_Note":"Building","PS_Male":3,"PS_Female":2,"Map_Accuracy":"تعمیر"},"geometry":{"x":6887753.9516257122,"y":3628288.512728706}},{"attributes":{"OBJECTID":4258,"ولایت":"نيمروز","Province":"NIMROZ","PC_Code":"3401005","ولسوالي":" زرنج","District":"ZARANJ","د_مرکز_نوم__نام_مرکز":"لیسه فرخی","Polling_Center_Name":"Farkhi High School ","د_مرکز_ځای__موقعیت_مرکز":"زرنج ","Polling_Center_Location":"Zaranj ","Verification_Note":"Building","PS_Male":3,"PS_Female":2,"Map_Accuracy":"تعمیر"},"geometry":{"x":6886009.49394175,"y":3626883.8294615522}},{"attributes":{"OBJECTID":4259,"ولایت":"نيمروز","Province":"NIMROZ","PC_Code":"3401006","ولسوالي":" زرنج","District":"ZARANJ","د_مرکز_نوم__نام_مرکز":"مکتب ابتدایی زرنج","Polling_Center_Name":"Zaranj Primary School ","د_مرکز_ځای__موقعیت_مرکز":"زرنج ","Polling_Center_Location":"Zaranj ","Verification_Note":"Building","PS_Male":3,"PS_Female":2,"Map_Accuracy":"تعمیر"},"geometry":{"x":6889466.8101590127,"y":3626887.8820548877}},{"attributes":{"OBJECTID":4260,"ولایت":"نيمروز","Province":"NIMROZ","PC_Code":"3403029","ولسوالي":"اصل چغانسور","District":"ASL-E-CHAKHANSUR","د_مرکز_نوم__نام_مرکز":"مکتب جدید","Polling_Center_Name":"New School ","د_مرکز_ځای__موقعیت_مرکز":" چخانسور","Polling_Center_Location":"Chakhan Soor ","Verification_Note":"Building","PS_Male":1,"PS_Female":1,"Map_Accuracy":"تعمیر"},"geometry":{"x":6909059.9722827636,"y":3655685.5152631551}},{"attributes":{"OBJECTID":4261,"ولایت":"نيمروز","Province":"NIMROZ","PC_Code":"3403030","ولسوالي":"اصل چغانسور","District":"ASL-E-CHAKHANSUR","د_مرکز_نوم__نام_مرکز":"منزل شخصی خواجه سور جو","Polling_Center_Name":"Khwaja Surjo House ","د_مرکز_ځای__موقعیت_مرکز":" خواجه سور جو","Polling_Center_Location":"Khwaja Surjo","Verification_Note":"Building","PS_Male":1,"PS_Female":1,"Map_Accuracy":"تعمیر"},"geometry":{"x":6937992.7227986157,"y":3676332.7824967727}},{"attributes":{"OBJECTID":4262,"ولایت":"نيمروز","Province":"NIMROZ","PC_Code":"3404026","ولسوالي":"چهار برجک","District":"CHAR BURJAK","د_مرکز_نوم__نام_مرکز":"منزل حاجی  عید محمد","Polling_Center_Name":"Haji Eid Mohammad House ","د_مرکز_ځای__موقعیت_مرکز":" رباط","Polling_Center_Location":"Rubat ","Verification_Note":"Village","PS_Male":1,"PS_Female":1,"Map_Accuracy":"قریه"},"geometry":{"x":6878130.623209931,"y":3539465.4372070953}},{"attributes":{"OBJECTID":4263,"ولایت":"کابل","Province":"KABUL","PC_Code":"0101005","ولسوالي":"کابل - ناحیه 01","District":"KABUL-D01","د_مرکز_نوم__نام_مرکز":" مسجد پخته فروشی","Polling_Center_Name":"Pakhta Froshi Mosque","د_مرکز_ځای__موقعیت_مرکز":"کوچه پخته فروشي","Polling_Center_Location":"Pakhta Froshi Street","Verification_Note":"Building","PS_Male":2,"PS_Female":2,"Map_Accuracy":"تعمیر"},"geometry":{"x":7698410.3490772657,"y":4099725.8427452669}},{"attributes":{"OBJECTID":4264,"ولایت":"کابل","Province":"KABUL","PC_Code":"0101044","ولسوالي":"کابل - ناحیه 03","District":"KABUL-D03","د_مرکز_نوم__نام_مرکز":" مسجد کارته مامورين","Polling_Center_Name":"Karte Mamorin Mosque","د_مرکز_ځای__موقعیت_مرکز":"کارته مامورين","Polling_Center_Location":"Kart-e-Mamorin","Verification_Note":"Building","PS_Male":3,"PS_Female":2,"Map_Accuracy":"تعمیر"},"geometry":{"x":7694759.1977966651,"y":4100243.9164790958}},{"attributes":{"OBJECTID":4265,"ولایت":"کابل","Province":"KABUL","PC_Code":"0101045","ولسوالي":"کابل - ناحیه 03","District":"KABUL-D03","د_مرکز_نوم__نام_مرکز":"پوهنځي حقوق","Polling_Center_Name":"Law Faculty ","د_مرکز_ځای__موقعیت_مرکز":"پوهنتون کابل","Polling_Center_Location":"Kabul University","Verification_Note":"Building","PS_Male":3,"PS_Female":2,"Map_Accuracy":"تعمیر"},"geometry":{"x":7695831.8379008994,"y":4098574.3149509728}},{"attributes":{"OBJECTID":4266,"ولایت":"کابل","Province":"KABUL","PC_Code":"0101063","ولسوالي":"کابل - ناحیه 04","District":"KABUL-D04","د_مرکز_نوم__نام_مرکز":" ليسه جمهوريت","Polling_Center_Name":"Jamhuriat High School","د_مرکز_ځای__موقعیت_مرکز":"سالنگ وات","Polling_Center_Location":"Salang Watt","Verification_Note":"Building","PS_Male":4,"PS_Female":3,"Map_Accuracy":"تعمیر"},"geometry":{"x":7699525.3284366354,"y":4099598.0778074116}},{"attributes":{"OBJECTID":4267,"ولایت":"کابل","Province":"KABUL","PC_Code":"0101064","ولسوالي":"کابل - ناحیه 04","District":"KABUL-D04","د_مرکز_نوم__نام_مرکز":" مکتب محمد صدیق  فرهنگ","Polling_Center_Name":"Mohmmad Sediq Farhang School","د_مرکز_ځای__موقعیت_مرکز":"شهرک پوليس","Polling_Center_Location":"Shahrak Police","Verification_Note":"Building","PS_Male":4,"PS_Female":3,"Map_Accuracy":"تعمیر"},"geometry":{"x":7696467.443250265,"y":4104320.73472362}},{"attributes":{"OBJECTID":4268,"ولایت":"کابل","Province":"KABUL","PC_Code":"0101083","ولسوالي":"کابل - ناحیه 05","District":"KABUL-D05","د_مرکز_نوم__نام_مرکز":"مسجد حضرت عثمان","Polling_Center_Name":"Hazrat Usman Mosque","د_مرکز_ځای__موقعیت_مرکز":"قريه فاضل بيک","Polling_Center_Location":"Fazal Big Village","Verification_Note":"Building","PS_Male":2,"PS_Female":1,"Map_Accuracy":"تعمیر"},"geometry":{"x":7687897.9308128245,"y":4099253.6582815796}},{"attributes":{"OBJECTID":4269,"ولایت":"کابل","Province":"KABUL","PC_Code":"0101084","ولسوالي":"کابل - ناحیه 05","District":"KABUL-D05","د_مرکز_نوم__نام_مرکز":" مسجد جامع حاجی یعقوب","Polling_Center_Name":"Haji Yaqoob Mosque","د_مرکز_ځای__موقعیت_مرکز":"قريه نياز بيک","Polling_Center_Location":"Niaz Big Village","Verification_Note":"Building","PS_Male":1,"PS_Female":1,"Map_Accuracy":"تعمیر"},"geometry":{"x":7691357.7695297487,"y":4098752.2780220658}},{"attributes":{"OBJECTID":4270,"ولایت":"کابل","Province":"KABUL","PC_Code":"0101122","ولسوالي":"کابل - ناحیه 06","District":"KABUL-D06","د_مرکز_نوم__نام_مرکز":" مسجد محمديه","Polling_Center_Name":"Mohammadia Mosque","د_مرکز_ځای__موقعیت_مرکز":"کارته سه","Polling_Center_Location":"Kart-e-3","Verification_Note":"Building","PS_Male":3,"PS_Female":2,"Map_Accuracy":"تعمیر"},"geometry":{"x":7696301.5527186915,"y":4095493.5506876558}},{"attributes":{"OBJECTID":4271,"ولایت":"کابل","Province":"KABUL","PC_Code":"0101142","ولسوالي":"کابل - ناحیه 07","District":"KABUL-D07","د_مرکز_نوم__نام_مرکز":" مسجد عيد گاه","Polling_Center_Name":"Eidgah Mosque","د_مرکز_ځای__موقعیت_مرکز":" چهلستون","Polling_Center_Location":"Chehel Seton","Verification_Note":"Building","PS_Male":2,"PS_Female":1,"Map_Accuracy":"تعمیر"},"geometry":{"x":7698940.4792091027,"y":4091009.79648605}},{"attributes":{"OBJECTID":4272,"ولایت":"کابل","Province":"KABUL","PC_Code":"0101143","ولسوالي":"کابل - ناحیه 07","District":"KABUL-D07","د_مرکز_نوم__نام_مرکز":" لیسه عالی آقا علی شمس","Polling_Center_Name":"Aqa Ali Shams High School","د_مرکز_ځای__موقعیت_مرکز":"آقا علي شمس چهلستون","Polling_Center_Location":"Aqa Ali Shams, Chehel Seton","Verification_Note":"Building","PS_Male":3,"PS_Female":3,"Map_Accuracy":"تعمیر"},"geometry":{"x":7698297.15941903,"y":4093482.413130179}},{"attributes":{"OBJECTID":4273,"ولایت":"کابل","Province":"KABUL","PC_Code":"0101159","ولسوالي":"کابل - ناحیه 08","District":"KABUL-D08","د_مرکز_نوم__نام_مرکز":"مسجد زاخیل و مهمند","Polling_Center_Name":"ZaKhel and Mohmand Mosque","د_مرکز_ځای__موقعیت_مرکز":"کارته نو","Polling_Center_Location":"Kart-e-Naw","Verification_Note":"Building","PS_Male":3,"PS_Female":2,"Map_Accuracy":"تعمیر"},"geometry":{"x":7708280.3436735235,"y":4095707.1317549422}},{"attributes":{"OBJECTID":4274,"ولایت":"کابل","Province":"KABUL","PC_Code":"0101184","ولسوالي":"کابل - ناحیه 09","District":"KABUL-D09","د_مرکز_نوم__نام_مرکز":" ليسه عبدالهادي داوي","Polling_Center_Name":"Abdul Hadi Dawi High School","د_مرکز_ځای__موقعیت_مرکز":"مکروريان سوم","Polling_Center_Location":"3rd Makrorian","Verification_Note":"Building","PS_Male":3,"PS_Female":3,"Map_Accuracy":"تعمیر"},"geometry":{"x":7702899.8774992973,"y":4101249.0242036432}},{"attributes":{"OBJECTID":4275,"ولایت":"کابل","Province":"KABUL","PC_Code":"0101185","ولسوالي":"کابل - ناحیه 09","District":"KABUL-D09","د_مرکز_نوم__نام_مرکز":" ليسه پل چرخي","Polling_Center_Name":"Pul-e-Charkhi High School","د_مرکز_ځای__موقعیت_مرکز":"پل چرخي","Polling_Center_Location":"Pul-e-Charkhi","Verification_Note":"Building","PS_Male":3,"PS_Female":3,"Map_Accuracy":"تعمیر"},"geometry":{"x":7721066.77534518,"y":4103804.1533256918}},{"attributes":{"OBJECTID":4276,"ولایت":"کابل","Province":"KABUL","PC_Code":"0101209","ولسوالي":"کابل - ناحیه 10","District":"KABUL-D10","د_مرکز_نوم__نام_مرکز":" مسجد حضرت داود","Polling_Center_Name":"Hazrat Dawod Mosque","د_مرکز_ځای__موقعیت_مرکز":"قلعه چمن","Polling_Center_Location":"Qala-e-Chaman","Verification_Note":"Building","PS_Male":1,"PS_Female":1,"Map_Accuracy":"تعمیر"},"geometry":{"x":7703459.4861454889,"y":4103728.31226556}},{"attributes":{"OBJECTID":4277,"ولایت":"کابل","Province":"KABUL","PC_Code":"0101210","ولسوالي":"کابل - ناحیه 10","District":"KABUL-D10","د_مرکز_نوم__نام_مرکز":" مسجد قلعه چمن","Polling_Center_Name":"Qala e Chaman Mosque","د_مرکز_ځای__موقعیت_مرکز":"قلعه چمن","Polling_Center_Location":"Qala-e-Chaman","Verification_Note":"Building","PS_Male":1,"PS_Female":1,"Map_Accuracy":"تعمیر"},"geometry":{"x":7702931.302991543,"y":4104145.3477787226}},{"attributes":{"OBJECTID":4278,"ولایت":"کابل","Province":"KABUL","PC_Code":"0101230","ولسوالي":"کابل - ناحیه 11","District":"KABUL-D11","د_مرکز_نوم__نام_مرکز":"شرکت  نقليه افسوتر","Polling_Center_Name":"Sharkat Naqleya Affsotar","د_مرکز_ځای__موقعیت_مرکز":"ده کيپک ","Polling_Center_Location":"Deh Kepak","Verification_Note":"Building","PS_Male":3,"PS_Female":3,"Map_Accuracy":"تعمیر"},"geometry":{"x":7694536.16808366,"y":4105074.0970367417}},{"attributes":{"OBJECTID":4279,"ولایت":"کابل","Province":"KABUL","PC_Code":"0101231","ولسوالي":"کابل - ناحیه 11","District":"KABUL-D11","د_مرکز_نوم__نام_مرکز":" سينما خير خانه","Polling_Center_Name":"Khair Khana Cinema","د_مرکز_ځای__موقعیت_مرکز":"گولايي سينما","Polling_Center_Location":"Golaye-e-Cinama","Verification_Note":"Building","PS_Male":2,"PS_Female":1,"Map_Accuracy":"تعمیر"},"geometry":{"x":7697048.896120131,"y":4105868.3257770464}},{"attributes":{"OBJECTID":4280,"ولایت":"کابل","Province":"KABUL","PC_Code":"0101495","ولسوالي":"کابل - ناحیه 11","District":"KABUL-D11","د_مرکز_نوم__نام_مرکز":" مسجد پنج پیران ","Polling_Center_Name":"Panj Peeran Mosque","د_مرکز_ځای__موقعیت_مرکز":"پروژه ۳۱۵ ","Polling_Center_Location":"Proja-e-315","Verification_Note":"Building","PS_Male":3,"PS_Female":1,"Map_Accuracy":"تعمیر"},"geometry":{"x":7697513.0371710248,"y":4108016.5921770781}},{"attributes":{"OBJECTID":4281,"ولایت":"کابل","Province":"KABUL","PC_Code":"0101264","ولسوالي":"کابل - ناحیه 13","District":"KABUL-D13","د_مرکز_نوم__نام_مرکز":"مدرسه مهدويه","Polling_Center_Name":"Mahdawia Madrassa","د_مرکز_ځای__موقعیت_مرکز":"گذر مهدويه","Polling_Center_Location":"Guzar-e-Mahdawia","Verification_Note":"Building","PS_Male":1,"PS_Female":1,"Map_Accuracy":"تعمیر"},"geometry":{"x":7689012.1877086982,"y":4096128.5329069495}},{"attributes":{"OBJECTID":4282,"ولایت":"کابل","Province":"KABUL","PC_Code":"0101265","ولسوالي":"کابل - ناحیه 13","District":"KABUL-D13","د_مرکز_نوم__نام_مرکز":" مسجد اتفاق","Polling_Center_Name":"Itifaq Mosque","د_مرکز_ځای__موقعیت_مرکز":"گذر اتفاق","Polling_Center_Location":"Guzar-e-Itifaq","Verification_Note":"Building","PS_Male":1,"PS_Female":1,"Map_Accuracy":"تعمیر"},"geometry":{"x":7688647.4660950415,"y":4096049.6422454193}},{"attributes":{"OBJECTID":4283,"ولایت":"کابل","Province":"KABUL","PC_Code":"0101284","ولسوالي":"کابل - ناحیه 13","District":"KABUL-D13","د_مرکز_نوم__نام_مرکز":" مسجد اميرالمومنين","Polling_Center_Name":"Amirul Mominin Mosque","د_مرکز_ځای__موقعیت_مرکز":"تانک تيل برچي","Polling_Center_Location":"Barchi Fuel Pump Station","Verification_Note":"Building","PS_Male":1,"PS_Female":1,"Map_Accuracy":"تعمیر"},"geometry":{"x":7689309.0278100707,"y":4096042.3725268021}},{"attributes":{"OBJECTID":4284,"ولایت":"کابل","Province":"KABUL","PC_Code":"0101285","ولسوالي":"کابل - ناحیه 13","District":"KABUL-D13","د_مرکز_نوم__نام_مرکز":"مسجد امام زمان","Polling_Center_Name":"Imam-e- Zaman Mosque","د_مرکز_ځای__موقعیت_مرکز":"قلعه واحد","Polling_Center_Location":"Qala-e-Wahid","Verification_Note":"Building","PS_Male":2,"PS_Female":1,"Map_Accuracy":"تعمیر"},"geometry":{"x":7692023.1305789985,"y":4097308.9317989424}},{"attributes":{"OBJECTID":4285,"ولایت":"کابل","Province":"KABUL","PC_Code":"0101300","ولسوالي":"کابل - ناحیه 15","District":"KABUL-D15","د_مرکز_نوم__نام_مرکز":" مسجد جامع خاتم الانبیاء","Polling_Center_Name":"Khatimul Anbeya Mosque","د_مرکز_ځای__موقعیت_مرکز":"خواجه بغرا","Polling_Center_Location":"Khwaja Bughra","Verification_Note":"Building","PS_Male":2,"PS_Female":2,"Map_Accuracy":"تعمیر"},"geometry":{"x":7698917.8268059194,"y":4106236.7317769006}},{"attributes":{"OBJECTID":4286,"ولایت":"کابل","Province":"KABUL","PC_Code":"0101301","ولسوالي":"کابل - ناحیه 15","District":"KABUL-D15","د_مرکز_نوم__نام_مرکز":" مسجد حضرت خيرالبشر","Polling_Center_Name":"Hazrat-e-Khairul Bashar Mosque","د_مرکز_ځای__موقعیت_مرکز":"لب جر","Polling_Center_Location":"Lab-e-Jar","Verification_Note":"Building","PS_Male":4,"PS_Female":1,"Map_Accuracy":"تعمیر"},"geometry":{"x":7698294.019096192,"y":4105016.5700178146}},{"attributes":{"OBJECTID":4287,"ولایت":"کابل","Province":"KABUL","PC_Code":"0101317","ولسوالي":"کابل - ناحیه 16","District":"KABUL-D16","د_مرکز_نوم__نام_مرکز":" ليسه لامعه شهيد","Polling_Center_Name":"Lama Shaheed High School","د_مرکز_ځای__موقعیت_مرکز":"مکروريان اول","Polling_Center_Location":"First Makroryan","Verification_Note":"Building","PS_Male":4,"PS_Female":3,"Map_Accuracy":"تعمیر"},"geometry":{"x":7703601.2982711978,"y":4099777.5622986481}},{"attributes":{"OBJECTID":4288,"ولایت":"کابل","Province":"KABUL","PC_Code":"0101318","ولسوالي":"کابل - ناحیه 16","District":"KABUL-D16","د_مرکز_نوم__نام_مرکز":"لیسه ذکور قلعه احمدخان","Polling_Center_Name":"Qala-e-Ahmad Khan Boys Secondary School","د_مرکز_ځای__موقعیت_مرکز":"قلعه احمد خان","Polling_Center_Location":"Qala-e-Ahmad Khan","Verification_Note":"Building","PS_Male":3,"PS_Female":2,"Map_Accuracy":"تعمیر"},"geometry":{"x":7709761.4116499089,"y":4097412.5772379935}},{"attributes":{"OBJECTID":4289,"ولایت":"کابل","Province":"KABUL","PC_Code":"0101449","ولسوالي":"کابل - ناحیه 21","District":"KABUL-D21","د_مرکز_نوم__نام_مرکز":" مسجد طالب جان ","Polling_Center_Name":"Talib Jan Mosque","د_مرکز_ځای__موقعیت_مرکز":"جنت گل مینه","Polling_Center_Location":"Janat Gul Mina","Verification_Note":"Building","PS_Male":2,"PS_Female":2,"Map_Accuracy":"تعمیر"},"geometry":{"x":7725139.7517986447,"y":4094713.3301576898}},{"attributes":{"OBJECTID":4290,"ولایت":"کابل","Province":"KABUL","PC_Code":"0101473","ولسوالي":"کابل - ناحیه 21","District":"KABUL-D21","د_مرکز_نوم__نام_مرکز":"مدرسه دینی کوچیان","Polling_Center_Name":"Kochian Religious Madrassa","د_مرکز_ځای__موقعیت_مرکز":"مدرسه دینی سناتور جنت گل","Polling_Center_Location":"Religious Madrassa of Senator Janat Gul ","Verification_Note":"Building","PS_Male":3,"PS_Female":2,"Map_Accuracy":"تعمیر"},"geometry":{"x":7721583.7118909732,"y":4102181.5508949682}},{"attributes":{"OBJECTID":4291,"ولایت":"کابل","Province":"KABUL","PC_Code":"0102413","ولسوالي":"پغمان","District":"PAGHMAN","د_مرکز_نوم__نام_مرکز":" ليسه خواجه لکن","Polling_Center_Name":"Khwaja Lakan High School","د_مرکز_ځای__موقعیت_مرکز":"خواجه لکن","Polling_Center_Location":"Khwaja Lakan","Verification_Note":"Building","PS_Male":2,"PS_Female":1,"Map_Accuracy":"تعمیر"},"geometry":{"x":7675381.812475808,"y":4104041.7833090052}},{"attributes":{"OBJECTID":4292,"ولایت":"کابل","Province":"KABUL","PC_Code":"0105475","ولسوالي":"ده سبز","District":"DEHSABZ","د_مرکز_نوم__نام_مرکز":" مسجد شریف ملک زرګل  ","Polling_Center_Name":"Malik Zar Gul Mosque","د_مرکز_ځای__موقعیت_مرکز":"زيړه غوندۍ  ","Polling_Center_Location":"Zera Ghundi","Verification_Note":"Building","PS_Male":2,"PS_Female":2,"Map_Accuracy":"تعمیر"},"geometry":{"x":7702831.8089702651,"y":4113794.4678212553}},{"attributes":{"OBJECTID":4293,"ولایت":"کابل","Province":"KABUL","PC_Code":"0108333","ولسوالي":"میر بچه کوت","District":"MIR BACHA KOT","د_مرکز_نوم__نام_مرکز":" مکتب متوسطه آبچکان","Polling_Center_Name":"Aabchakan Secondary School","د_مرکز_ځای__موقعیت_مرکز":"آبچکان","Polling_Center_Location":"Aabchakan","Verification_Note":"Building","PS_Male":2,"PS_Female":2,"Map_Accuracy":"تعمیر"},"geometry":{"x":7697093.9170617945,"y":4129028.4533194005}},{"attributes":{"OBJECTID":4294,"ولایت":"کابل","Province":"KABUL","PC_Code":"0108334","ولسوالي":"میر بچه کوت","District":"MIR BACHA KOT","د_مرکز_نوم__نام_مرکز":"مسجد جامع ماریکی ","Polling_Center_Name":"Mareki Mosque","د_مرکز_ځای__موقعیت_مرکز":"ماريکي","Polling_Center_Location":"Mariki","Verification_Note":"Village","PS_Male":1,"PS_Female":1,"Map_Accuracy":"قریه"},"geometry":{"x":7695310.3973685168,"y":4130050.46628654}},{"attributes":{"OBJECTID":4295,"ولایت":"کابل","Province":"KABUL","PC_Code":"0110354","ولسوالي":"کلکان","District":"KALAKAN","د_مرکز_نوم__نام_مرکز":" لیسه قچي","Polling_Center_Name":"Qachi High School","د_مرکز_ځای__موقعیت_مرکز":"قچي","Polling_Center_Location":"Qachi","Verification_Note":"Building","PS_Male":2,"PS_Female":2,"Map_Accuracy":"تعمیر"},"geometry":{"x":7694468.0984414294,"y":4133838.5123211443}},{"attributes":{"OBJECTID":4296,"ولایت":"کابل","Province":"KABUL","PC_Code":"0110355","ولسوالي":"کلکان","District":"KALAKAN","د_مرکز_نوم__نام_مرکز":" کلينيک مشواني","Polling_Center_Name":"Mashwani Clinic","د_مرکز_ځای__موقعیت_مرکز":"مشواني","Polling_Center_Location":"Mashwani","Verification_Note":"Building","PS_Male":2,"PS_Female":2,"Map_Accuracy":"تعمیر"},"geometry":{"x":7698725.9253621288,"y":4132662.8278983384}},{"attributes":{"OBJECTID":4297,"ولایت":"کابل","Province":"KABUL","PC_Code":"0113379","ولسوالي":"استالف","District":"ESTALEF","د_مرکز_نوم__نام_مرکز":" رياست تعليم و تربيه","Polling_Center_Name":"Educational Department","د_مرکز_ځای__موقعیت_مرکز":"بازار استالف","Polling_Center_Location":"Istalif Bazar","Verification_Note":"Building","PS_Male":1,"PS_Female":1,"Map_Accuracy":"تعمیر"},"geometry":{"x":7689304.5204838887,"y":4140573.1173330247}},{"attributes":{"OBJECTID":4298,"ولایت":"کابل","Province":"KABUL","PC_Code":"0113380","ولسوالي":"استالف","District":"ESTALEF","د_مرکز_نوم__نام_مرکز":" ليسه استالف","Polling_Center_Name":"Estalif High School","د_مرکز_ځای__موقعیت_مرکز":"مرکز ولسوالي استالف","Polling_Center_Location":"Istalif District Capital ","Verification_Note":"Building","PS_Male":4,"PS_Female":3,"Map_Accuracy":"تعمیر"},"geometry":{"x":7689269.474881798,"y":4140770.6814515144}},{"attributes":{"OBJECTID":4299,"ولایت":"کابل","Province":"KABUL","PC_Code":"0115481","ولسوالي":"سروبی","District":"SURUBI","د_مرکز_نوم__نام_مرکز":"مکتب متوسطه نغلو","Polling_Center_Name":"Naghlu Primary School","د_مرکز_ځای__موقعیت_مرکز":"نغلو","Polling_Center_Location":"Naghlo","Verification_Note":"Building","PS_Male":2,"PS_Female":1,"Map_Accuracy":"تعمیر"},"geometry":{"x":7760778.0734057128,"y":4113733.1401416361}},{"attributes":{"OBJECTID":4300,"ولایت":"کابل","Province":"KABUL","PC_Code":"0115482","ولسوالي":"سروبی","District":"SURUBI","د_مرکز_نوم__نام_مرکز":"مکتب قلعه کلان","Polling_Center_Name":"Qala-e-Kalan Mosque","د_مرکز_ځای__موقعیت_مرکز":"قلعه کلان","Polling_Center_Location":"Qala-e-Kalan","Verification_Note":"Building","PS_Male":2,"PS_Female":2,"Map_Accuracy":"تعمیر"},"geometry":{"x":7761086.1278325878,"y":4104918.7294754982}},{"attributes":{"OBJECTID":4301,"ولایت":"کاپيسا","Province":"KAPISA","PC_Code":"0201001","ولسوالي":"محمود راقی ","District":"MAHMUDI RAQI","د_مرکز_نوم__نام_مرکز":"لیسه ذکور","Polling_Center_Name":"Boys School","د_مرکز_ځای__موقعیت_مرکز":"هروکی ","Polling_Center_Location":"Heroki","Verification_Note":"Building","PS_Male":4,"PS_Female":2,"Map_Accuracy":"تعمیر"},"geometry":{"x":7722617.6640193872,"y":4164771.0810794681}},{"attributes":{"OBJECTID":4302,"ولایت":"کاپيسا","Province":"KAPISA","PC_Code":"0201002","ولسوالي":"محمود راقی ","District":"MAHMUDI RAQI","د_مرکز_نوم__نام_مرکز":"لیسه حضرت مصعب","Polling_Center_Name":"Hazrat Musuab High school ","د_مرکز_ځای__موقعیت_مرکز":"داود خیل","Polling_Center_Location":"Dawod Khel","Verification_Note":"Building","PS_Male":3,"PS_Female":2,"Map_Accuracy":"تعمیر"},"geometry":{"x":7716801.7738833055,"y":4167271.6548159346}},{"attributes":{"OBJECTID":4303,"ولایت":"کاپيسا","Province":"KAPISA","PC_Code":"0201011","ولسوالي":"محمود راقی ","District":"MAHMUDI RAQI","د_مرکز_نوم__نام_مرکز":"مکتب نسوان علی خیل ","Polling_Center_Name":"Ali Khail Girls School ","د_مرکز_ځای__موقعیت_مرکز":"علی خیل ","Polling_Center_Location":"Ali Khel ","Verification_Note":"Building","PS_Male":3,"PS_Female":1,"Map_Accuracy":"تعمیر"},"geometry":{"x":7720441.8277238719,"y":4166708.9980844632}},{"attributes":{"OBJECTID":4304,"ولایت":"کاپيسا","Province":"KAPISA","PC_Code":"0201012","ولسوالي":"محمود راقی ","District":"MAHMUDI RAQI","د_مرکز_نوم__نام_مرکز":"مسجد جامع زراعت","Polling_Center_Name":"Zaraut Mosque","د_مرکز_ځای__موقعیت_مرکز":"زراعت ","Polling_Center_Location":"Zaraut","Verification_Note":"Building","PS_Male":2,"PS_Female":2,"Map_Accuracy":"تعمیر"},"geometry":{"x":7723514.0942752585,"y":4166019.6910313144}},{"attributes":{"OBJECTID":4305,"ولایت":"کاپيسا","Province":"KAPISA","PC_Code":"0203072","ولسوالي":"کوه بند","District":"KOH BAND","د_مرکز_نوم__نام_مرکز":"مسجد هزارو خیل ","Polling_Center_Name":"Hazaro Khel Mosque","د_مرکز_ځای__موقعیت_مرکز":"درنامه ","Polling_Center_Location":"Darnama","Verification_Note":"Building","PS_Male":2,"PS_Female":1,"Map_Accuracy":"تعمیر"},"geometry":{"x":7736510.5457510278,"y":4173045.966499269}},{"attributes":{"OBJECTID":4306,"ولایت":"کاپيسا","Province":"KAPISA","PC_Code":"0205045","ولسوالي":"نجراب ","District":"NIJRAB","د_مرکز_نوم__نام_مرکز":"متوسطه نسوان دره فرخشاه ","Polling_Center_Name":"Dara-e-Farakhsha Girls Secondary School ","د_مرکز_ځای__موقعیت_مرکز":"حیدرخیل","Polling_Center_Location":"Haidar Khel","Verification_Note":"Building","PS_Male":1,"PS_Female":1,"Map_Accuracy":"تعمیر"},"geometry":{"x":7746858.2467913255,"y":4172466.38834361}},{"attributes":{"OBJECTID":4307,"ولایت":"کاپيسا","Province":"KAPISA","PC_Code":"0205046","ولسوالي":"نجراب ","District":"NIJRAB","د_مرکز_نوم__نام_مرکز":"مکتب میرزا عبدالرحمن شهید","Polling_Center_Name":"Mirza Abdul Rahman Shaheed School ","د_مرکز_ځای__موقعیت_مرکز":"بی بی خیل ","Polling_Center_Location":"Bibi Khel","Verification_Note":"Building","PS_Male":1,"PS_Female":1,"Map_Accuracy":"تعمیر"},"geometry":{"x":7743242.20122534,"y":4176154.585121654}},{"attributes":{"OBJECTID":4308,"ولایت":"کاپيسا","Province":"KAPISA","PC_Code":"0206076","ولسوالي":"تگاب ","District":"TAGAB","د_مرکز_نوم__نام_مرکز":"مسجد مقام خیل ","Polling_Center_Name":"Muqam Khel Mosque","د_مرکز_ځای__موقعیت_مرکز":"جویبار","Polling_Center_Location":"Joy Bar ","Verification_Note":"Building","PS_Male":1,"PS_Female":1,"Map_Accuracy":"تعمیر"},"geometry":{"x":7752698.8164585121,"y":4146423.0503426343}},{"attributes":{"OBJECTID":4309,"ولایت":"پروان","Province":"PARWAN","PC_Code":"0301010","ولسوالي":"چاریکار","District":"CHARIKAR","د_مرکز_نوم__نام_مرکز":"لیسه میر علی احمد شهید","Polling_Center_Name":"Mir Ali Ahmad Shaheed High School ","د_مرکز_ځای__موقعیت_مرکز":"چاریکار ","Polling_Center_Location":"Charikar","Verification_Note":"Building","PS_Male":3,"PS_Female":1,"Map_Accuracy":"تعمیر"},"geometry":{"x":7700131.5498932078,"y":4164870.5476947054}},{"attributes":{"OBJECTID":4310,"ولایت":"پروان","Province":"PARWAN","PC_Code":"0301011","ولسوالي":"چاریکار","District":"CHARIKAR","د_مرکز_نوم__نام_مرکز":"مسجد توغبردی ","Polling_Center_Name":"Toghbardi Mosque","د_مرکز_ځای__موقعیت_مرکز":"توغبردی ","Polling_Center_Location":"Toghbardi","Verification_Note":"Village","PS_Male":2,"PS_Female":1,"Map_Accuracy":"قریه"},"geometry":{"x":7700149.0749206431,"y":4166121.9226268008}},{"attributes":{"OBJECTID":4311,"ولایت":"پروان","Province":"PARWAN","PC_Code":"0301032","ولسوالي":"چاریکار","District":"CHARIKAR","د_مرکز_نوم__نام_مرکز":"مکتب صیادان","Polling_Center_Name":"Sayadan School","د_مرکز_ځای__موقعیت_مرکز":"صیادان","Polling_Center_Location":"Sayadan","Verification_Note":"Building","PS_Male":2,"PS_Female":1,"Map_Accuracy":"تعمیر"},"geometry":{"x":7710561.4570378736,"y":4165129.3156487197}},{"attributes":{"OBJECTID":4312,"ولایت":"پروان","Province":"PARWAN","PC_Code":"0301033","ولسوالي":"چاریکار","District":"CHARIKAR","د_مرکز_نوم__نام_مرکز":"مسجد جامع بایان  پایان ","Polling_Center_Name":"Bayan Payan Mosque","د_مرکز_ځای__موقعیت_مرکز":"بایان پایان ","Polling_Center_Location":"Bayan Payan","Verification_Note":"Building","PS_Male":1,"PS_Female":1,"Map_Accuracy":"تعمیر"},"geometry":{"x":7704339.2797034644,"y":4169068.7220639437}},{"attributes":{"OBJECTID":4313,"ولایت":"پروان","Province":"PARWAN","PC_Code":"0302115","ولسوالي":"بگرام ","District":"BAGRAM","د_مرکز_نوم__نام_مرکز":"مکتب قلعه نصرو","Polling_Center_Name":"Qala-e-Nasro School","د_مرکز_ځای__موقعیت_مرکز":"قلعه نصرو","Polling_Center_Location":"Qala-e-Nasro","Verification_Note":"Building","PS_Male":2,"PS_Female":2,"Map_Accuracy":"تعمیر"},"geometry":{"x":7703879.7773357593,"y":4151487.8808913678}},{"attributes":{"OBJECTID":4314,"ولایت":"پروان","Province":"PARWAN","PC_Code":"0304042","ولسوالي":"سیدخیل ","District":"SAYID KHIAL","د_مرکز_نوم__نام_مرکز":"متوسطه عبدالقادر شهید","Polling_Center_Name":"Abdul Qadir Shaheed Secondary School","د_مرکز_ځای__موقعیت_مرکز":"کاکه خیل ","Polling_Center_Location":"Kaka Khel","Verification_Note":"Building","PS_Male":1,"PS_Female":1,"Map_Accuracy":"تعمیر"},"geometry":{"x":7710734.0345312543,"y":4174972.7231407836}},{"attributes":{"OBJECTID":4315,"ولایت":"پروان","Province":"PARWAN","PC_Code":"0305052","ولسوالي":"جبل السراج","District":"JABULUSSARAJ","د_مرکز_نوم__نام_مرکز":"لیسه زربیا","Polling_Center_Name":"Zarbia High School","د_مرکز_ځای__موقعیت_مرکز":"بالای تپه قریه زربیا  ","Polling_Center_Location":"Bala Tapa-e-Zarbia Village","Verification_Note":"Building","PS_Male":4,"PS_Female":2,"Map_Accuracy":"تعمیر"},"geometry":{"x":7704610.3448899314,"y":4176652.3446213529}},{"attributes":{"OBJECTID":4316,"ولایت":"وردک","Province":"WARDAK","PC_Code":"0401005","ولسوالي":"میدان شهر","District":"MAYDAN SHAHR","د_مرکز_نوم__نام_مرکز":"مسجد رحمن خیل","Polling_Center_Name":"Rahman Khel Mosque","د_مرکز_ځای__موقعیت_مرکز":"رحمن خیل","Polling_Center_Location":"Rahman Khel","Verification_Note":"Village","PS_Male":2,"PS_Female":1,"Map_Accuracy":"قریه"},"geometry":{"x":7656294.8349934965,"y":4089854.0577159375}},{"attributes":{"OBJECTID":4317,"ولایت":"وردک","Province":"WARDAK","PC_Code":"0401006","ولسوالي":"میدان شهر","District":"MAYDAN SHAHR","د_مرکز_نوم__نام_مرکز":"لیسه ابراهیم خیل","Polling_Center_Name":"Ibrahim Khel High School","د_مرکز_ځای__موقعیت_مرکز":"ابراهیم خیل","Polling_Center_Location":"Ibrahim Khel","Verification_Note":"Building","PS_Male":3,"PS_Female":0,"Map_Accuracy":"تعمیر"},"geometry":{"x":7661316.1154723391,"y":4075712.1939254105}},{"attributes":{"OBJECTID":4318,"ولایت":"وردک","Province":"WARDAK","PC_Code":"0402145","ولسوالي":"نرخ","District":"NERKH","د_مرکز_نوم__نام_مرکز":"مکتب سهاک","Polling_Center_Name":"Sahak School","د_مرکز_ځای__موقعیت_مرکز":"سهاک","Polling_Center_Location":"Sahak","Verification_Note":"Village","PS_Male":1,"PS_Female":1,"Map_Accuracy":"قریه"},"geometry":{"x":7642490.072657574,"y":4083253.6798909456}},{"attributes":{"OBJECTID":4319,"ولایت":"وردک","Province":"WARDAK","PC_Code":"0402155","ولسوالي":"نرخ","District":"NERKH","د_مرکز_نوم__نام_مرکز":"مکتب زنانه و مردانه قریه توکرک","Polling_Center_Name":"Boys and Girls School ","د_مرکز_ځای__موقعیت_مرکز":"قریه توکرک","Polling_Center_Location":"Tukarak","Verification_Note":"Village","PS_Male":2,"PS_Female":1,"Map_Accuracy":"قریه"},"geometry":{"x":7647386.1198224649,"y":4070073.5195453465}},{"attributes":{"OBJECTID":4320,"ولایت":"وردک","Province":"WARDAK","PC_Code":"0402156","ولسوالي":"نرخ","District":"NERKH","د_مرکز_نوم__نام_مرکز":"مسجد کلان شادی کلا","Polling_Center_Name":"Shadi Kala Mosque","د_مرکز_ځای__موقعیت_مرکز":"قریه شادی کلا","Polling_Center_Location":"Shadi Qala Village","Verification_Note":"Village","PS_Male":1,"PS_Female":1,"Map_Accuracy":"قریه"},"geometry":{"x":7667535.828193225,"y":4072019.6489303261}},{"attributes":{"OBJECTID":4321,"ولایت":"وردک","Province":"WARDAK","PC_Code":"0404088","ولسوالي":"چک وردک","District":"CHAKI WARDAK","د_مرکز_نوم__نام_مرکز":"مکتب امبوخاک","Polling_Center_Name":"Ambukhak School","د_مرکز_ځای__موقعیت_مرکز":"امبوخاک","Polling_Center_Location":"Ambu Khak","Verification_Note":"Building","PS_Male":1,"PS_Female":1,"Map_Accuracy":"تعمیر"},"geometry":{"x":7651506.8144888543,"y":4049261.9946050793}},{"attributes":{"OBJECTID":4322,"ولایت":"وردک","Province":"WARDAK","PC_Code":"0405109","ولسوالي":"سید آباد","District":"SAYYD ABAD","د_مرکز_نوم__نام_مرکز":"مسجد","Polling_Center_Name":"Mosque","د_مرکز_ځای__موقعیت_مرکز":"قریه سی سی ","Polling_Center_Location":"Si Si ","Verification_Note":"Building","PS_Male":1,"PS_Female":1,"Map_Accuracy":"تعمیر"},"geometry":{"x":7652349.6933904849,"y":4033653.9256267771}},{"attributes":{"OBJECTID":4323,"ولایت":"وردک","Province":"WARDAK","PC_Code":"0405110","ولسوالي":"سید آباد","District":"SAYYD ABAD","د_مرکز_نوم__نام_مرکز":"منزل ملک جیلانی","Polling_Center_Name":"Malik Jelani House","د_مرکز_ځای__موقعیت_مرکز":"قریه شاتر","Polling_Center_Location":"Shater Village","Verification_Note":"Village","PS_Male":2,"PS_Female":1,"Map_Accuracy":"قریه"},"geometry":{"x":7650851.5523438081,"y":4030615.9620667547}},{"attributes":{"OBJECTID":4324,"ولایت":"وردک","Province":"WARDAK","PC_Code":"0405132","ولسوالي":"سید آباد","District":"SAYYD ABAD","د_مرکز_نوم__نام_مرکز":"مسجد قریه حسن خیل ","Polling_Center_Name":"Hassan Khel Village Mosque","د_مرکز_ځای__موقعیت_مرکز":"حسن خیل","Polling_Center_Location":"Hasan Khel","Verification_Note":"Village","PS_Male":1,"PS_Female":1,"Map_Accuracy":"قریه"},"geometry":{"x":7656384.81342471,"y":4032158.9098638445}},{"attributes":{"OBJECTID":4325,"ولایت":"وردک","Province":"WARDAK","PC_Code":"0405133","ولسوالي":"سید آباد","District":"SAYYD ABAD","د_مرکز_نوم__نام_مرکز":"خیمه دشت لړم ","Polling_Center_Name":"Tent in Dasht-e-Larram","د_مرکز_ځای__موقعیت_مرکز":"لړم","Polling_Center_Location":"Larram","Verification_Note":"Village","PS_Male":1,"PS_Female":1,"Map_Accuracy":"قریه"},"geometry":{"x":7645329.3987216949,"y":4022712.9462716952}},{"attributes":{"OBJECTID":4326,"ولایت":"وردک","Province":"WARDAK","PC_Code":"0409038","ولسوالي":"مرکز بهسود","District":"MARKAZ-E-BEHSUD","د_مرکز_نوم__نام_مرکز":"لیسه مرک","Polling_Center_Name":"Marak High School","د_مرکز_ځای__موقعیت_مرکز":"مرک","Polling_Center_Location":"Marak","Verification_Note":"Village","PS_Male":1,"PS_Female":1,"Map_Accuracy":"قریه"},"geometry":{"x":7548359.0158951543,"y":4103552.6263851672}},{"attributes":{"OBJECTID":4327,"ولایت":"وردک","Province":"WARDAK","PC_Code":"0409039","ولسوالي":"مرکز بهسود","District":"MARKAZ-E-BEHSUD","د_مرکز_نوم__نام_مرکز":" مدرسه سرخ آباد","Polling_Center_Name":"Surkh Abad Madrassa","د_مرکز_ځای__موقعیت_مرکز":"قریه سیاه زمین","Polling_Center_Location":"Sia Zamin Village","Verification_Note":"Building","PS_Male":1,"PS_Female":1,"Map_Accuracy":"تعمیر"},"geometry":{"x":7529120.8404955864,"y":4070623.6405719221}},{"attributes":{"OBJECTID":4328,"ولایت":"وردک","Province":"WARDAK","PC_Code":"0409059","ولسوالي":"مرکز بهسود","District":"MARKAZ-E-BEHSUD","د_مرکز_نوم__نام_مرکز":"کلینیک گلزار","Polling_Center_Name":"Gulzar Clinic","د_مرکز_ځای__موقعیت_مرکز":"قریه گل زار","Polling_Center_Location":"Gulzar Village","Verification_Note":"Village","PS_Male":1,"PS_Female":1,"Map_Accuracy":"قریه"},"geometry":{"x":7550168.16690119,"y":4060660.1281933337}},{"attributes":{"OBJECTID":4329,"ولایت":"وردک","Province":"WARDAK","PC_Code":"0409060","ولسوالي":"مرکز بهسود","District":"MARKAZ-E-BEHSUD","د_مرکز_نوم__نام_مرکز":"کلینیک بند بوته","Polling_Center_Name":"Band Buta Clinic","د_مرکز_ځای__موقعیت_مرکز":"بند بوته","Polling_Center_Location":"Band-e-Buta","Verification_Note":"Village","PS_Male":1,"PS_Female":1,"Map_Accuracy":"قریه"},"geometry":{"x":7496284.8379011229,"y":4039389.3280535415}},{"attributes":{"OBJECTID":4330,"ولایت":"لوگر","Province":"LOGAR","PC_Code":"0501018","ولسوالي":"پل علم","District":"PULI ALAM","د_مرکز_نوم__نام_مرکز":"مکتب دشت باری","Polling_Center_Name":"Dasht-e-Bari School","د_مرکز_ځای__موقعیت_مرکز":"دشت باری","Polling_Center_Location":"Dasht-e-Bari","Verification_Note":"Building","PS_Male":1,"PS_Female":2,"Map_Accuracy":"تعمیر"},"geometry":{"x":7688393.1210960932,"y":4038706.7060886994}},{"attributes":{"OBJECTID":4331,"ولایت":"لوگر","Province":"LOGAR","PC_Code":"0501019","ولسوالي":"پل علم","District":"PULI ALAM","د_مرکز_نوم__نام_مرکز":"کلینیک شهرک مهاجرین","Polling_Center_Name":"Shahrak-e-Mohajerin Clinic","د_مرکز_ځای__موقعیت_مرکز":"شهرک مهاجرین","Polling_Center_Location":"Shahrak-e-Mohajerin","Verification_Note":"Building","PS_Male":2,"PS_Female":1,"Map_Accuracy":"تعمیر"},"geometry":{"x":7690474.4727474041,"y":4031316.9249400869}},{"attributes":{"OBJECTID":4332,"ولایت":"لوگر","Province":"LOGAR","PC_Code":"0502040","ولسوالي":"برکی برک","District":"BARAKI BARAK","د_مرکز_نوم__نام_مرکز":"مسجد الله داد خيل","Polling_Center_Name":"Allah Dad Khel Mosque","د_مرکز_ځای__موقعیت_مرکز":"الله داد خیل","Polling_Center_Location":"Allah Dad Khel","Verification_Note":"Building","PS_Male":2,"PS_Female":1,"Map_Accuracy":"تعمیر"},"geometry":{"x":7675384.3921936788,"y":4012474.8594708219}},{"attributes":{"OBJECTID":4333,"ولایت":"لوگر","Province":"LOGAR","PC_Code":"0505062","ولسوالي":"محمد آغه","District":"MOHAMMAD AGHA","د_مرکز_نوم__نام_مرکز":"مکتب کتب خيل","Polling_Center_Name":"Kutob Khel School","د_مرکز_ځای__موقعیت_مرکز":"قلعه کشتم","Polling_Center_Location":"Qala-e-Keshtom","Verification_Note":"Building","PS_Male":2,"PS_Female":2,"Map_Accuracy":"تعمیر"},"geometry":{"x":7696280.3151862435,"y":4059530.7102657184}},{"attributes":{"OBJECTID":4334,"ولایت":"ننگرهار","Province":"NANGARHAR","PC_Code":"0601024","ولسوالي":"جلال آباد","District":"JALALABAD","د_مرکز_نوم__نام_مرکز":"تقوا جومات","Polling_Center_Name":"Taqwa Mosque","د_مرکز_ځای__موقعیت_مرکز":"دریمه ناحیه","Polling_Center_Location":"D03-Nahia 3","Verification_Note":"Building","PS_Male":4,"PS_Female":4,"Map_Accuracy":"تعمیر"},"geometry":{"x":7841968.8749977015,"y":4087242.48334001}},{"attributes":{"OBJECTID":4335,"ولایت":"ننگرهار","Province":"NANGARHAR","PC_Code":"0601025","ولسوالي":"جلال آباد","District":"JALALABAD","د_مرکز_نوم__نام_مرکز":"عيد ګاه جومات","Polling_Center_Name":"Eidgah Mosque","د_مرکز_ځای__موقعیت_مرکز":"څلورمه ناحیه","Polling_Center_Location":"D04-Nahia 4","Verification_Note":"Building","PS_Male":5,"PS_Female":0,"Map_Accuracy":"تعمیر"},"geometry":{"x":7844281.56302242,"y":4086131.8994257674}},{"attributes":{"OBJECTID":4336,"ولایت":"ننگرهار","Province":"NANGARHAR","PC_Code":"0602059","ولسوالي":"بهسود","District":"BEHSUD","د_مرکز_نوم__نام_مرکز":"کاریز کبیر لیسه","Polling_Center_Name":"Kaarez Kabeer School","د_مرکز_ځای__موقعیت_مرکز":"کاريزکبير","Polling_Center_Location":"Karez Kaber","Verification_Note":"Building","PS_Male":4,"PS_Female":0,"Map_Accuracy":"تعمیر"},"geometry":{"x":7850225.2846693583,"y":4078544.049557969}},{"attributes":{"OBJECTID":4337,"ولایت":"ننگرهار","Province":"NANGARHAR","PC_Code":"0602073","ولسوالي":"بهسود","District":"BEHSUD","د_مرکز_نوم__نام_مرکز":"دامان جومات","Polling_Center_Name":"Damaan Mosque","د_مرکز_ځای__موقعیت_مرکز":"عربان","Polling_Center_Location":"Araban","Verification_Note":"Village","PS_Male":3,"PS_Female":1,"Map_Accuracy":"قریه"},"geometry":{"x":7846952.39701847,"y":4091485.4362495989}},{"attributes":{"OBJECTID":4338,"ولایت":"ننگرهار","Province":"NANGARHAR","PC_Code":"0602506","ولسوالي":"بهسود","District":"BEHSUD","د_مرکز_نوم__نام_مرکز":"د زنګویی مکتب","Polling_Center_Name":"Zangoy School","د_مرکز_ځای__موقعیت_مرکز":"قلعه زنګوی","Polling_Center_Location":"Qala-e-Zangve","Verification_Note":"Building","PS_Male":2,"PS_Female":1,"Map_Accuracy":"تعمیر"},"geometry":{"x":7846515.3644899838,"y":4086909.183179386}},{"attributes":{"OBJECTID":4339,"ولایت":"ننگرهار","Province":"NANGARHAR","PC_Code":"0603095","ولسوالي":"سرخرود","District":"SURKH RUD","د_مرکز_نوم__نام_مرکز":"شخصي کور","Polling_Center_Name":"Private House","د_مرکز_ځای__موقعیت_مرکز":"برککړک کلی","Polling_Center_Location":"Bark Karak","Verification_Note":"Village","PS_Male":2,"PS_Female":1,"Map_Accuracy":"قریه"},"geometry":{"x":7804271.9532168508,"y":4079480.8367282748}},{"attributes":{"OBJECTID":4340,"ولایت":"ننگرهار","Province":"NANGARHAR","PC_Code":"0603096","ولسوالي":"سرخرود","District":"SURKH RUD","د_مرکز_نوم__نام_مرکز":"بي بي مريم مکتب","Polling_Center_Name":"Bibi Maryam School","د_مرکز_ځای__موقعیت_مرکز":"درونته","Polling_Center_Location":"Daronta","Verification_Note":"Building","PS_Male":3,"PS_Female":0,"Map_Accuracy":"تعمیر"},"geometry":{"x":7832967.6266131513,"y":4093277.4358673394}},{"attributes":{"OBJECTID":4341,"ولایت":"ننگرهار","Province":"NANGARHAR","PC_Code":"0604107","ولسوالي":"چپرهار","District":"CHAPARHAR","د_مرکز_نوم__نام_مرکز":"کاريز دکلي جومات","Polling_Center_Name":"Kariz Village Mosque","د_مرکز_ځای__موقعیت_مرکز":"کاريزکلي","Polling_Center_Location":"Kaarez Village","Verification_Note":"Village","PS_Male":0,"PS_Female":2,"Map_Accuracy":"قریه"},"geometry":{"x":7831326.7416966259,"y":4066170.2758835703}},{"attributes":{"OBJECTID":4342,"ولایت":"ننگرهار","Province":"NANGARHAR","PC_Code":"0604108","ولسوالي":"چپرهار","District":"CHAPARHAR","د_مرکز_نوم__نام_مرکز":"متوسطه مکتب","Polling_Center_Name":"Secondary School","د_مرکز_ځای__موقعیت_مرکز":"زغوکلي","Polling_Center_Location":"Zagho Village","Verification_Note":"Building","PS_Male":2,"PS_Female":0,"Map_Accuracy":"تعمیر"},"geometry":{"x":7838049.805532638,"y":4068925.3405904174}},{"attributes":{"OBJECTID":4343,"ولایت":"ننگرهار","Province":"NANGARHAR","PC_Code":"0604122","ولسوالي":"چپرهار","District":"CHAPARHAR","د_مرکز_نوم__نام_مرکز":"بانډو مکتب","Polling_Center_Name":"Bando School","د_مرکز_ځای__موقعیت_مرکز":"شولانه","Polling_Center_Location":"Sholana","Verification_Note":"Building","PS_Male":2,"PS_Female":0,"Map_Accuracy":"تعمیر"},"geometry":{"x":7832762.1441914812,"y":4064594.8097343594}},{"attributes":{"OBJECTID":4344,"ولایت":"ننگرهار","Province":"NANGARHAR","PC_Code":"0604123","ولسوالي":"چپرهار","District":"CHAPARHAR","د_مرکز_نوم__نام_مرکز":"شولانه مسجد","Polling_Center_Name":"Sholana Mosque","د_مرکز_ځای__موقعیت_مرکز":"شولانه مسجد","Polling_Center_Location":"Sholana ","Verification_Note":"Village","PS_Male":0,"PS_Female":2,"Map_Accuracy":"قریه"},"geometry":{"x":7832661.4891079068,"y":4064705.7066589668}},{"attributes":{"OBJECTID":4345,"ولایت":"ننگرهار","Province":"NANGARHAR","PC_Code":"0605156","ولسوالي":"کامه","District":"KAMA","د_مرکز_نوم__نام_مرکز":"شیرګړ لیسه","Polling_Center_Name":"Shergarh School","د_مرکز_ځای__موقعیت_مرکز":"سپدرى","Polling_Center_Location":"Spadree","Verification_Note":"Village","PS_Male":1,"PS_Female":1,"Map_Accuracy":"قریه"},"geometry":{"x":7860165.7689935789,"y":4089869.5220291093}},{"attributes":{"OBJECTID":4346,"ولایت":"ننگرهار","Province":"NANGARHAR","PC_Code":"0605157","ولسوالي":"کامه","District":"KAMA","د_مرکز_نوم__نام_مرکز":"محکمه","Polling_Center_Name":"Court","د_مرکز_ځای__موقعیت_مرکز":"سنګرسراي","Polling_Center_Location":"Sangar Sray","Verification_Note":"Building","PS_Male":2,"PS_Female":0,"Map_Accuracy":"تعمیر"},"geometry":{"x":7863603.34158596,"y":4084144.8162257671}},{"attributes":{"OBJECTID":4347,"ولایت":"ننگرهار","Province":"NANGARHAR","PC_Code":"0606189","ولسوالي":"کوز کنړ","District":"KUZ KUNAR","د_مرکز_نوم__نام_مرکز":"ډنډ جامع جومات ","Polling_Center_Name":"Dand Mosque","د_مرکز_ځای__موقعیت_مرکز":"ايمل خان کلي","Polling_Center_Location":"Aimal Khan Village","Verification_Note":"Village","PS_Male":2,"PS_Female":0,"Map_Accuracy":"قریه"},"geometry":{"x":7854353.8062091395,"y":4101277.703040421}},{"attributes":{"OBJECTID":4348,"ولایت":"ننگرهار","Province":"NANGARHAR","PC_Code":"0606190","ولسوالي":"کوز کنړ","District":"KUZ KUNAR","د_مرکز_نوم__نام_مرکز":"مرکزي جومات","Polling_Center_Name":"Central Mosque","د_مرکز_ځای__موقعیت_مرکز":"مرکزښيوه","Polling_Center_Location":"Khewa Center","Verification_Note":"Village","PS_Male":3,"PS_Female":0,"Map_Accuracy":"قریه"},"geometry":{"x":7858625.40891682,"y":4106406.8082839251}},{"attributes":{"OBJECTID":4349,"ولایت":"ننگرهار","Province":"NANGARHAR","PC_Code":"0606212","ولسوالي":"کوز کنړ","District":"KUZ KUNAR","د_مرکز_نوم__نام_مرکز":"مرکزي ښيوه کلینیک","Polling_Center_Name":"Khewa Central Clinic","د_مرکز_ځای__موقعیت_مرکز":"مرکزي ښيوه","Polling_Center_Location":"Markazi Khewa","Verification_Note":"Building","PS_Male":0,"PS_Female":2,"Map_Accuracy":"تعمیر"},"geometry":{"x":7858789.4738087431,"y":4106616.3310232386}},{"attributes":{"OBJECTID":4350,"ولایت":"ننگرهار","Province":"NANGARHAR","PC_Code":"0606213","ولسوالي":"کوز کنړ","District":"KUZ KUNAR","د_مرکز_نوم__نام_مرکز":"جينکو مکتب","Polling_Center_Name":"Girls School","د_مرکز_ځای__موقعیت_مرکز":"شيخان","Polling_Center_Location":"Shekhaan","Verification_Note":"Building","PS_Male":0,"PS_Female":2,"Map_Accuracy":"تعمیر"},"geometry":{"x":7854938.29476152,"y":4101545.5946372524}},{"attributes":{"OBJECTID":4351,"ولایت":"ننگرهار","Province":"NANGARHAR","PC_Code":"0608276","ولسوالي":"خوګیاڼي","District":"KHUGYANI","د_مرکز_نوم__نام_مرکز":"جهادي ذکور ليسه","Polling_Center_Name":"Jihadi Boys High School","د_مرکز_ځای__موقعیت_مرکز":"وزير احمد خيل کلی","Polling_Center_Location":"Wazir Ahmad Khel Village","Verification_Note":"Village","PS_Male":3,"PS_Female":0,"Map_Accuracy":"قریه"},"geometry":{"x":7811475.44080567,"y":4056513.8785346225}},{"attributes":{"OBJECTID":4352,"ولایت":"ننگرهار","Province":"NANGARHAR","PC_Code":"0608287","ولسوالي":"خوګیاڼي","District":"KHUGYANI","د_مرکز_نوم__نام_مرکز":"کوزبهار لیسه","Polling_Center_Name":"Koz Bahar High School","د_مرکز_ځای__موقعیت_مرکز":"کوزبهار","Polling_Center_Location":"Koz Bahar","Verification_Note":"Building","PS_Male":2,"PS_Female":1,"Map_Accuracy":"تعمیر"},"geometry":{"x":7815175.0650453456,"y":4067576.7051187679}},{"attributes":{"OBJECTID":4353,"ولایت":"ننگرهار","Province":"NANGARHAR","PC_Code":"0608288","ولسوالي":"خوګیاڼي","District":"KHUGYANI","د_مرکز_نوم__نام_مرکز":"لوخي لیسه","Polling_Center_Name":"Lokhay Maktab","د_مرکز_ځای__موقعیت_مرکز":"لوخۍ","Polling_Center_Location":"Lokhay","Verification_Note":"Building","PS_Male":1,"PS_Female":1,"Map_Accuracy":"تعمیر"},"geometry":{"x":7814112.5928633921,"y":4069758.0287129804}},{"attributes":{"OBJECTID":4354,"ولایت":"ننگرهار","Province":"NANGARHAR","PC_Code":"0608298","ولسوالي":"خوګیاڼي","District":"KHUGYANI","د_مرکز_نوم__نام_مرکز":"ټټنګ کلینیک ","Polling_Center_Name":"Tatang Cilnic","د_مرکز_ځای__موقعیت_مرکز":"ټټنګ","Polling_Center_Location":"Tatang ","Verification_Note":"Village","PS_Male":0,"PS_Female":3,"Map_Accuracy":"قریه"},"geometry":{"x":7797335.25725925,"y":4075578.4163010865}},{"attributes":{"OBJECTID":4355,"ولایت":"ننگرهار","Province":"NANGARHAR","PC_Code":"0608299","ولسوالي":"خوګیاڼي","District":"KHUGYANI","د_مرکز_نوم__نام_مرکز":"تورغر","Polling_Center_Name":"Torghar","د_مرکز_ځای__موقعیت_مرکز":"بانډه کلي","Polling_Center_Location":"Banda Village","Verification_Note":"Village","PS_Male":2,"PS_Female":1,"Map_Accuracy":"قریه"},"geometry":{"x":7811862.3261299431,"y":4067718.44537659}},{"attributes":{"OBJECTID":4356,"ولایت":"ننگرهار","Province":"NANGARHAR","PC_Code":"0609458","ولسوالي":"بټي کوټ","District":"BATI KOT","د_مرکز_نوم__نام_مرکز":"سپګنو کونج","Polling_Center_Name":"Spagano Konj","د_مرکز_ځای__موقعیت_مرکز":" فارم ٢","Polling_Center_Location":"Farm 2","Verification_Note":"Village","PS_Male":1,"PS_Female":1,"Map_Accuracy":"قریه"},"geometry":{"x":7877563.8610402085,"y":4066242.1696068645}},{"attributes":{"OBJECTID":4357,"ولایت":"ننگرهار","Province":"NANGARHAR","PC_Code":"0611303","ولسوالي":"پچیر و اګام","District":"PACHIR WAGAM","د_مرکز_نوم__نام_مرکز":"مکتب ګريخيل","Polling_Center_Name":"Garekhel School","د_مرکز_ځای__موقعیت_مرکز":"ګريخيل","Polling_Center_Location":"Garekhel","Verification_Note":"Building","PS_Male":2,"PS_Female":1,"Map_Accuracy":"تعمیر"},"geometry":{"x":7818682.2356965542,"y":4047212.7209310606}},{"attributes":{"OBJECTID":4358,"ولایت":"ننگرهار","Province":"NANGARHAR","PC_Code":"0611314","ولسوالي":"پچیر و اګام","District":"PACHIR WAGAM","د_مرکز_نوم__نام_مرکز":"پچيرابتدائيه مکتب","Polling_Center_Name":"Pacheer Primary School","د_مرکز_ځای__موقعیت_مرکز":"پاس پچير","Polling_Center_Location":"Paas Pacheer","Verification_Note":"Building","PS_Male":0,"PS_Female":2,"Map_Accuracy":"تعمیر"},"geometry":{"x":7825308.7643833421,"y":4044092.3081919178}},{"attributes":{"OBJECTID":4359,"ولایت":"ننگرهار","Province":"NANGARHAR","PC_Code":"0611315","ولسوالي":"پچیر و اګام","District":"PACHIR WAGAM","د_مرکز_نوم__نام_مرکز":"پچير کلینيک","Polling_Center_Name":"Pacheer Clinic","د_مرکز_ځای__موقعیت_مرکز":"پاس پچير","Polling_Center_Location":"Paas Pacheer","Verification_Note":"Village","PS_Male":3,"PS_Female":0,"Map_Accuracy":"قریه"},"geometry":{"x":7825203.6053131782,"y":4044216.8392920569}},{"attributes":{"OBJECTID":4360,"ولایت":"ننگرهار","Province":"NANGARHAR","PC_Code":"0612220","ولسوالي":"دره نور","District":"DARAH-E-NOOR","د_مرکز_نوم__نام_مرکز":"سروړ جومات","Polling_Center_Name":"Sarwarr Mosque","د_مرکز_ځای__موقعیت_مرکز":"سروړ","Polling_Center_Location":"Sarwarr","Verification_Note":"Village","PS_Male":1,"PS_Female":1,"Map_Accuracy":"قریه"},"geometry":{"x":7853145.9329610951,"y":4119943.16767776}},{"attributes":{"OBJECTID":4361,"ولایت":"ننگرهار","Province":"NANGARHAR","PC_Code":"0613347","ولسوالي":"کوټ","District":"KOT","د_مرکز_نوم__نام_مرکز":"عطاخان ميدان ","Polling_Center_Name":"Ata Khan Maidan","د_مرکز_ځای__موقعیت_مرکز":"عطاخان","Polling_Center_Location":"Ata Khan","Verification_Note":"Village","PS_Male":0,"PS_Female":2,"Map_Accuracy":"قریه"},"geometry":{"x":7861490.0735234357,"y":4051944.594857119}},{"attributes":{"OBJECTID":4362,"ولایت":"ننگرهار","Province":"NANGARHAR","PC_Code":"0613348","ولسوالي":"کوټ","District":"KOT","د_مرکز_نوم__نام_مرکز":"کوټ ليسه","Polling_Center_Name":"Kot High School","د_مرکز_ځای__موقعیت_مرکز":"جبه کلي","Polling_Center_Location":"Jaba Village","Verification_Note":"Building","PS_Male":2,"PS_Female":1,"Map_Accuracy":"تعمیر"},"geometry":{"x":7864245.9645160213,"y":4055412.5235154107}},{"attributes":{"OBJECTID":4363,"ولایت":"ننگرهار","Province":"NANGARHAR","PC_Code":"0615354","ولسوالي":"اچین","District":"ACHIN","د_مرکز_نوم__نام_مرکز":"شوکاني ابتدائيه مکتب","Polling_Center_Name":"Shokany Primary School","د_مرکز_ځای__موقعیت_مرکز":"شوکاني","Polling_Center_Location":"Shokany","Verification_Note":"Village","PS_Male":0,"PS_Female":2,"Map_Accuracy":"قریه"},"geometry":{"x":7856690.4357167371,"y":4034321.7266047969}},{"attributes":{"OBJECTID":4364,"ولایت":"ننگرهار","Province":"NANGARHAR","PC_Code":"0615379","ولسوالي":"اچین","District":"ACHIN","د_مرکز_نوم__نام_مرکز":"مست بابا مکتب","Polling_Center_Name":"Mast Baba School","د_مرکز_ځای__موقعیت_مرکز":"مورګۍ","Polling_Center_Location":"Morgai","Verification_Note":"Village","PS_Male":0,"PS_Female":2,"Map_Accuracy":"قریه"},"geometry":{"x":7859484.9300823323,"y":4036804.5482571051}},{"attributes":{"OBJECTID":4365,"ولایت":"ننگرهار","Province":"NANGARHAR","PC_Code":"0617464","ولسوالي":"مهمند دره","District":"MUHMAND DARA","د_مرکز_نوم__نام_مرکز":"دکه لیسه","Polling_Center_Name":"Daka High School","د_مرکز_ځای__موقعیت_مرکز":"لوي ډکه","Polling_Center_Location":"Loy Daka","Verification_Note":"Building","PS_Male":1,"PS_Female":3,"Map_Accuracy":"تعمیر"},"geometry":{"x":7909741.5947501808,"y":4057524.9393679276}},{"attributes":{"OBJECTID":4366,"ولایت":"ننگرهار","Province":"NANGARHAR","PC_Code":"0617465","ولسوالي":"مهمند دره","District":"MUHMAND DARA","د_مرکز_نوم__نام_مرکز":"جومات کمه ډکه","Polling_Center_Name":"Kama Daka Mosque","د_مرکز_ځای__موقعیت_مرکز":"کمه ډکه","Polling_Center_Location":"Kama Daka","Verification_Note":"Village","PS_Male":1,"PS_Female":2,"Map_Accuracy":"قریه"},"geometry":{"x":7916927.1320711114,"y":4059529.2521267682}},{"attributes":{"OBJECTID":4367,"ولایت":"ننگرهار","Province":"NANGARHAR","PC_Code":"0621255","ولسوالي":"حصارک","District":"HESARAK","د_مرکز_نوم__نام_مرکز":"ظريف خيل مکتب","Polling_Center_Name":"Zareef Khel School","د_مرکز_ځای__موقعیت_مرکز":"ظريف خيل","Polling_Center_Location":"Zareef Khel","Verification_Note":"Village","PS_Male":0,"PS_Female":2,"Map_Accuracy":"قریه"},"geometry":{"x":7766647.22657856,"y":4070064.5873745903}},{"attributes":{"OBJECTID":4368,"ولایت":"ننگرهار","Province":"NANGARHAR","PC_Code":"0621256","ولسوالي":"حصارک","District":"HESARAK","د_مرکز_نوم__نام_مرکز":"ميدان خالی ","Polling_Center_Name":"Open Space","د_مرکز_ځای__موقعیت_مرکز":"ظريف خيل","Polling_Center_Location":"Zareef Khel","Verification_Note":"Village","PS_Male":2,"PS_Female":0,"Map_Accuracy":"قریه"},"geometry":{"x":7766651.1995711811,"y":4070252.9797773734}},{"attributes":{"OBJECTID":4369,"ولایت":"ننگرهار","Province":"NANGARHAR","PC_Code":"0622415","ولسوالي":"در بابا","District":"DUR BABA","د_مرکز_نوم__نام_مرکز":"سوبي جومات","Polling_Center_Name":"Sobay Mosque","د_مرکز_ځای__موقعیت_مرکز":"سوبي","Polling_Center_Location":"Sobay","Verification_Note":"Village","PS_Male":2,"PS_Female":1,"Map_Accuracy":"قریه"},"geometry":{"x":7906409.4988224916,"y":4038377.1781730354}},{"attributes":{"OBJECTID":4370,"ولایت":"لغمان","Province":"LAGHMAN","PC_Code":"0701006","ولسوالي":"مهترلام","District":"MEHTARLAM","د_مرکز_نوم__نام_مرکز":"د تيرګړېو جومات","Polling_Center_Name":"Tergarayo Mosque","د_مرکز_ځای__موقعیت_مرکز":"تیر ګړی","Polling_Center_Location":"Targaray","Verification_Note":"Village","PS_Male":2,"PS_Female":1,"Map_Accuracy":"قریه"},"geometry":{"x":7815984.1874245852,"y":4115891.3214994669}},{"attributes":{"OBJECTID":4371,"ولایت":"لغمان","Province":"LAGHMAN","PC_Code":"0701007","ولسوالي":"مهترلام","District":"MEHTARLAM","د_مرکز_نوم__نام_مرکز":"د چاردهي ښوونځی","Polling_Center_Name":"Chardhi School","د_مرکز_ځای__موقعیت_مرکز":"چهاردهي","Polling_Center_Location":"Chardhi","Verification_Note":"Building","PS_Male":2,"PS_Female":1,"Map_Accuracy":"تعمیر"},"geometry":{"x":7816308.1638782322,"y":4112908.752337344}},{"attributes":{"OBJECTID":4372,"ولایت":"لغمان","Province":"LAGHMAN","PC_Code":"0701015","ولسوالي":"مهترلام","District":"MEHTARLAM","د_مرکز_نوم__نام_مرکز":"دهرمل دهلکانو او نجونو ښوونځي","Polling_Center_Name":"Harmal Boys & Girls School","د_مرکز_ځای__موقعیت_مرکز":"هرمل","Polling_Center_Location":"Harmal","Verification_Note":"Building","PS_Male":2,"PS_Female":2,"Map_Accuracy":"تعمیر"},"geometry":{"x":7817913.6102348641,"y":4122644.1313057914}},{"attributes":{"OBJECTID":4373,"ولایت":"لغمان","Province":"LAGHMAN","PC_Code":"0701016","ولسوالي":"مهترلام","District":"MEHTARLAM","د_مرکز_نوم__نام_مرکز":"دکټل دنجونوښوونځی","Polling_Center_Name":"Katal Girls School","د_مرکز_ځای__موقعیت_مرکز":"کټل","Polling_Center_Location":"Katal","Verification_Note":"Building","PS_Male":3,"PS_Female":2,"Map_Accuracy":"تعمیر"},"geometry":{"x":7819259.4038792215,"y":4124665.772908397}},{"attributes":{"OBJECTID":4374,"ولایت":"لغمان","Province":"LAGHMAN","PC_Code":"0702043","ولسوالي":"قرغه یي","District":"QARGHAYEE","د_مرکز_نوم__نام_مرکز":"دسرخکانو لېسه","Polling_Center_Name":"Surkhakan High School","د_مرکز_ځای__موقعیت_مرکز":"سرخکان","Polling_Center_Location":"Surkhakan","Verification_Note":"Building","PS_Male":3,"PS_Female":2,"Map_Accuracy":"تعمیر"},"geometry":{"x":7815865.3694528937,"y":4097215.785052143}},{"attributes":{"OBJECTID":4375,"ولایت":"لغمان","Province":"LAGHMAN","PC_Code":"0702044","ولسوالي":"قرغه یي","District":"QARGHAYEE","د_مرکز_نوم__نام_مرکز":"دګل پاچاالفت لېسه","Polling_Center_Name":"Gul Pacha Olfat High School","د_مرکز_ځای__موقعیت_مرکز":"عزیز خان کڅ","Polling_Center_Location":"Aziz Khan Kas","Verification_Note":"Building","PS_Male":3,"PS_Female":2,"Map_Accuracy":"تعمیر"},"geometry":{"x":7825603.5985074975,"y":4095277.2872186825}},{"attributes":{"OBJECTID":4376,"ولایت":"لغمان","Province":"LAGHMAN","PC_Code":"0702053","ولسوالي":"قرغه یي","District":"QARGHAYEE","د_مرکز_نوم__نام_مرکز":"لوګرلام خان قلعه مکتب","Polling_Center_Name":"Logar Lam Khan Qala School","د_مرکز_ځای__موقعیت_مرکز":"لوګرلام","Polling_Center_Location":"LogarLam","Verification_Note":"Village","PS_Male":2,"PS_Female":1,"Map_Accuracy":"قریه"},"geometry":{"x":7817199.5558139533,"y":4103610.2743215263}},{"attributes":{"OBJECTID":4377,"ولایت":"لغمان","Province":"LAGHMAN","PC_Code":"0704061","ولسوالي":"علینګار","District":"ALINGAR","د_مرکز_نوم__نام_مرکز":"دسالاب عليا دکلي میدان","Polling_Center_Name":"Salab Ulya Village Maidan","د_مرکز_ځای__موقعیت_مرکز":"سالاب علیا","Polling_Center_Location":"Salab Olya","Verification_Note":"Village","PS_Male":2,"PS_Female":1,"Map_Accuracy":"قریه"},"geometry":{"x":7823165.1740047373,"y":4143970.369215779}},{"attributes":{"OBJECTID":4378,"ولایت":"لغمان","Province":"LAGHMAN","PC_Code":"0705115","ولسوالي":"دولت شاه","District":"DAWLAT SHAH","د_مرکز_نوم__نام_مرکز":"دولت شاه مسجد","Polling_Center_Name":"Dawlat Shah Mosque","د_مرکز_ځای__موقعیت_مرکز":"خاص دولت شاه مرکز","Polling_Center_Location":"Dawlat Shah Center","Verification_Note":"Village","PS_Male":2,"PS_Female":1,"Map_Accuracy":"قریه"},"geometry":{"x":7800101.8905826919,"y":4157133.9494710565}},{"attributes":{"OBJECTID":4379,"ولایت":"لغمان","Province":"LAGHMAN","PC_Code":"0705116","ولسوالي":"دولت شاه","District":"DAWLAT SHAH","د_مرکز_نوم__نام_مرکز":"د درنګي کلي جومات ","Polling_Center_Name":"Darangee Village Mosque","د_مرکز_ځای__موقعیت_مرکز":"درنګی","Polling_Center_Location":"Darangee","Verification_Note":"Building","PS_Male":1,"PS_Female":2,"Map_Accuracy":"تعمیر"},"geometry":{"x":7802951.4302100912,"y":4153809.1932019293}},{"attributes":{"OBJECTID":4380,"ولایت":"لغمان","Province":"LAGHMAN","PC_Code":"0705126","ولسوالي":"دولت شاه","District":"DAWLAT SHAH","د_مرکز_نوم__نام_مرکز":"نوړه کلي جومات","Polling_Center_Name":"Nora Village Mosque","د_مرکز_ځای__موقعیت_مرکز":"نوړه کلی","Polling_Center_Location":"Nora Village","Verification_Note":"Building","PS_Male":1,"PS_Female":1,"Map_Accuracy":"تعمیر"},"geometry":{"x":7802578.9674390443,"y":4154042.0491941348}},{"attributes":{"OBJECTID":4381,"ولایت":"پنجشیر","Province":"PANJSHIR","PC_Code":"0802020","ولسوالي":"رخه","District":"RUKHA","د_مرکز_نوم__نام_مرکز":"لیسه ذکور رخه","Polling_Center_Name":"Rukha Boys High School","د_مرکز_ځای__موقعیت_مرکز":"شیخان","Polling_Center_Location":"Shekhan","Verification_Note":"Building","PS_Male":2,"PS_Female":1,"Map_Accuracy":"تعمیر"},"geometry":{"x":7732635.6723501869,"y":4199291.0475116447}},{"attributes":{"OBJECTID":4382,"ولایت":"پنجشیر","Province":"PANJSHIR","PC_Code":"0804011","ولسوالي":"حصه اول خنج","District":"HISSA-E-AWAL KHINJ","د_مرکز_نوم__نام_مرکز":"مسجد جامع پشغور ","Polling_Center_Name":"Peshghur Mosque","د_مرکز_ځای__موقعیت_مرکز":"پشغور ","Polling_Center_Location":"Peshghur","Verification_Note":"Building","PS_Male":0,"PS_Female":2,"Map_Accuracy":"تعمیر"},"geometry":{"x":7758545.6734505408,"y":4218153.1489650309}},{"attributes":{"OBJECTID":4383,"ولایت":"پنجشیر","Province":"PANJSHIR","PC_Code":"0805041","ولسوالي":"عنابه","District":"UNABA","د_مرکز_نوم__نام_مرکز":"مسجد سنگین ","Polling_Center_Name":"Sangeen Mosque","د_مرکز_ځای__موقعیت_مرکز":"سنگین ","Polling_Center_Location":"Sangeen","Verification_Note":"Building","PS_Male":1,"PS_Female":1,"Map_Accuracy":"تعمیر"},"geometry":{"x":7719841.8423851728,"y":4193356.6746933982}},{"attributes":{"OBJECTID":4384,"ولایت":"پنجشیر","Province":"PANJSHIR","PC_Code":"0807079","ولسوالي":"پریان","District":"PARYAN","د_مرکز_نوم__نام_مرکز":"مسجد شهر بلند ","Polling_Center_Name":"Shahr-e- Beland Mosque ","د_مرکز_ځای__موقعیت_مرکز":"شهر بلند ","Polling_Center_Location":"Shahr-e-Beland","Verification_Note":"Village","PS_Male":1,"PS_Female":1,"Map_Accuracy":"قریه"},"geometry":{"x":7801486.7017085738,"y":4256087.2556067929}},{"attributes":{"OBJECTID":4385,"ولایت":"پنجشیر","Province":"PANJSHIR","PC_Code":"0807080","ولسوالي":"پریان","District":"PARYAN","د_مرکز_نوم__نام_مرکز":"مسجد ده پریان","Polling_Center_Name":"Deh Paryan Mosque ","د_مرکز_ځای__موقعیت_مرکز":"ده پریان ","Polling_Center_Location":"Deh Paryan","Verification_Note":"Building","PS_Male":1,"PS_Female":1,"Map_Accuracy":"تعمیر"},"geometry":{"x":7793957.9252093248,"y":4249166.0724282414}},{"attributes":{"OBJECTID":4386,"ولایت":"بغلان","Province":"BAGHLAN","PC_Code":"0901024","ولسوالي":"پلخمری","District":"PUL-E-KHUMRI","د_مرکز_نوم__نام_مرکز":"مکتب تور شهید","Polling_Center_Name":"Toor Shaheed School","د_مرکز_ځای__موقعیت_مرکز":"قریه خلا‌ځی","Polling_Center_Location":"Khalazai Village","Verification_Note":"Building","PS_Male":2,"PS_Female":1,"Map_Accuracy":"تعمیر"},"geometry":{"x":7643432.227394294,"y":4310647.9549382478}},{"attributes":{"OBJECTID":4387,"ولایت":"بغلان","Province":"BAGHLAN","PC_Code":"0901025","ولسوالي":"پلخمری","District":"PUL-E-KHUMRI","د_مرکز_نوم__نام_مرکز":"مکتب لیسه  احمد زی","Polling_Center_Name":"Ahmadzai high School ","د_مرکز_ځای__موقعیت_مرکز":"جوی نو احمدزی","Polling_Center_Location":"Joy Naw Ahmadzai","Verification_Note":"Building","PS_Male":2,"PS_Female":1,"Map_Accuracy":"تعمیر"},"geometry":{"x":7641793.7848273888,"y":4292138.8948650658}},{"attributes":{"OBJECTID":4388,"ولایت":"بغلان","Province":"BAGHLAN","PC_Code":"0901228","ولسوالي":"پلخمری","District":"PUL-E-KHUMRI","د_مرکز_نوم__نام_مرکز":"مسجد قول قصابی","Polling_Center_Name":"Qul Qasabi Mosque","د_مرکز_ځای__موقعیت_مرکز":"ناحیه دوم","Polling_Center_Location":"Second Nahia","Verification_Note":"Building","PS_Male":1,"PS_Female":1,"Map_Accuracy":"تعمیر"},"geometry":{"x":7650083.81075887,"y":4292217.757248722}},{"attributes":{"OBJECTID":4389,"ولایت":"بغلان","Province":"BAGHLAN","PC_Code":"0901229","ولسوالي":"پلخمری","District":"PUL-E-KHUMRI","د_مرکز_نوم__نام_مرکز":"مسجد قول پنجشیری ها","Polling_Center_Name":"Panjsheriha Mosque","د_مرکز_ځای__موقعیت_مرکز":"ناحیه اول","Polling_Center_Location":"First Nahia","Verification_Note":"Building","PS_Male":1,"PS_Female":1,"Map_Accuracy":"تعمیر"},"geometry":{"x":7649615.2558901682,"y":4292647.0185467154}},{"attributes":{"OBJECTID":4390,"ولایت":"بغلان","Province":"BAGHLAN","PC_Code":"0902081","ولسوالي":"دهنه غوری","District":"DAHANA-E-GHURI","د_مرکز_نوم__نام_مرکز":"مسجد کلته قول","Polling_Center_Name":"Kalta Qul Mosque","د_مرکز_ځای__موقعیت_مرکز":" قریه چرم آب بالا","Polling_Center_Location":"Charm Aab Bala","Verification_Note":"Building","PS_Male":1,"PS_Female":1,"Map_Accuracy":"تعمیر"},"geometry":{"x":7634909.7763847783,"y":4274420.0412604362}},{"attributes":{"OBJECTID":4391,"ولایت":"بغلان","Province":"BAGHLAN","PC_Code":"0903099","ولسوالي":"دوشی","District":"DUSHI","د_مرکز_نوم__نام_مرکز":"مدرسه جامع قریه کرو ","Polling_Center_Name":"Koro Village Mosque","د_مرکز_ځای__موقعیت_مرکز":"قریه کرو","Polling_Center_Location":"Koro Village","Verification_Note":"Building","PS_Male":2,"PS_Female":2,"Map_Accuracy":"تعمیر"},"geometry":{"x":7659520.9873825647,"y":4242257.247200951}},{"attributes":{"OBJECTID":4392,"ولایت":"بغلان","Province":"BAGHLAN","PC_Code":"0903100","ولسوالي":"دوشی","District":"DUSHI","د_مرکز_نوم__نام_مرکز":"لیسه حضرت علی  دوشی ","Polling_Center_Name":"Hazrat Ali Doshi High School","د_مرکز_ځای__موقعیت_مرکز":"مرکز دوشی","Polling_Center_Location":"Doshi District Center","Verification_Note":"Building","PS_Male":2,"PS_Female":1,"Map_Accuracy":"تعمیر"},"geometry":{"x":7657298.4904092923,"y":4278398.38584172}},{"attributes":{"OBJECTID":4393,"ولایت":"بغلان","Province":"BAGHLAN","PC_Code":"0903109","ولسوالي":"دوشی","District":"DUSHI","د_مرکز_نوم__نام_مرکز":"لیسه قره دکه","Polling_Center_Name":"Qura Daka High School","د_مرکز_ځای__موقعیت_مرکز":"قره دکه","Polling_Center_Location":"Qura Daka","Verification_Note":"Building","PS_Male":2,"PS_Female":2,"Map_Accuracy":"تعمیر"},"geometry":{"x":7657885.0673153251,"y":4278439.354592666}},{"attributes":{"OBJECTID":4394,"ولایت":"بغلان","Province":"BAGHLAN","PC_Code":"0903110","ولسوالي":"دوشی","District":"DUSHI","د_مرکز_نوم__نام_مرکز":"لیسه نسوان چهل غوری  دوشی ","Polling_Center_Name":"Chehl Ghori Doshi Girls High School","د_مرکز_ځای__موقعیت_مرکز":"دوشی","Polling_Center_Location":"Doshi","Verification_Note":"Building","PS_Male":2,"PS_Female":1,"Map_Accuracy":"تعمیر"},"geometry":{"x":7645838.3703579083,"y":4247077.9990561455}},{"attributes":{"OBJECTID":4395,"ولایت":"بغلان","Province":"BAGHLAN","PC_Code":"0908181","ولسوالي":"ده صلاح ","District":"DEH SALAH","د_مرکز_نوم__نام_مرکز":"خیمه در کارگرد ","Polling_Center_Name":"Kar Gard Tent ","د_مرکز_ځای__موقعیت_مرکز":"کارگرد","Polling_Center_Location":"Kar Gard","Verification_Note":"Building","PS_Male":1,"PS_Female":1,"Map_Accuracy":"تعمیر"},"geometry":{"x":7719224.7227504551,"y":4261040.8884625882}},{"attributes":{"OBJECTID":4396,"ولایت":"بغلان","Province":"BAGHLAN","PC_Code":"0909191","ولسوالي":"جلگه","District":"JALGA","د_مرکز_نوم__نام_مرکز":"مسجد جامع زرد اسپان","Polling_Center_Name":"Zard Aspan Mosque","د_مرکز_ځای__موقعیت_مرکز":"زرد اسپان","Polling_Center_Location":"Zard Aspan","Verification_Note":"Building","PS_Male":1,"PS_Female":2,"Map_Accuracy":"تعمیر"},"geometry":{"x":7711756.6020153463,"y":4284386.1063140184}},{"attributes":{"OBJECTID":4397,"ولایت":"بغلان","Province":"BAGHLAN","PC_Code":"0910147","ولسوالي":"برکه","District":"BURKA","د_مرکز_نوم__نام_مرکز":"لیسه ده باش","Polling_Center_Name":"Deh Bash School","د_مرکز_ځای__موقعیت_مرکز":"ده باش","Polling_Center_Location":"Deh Bash","Verification_Note":"Building","PS_Male":2,"PS_Female":1,"Map_Accuracy":"تعمیر"},"geometry":{"x":7691224.1315942518,"y":4335871.2609025612}},{"attributes":{"OBJECTID":4398,"ولایت":"بغلان","Province":"BAGHLAN","PC_Code":"0910148","ولسوالي":"برکه","District":"BURKA","د_مرکز_نوم__نام_مرکز":"مسجد حاجی مومن ","Polling_Center_Name":"Haji Momen Mosque","د_مرکز_ځای__موقعیت_مرکز":"هزار قاق ","Polling_Center_Location":"Hazar Qaq","Verification_Note":"Building","PS_Male":1,"PS_Female":1,"Map_Accuracy":"تعمیر"},"geometry":{"x":7681750.32529211,"y":4341088.0820912868}},{"attributes":{"OBJECTID":4399,"ولایت":"بغلان","Province":"BAGHLAN","PC_Code":"0913207","ولسوالي":"خوست و فرنگ","District":"KHOST WA FIRING","د_مرکز_نوم__نام_مرکز":"مکتب گذر","Polling_Center_Name":"Gozar School","د_مرکز_ځای__موقعیت_مرکز":"گذر","Polling_Center_Location":"Gozar","Verification_Note":"Building","PS_Male":1,"PS_Female":1,"Map_Accuracy":"تعمیر"},"geometry":{"x":7756778.0902555622,"y":4286887.7343079075}}]}