{"objectIdFieldName":"OBJECTID","globalIdFieldName":"","geometryType":"esriGeometryPoint","spatialReference":{"wkid":102100,"latestWkid":3857},"fields":[{"name":"OBJECTID","type":"esriFieldTypeOID","alias":"OBJECTID","sqlType":"sqlTypeOther","domain":null,"defaultValue":null},{"name":"ولایت","type":"esriFieldTypeString","alias":"ولایت","sqlType":"sqlTypeOther","length":255,"domain":null,"defaultValue":null},{"name":"Province","type":"esriFieldTypeString","alias":"Province","sqlType":"sqlTypeOther","length":255,"domain":null,"defaultValue":null},{"name":"PC_Code","type":"esriFieldTypeString","alias":"PC_Code","sqlType":"sqlTypeOther","length":255,"domain":null,"defaultValue":null},{"name":"ولسوالي","type":"esriFieldTypeString","alias":"ولسوالي","sqlType":"sqlTypeOther","length":255,"domain":null,"defaultValue":null},{"name":"District","type":"esriFieldTypeString","alias":"District","sqlType":"sqlTypeOther","length":255,"domain":null,"defaultValue":null},{"name":"د_مرکز_نوم__نام_مرکز","type":"esriFieldTypeString","alias":"د_مرکز_نوم__نام_مرکز","sqlType":"sqlTypeOther","length":255,"domain":null,"defaultValue":null},{"name":"Polling_Center_Name","type":"esriFieldTypeString","alias":"Polling_Center_Name","sqlType":"sqlTypeOther","length":255,"domain":null,"defaultValue":null},{"name":"د_مرکز_ځای__موقعیت_مرکز","type":"esriFieldTypeString","alias":"د_مرکز_ځای__موقعیت_مرکز","sqlType":"sqlTypeOther","length":255,"domain":null,"defaultValue":null},{"name":"Polling_Center_Location","type":"esriFieldTypeString","alias":"Polling_Center_Location","sqlType":"sqlTypeOther","length":255,"domain":null,"defaultValue":null},{"name":"Verification_Note","type":"esriFieldTypeString","alias":"Verification_Note","sqlType":"sqlTypeOther","length":250,"domain":null,"defaultValue":null},{"name":"PS_Male","type":"esriFieldTypeSmallInteger","alias":"PS_Male","sqlType":"sqlTypeOther","domain":null,"defaultValue":null},{"name":"PS_Female","type":"esriFieldTypeSmallInteger","alias":"PS_Female","sqlType":"sqlTypeOther","domain":null,"defaultValue":null},{"name":"Map_Accuracy","type":"esriFieldTypeString","alias":"Map_Accuracy","sqlType":"sqlTypeOther","length":10,"domain":null,"defaultValue":null}],"features":[{"attributes":{"OBJECTID":5000,"ولایت":"خوست","Province":"KHOST","PC_Code":"1411169","ولسوالي":"سپیره","District":"SPERA","د_مرکز_نوم__نام_مرکز":"ضربي دوکانونه","Polling_Center_Name":"Zarbi Shops","د_مرکز_ځای__موقعیت_مرکز":"ضربي کلی","Polling_Center_Location":"Zarbi Village","Verification_Note":"District","PS_Male":2,"PS_Female":0,"Map_Accuracy":"ولسوالی"},"geometry":{"x":7736826.267864421,"y":3918524.7632127106}},{"attributes":{"OBJECTID":5001,"ولایت":"خوست","Province":"KHOST","PC_Code":"1413097","ولسوالي":"ځاځي میدان","District":"JAJI MAIDAN","د_مرکز_نوم__نام_مرکز":"ښوونځی اکاکهول","Polling_Center_Name":"Aka Kahol School","د_مرکز_ځای__موقعیت_مرکز":"اکاکهول","Polling_Center_Location":"Aka Kahol  ","Verification_Note":"Building","PS_Male":2,"PS_Female":2,"Map_Accuracy":"تعمیر"},"geometry":{"x":7801338.7469733581,"y":3978575.5583435073}},{"attributes":{"OBJECTID":5002,"ولایت":"کنړ ","Province":"KUNAR","PC_Code":"1501004","ولسوالي":"اسعد آباد","District":"ASAD ABAD","د_مرکز_نوم__نام_مرکز":"متوسطه قریه کرهاله","Polling_Center_Name":"Kirhala Secondary School","د_مرکز_ځای__موقعیت_مرکز":" کرهاله","Polling_Center_Location":"Kirhala","Verification_Note":"Building","PS_Male":5,"PS_Female":3,"Map_Accuracy":"تعمیر"},"geometry":{"x":7920992.0289559253,"y":4146938.8373775557}},{"attributes":{"OBJECTID":5003,"ولایت":"کنړ ","Province":"KUNAR","PC_Code":"1502048","ولسوالي":"مره وره","District":"MARA WARA","د_مرکز_نوم__نام_مرکز":"مسجدقریه","Polling_Center_Name":"Village Mosque","د_مرکز_ځای__موقعیت_مرکز":"بچی","Polling_Center_Location":"Baacha","Verification_Note":"Village","PS_Male":3,"PS_Female":1,"Map_Accuracy":"قریه"},"geometry":{"x":7927645.7529943176,"y":4153176.1650979742}},{"attributes":{"OBJECTID":5004,"ولایت":"کنړ ","Province":"KUNAR","PC_Code":"1502049","ولسوالي":"مره وره","District":"MARA WARA","د_مرکز_نوم__نام_مرکز":"مکتب ابتدائیه","Polling_Center_Name":"Daag Primary School","د_مرکز_ځای__موقعیت_مرکز":"داگ","Polling_Center_Location":"Daag","Verification_Note":"Village","PS_Male":3,"PS_Female":1,"Map_Accuracy":"قریه"},"geometry":{"x":7929028.9555535614,"y":4153852.7750901952}},{"attributes":{"OBJECTID":5005,"ولایت":"کنړ ","Province":"KUNAR","PC_Code":"1504033","ولسوالي":"نرنګ","District":"NARANG","د_مرکز_نوم__نام_مرکز":"مکتب ابتدائیه","Polling_Center_Name":"Primary School","د_مرکز_ځای__موقعیت_مرکز":"کوتکی","Polling_Center_Location":"Kotakai","Verification_Note":"Building","PS_Male":2,"PS_Female":1,"Map_Accuracy":"تعمیر"},"geometry":{"x":7903646.3249748647,"y":4128420.595675081}},{"attributes":{"OBJECTID":5006,"ولایت":"کنړ ","Province":"KUNAR","PC_Code":"1504034","ولسوالي":"نرنګ","District":"NARANG","د_مرکز_نوم__نام_مرکز":"مکتب دخترانه","Polling_Center_Name":"Girls School","د_مرکز_ځای__موقعیت_مرکز":"بر نرنګ","Polling_Center_Location":"Bar Narang","Verification_Note":"Building","PS_Male":2,"PS_Female":1,"Map_Accuracy":"تعمیر"},"geometry":{"x":7911209.9723046124,"y":4131417.9079220966}},{"attributes":{"OBJECTID":5007,"ولایت":"کنړ ","Province":"KUNAR","PC_Code":"1506065","ولسوالي":"شیګل و شیلتن","District":"SHIGAL WA SHILTAN","د_مرکز_نوم__نام_مرکز":"مکتب ابتدائیه","Polling_Center_Name":"Mony Primary School","د_مرکز_ځای__موقعیت_مرکز":"مونی","Polling_Center_Location":"Mony","Verification_Note":"Building","PS_Male":3,"PS_Female":3,"Map_Accuracy":"تعمیر"},"geometry":{"x":7932404.0589872822,"y":4160828.6048771292}},{"attributes":{"OBJECTID":5008,"ولایت":"کنړ ","Province":"KUNAR","PC_Code":"1507024","ولسوالي":"دره پیچ","District":"DARA-E-PECH","د_مرکز_نوم__نام_مرکز":"لیسه لیچلام","Polling_Center_Name":"Lacha lam High School","د_مرکز_ځای__موقعیت_مرکز":"لیچلام  ","Polling_Center_Location":"Lacha Lam","Verification_Note":"Village","PS_Male":1,"PS_Female":2,"Map_Accuracy":"قریه"},"geometry":{"x":7886671.08669319,"y":4158744.8060897067}},{"attributes":{"OBJECTID":5009,"ولایت":"کنړ ","Province":"KUNAR","PC_Code":"1508061","ولسوالي":"بر کنړ ","District":"BAR KUNAR","د_مرکز_نوم__نام_مرکز":"مسجد ولسوالی","Polling_Center_Name":"District Mosque","د_مرکز_ځای__موقعیت_مرکز":"اسمار بازار","Polling_Center_Location":"Asmar Bazar","Verification_Note":"Building","PS_Male":2,"PS_Female":1,"Map_Accuracy":"تعمیر"},"geometry":{"x":7942513.2468866147,"y":4168376.1716625169}},{"attributes":{"OBJECTID":5010,"ولایت":"کنړ ","Province":"KUNAR","PC_Code":"1510098","ولسوالي":"خاص کنړ","District":"KHAS KUNAR","د_مرکز_نوم__نام_مرکز":"لیسه حکیم آباد","Polling_Center_Name":"Hakim Abad High School","د_مرکز_ځای__موقعیت_مرکز":"حکیم آباد ډاګ","Polling_Center_Location":"Hakim Abad Daag","Verification_Note":"Building","PS_Male":2,"PS_Female":1,"Map_Accuracy":"تعمیر"},"geometry":{"x":7895715.6283409074,"y":4119208.04745014}},{"attributes":{"OBJECTID":5011,"ولایت":"کنړ ","Province":"KUNAR","PC_Code":"1511119","ولسوالي":"غازی آباد","District":"GHAZI ABAD","د_مرکز_نوم__نام_مرکز":"مسجد قریه","Polling_Center_Name":"Kachagul Village Mosque","د_مرکز_ځای__موقعیت_مرکز":"کڅه ګل","Polling_Center_Location":"Kachagul","Verification_Note":"Village","PS_Male":3,"PS_Female":2,"Map_Accuracy":"قریه"},"geometry":{"x":7948637.2604676448,"y":4184857.0015912205}},{"attributes":{"OBJECTID":5012,"ولایت":"کنړ ","Province":"KUNAR","PC_Code":"1513070","ولسوالي":"چپه دره","District":"CHAPA DARA","د_مرکز_نوم__نام_مرکز":"مکتب ابتدائیه","Polling_Center_Name":"Senzi Primary School","د_مرکز_ځای__موقعیت_مرکز":"سینزی","Polling_Center_Location":"Senzi","Verification_Note":"Village","PS_Male":3,"PS_Female":1,"Map_Accuracy":"قریه"},"geometry":{"x":7879868.8301714323,"y":4156538.573398672}},{"attributes":{"OBJECTID":5013,"ولایت":"کنړ ","Province":"KUNAR","PC_Code":"1513071","ولسوالي":"چپه دره","District":"CHAPA DARA","د_مرکز_نوم__نام_مرکز":"لیسه کندی","Polling_Center_Name":"Kandai High School","د_مرکز_ځای__موقعیت_مرکز":"کندی","Polling_Center_Location":"Kandai","Verification_Note":"Village","PS_Male":3,"PS_Female":1,"Map_Accuracy":"قریه"},"geometry":{"x":7879063.5694653168,"y":4157236.3248938546}},{"attributes":{"OBJECTID":5014,"ولایت":"کنړ ","Province":"KUNAR","PC_Code":"1514087","ولسوالي":"نور ګل","District":"NOOR GAL","د_مرکز_نوم__نام_مرکز":"دارالعلوم میاقلعه","Polling_Center_Name":"Mia Qala Dar-ul-Ulom","د_مرکز_ځای__موقعیت_مرکز":"میاقلعه","Polling_Center_Location":"Mia Qala","Verification_Note":"Village","PS_Male":3,"PS_Female":1,"Map_Accuracy":"قریه"},"geometry":{"x":7878167.8416354284,"y":4112119.8814381659}},{"attributes":{"OBJECTID":5015,"ولایت":"نورستان","Province":"NOORISTAN","PC_Code":"1602031","ولسوالي":"وایګل","District":"WAYGAL","د_مرکز_نوم__نام_مرکز":"مکتب متوسطه وانت","Polling_Center_Name":"Want Secondary School","د_مرکز_ځای__موقعیت_مرکز":"وانت","Polling_Center_Location":"Want","Verification_Note":"Building","PS_Male":2,"PS_Female":1,"Map_Accuracy":"تعمیر"},"geometry":{"x":7893436.562142,"y":4171210.9982783496}},{"attributes":{"OBJECTID":5016,"ولایت":"نورستان","Province":"NOORISTAN","PC_Code":"1604019","ولسوالي":"نورګرام","District":"NOOR GRAM","د_مرکز_نوم__نام_مرکز":"مسجد جامع قریه ګده لام","Polling_Center_Name":"Gada Lam Mosque","د_مرکز_ځای__موقعیت_مرکز":"قریه ګده لام","Polling_Center_Location":"Gada Lam","Verification_Note":"Village","PS_Male":1,"PS_Female":1,"Map_Accuracy":"قریه"},"geometry":{"x":7847428.8321939185,"y":4173646.7457090765}},{"attributes":{"OBJECTID":5017,"ولایت":"نورستان","Province":"NOORISTAN","PC_Code":"1608068","ولسوالي":"برګ مټال","District":"BARG-E-MATAL","د_مرکز_نوم__نام_مرکز":"مسجد قریه اناتی","Polling_Center_Name":"Anati Village Mosque","د_مرکز_ځای__موقعیت_مرکز":"قریه اناتی","Polling_Center_Location":"Anati Village","Verification_Note":"Village","PS_Male":3,"PS_Female":2,"Map_Accuracy":"قریه"},"geometry":{"x":7940415.047030367,"y":4283295.07211028}},{"attributes":{"OBJECTID":5018,"ولایت":"بدخشان","Province":"BADAKHSHAN","PC_Code":"1701006","ولسوالي":"فیض آباد","District":"FAIZ ABAD","د_مرکز_نوم__نام_مرکز":"مکتب کول گهی ","Polling_Center_Name":"Kol Gahi School","د_مرکز_ځای__موقعیت_مرکز":"کول گاهی یفتل علیا","Polling_Center_Location":"Kol Gahi Yaftal Ulya","Verification_Note":"Building","PS_Male":1,"PS_Female":1,"Map_Accuracy":"تعمیر"},"geometry":{"x":7867955.2880229317,"y":4466768.7532171682}},{"attributes":{"OBJECTID":5019,"ولایت":"بدخشان","Province":"BADAKHSHAN","PC_Code":"1701016","ولسوالي":"فیض آباد","District":"FAIZ ABAD","د_مرکز_نوم__نام_مرکز":"لیسه نسوان نمبر ۲","Polling_Center_Name":"Girls Number 2 High School","د_مرکز_ځای__موقعیت_مرکز":"ناحیه ۲ شهر کهنه","Polling_Center_Location":"Nahia 2 Shahr Kuhna","Verification_Note":"Building","PS_Male":2,"PS_Female":2,"Map_Accuracy":"تعمیر"},"geometry":{"x":7856636.4491032921,"y":4456354.5349727124}},{"attributes":{"OBJECTID":5020,"ولایت":"بدخشان","Province":"BADAKHSHAN","PC_Code":"1701017","ولسوالي":"فیض آباد","District":"FAIZ ABAD","د_مرکز_نوم__نام_مرکز":"مکتب نغز دره ","Polling_Center_Name":"Naghz Dara School","د_مرکز_ځای__موقعیت_مرکز":"نغز دره","Polling_Center_Location":"Naghz Dara","Verification_Note":"Building","PS_Male":2,"PS_Female":1,"Map_Accuracy":"تعمیر"},"geometry":{"x":7864307.93830293,"y":4475354.93245063}},{"attributes":{"OBJECTID":5021,"ولایت":"بدخشان","Province":"BADAKHSHAN","PC_Code":"1702041","ولسوالي":"ارگو","District":"ARGO","د_مرکز_نوم__نام_مرکز":"لیسه نسوان سید عبدالکریم حسینی ","Polling_Center_Name":"Sayed Abdul Kareem Husaini Girls High School","د_مرکز_ځای__موقعیت_مرکز":"کری","Polling_Center_Location":"Karee","Verification_Note":"Building","PS_Male":2,"PS_Female":2,"Map_Accuracy":"تعمیر"},"geometry":{"x":7849841.7723256536,"y":4454242.7226961106}},{"attributes":{"OBJECTID":5022,"ولایت":"بدخشان","Province":"BADAKHSHAN","PC_Code":"1703224","ولسوالي":"ارغنجخواه","District":"ARGHANJ KHWAH","د_مرکز_نوم__نام_مرکز":"مکتب تگابک ","Polling_Center_Name":"Tagabak School","د_مرکز_ځای__موقعیت_مرکز":"تگابک ","Polling_Center_Location":"Tagabak","Verification_Note":"Building","PS_Male":3,"PS_Female":1,"Map_Accuracy":"تعمیر"},"geometry":{"x":7878204.803045962,"y":4462535.9762816578}},{"attributes":{"OBJECTID":5023,"ولایت":"بدخشان","Province":"BADAKHSHAN","PC_Code":"1704029","ولسوالي":"یفتل سفلا","District":"YAFTAL-E-SUFLA","د_مرکز_نوم__نام_مرکز":"مکتب کشین دره ","Polling_Center_Name":"Kasheen Dara School","د_مرکز_ځای__موقعیت_مرکز":"کشین دره","Polling_Center_Location":"Kasheen Dara","Verification_Note":"Building","PS_Male":1,"PS_Female":2,"Map_Accuracy":"تعمیر"},"geometry":{"x":7828409.585497316,"y":4480726.0478577763}},{"attributes":{"OBJECTID":5024,"ولایت":"بدخشان","Province":"BADAKHSHAN","PC_Code":"1705075","ولسوالي":"خاش","District":"KHASH","د_مرکز_نوم__نام_مرکز":"لیسه نسوان عصمتی ","Polling_Center_Name":"Esmati Girls High School","د_مرکز_ځای__موقعیت_مرکز":"ده نو","Polling_Center_Location":"Deh Naw","Verification_Note":"Building","PS_Male":2,"PS_Female":2,"Map_Accuracy":"تعمیر"},"geometry":{"x":7877417.5538334586,"y":4428880.7576680854}},{"attributes":{"OBJECTID":5025,"ولایت":"بدخشان","Province":"BADAKHSHAN","PC_Code":"1706109","ولسوالي":"بهارک","District":"BAHARAK","د_مرکز_نوم__نام_مرکز":"مکتب فرمراغ","Polling_Center_Name":"Farmoragh School","د_مرکز_ځای__موقعیت_مرکز":"فرمراغ","Polling_Center_Location":"Farmoragh","Verification_Note":"Building","PS_Male":1,"PS_Female":1,"Map_Accuracy":"تعمیر"},"geometry":{"x":7886841.2763834894,"y":4443802.8621509075}},{"attributes":{"OBJECTID":5026,"ولایت":"بدخشان","Province":"BADAKHSHAN","PC_Code":"1707069","ولسوالي":"درایم","District":"DARAYIM","د_مرکز_نوم__نام_مرکز":"لیسه دوآبه مغل تای ","Polling_Center_Name":"Do-Aab Mughal Tai High School","د_مرکز_ځای__موقعیت_مرکز":"خم میرهرزر","Polling_Center_Location":"Khum Mir Harzar","Verification_Note":"Building","PS_Male":2,"PS_Female":2,"Map_Accuracy":"تعمیر"},"geometry":{"x":7837939.2819762044,"y":4418673.2080753744}},{"attributes":{"OBJECTID":5027,"ولایت":"بدخشان","Province":"BADAKHSHAN","PC_Code":"1709127","ولسوالي":"یاوان","District":"YAWAN","د_مرکز_نوم__نام_مرکز":"مکتب یاوان ","Polling_Center_Name":"Yawan School","د_مرکز_ځای__موقعیت_مرکز":"یاوان","Polling_Center_Location":"Yawan","Verification_Note":"Building","PS_Male":1,"PS_Female":1,"Map_Accuracy":"تعمیر"},"geometry":{"x":7841967.7261805609,"y":4514732.1890926212}},{"attributes":{"OBJECTID":5028,"ولایت":"بدخشان","Province":"BADAKHSHAN","PC_Code":"1709128","ولسوالي":"یاوان","District":"YAWAN","د_مرکز_نوم__نام_مرکز":"مکتب ساری ","Polling_Center_Name":"Saari School","د_مرکز_ځای__موقعیت_مرکز":"ساری ","Polling_Center_Location":"Saari","Verification_Note":"Building","PS_Male":1,"PS_Female":1,"Map_Accuracy":"تعمیر"},"geometry":{"x":7835735.05587095,"y":4510863.8376319408}},{"attributes":{"OBJECTID":5029,"ولایت":"بدخشان","Province":"BADAKHSHAN","PC_Code":"1710081","ولسوالي":"جرم","District":"JURM","د_مرکز_نوم__نام_مرکز":"لیسه فرغامنج ","Polling_Center_Name":"Ferghamenj High School","د_مرکز_ځای__موقعیت_مرکز":"فرغامنج ","Polling_Center_Location":"Ferghamenj","Verification_Note":"Building","PS_Male":2,"PS_Female":1,"Map_Accuracy":"تعمیر"},"geometry":{"x":7891220.6229999289,"y":4426283.1377932653}},{"attributes":{"OBJECTID":5030,"ولایت":"بدخشان","Province":"BADAKHSHAN","PC_Code":"1711178","ولسوالي":"تشکان ","District":"TASHKAN","د_مرکز_نوم__نام_مرکز":"مکتب غوری سنگ","Polling_Center_Name":"Ghori Sang School","د_مرکز_ځای__موقعیت_مرکز":"غوری سنگ","Polling_Center_Location":"Ghori Sang","Verification_Note":"Building","PS_Male":1,"PS_Female":1,"Map_Accuracy":"تعمیر"},"geometry":{"x":7844051.4578425847,"y":4398459.7736759186}},{"attributes":{"OBJECTID":5031,"ولایت":"بدخشان","Province":"BADAKHSHAN","PC_Code":"1712114","ولسوالي":"شهدا","District":"SHUHADA","د_مرکز_نوم__نام_مرکز":"مکتب ابو طلحه","Polling_Center_Name":"Abu Talha School","د_مرکز_ځای__موقعیت_مرکز":"قریه جویبار","Polling_Center_Location":"Joybar Village","Verification_Note":"Building","PS_Male":2,"PS_Female":1,"Map_Accuracy":"تعمیر"},"geometry":{"x":7907085.6653207466,"y":4443395.4741959944}},{"attributes":{"OBJECTID":5032,"ولایت":"بدخشان","Province":"BADAKHSHAN","PC_Code":"1713141","ولسوالي":"شهر بزرگ","District":"SHAHR-E-BUZURG","د_مرکز_نوم__نام_مرکز":"مکتب شیخان ","Polling_Center_Name":"Shekhan School","د_مرکز_ځای__موقعیت_مرکز":"شیخان","Polling_Center_Location":"Shekhan","Verification_Note":"Building","PS_Male":1,"PS_Female":1,"Map_Accuracy":"تعمیر"},"geometry":{"x":7802066.8821966611,"y":4480916.5170473531}},{"attributes":{"OBJECTID":5033,"ولایت":"بدخشان","Province":"BADAKHSHAN","PC_Code":"1718256","ولسوالي":"یمگان","District":"YAMGAN","د_مرکز_نوم__نام_مرکز":"مکتب اشنام ","Polling_Center_Name":"Ashnaam School","د_مرکز_ځای__موقعیت_مرکز":"مزار","Polling_Center_Location":"Mazar","Verification_Note":"Building","PS_Male":2,"PS_Female":1,"Map_Accuracy":"تعمیر"},"geometry":{"x":7880909.7419944033,"y":4383665.5122270361}},{"attributes":{"OBJECTID":5034,"ولایت":"بدخشان","Province":"BADAKHSHAN","PC_Code":"1719219","ولسوالي":"شغنان","District":"SHIGHNAN","د_مرکز_نوم__نام_مرکز":"مکتب درمارخت ","Polling_Center_Name":"Darmarakht School","د_مرکز_ځای__موقعیت_مرکز":"درمارخت","Polling_Center_Location":"Darmarakht","Verification_Note":"Building","PS_Male":2,"PS_Female":1,"Map_Accuracy":"تعمیر"},"geometry":{"x":7955533.1255492158,"y":4486337.5327466428}},{"attributes":{"OBJECTID":5035,"ولایت":"بدخشان","Province":"BADAKHSHAN","PC_Code":"1721247","ولسوالي":"کوف آب","District":"KUFAB","د_مرکز_نوم__نام_مرکز":"مکتب نشهر ","Polling_Center_Name":"Nashahr School","د_مرکز_ځای__موقعیت_مرکز":"قریه نشهر","Polling_Center_Location":"Nashahr Village","Verification_Note":"Building","PS_Male":2,"PS_Female":2,"Map_Accuracy":"تعمیر"},"geometry":{"x":7847894.6875649691,"y":4579435.5164678916}},{"attributes":{"OBJECTID":5036,"ولایت":"بدخشان","Province":"BADAKHSHAN","PC_Code":"1722264","ولسوالي":"درواز پائین (مایمی)","District":"DARWAZ-E-PAYIN","د_مرکز_نوم__نام_مرکز":"مکتب جامرچ","Polling_Center_Name":"Jamarch School","د_مرکز_ځای__موقعیت_مرکز":"قریه جامرچ","Polling_Center_Location":"Jamarch Village","Verification_Note":"Village","PS_Male":1,"PS_Female":1,"Map_Accuracy":"قریه"},"geometry":{"x":7939509.3338421583,"y":4618923.8719760925}},{"attributes":{"OBJECTID":5037,"ولایت":"بدخشان","Province":"BADAKHSHAN","PC_Code":"1722265","ولسوالي":"درواز پائین (مایمی)","District":"DARWAZ-E-PAYIN","د_مرکز_نوم__نام_مرکز":"مکتب غمی","Polling_Center_Name":"Ghamai School","د_مرکز_ځای__موقعیت_مرکز":"قریه غمی","Polling_Center_Location":"Ghamai Village","Verification_Note":"Village","PS_Male":1,"PS_Female":1,"Map_Accuracy":"قریه"},"geometry":{"x":7934916.9606821649,"y":4600030.1894493923}},{"attributes":{"OBJECTID":5038,"ولایت":"بدخشان","Province":"BADAKHSHAN","PC_Code":"1724278","ولسوالي":"شکی","District":"SHIKI","د_مرکز_نوم__نام_مرکز":"مکتب عالی شهر سبز","Polling_Center_Name":"Shahr Sabz High School","د_مرکز_ځای__موقعیت_مرکز":" شهر سبز","Polling_Center_Location":"Shahr Sabz","Verification_Note":"Village","PS_Male":2,"PS_Female":1,"Map_Accuracy":"قریه"},"geometry":{"x":7848863.0201931447,"y":4597661.3172143549}},{"attributes":{"OBJECTID":5039,"ولایت":"بدخشان","Province":"BADAKHSHAN","PC_Code":"1726189","ولسوالي":"کران و منجان ","District":"KIRAN WA MENJAN","د_مرکز_نوم__نام_مرکز":"کلینیک اسکازر","Polling_Center_Name":"Askazar Clinic","د_مرکز_ځای__موقعیت_مرکز":"اسکازر","Polling_Center_Location":"Askazar","Verification_Note":"Building","PS_Male":1,"PS_Female":1,"Map_Accuracy":"تعمیر"},"geometry":{"x":7868183.4517908394,"y":4303644.2051648572}},{"attributes":{"OBJECTID":5040,"ولایت":"بدخشان","Province":"BADAKHSHAN","PC_Code":"1728204","ولسوالي":"واخان","District":"WAKHAN","د_مرکز_نوم__نام_مرکز":"مکتب شخور","Polling_Center_Name":"Shakhor School","د_مرکز_ځای__موقعیت_مرکز":"شخور","Polling_Center_Location":"Shakhor","Verification_Note":"Building","PS_Male":1,"PS_Female":1,"Map_Accuracy":"تعمیر"},"geometry":{"x":8005788.3096678331,"y":4401354.0642834455}},{"attributes":{"OBJECTID":5041,"ولایت":"تخار","Province":"TAKHAR","PC_Code":"1801004","ولسوالي":"تالقان","District":"TALUQAN","د_مرکز_نوم__نام_مرکز":"مکتب انجنر نیک محمد","Polling_Center_Name":"Engineer Nek Mohammad School","د_مرکز_ځای__موقعیت_مرکز":"قرملا","Polling_Center_Location":"Qarmala","Verification_Note":"Building","PS_Male":2,"PS_Female":1,"Map_Accuracy":"تعمیر"},"geometry":{"x":7745580.490506541,"y":4394352.0915683135}},{"attributes":{"OBJECTID":5042,"ولایت":"تخار","Province":"TAKHAR","PC_Code":"1801014","ولسوالي":"تالقان","District":"TALUQAN","د_مرکز_نوم__نام_مرکز":"ریاست زراعت","Polling_Center_Name":"Agriculture Department ","د_مرکز_ځای__موقعیت_مرکز":"ناحیه دوم","Polling_Center_Location":"D02 - Nahia 2","Verification_Note":"Building","PS_Male":4,"PS_Female":2,"Map_Accuracy":"تعمیر"},"geometry":{"x":7741591.34430882,"y":4402229.3776188865}},{"attributes":{"OBJECTID":5043,"ولایت":"تخار","Province":"TAKHAR","PC_Code":"1801025","ولسوالي":"تالقان","District":"TALUQAN","د_مرکز_نوم__نام_مرکز":"لیسه تودان","Polling_Center_Name":"Todan High School","د_مرکز_ځای__موقعیت_مرکز":"قریه تودان","Polling_Center_Location":"Todan Village","Verification_Note":"Building","PS_Male":2,"PS_Female":1,"Map_Accuracy":"تعمیر"},"geometry":{"x":7759317.2644634619,"y":4397824.5724408329}},{"attributes":{"OBJECTID":5044,"ولایت":"تخار","Province":"TAKHAR","PC_Code":"1801184","ولسوالي":"تالقان","District":"TALUQAN","د_مرکز_نوم__نام_مرکز":"ليسه آهن دره ","Polling_Center_Name":"Ahan Dara High School","د_مرکز_ځای__موقعیت_مرکز":"کولابی","Polling_Center_Location":"Kolabi","Verification_Note":"Building","PS_Male":2,"PS_Female":1,"Map_Accuracy":"تعمیر"},"geometry":{"x":7747496.9557280913,"y":4400459.9251744226}},{"attributes":{"OBJECTID":5045,"ولایت":"تخار","Province":"TAKHAR","PC_Code":"1803041","ولسوالي":"بهارک","District":"BAHARAK","د_مرکز_نوم__نام_مرکز":"مکتب ابتدائیه حضرت عمر","Polling_Center_Name":"Hazrat Omar Primary School","د_مرکز_ځای__موقعیت_مرکز":"دوراهی","Polling_Center_Location":"Do Rahi","Verification_Note":"Building","PS_Male":4,"PS_Female":3,"Map_Accuracy":"تعمیر"},"geometry":{"x":7724704.3055728972,"y":4408171.0959434658}},{"attributes":{"OBJECTID":5046,"ولایت":"تخار","Province":"TAKHAR","PC_Code":"1805076","ولسوالي":"چال","District":"CHAL","د_مرکز_نوم__نام_مرکز":"لیسه عبدالواحد شهید","Polling_Center_Name":"Abdul Wahid Shaheed High School","د_مرکز_ځای__موقعیت_مرکز":"ماندره","Polling_Center_Location":"Mandara","Verification_Note":"Building","PS_Male":2,"PS_Female":2,"Map_Accuracy":"تعمیر"},"geometry":{"x":7740969.4880297706,"y":4362390.0319912955}},{"attributes":{"OBJECTID":5047,"ولایت":"تخار","Province":"TAKHAR","PC_Code":"1807096","ولسوالي":"کلفگان","District":"KALAFGAN","د_مرکز_نوم__نام_مرکز":"لیسه ابوالحسن خرقاني","Polling_Center_Name":"Abul Hassan Kherqani High School","د_مرکز_ځای__موقعیت_مرکز":"حوزه شهر","Polling_Center_Location":"Hawza Shahr","Verification_Note":"Building","PS_Male":3,"PS_Female":2,"Map_Accuracy":"تعمیر"},"geometry":{"x":7786053.071395155,"y":4407914.0103719383}},{"attributes":{"OBJECTID":5048,"ولایت":"تخار","Province":"TAKHAR","PC_Code":"1808089","ولسوالي":"فرخار","District":"FARKHAR","د_مرکز_نوم__نام_مرکز":"لیسه سید عبدالرحمن شهید ","Polling_Center_Name":"Sayed Abdul Rahman Shaheed High School","د_مرکز_ځای__موقعیت_مرکز":"خانقا","Polling_Center_Location":"Khanqah","Verification_Note":"Building","PS_Male":2,"PS_Female":1,"Map_Accuracy":"تعمیر"},"geometry":{"x":7783219.2289291471,"y":4382612.5862331986}},{"attributes":{"OBJECTID":5049,"ولایت":"تخار","Province":"TAKHAR","PC_Code":"1809050","ولسوالي":"خواجه غار","District":"KHWAJA GHAR","د_مرکز_نوم__نام_مرکز":"لیسه عاقله مامه یی","Polling_Center_Name":"Aaqela Mama ye High School","د_مرکز_ځای__موقعیت_مرکز":"عا قله  مامه یی","Polling_Center_Location":"Aaqela Mama ye","Verification_Note":"Building","PS_Male":2,"PS_Female":2,"Map_Accuracy":"تعمیر"},"geometry":{"x":7739396.7662638389,"y":4445065.3167393729}},{"attributes":{"OBJECTID":5050,"ولایت":"تخار","Province":"TAKHAR","PC_Code":"1810102","ولسوالي":"رستاق","District":"RUSTAQ","د_مرکز_نوم__نام_مرکز":"لیسه نسوان شهر کهنه","Polling_Center_Name":"Shahr Kuhna Girls High School","د_مرکز_ځای__موقعیت_مرکز":"شهرکهنه رستاق","Polling_Center_Location":"Shahr Kuhna Rostaq","Verification_Note":"Building","PS_Male":2,"PS_Female":2,"Map_Accuracy":"تعمیر"},"geometry":{"x":7772882.2724461,"y":4457181.5149234533}},{"attributes":{"OBJECTID":5051,"ولایت":"تخار","Province":"TAKHAR","PC_Code":"1810113","ولسوالي":"رستاق","District":"RUSTAQ","د_مرکز_نوم__نام_مرکز":"لیسه مولانا جلال الدین ","Polling_Center_Name":"Mawlana Jalaluddin High School","د_مرکز_ځای__موقعیت_مرکز":"آب آسیابا","Polling_Center_Location":"Aab Asyaba","Verification_Note":"Building","PS_Male":2,"PS_Female":2,"Map_Accuracy":"تعمیر"},"geometry":{"x":7793886.99576937,"y":4439917.8993022889}},{"attributes":{"OBJECTID":5052,"ولایت":"تخار","Province":"TAKHAR","PC_Code":"1810124","ولسوالي":"رستاق","District":"RUSTAQ","د_مرکز_نوم__نام_مرکز":"لیسه خواجه علاوالدین","Polling_Center_Name":"Khwaja Alauddin High School","د_مرکز_ځای__موقعیت_مرکز":"لاله میدان","Polling_Center_Location":"Lala Maidan","Verification_Note":"Building","PS_Male":2,"PS_Female":2,"Map_Accuracy":"تعمیر"},"geometry":{"x":7740585.0049801022,"y":4445070.2524256781}},{"attributes":{"OBJECTID":5053,"ولایت":"تخار","Province":"TAKHAR","PC_Code":"1810125","ولسوالي":"رستاق","District":"RUSTAQ","د_مرکز_نوم__نام_مرکز":"مکتب متوسطه حضرت بلال","Polling_Center_Name":"Hazrat Bilal Secondary School","د_مرکز_ځای__موقعیت_مرکز":"ایلکاشان","Polling_Center_Location":"Elkashan","Verification_Note":"Building","PS_Male":2,"PS_Female":1,"Map_Accuracy":"تعمیر"},"geometry":{"x":7795948.303233169,"y":4448683.1687145308}},{"attributes":{"OBJECTID":5054,"ولایت":"تخار","Province":"TAKHAR","PC_Code":"1811064","ولسوالي":"اشکمش","District":"ESHKAMESH","د_مرکز_نوم__نام_مرکز":"لیسه طارق شهید","Polling_Center_Name":"Tariq Shaheed High School","د_مرکز_ځای__موقعیت_مرکز":"شهر کهنه اشکمش","Polling_Center_Location":"Shahr Kuhna Ashkmash","Verification_Note":"Building","PS_Male":5,"PS_Female":3,"Map_Accuracy":"تعمیر"},"geometry":{"x":7717500.3270651251,"y":4353384.2559414357}},{"attributes":{"OBJECTID":5055,"ولایت":"تخار","Province":"TAKHAR","PC_Code":"1811191","ولسوالي":"اشکمش","District":"ESHKAMESH","د_مرکز_نوم__نام_مرکز":"مسجد سياه دره ","Polling_Center_Name":"Siyah Dara Mosque","د_مرکز_ځای__موقعیت_مرکز":"سياه دره ","Polling_Center_Location":"Siyah Dara","Verification_Note":"Building","PS_Male":1,"PS_Female":1,"Map_Accuracy":"تعمیر"},"geometry":{"x":7737793.7867471166,"y":4361654.944659166}},{"attributes":{"OBJECTID":5056,"ولایت":"تخار","Province":"TAKHAR","PC_Code":"1813176","ولسوالي":"ورسج","District":"WARSAJ","د_مرکز_نوم__نام_مرکز":"لیسه سید اکرام الدین شهید","Polling_Center_Name":"Sayed Ikramuddin Shaheed High School","د_مرکز_ځای__موقعیت_مرکز":"ترشت","Polling_Center_Location":"Tarasht","Verification_Note":"Building","PS_Male":4,"PS_Female":2,"Map_Accuracy":"تعمیر"},"geometry":{"x":7782682.7034925669,"y":4332300.872331202}},{"attributes":{"OBJECTID":5057,"ولایت":"تخار","Province":"TAKHAR","PC_Code":"1814157","ولسوالي":"خواجه بهاوالدین","District":"KHWAJA BAHAWUDIN","د_مرکز_نوم__نام_مرکز":"لیسه ذکورکتک جر","Polling_Center_Name":"Katak Jar Boys High School","د_مرکز_ځای__موقعیت_مرکز":"کتک جر","Polling_Center_Location":"Katak Jar","Verification_Note":"Building","PS_Male":2,"PS_Female":1,"Map_Accuracy":"تعمیر"},"geometry":{"x":7735806.2618418187,"y":4482287.7621273547}},{"attributes":{"OBJECTID":5058,"ولایت":"تخار","Province":"TAKHAR","PC_Code":"1815166","ولسوالي":"درقد","District":"DARQAD","د_مرکز_نوم__نام_مرکز":"لیسه ذکورقول آباد","Polling_Center_Name":"Qol Abad Boys High School","د_مرکز_ځای__موقعیت_مرکز":"قول آباد","Polling_Center_Location":"Qol Abad","Verification_Note":"Building","PS_Male":2,"PS_Female":1,"Map_Accuracy":"تعمیر"},"geometry":{"x":7740714.6799417287,"y":4500572.7918270752}},{"attributes":{"OBJECTID":5059,"ولایت":"تخار","Province":"TAKHAR","PC_Code":"1816141","ولسوالي":"چا آب","District":"CHAH AB","د_مرکز_نوم__نام_مرکز":"مکتب متوسطۀ شاه دره","Polling_Center_Name":"Shah Dara Secondary School","د_مرکز_ځای__موقعیت_مرکز":"شاه دره","Polling_Center_Location":"Shah Dara","Verification_Note":"Building","PS_Male":2,"PS_Female":2,"Map_Accuracy":"تعمیر"},"geometry":{"x":7786703.161636658,"y":4486317.9240689352}},{"attributes":{"OBJECTID":5060,"ولایت":"تخار","Province":"TAKHAR","PC_Code":"1817150","ولسوالي":"ینگی قلعه","District":"YANGI QALA","د_مرکز_نوم__نام_مرکز":"مکتب عمرخیل ","Polling_Center_Name":"Umar Khel School","د_مرکز_ځای__موقعیت_مرکز":"عمر خیل","Polling_Center_Location":"Umar Khel","Verification_Note":"Building","PS_Male":2,"PS_Female":2,"Map_Accuracy":"تعمیر"},"geometry":{"x":7743633.7441571094,"y":4499233.7253543064}},{"attributes":{"OBJECTID":5061,"ولایت":"کندز","Province":"KUNDUZ","PC_Code":"1901008","ولسوالي":"کندز","District":"KUNDUZ","د_مرکز_نوم__نام_مرکز":"لیسه نسوان مرکزی","Polling_Center_Name":"Girls Central High School","د_مرکز_ځای__موقعیت_مرکز":"ناحیه دوم","Polling_Center_Location":"D02 - Nahia 2","Verification_Note":"Building","PS_Male":2,"PS_Female":5,"Map_Accuracy":"تعمیر"},"geometry":{"x":7665650.8073882423,"y":4401189.0453753173}},{"attributes":{"OBJECTID":5062,"ولایت":"کندز","Province":"KUNDUZ","PC_Code":"1901018","ولسوالي":"کندز","District":"KUNDUZ","د_مرکز_نوم__نام_مرکز":"لیسه ذاخیل","Polling_Center_Name":"Zakhil High School","د_مرکز_ځای__موقعیت_مرکز":"ناحیه سوم","Polling_Center_Location":"D03 - Nahia 3","Verification_Note":"Building","PS_Male":4,"PS_Female":3,"Map_Accuracy":"تعمیر"},"geometry":{"x":7664462.2814676911,"y":4401850.2169660628}},{"attributes":{"OBJECTID":5063,"ولایت":"کندز","Province":"KUNDUZ","PC_Code":"1901030","ولسوالي":"کندز","District":"KUNDUZ","د_مرکز_نوم__نام_مرکز":"مکتب چله مزار","Polling_Center_Name":"Chala Mazar School","د_مرکز_ځای__موقعیت_مرکز":"ناحیه اول","Polling_Center_Location":"D01 - Nahia 1","Verification_Note":"Building","PS_Male":2,"PS_Female":2,"Map_Accuracy":"تعمیر"},"geometry":{"x":7669664.4794961773,"y":4398963.3597283959}},{"attributes":{"OBJECTID":5064,"ولایت":"کندز","Province":"KUNDUZ","PC_Code":"1901041","ولسوالي":"کندز","District":"KUNDUZ","د_مرکز_نوم__نام_مرکز":"مکتب متوطه گل تیپه","Polling_Center_Name":"Gul Tipa Secondary School","د_مرکز_ځای__موقعیت_مرکز":"قریه عرب ها","Polling_Center_Location":"Arabha Village","Verification_Note":"Building","PS_Male":1,"PS_Female":2,"Map_Accuracy":"تعمیر"},"geometry":{"x":7647732.5304930918,"y":4412766.0105954781}},{"attributes":{"OBJECTID":5065,"ولایت":"کندز","Province":"KUNDUZ","PC_Code":"1901052","ولسوالي":"کندز","District":"KUNDUZ","د_مرکز_نوم__نام_مرکز":"مکتب متوسطه ارباب چاری","Polling_Center_Name":"Arbab Chari Secondary School","د_مرکز_ځای__موقعیت_مرکز":"قوی گذر","Polling_Center_Location":"Qoy Guzar","Verification_Note":"Building","PS_Male":2,"PS_Female":2,"Map_Accuracy":"تعمیر"},"geometry":{"x":7659708.6286294423,"y":4415398.7628459111}},{"attributes":{"OBJECTID":5066,"ولایت":"کندز","Province":"KUNDUZ","PC_Code":"1902116","ولسوالي":"چاردره","District":"CHAR DARA","د_مرکز_نوم__نام_مرکز":"لیسه محمد فتاح شهید","Polling_Center_Name":"Mohammad Fataah Shaheed High School","د_مرکز_ځای__موقعیت_مرکز":"قریه قصاب","Polling_Center_Location":"Qasab Village","Verification_Note":"Building","PS_Male":2,"PS_Female":1,"Map_Accuracy":"تعمیر"},"geometry":{"x":7665156.3787529394,"y":4382793.8419686109}},{"attributes":{"OBJECTID":5067,"ولایت":"کندز","Province":"KUNDUZ","PC_Code":"1902127","ولسوالي":"چاردره","District":"CHAR DARA","د_مرکز_نوم__نام_مرکز":"مکتب نوآباد","Polling_Center_Name":"Nawabad School","د_مرکز_ځای__موقعیت_مرکز":"نوآباد","Polling_Center_Location":"Nawabad","Verification_Note":"Building","PS_Male":4,"PS_Female":2,"Map_Accuracy":"تعمیر"},"geometry":{"x":7650973.1410576254,"y":4397603.3774563}},{"attributes":{"OBJECTID":5068,"ولایت":"کندز","Province":"KUNDUZ","PC_Code":"1903135","ولسوالي":"علی آباد","District":"ALI ABAD","د_مرکز_نوم__نام_مرکز":"لیسه ذکور سید احمد","Polling_Center_Name":"Sayed Ahmad Boys School","د_مرکز_ځای__موقعیت_مرکز":"قریه سید احمد","Polling_Center_Location":"Sayed Ahmad Village","Verification_Note":"Building","PS_Male":1,"PS_Female":1,"Map_Accuracy":"تعمیر"},"geometry":{"x":7667182.7617302537,"y":4375533.3244414851}},{"attributes":{"OBJECTID":5069,"ولایت":"کندز","Province":"KUNDUZ","PC_Code":"1904143","ولسوالي":"خان آباد","District":"KHAN ABAD","د_مرکز_نوم__نام_مرکز":"لیسه آقتاش","Polling_Center_Name":"Aaqtash High School","د_مرکز_ځای__موقعیت_مرکز":"قریه آقتاش","Polling_Center_Location":"Aaqtash Village","Verification_Note":"Building","PS_Male":2,"PS_Female":1,"Map_Accuracy":"تعمیر"},"geometry":{"x":7690168.1014712267,"y":4402149.2259030044}},{"attributes":{"OBJECTID":5070,"ولایت":"کندز","Province":"KUNDUZ","PC_Code":"1904154","ولسوالي":"خان آباد","District":"KHAN ABAD","د_مرکز_نوم__نام_مرکز":"لیسه نسوان خان آباد","Polling_Center_Name":"Khan Abad Girls High School","د_مرکز_ځای__موقعیت_مرکز":"ناحیه چهارم مرکز شهر خان آباد","Polling_Center_Location":"D04 - Nahia 4 Khan Abad City","Verification_Note":"Building","PS_Male":0,"PS_Female":3,"Map_Accuracy":"تعمیر"},"geometry":{"x":7693661.3482805379,"y":4394591.791288875}},{"attributes":{"OBJECTID":5071,"ولایت":"کندز","Province":"KUNDUZ","PC_Code":"1905058","ولسوالي":"حضرت امام صاحب","District":"HAZRAT-E-IMAM SAHIB","د_مرکز_نوم__نام_مرکز":"مکتب کول دامن","Polling_Center_Name":"Kol Daman School","د_مرکز_ځای__موقعیت_مرکز":"قریه کول دامن","Polling_Center_Location":"Kol Daman Village","Verification_Note":"Building","PS_Male":2,"PS_Female":2,"Map_Accuracy":"تعمیر"},"geometry":{"x":7690636.0062340982,"y":4454036.3892460912}},{"attributes":{"OBJECTID":5072,"ولایت":"کندز","Province":"KUNDUZ","PC_Code":"1905068","ولسوالي":"حضرت امام صاحب","District":"HAZRAT-E-IMAM SAHIB","د_مرکز_نوم__نام_مرکز":"مکتب آق مسجد","Polling_Center_Name":"Aaq Masjid School","د_مرکز_ځای__موقعیت_مرکز":"قریه آق مسجد","Polling_Center_Location":"Aaq Masjid Village","Verification_Note":"Building","PS_Male":2,"PS_Female":1,"Map_Accuracy":"تعمیر"},"geometry":{"x":7670082.2615451217,"y":4473397.2114301473}},{"attributes":{"OBJECTID":5073,"ولایت":"کندز","Province":"KUNDUZ","PC_Code":"1905078","ولسوالي":"حضرت امام صاحب","District":"HAZRAT-E-IMAM SAHIB","د_مرکز_نوم__نام_مرکز":"مکتب متوسطه گنبد","Polling_Center_Name":"Gunbad Secondary School","د_مرکز_ځای__موقعیت_مرکز":"گنبد","Polling_Center_Location":"Gunbad","Verification_Note":"Building","PS_Male":2,"PS_Female":1,"Map_Accuracy":"تعمیر"},"geometry":{"x":7678201.18830606,"y":4458857.6914219856}},{"attributes":{"OBJECTID":5074,"ولایت":"کندز","Province":"KUNDUZ","PC_Code":"1905079","ولسوالي":"حضرت امام صاحب","District":"HAZRAT-E-IMAM SAHIB","د_مرکز_نوم__نام_مرکز":"مکتب آلچین","Polling_Center_Name":"Aalchin School","د_مرکز_ځای__موقعیت_مرکز":"قریه آلچین","Polling_Center_Location":"Aalcheen Village","Verification_Note":"Village","PS_Male":3,"PS_Female":1,"Map_Accuracy":"قریه"},"geometry":{"x":7685501.126441285,"y":4458265.1416494027}},{"attributes":{"OBJECTID":5075,"ولایت":"کندز","Province":"KUNDUZ","PC_Code":"1905087","ولسوالي":"حضرت امام صاحب","District":"HAZRAT-E-IMAM SAHIB","د_مرکز_نوم__نام_مرکز":"مکتب زردکمر","Polling_Center_Name":"Zard Kamar School","د_مرکز_ځای__موقعیت_مرکز":"زردکمر","Polling_Center_Location":"Zard Kamar","Verification_Note":"Building","PS_Male":2,"PS_Female":1,"Map_Accuracy":"تعمیر"},"geometry":{"x":7654187.0082276873,"y":4460279.71885334}},{"attributes":{"OBJECTID":5076,"ولایت":"کندز","Province":"KUNDUZ","PC_Code":"1905097","ولسوالي":"حضرت امام صاحب","District":"HAZRAT-E-IMAM SAHIB","د_مرکز_نوم__نام_مرکز":"لیسه میرزا عبدالقادربیدل","Polling_Center_Name":"Mirza Abdul Qadir Bedal High School","د_مرکز_ځای__موقعیت_مرکز":"قریه بتاش","Polling_Center_Location":"Bataash Village","Verification_Note":"Building","PS_Male":2,"PS_Female":2,"Map_Accuracy":"تعمیر"},"geometry":{"x":7661069.8010614552,"y":4461221.8717871532}},{"attributes":{"OBJECTID":5077,"ولایت":"کندز","Province":"KUNDUZ","PC_Code":"1906182","ولسوالي":"دشت ارچی","District":"DASHT-E-ARCHI","د_مرکز_نوم__نام_مرکز":"مسجد کوبیچی","Polling_Center_Name":"Kobichi Mosque","د_مرکز_ځای__موقعیت_مرکز":"قریه کوبیچی","Polling_Center_Location":"Kobichi Village","Verification_Note":"Building","PS_Male":2,"PS_Female":1,"Map_Accuracy":"تعمیر"},"geometry":{"x":7713652.8905791789,"y":4447887.13628272}},{"attributes":{"OBJECTID":5078,"ولایت":"کندز","Province":"KUNDUZ","PC_Code":"1906193","ولسوالي":"دشت ارچی","District":"DASHT-E-ARCHI","د_مرکز_نوم__نام_مرکز":"مکتب مسباح","Polling_Center_Name":"Mesbaah School","د_مرکز_ځای__موقعیت_مرکز":"قریه جمع رجب","Polling_Center_Location":"Jama Rajab Village","Verification_Note":"Building","PS_Male":3,"PS_Female":2,"Map_Accuracy":"تعمیر"},"geometry":{"x":7692635.4356457479,"y":4450912.5177342519}},{"attributes":{"OBJECTID":5079,"ولایت":"کندز","Province":"KUNDUZ","PC_Code":"1907102","ولسوالي":"قلعه ذال","District":"QALA-E-ZAL","د_مرکز_نوم__نام_مرکز":"لیسه صالح","Polling_Center_Name":"Saaleh High School","د_مرکز_ځای__موقعیت_مرکز":"صالح آباد","Polling_Center_Location":"Saaleh Abad","Verification_Note":"Building","PS_Male":2,"PS_Female":1,"Map_Accuracy":"تعمیر"},"geometry":{"x":7618175.2208609544,"y":4438146.6111065224}},{"attributes":{"OBJECTID":5080,"ولایت":"کندز","Province":"KUNDUZ","PC_Code":"1907204","ولسوالي":"قلعه ذال","District":"QALA-E-ZAL","د_مرکز_نوم__نام_مرکز":"مسجد حاجی ملاابراهیم","Polling_Center_Name":"Haji Mula Ibrahim Mosque","د_مرکز_ځای__موقعیت_مرکز":"حاجی ابراهیم","Polling_Center_Location":"Haji Ibrahim","Verification_Note":"Building","PS_Male":1,"PS_Female":1,"Map_Accuracy":"تعمیر"},"geometry":{"x":7629787.4823735952,"y":4439945.75101389}},{"attributes":{"OBJECTID":5081,"ولایت":"سمنگان","Province":"SAMANGAN","PC_Code":"2001008","ولسوالي":"ایبک","District":"AYBAK","د_مرکز_نوم__نام_مرکز":"لیسه ذکور ایبک ","Polling_Center_Name":"Aibak Girls High School","د_مرکز_ځای__موقعیت_مرکز":"شهر ایبک","Polling_Center_Location":"Aibak City","Verification_Note":"Building","PS_Male":8,"PS_Female":0,"Map_Accuracy":"تعمیر"},"geometry":{"x":7571334.7732543647,"y":4337243.7797082141}},{"attributes":{"OBJECTID":5082,"ولایت":"سمنگان","Province":"SAMANGAN","PC_Code":"2001087","ولسوالي":"ایبک","District":"AYBAK","د_مرکز_نوم__نام_مرکز":"لیسه نسوان شهر قدیم ","Polling_Center_Name":"Shahr Qadeem Girls School","د_مرکز_ځای__موقعیت_مرکز":"قریه شهر قدیم","Polling_Center_Location":"Shahr Qadeem Village","Verification_Note":"Building","PS_Male":2,"PS_Female":1,"Map_Accuracy":"تعمیر"},"geometry":{"x":7574696.560650602,"y":4334896.3758929372}},{"attributes":{"OBJECTID":5083,"ولایت":"سمنگان","Province":"SAMANGAN","PC_Code":"2001088","ولسوالي":"ایبک","District":"AYBAK","د_مرکز_نوم__نام_مرکز":"مسجد  چهل کپه ","Polling_Center_Name":"Chehl Kapa Mosque","د_مرکز_ځای__موقعیت_مرکز":"قریه چهل کپه","Polling_Center_Location":"Chehl Kapa Village","Verification_Note":"Village","PS_Male":1,"PS_Female":1,"Map_Accuracy":"قریه"},"geometry":{"x":7615759.7393052466,"y":4337251.3097825572}},{"attributes":{"OBJECTID":5084,"ولایت":"سمنگان","Province":"SAMANGAN","PC_Code":"2003082","ولسوالي":"خرم و سارباغ","District":"KHURAM WA SARBAGH","د_مرکز_نوم__نام_مرکز":"مکتب ابتدائیه شورابک ","Polling_Center_Name":"Shorabak Primary School","د_مرکز_ځای__موقعیت_مرکز":"قریه شورابک","Polling_Center_Location":"Shorabak Village","Verification_Note":"Building","PS_Male":1,"PS_Female":1,"Map_Accuracy":"تعمیر"},"geometry":{"x":7594176.8637350015,"y":4316957.9860026091}},{"attributes":{"OBJECTID":5085,"ولایت":"سمنگان","Province":"SAMANGAN","PC_Code":"2005076","ولسوالي":"روی دوآب","District":"ROI-DO-AB","د_مرکز_نوم__نام_مرکز":"مدرسه زی صاحب الدین","Polling_Center_Name":"Ze Sahibuddin Madrassa","د_مرکز_ځای__موقعیت_مرکز":"قریه زی صاحب الدین","Polling_Center_Location":"Ze Sahibuddin Village","Verification_Note":"Building","PS_Male":1,"PS_Female":1,"Map_Accuracy":"تعمیر"},"geometry":{"x":7576360.4441739246,"y":4235495.3116132393}},{"attributes":{"OBJECTID":5086,"ولایت":"سمنگان","Province":"SAMANGAN","PC_Code":"2006064","ولسوالي":"دره صوف پائین","District":"DARA-E-SOOF-E-PAYIN","د_مرکز_نوم__نام_مرکز":"مسجد پالیز پایه","Polling_Center_Name":"Palez Paya Mosque","د_مرکز_ځای__موقعیت_مرکز":"قریه پالیز پایه","Polling_Center_Location":"Palez Paya Village","Verification_Note":"Building","PS_Male":1,"PS_Female":1,"Map_Accuracy":"تعمیر"},"geometry":{"x":7511103.9412107691,"y":4296524.3037344664}},{"attributes":{"OBJECTID":5087,"ولایت":"سمنگان","Province":"SAMANGAN","PC_Code":"2007040","ولسوالي":"دره صوف بالا","District":"DARA-E-SOOF-E-BALA","د_مرکز_نوم__نام_مرکز":"مکتب شیخه ","Polling_Center_Name":"Shekha School","د_مرکز_ځای__موقعیت_مرکز":"قریه شیخه","Polling_Center_Location":"Shekha Village","Verification_Note":"Building","PS_Male":3,"PS_Female":2,"Map_Accuracy":"تعمیر"},"geometry":{"x":7504572.1943912208,"y":4261524.6084590405}},{"attributes":{"OBJECTID":5088,"ولایت":"سمنگان","Province":"SAMANGAN","PC_Code":"2007041","ولسوالي":"دره صوف بالا","District":"DARA-E-SOOF-E-BALA","د_مرکز_نوم__نام_مرکز":"منبر زیر سنگ","Polling_Center_Name":"Zer Sang Menbar ","د_مرکز_ځای__موقعیت_مرکز":"قریه زیر سنگ","Polling_Center_Location":"Zer Sang Village","Verification_Note":"Building","PS_Male":2,"PS_Female":2,"Map_Accuracy":"تعمیر"},"geometry":{"x":7495344.0768844262,"y":4255762.6551875323}},{"attributes":{"OBJECTID":5089,"ولایت":"بلخ","Province":"BALKH","PC_Code":"2101002","ولسوالي":"مزار شریف","District":"MAZAR-E-SHARIF","د_مرکز_نوم__نام_مرکز":"مکتب وزیر اکبر خان","Polling_Center_Name":"Wazir Akbar Khan School","د_مرکز_ځای__موقعیت_مرکز":"ناحیه اول گذر چتگری ","Polling_Center_Location":"D01 - Nahia 1 Guzar Chatgari","Verification_Note":"Building","PS_Male":3,"PS_Female":2,"Map_Accuracy":"تعمیر"},"geometry":{"x":7471939.7417120524,"y":4397529.83471477}},{"attributes":{"OBJECTID":5090,"ولایت":"بلخ","Province":"BALKH","PC_Code":"2101011","ولسوالي":"مزار شریف","District":"MAZAR-E-SHARIF","د_مرکز_نوم__نام_مرکز":"لیسه باختر","Polling_Center_Name":"Bakhtar High School","د_مرکز_ځای__موقعیت_مرکز":"ناحیه سوم مزار شاروالی ","Polling_Center_Location":"D03 - Nahia 3","Verification_Note":"Building","PS_Male":2,"PS_Female":2,"Map_Accuracy":"تعمیر"},"geometry":{"x":7470764.1644746736,"y":4399905.3043182567}},{"attributes":{"OBJECTID":5091,"ولایت":"بلخ","Province":"BALKH","PC_Code":"2101021","ولسوالي":"مزار شریف","District":"MAZAR-E-SHARIF","د_مرکز_نوم__نام_مرکز":"لیسه گوهر خاتون","Polling_Center_Name":"Gawhar Khatoon High School","د_مرکز_ځای__موقعیت_مرکز":"گذر دربار ناحیه پنجم ","Polling_Center_Location":"D05 - Nahia 5","Verification_Note":"Building","PS_Male":2,"PS_Female":1,"Map_Accuracy":"تعمیر"},"geometry":{"x":7470351.682346683,"y":4399475.6377224848}},{"attributes":{"OBJECTID":5092,"ولایت":"بلخ","Province":"BALKH","PC_Code":"2101031","ولسوالي":"مزار شریف","District":"MAZAR-E-SHARIF","د_مرکز_نوم__نام_مرکز":"لیسه دقیقی بلخی","Polling_Center_Name":"Daqiqi Balkhi High School","د_مرکز_ځای__موقعیت_مرکز":"کارته دقیقی بلخی ناحیه هفتم ","Polling_Center_Location":"D07 - Nahia 7 Karta-e-Daqiqi","Verification_Note":"Building","PS_Male":5,"PS_Female":4,"Map_Accuracy":"تعمیر"},"geometry":{"x":7473229.90455408,"y":4399858.1233169883}},{"attributes":{"OBJECTID":5093,"ولایت":"بلخ","Province":"BALKH","PC_Code":"2101040","ولسوالي":"مزار شریف","District":"MAZAR-E-SHARIF","د_مرکز_نوم__نام_مرکز":"لیسه استاد وجدان","Polling_Center_Name":"Ustad Wejdan High School","د_مرکز_ځای__موقعیت_مرکز":"ناحیه دهم مزار شاروالی کارته آریانا ","Polling_Center_Location":"D10 - Nahia 10 Karta-e-Aryana","Verification_Note":"Building","PS_Male":4,"PS_Female":4,"Map_Accuracy":"تعمیر"},"geometry":{"x":7474502.113788642,"y":4398619.1280325651}},{"attributes":{"OBJECTID":5094,"ولایت":"بلخ","Province":"BALKH","PC_Code":"2102063","ولسوالي":"نهر شاهی ","District":"NAHR-E-SHAHI","د_مرکز_نوم__نام_مرکز":"مکتب قلعه قل محمد","Polling_Center_Name":"Qala Qol Muhammad School","د_مرکز_ځای__موقعیت_مرکز":"قریه قل محمد","Polling_Center_Location":"Qol Mohammad Village","Verification_Note":"Building","PS_Male":3,"PS_Female":2,"Map_Accuracy":"تعمیر"},"geometry":{"x":7482840.1273262165,"y":4402539.0389589593}},{"attributes":{"OBJECTID":5095,"ولایت":"بلخ","Province":"BALKH","PC_Code":"2103050","ولسوالي":"دهدادی ","District":"DEHDADI","د_مرکز_نوم__نام_مرکز":"لیسه عالی شهید بلخی ","Polling_Center_Name":"Shaheed Balkhi High School","د_مرکز_ځای__موقعیت_مرکز":"مرکز دهدادی","Polling_Center_Location":"Dehdadi Center","Verification_Note":"Building","PS_Male":3,"PS_Female":2,"Map_Accuracy":"تعمیر"},"geometry":{"x":7457707.1741202325,"y":4392245.1128335074}},{"attributes":{"OBJECTID":5096,"ولایت":"بلخ","Province":"BALKH","PC_Code":"2103060","ولسوالي":"دهدادی ","District":"DEHDADI","د_مرکز_نوم__نام_مرکز":"لیسه استاد ذبیح الله شهید ","Polling_Center_Name":"Ustad Zabihullah Shaheed High School","د_مرکز_ځای__موقعیت_مرکز":"شیر ایاد علیا","Polling_Center_Location":"Sher Abad Ulya","Verification_Note":"Building","PS_Male":1,"PS_Female":1,"Map_Accuracy":"تعمیر"},"geometry":{"x":7462319.0793980807,"y":4395181.13485723}},{"attributes":{"OBJECTID":5097,"ولایت":"بلخ","Province":"BALKH","PC_Code":"2104282","ولسوالي":"چارکنت","District":"CHAR KENT","د_مرکز_نوم__نام_مرکز":"مکتب ازوُم چاه ","Polling_Center_Name":"Azom Chah School","د_مرکز_ځای__موقعیت_مرکز":"قریه اوزُم چاه","Polling_Center_Location":"Azom Chah Village","Verification_Note":"Building","PS_Male":1,"PS_Female":1,"Map_Accuracy":"تعمیر"},"geometry":{"x":7480597.7453523129,"y":4342790.11566855}},{"attributes":{"OBJECTID":5098,"ولایت":"بلخ","Province":"BALKH","PC_Code":"2104283","ولسوالي":"چارکنت","District":"CHAR KENT","د_مرکز_نوم__نام_مرکز":"مدرسه کهنه جر","Polling_Center_Name":"Kuhna Jar School","د_مرکز_ځای__موقعیت_مرکز":"میر حاجی قره غاج","Polling_Center_Location":"Mir Haji Qara Ghaaj ","Verification_Note":"Building","PS_Male":2,"PS_Female":1,"Map_Accuracy":"تعمیر"},"geometry":{"x":7493713.0159129575,"y":4328916.5800067186}},{"attributes":{"OBJECTID":5099,"ولایت":"بلخ","Province":"BALKH","PC_Code":"2106147","ولسوالي":"بلخ","District":"BALKH","د_مرکز_نوم__نام_مرکز":"لیسه نسوان فریده ","Polling_Center_Name":"Farida Girls High School","د_مرکز_ځای__موقعیت_مرکز":"مرکز ولسوالی","Polling_Center_Location":"District Compound","Verification_Note":"Building","PS_Male":1,"PS_Female":2,"Map_Accuracy":"تعمیر"},"geometry":{"x":7446636.732399147,"y":4404989.7740656883}},{"attributes":{"OBJECTID":5100,"ولایت":"بلخ","Province":"BALKH","PC_Code":"2106160","ولسوالي":"بلخ","District":"BALKH","د_مرکز_نوم__نام_مرکز":"مکتب بوکه","Polling_Center_Name":"Boka School","د_مرکز_ځای__موقعیت_مرکز":"قریه بوکه","Polling_Center_Location":"Boka Village","Verification_Note":"Building","PS_Male":2,"PS_Female":1,"Map_Accuracy":"تعمیر"},"geometry":{"x":7437916.2573738657,"y":4404164.4764859974}},{"attributes":{"OBJECTID":5101,"ولایت":"بلخ","Province":"BALKH","PC_Code":"2106171","ولسوالي":"بلخ","District":"BALKH","د_مرکز_نوم__نام_مرکز":"مکتب واله گی","Polling_Center_Name":"Walagai School","د_مرکز_ځای__موقعیت_مرکز":"قریه واله گی ( خسپک)","Polling_Center_Location":"Walagai (Khaspak) Village","Verification_Note":"Building","PS_Male":1,"PS_Female":1,"Map_Accuracy":"تعمیر"},"geometry":{"x":7436098.8588180728,"y":4410283.2590523213}},{"attributes":{"OBJECTID":5102,"ولایت":"بلخ","Province":"BALKH","PC_Code":"2107242","ولسوالي":"شولگره","District":"SHOLGARA","د_مرکز_نوم__نام_مرکز":"مکتب کیچه قزل","Polling_Center_Name":"Kecha Qazal School","د_مرکز_ځای__موقعیت_مرکز":"کهنه قشلاق","Polling_Center_Location":"Kuhna Qashlaq","Verification_Note":"Building","PS_Male":1,"PS_Female":1,"Map_Accuracy":"تعمیر"},"geometry":{"x":7421236.8228091,"y":4327829.6794969887}},{"attributes":{"OBJECTID":5103,"ولایت":"بلخ","Province":"BALKH","PC_Code":"2107254","ولسوالي":"شولگره","District":"SHOLGARA","د_مرکز_نوم__نام_مرکز":"مسجد ارلات","Polling_Center_Name":"Arlaat Mosque","د_مرکز_ځای__موقعیت_مرکز":"قریه ارلات","Polling_Center_Location":"Arlaat Village","Verification_Note":"Building","PS_Male":2,"PS_Female":1,"Map_Accuracy":"تعمیر"},"geometry":{"x":7463537.8563902415,"y":4344103.7024253085}},{"attributes":{"OBJECTID":5104,"ولایت":"بلخ","Province":"BALKH","PC_Code":"2107266","ولسوالي":"شولگره","District":"SHOLGARA","د_مرکز_نوم__نام_مرکز":"مسجد شورچه","Polling_Center_Name":"Shorcha Mosque","د_مرکز_ځای__موقعیت_مرکز":"قریه شورچه","Polling_Center_Location":"Shorcha Village","Verification_Note":"Building","PS_Male":1,"PS_Female":1,"Map_Accuracy":"تعمیر"},"geometry":{"x":7468585.5051168762,"y":4326854.9439633861}},{"attributes":{"OBJECTID":5105,"ولایت":"بلخ","Province":"BALKH","PC_Code":"2107267","ولسوالي":"شولگره","District":"SHOLGARA","د_مرکز_نوم__نام_مرکز":"مسجد نوقشلاق","Polling_Center_Name":"Naw Qeshlaq Mosque","د_مرکز_ځای__موقعیت_مرکز":"قریه نو قشلاق","Polling_Center_Location":"Naw Qashlaq Village","Verification_Note":"Building","PS_Male":1,"PS_Female":1,"Map_Accuracy":"تعمیر"},"geometry":{"x":7429896.70218277,"y":4325294.8218568861}},{"attributes":{"OBJECTID":5106,"ولایت":"بلخ","Province":"BALKH","PC_Code":"2108215","ولسوالي":"چمتال","District":"CHIMTAL","د_مرکز_نوم__نام_مرکز":"مکتب عرب مزاری","Polling_Center_Name":"Arab Mazari School","د_مرکز_ځای__موقعیت_مرکز":"قریه عرب مزاری","Polling_Center_Location":"Arab Mazari Village","Verification_Note":"Village","PS_Male":1,"PS_Female":1,"Map_Accuracy":"قریه"},"geometry":{"x":7416805.035806939,"y":4395128.9802789688}},{"attributes":{"OBJECTID":5107,"ولایت":"بلخ","Province":"BALKH","PC_Code":"2108226","ولسوالي":"چمتال","District":"CHIMTAL","د_مرکز_نوم__نام_مرکز":"مکتب حاجی برفی","Polling_Center_Name":"Haji Barfi School","د_مرکز_ځای__موقعیت_مرکز":"قریه حاجی برفی","Polling_Center_Location":"Haji Barfi Village","Verification_Note":"Building","PS_Male":3,"PS_Female":2,"Map_Accuracy":"تعمیر"},"geometry":{"x":7407617.0679008923,"y":4370371.0557569042}},{"attributes":{"OBJECTID":5108,"ولایت":"بلخ","Province":"BALKH","PC_Code":"2108236","ولسوالي":"چمتال","District":"CHIMTAL","د_مرکز_نوم__نام_مرکز":"منزل داکتر دستگیر","Polling_Center_Name":"Doctar Dastageer Private House","د_مرکز_ځای__موقعیت_مرکز":"قریه چارسای افغانیه","Polling_Center_Location":"Char Say Afghania Village","Verification_Note":"Building","PS_Male":1,"PS_Female":1,"Map_Accuracy":"تعمیر"},"geometry":{"x":7388286.7611511685,"y":4362299.241423279}},{"attributes":{"OBJECTID":5109,"ولایت":"بلخ","Province":"BALKH","PC_Code":"2109127","ولسوالي":"دولت آباد","District":"DAWLAT ABAD","د_مرکز_نوم__نام_مرکز":"مکتب انوری","Polling_Center_Name":"Anwari School","د_مرکز_ځای__موقعیت_مرکز":"قریه قازان","Polling_Center_Location":"Qazan Village","Verification_Note":"Building","PS_Male":2,"PS_Female":1,"Map_Accuracy":"تعمیر"},"geometry":{"x":7416174.3118172437,"y":4441586.1745010689}},{"attributes":{"OBJECTID":5110,"ولایت":"بلخ","Province":"BALKH","PC_Code":"2109137","ولسوالي":"دولت آباد","District":"DAWLAT ABAD","د_مرکز_نوم__نام_مرکز":"مکتب سرخ گنبد","Polling_Center_Name":"Surkh Gumbad School","د_مرکز_ځای__موقعیت_مرکز":"قریه سرخ گنبد","Polling_Center_Location":"Surkh Gumbad Village","Verification_Note":"Building","PS_Male":2,"PS_Female":1,"Map_Accuracy":"تعمیر"},"geometry":{"x":7449156.3444329351,"y":4433683.65224687}},{"attributes":{"OBJECTID":5111,"ولایت":"بلخ","Province":"BALKH","PC_Code":"2110077","ولسوالي":"خلم","District":"KHULM","د_مرکز_نوم__نام_مرکز":"لسیه مهستی ","Polling_Center_Name":"Mahesti High Schoo","د_مرکز_ځای__موقعیت_مرکز":"قریه دیوردگی ","Polling_Center_Location":"Dewardagi Village","Verification_Note":"Building","PS_Male":2,"PS_Female":3,"Map_Accuracy":"تعمیر"},"geometry":{"x":7536100.0204236507,"y":4396690.0133209825}},{"attributes":{"OBJECTID":5112,"ولایت":"بلخ","Province":"BALKH","PC_Code":"2110087","ولسوالي":"خلم","District":"KHULM","د_مرکز_نوم__نام_مرکز":"مکتب میر زاشمس","Polling_Center_Name":"Mirza Shams School","د_مرکز_ځای__موقعیت_مرکز":"قریه میرزاشمس","Polling_Center_Location":"Mirza Shams Village","Verification_Note":"Building","PS_Male":2,"PS_Female":1,"Map_Accuracy":"تعمیر"},"geometry":{"x":7537662.3783449866,"y":4398936.1664381847}},{"attributes":{"OBJECTID":5113,"ولایت":"بلخ","Province":"BALKH","PC_Code":"2111178","ولسوالي":"چار بولک","District":"CHAR BOLAK","د_مرکز_نوم__نام_مرکز":"مدیریت معارف","Polling_Center_Name":"Mudiryat Maaref","د_مرکز_ځای__موقعیت_مرکز":"مرکز چهار بولک","Polling_Center_Location":"Chahar Bolak Markaz","Verification_Note":"Building","PS_Male":2,"PS_Female":2,"Map_Accuracy":"تعمیر"},"geometry":{"x":7423420.3089800142,"y":4410592.272760734}},{"attributes":{"OBJECTID":5114,"ولایت":"بلخ","Province":"BALKH","PC_Code":"2111188","ولسوالي":"چار بولک","District":"CHAR BOLAK","د_مرکز_نوم__نام_مرکز":"مکتب خواجه روشنایی","Polling_Center_Name":"Khwaja Roshnaye School","د_مرکز_ځای__موقعیت_مرکز":"قریه خواجه روشنایی","Polling_Center_Location":"Dahno Village","Verification_Note":"Building","PS_Male":1,"PS_Female":1,"Map_Accuracy":"تعمیر"},"geometry":{"x":7414076.1375644878,"y":4427546.2372321412}},{"attributes":{"OBJECTID":5115,"ولایت":"بلخ","Province":"BALKH","PC_Code":"2111199","ولسوالي":"چار بولک","District":"CHAR BOLAK","د_مرکز_نوم__نام_مرکز":"مکتب سال بارون ","Polling_Center_Name":"Sal Baron School","د_مرکز_ځای__موقعیت_مرکز":"قریه سال بارون","Polling_Center_Location":"Sal Baron Village","Verification_Note":"Building","PS_Male":2,"PS_Female":1,"Map_Accuracy":"تعمیر"},"geometry":{"x":7406160.1050470509,"y":4431062.68878904}},{"attributes":{"OBJECTID":5116,"ولایت":"بلخ","Province":"BALKH","PC_Code":"2111322","ولسوالي":"چار بولک","District":"CHAR BOLAK","د_مرکز_نوم__نام_مرکز":"مسجد جامع قریه ثوریان ","Polling_Center_Name":"Qarya Soryan Mosque","د_مرکز_ځای__موقعیت_مرکز":"قریه ثوریان","Polling_Center_Location":"Soryan Village","Verification_Note":"Building","PS_Male":1,"PS_Female":1,"Map_Accuracy":"تعمیر"},"geometry":{"x":7425565.3313725516,"y":4401310.2607097626}},{"attributes":{"OBJECTID":5117,"ولایت":"بلخ","Province":"BALKH","PC_Code":"2113099","ولسوالي":"کلدار","District":"KALDAR","د_مرکز_نوم__نام_مرکز":"لیسه اناث ناصر خسرو","Polling_Center_Name":"Nasir Khisraw Balkhi High School","د_مرکز_ځای__موقعیت_مرکز":"شهرک حیران","Polling_Center_Location":"Hairan Shahrak","Verification_Note":"Building","PS_Male":3,"PS_Female":1,"Map_Accuracy":"تعمیر"},"geometry":{"x":7511148.87643642,"y":4469275.0487296209}},{"attributes":{"OBJECTID":5118,"ولایت":"بلخ","Province":"BALKH","PC_Code":"2114288","ولسوالي":"کشنده","District":"KISHINDEH","د_مرکز_نوم__نام_مرکز":"مکتب سراب","Polling_Center_Name":"Sarab School","د_مرکز_ځای__موقعیت_مرکز":"قریه سراب","Polling_Center_Location":"Sarab Village","Verification_Note":"Building","PS_Male":2,"PS_Female":1,"Map_Accuracy":"تعمیر"},"geometry":{"x":7448778.8333229758,"y":4301858.024719201}},{"attributes":{"OBJECTID":5119,"ولایت":"بلخ","Province":"BALKH","PC_Code":"2114299","ولسوالي":"کشنده","District":"KISHINDEH","د_مرکز_نوم__نام_مرکز":"مکتب قریه سوخته","Polling_Center_Name":"Qarya Sokhta School","د_مرکز_ځای__موقعیت_مرکز":"قریه سوخته","Polling_Center_Location":"Sokhta Village","Verification_Note":"Building","PS_Male":1,"PS_Female":1,"Map_Accuracy":"تعمیر"},"geometry":{"x":7443946.4520012513,"y":4303655.7473934144}},{"attributes":{"OBJECTID":5120,"ولایت":"بلخ","Province":"BALKH","PC_Code":"2114300","ولسوالي":"کشنده","District":"KISHINDEH","د_مرکز_نوم__نام_مرکز":"مسجد کلان بام پشت","Polling_Center_Name":"Baam Pusht Mosque","د_مرکز_ځای__موقعیت_مرکز":"قریه بام پشت","Polling_Center_Location":"Baam Pusht Village","Verification_Note":"Building","PS_Male":1,"PS_Female":1,"Map_Accuracy":"تعمیر"},"geometry":{"x":7438729.978361275,"y":4302934.6211862341}},{"attributes":{"OBJECTID":5121,"ولایت":"بلخ","Province":"BALKH","PC_Code":"2115310","ولسوالي":"زاری","District":"ZARI","د_مرکز_نوم__نام_مرکز":"مکتب خواجه روشنایی","Polling_Center_Name":"Khwaja Roshnaye School","د_مرکز_ځای__موقعیت_مرکز":"قریه خیابک","Polling_Center_Location":"Khiyabak Village","Verification_Note":"Building","PS_Male":2,"PS_Female":1,"Map_Accuracy":"تعمیر"},"geometry":{"x":7417217.1583729722,"y":4265028.234621197}},{"attributes":{"OBJECTID":5122,"ولایت":"سرپل","Province":"SAR-E-PUL","PC_Code":"2201001","ولسوالي":"سرپل","District":"SAR-E-PUL","د_مرکز_نوم__نام_مرکز":"لیسه نسوان جوزجان","Polling_Center_Name":"Jowzjan Girls High School","د_مرکز_ځای__موقعیت_مرکز":"شهر نو ناحیه اول","Polling_Center_Location":"Shahr Naw Nahai 1","Verification_Note":"Building","PS_Male":6,"PS_Female":4,"Map_Accuracy":"تعمیر"},"geometry":{"x":7339281.3843327723,"y":4330963.34034545}},{"attributes":{"OBJECTID":5123,"ولایت":"سرپل","Province":"SAR-E-PUL","PC_Code":"2201021","ولسوالي":"سرپل","District":"SAR-E-PUL","د_مرکز_نوم__نام_مرکز":"لیسه سید آباد","Polling_Center_Name":"Sayed Abad High School","د_مرکز_ځای__موقعیت_مرکز":"قریه سید آباد ","Polling_Center_Location":"Sayed Abad Village","Verification_Note":"Building","PS_Male":2,"PS_Female":2,"Map_Accuracy":"تعمیر"},"geometry":{"x":7331049.2467628866,"y":4351449.8022413254}},{"attributes":{"OBJECTID":5124,"ولایت":"سرپل","Province":"SAR-E-PUL","PC_Code":"2201031","ولسوالي":"سرپل","District":"SAR-E-PUL","د_مرکز_نوم__نام_مرکز":"مسجد خانقاه ملکی","Polling_Center_Name":"Khanqah Mulki Mosque","د_مرکز_ځای__موقعیت_مرکز":"قریه خانقای ملکی","Polling_Center_Location":"Khanqah Mulki Village","Verification_Note":"Building","PS_Male":1,"PS_Female":2,"Map_Accuracy":"تعمیر"},"geometry":{"x":7331809.8316177614,"y":4346338.2294875309}},{"attributes":{"OBJECTID":5125,"ولایت":"سرپل","Province":"SAR-E-PUL","PC_Code":"2202055","ولسوالي":"صیاد","District":"SAYAD","د_مرکز_نوم__نام_مرکز":"مدرسه چار گمبد","Polling_Center_Name":"Chahar Gunbad Madrassa","د_مرکز_ځای__موقعیت_مرکز":"چارگمبد","Polling_Center_Location":"Chahar Gunbad Village","Verification_Note":"Village","PS_Male":1,"PS_Female":1,"Map_Accuracy":"قریه"},"geometry":{"x":7303108.2427037135,"y":4322356.2304047346}},{"attributes":{"OBJECTID":5126,"ولایت":"سرپل","Province":"SAR-E-PUL","PC_Code":"2204044","ولسوالي":"سوزمه قلعه","District":"SOZMA QALA","د_مرکز_نوم__نام_مرکز":"لیسه ذکور دوآبه","Polling_Center_Name":"Do-Aba Boys School","د_مرکز_ځای__موقعیت_مرکز":"دوآبه","Polling_Center_Location":"Do-Aba","Verification_Note":"Building","PS_Male":2,"PS_Female":1,"Map_Accuracy":"تعمیر"},"geometry":{"x":7385045.3969536759,"y":4306565.623277165}},{"attributes":{"OBJECTID":5127,"ولایت":"سرپل","Province":"SAR-E-PUL","PC_Code":"2204045","ولسوالي":"سوزمه قلعه","District":"SOZMA QALA","د_مرکز_نوم__نام_مرکز":"مسجد جامع فیض آباد","Polling_Center_Name":"Faiz Abad Mosque","د_مرکز_ځای__موقعیت_مرکز":"فیض آباد","Polling_Center_Location":"Faiz Abad","Verification_Note":"Building","PS_Male":1,"PS_Female":1,"Map_Accuracy":"تعمیر"},"geometry":{"x":7372267.6905037127,"y":4311351.0237418339}},{"attributes":{"OBJECTID":5128,"ولایت":"سرپل","Province":"SAR-E-PUL","PC_Code":"2205107","ولسوالي":"سنگ چارک","District":"SANG CHARAK","د_مرکز_نوم__نام_مرکز":"لیسه تبیر و تغای خواجه","Polling_Center_Name":"Tabeer-o-Taghai Khwaja High School","د_مرکز_ځای__موقعیت_مرکز":"بهار نو تبرا","Polling_Center_Location":"Bahar Naw Tabra ","Verification_Note":"Building","PS_Male":2,"PS_Female":2,"Map_Accuracy":"تعمیر"},"geometry":{"x":7389153.1596348174,"y":4299054.19336725}},{"attributes":{"OBJECTID":5129,"ولایت":"سرپل","Province":"SAR-E-PUL","PC_Code":"2205117","ولسوالي":"سنگ چارک","District":"SANG CHARAK","د_مرکز_نوم__نام_مرکز":"مکتب ابتدائیه قریه نمبر 2","Polling_Center_Name":"Number 2 Village Primary School","د_مرکز_ځای__موقعیت_مرکز":"آبدین کول","Polling_Center_Location":"Abdeen Kol","Verification_Note":"Building","PS_Male":2,"PS_Female":1,"Map_Accuracy":"تعمیر"},"geometry":{"x":7386869.1363789812,"y":4300188.1533235162}},{"attributes":{"OBJECTID":5130,"ولایت":"سرپل","Province":"SAR-E-PUL","PC_Code":"2206127","ولسوالي":"گوسفندی ","District":"GOSFANDI","د_مرکز_نوم__نام_مرکز":"لیسه ذکور قریه قوطنمست","Polling_Center_Name":"Qotnamest Village Boys School","د_مرکز_ځای__موقعیت_مرکز":" قریه قوطنمست","Polling_Center_Location":"Qotnamest Village","Verification_Note":"Building","PS_Male":2,"PS_Female":2,"Map_Accuracy":"تعمیر"},"geometry":{"x":7404906.7257269993,"y":4292268.5073197559}},{"attributes":{"OBJECTID":5131,"ولایت":"سرپل","Province":"SAR-E-PUL","PC_Code":"2207088","ولسوالي":"بلخآب","District":"BALKHAB","د_مرکز_نوم__نام_مرکز":"مدرسه تل عاشقان","Polling_Center_Name":"Tal Aashoqan Madrassa","د_مرکز_ځای__موقعیت_مرکز":"تل عاشقان ","Polling_Center_Location":"Tal Ashoqan","Verification_Note":"Building","PS_Male":2,"PS_Female":1,"Map_Accuracy":"تعمیر"},"geometry":{"x":7441404.1163198091,"y":4247020.2677994519}},{"attributes":{"OBJECTID":5132,"ولایت":"سرپل","Province":"SAR-E-PUL","PC_Code":"2207099","ولسوالي":"بلخآب","District":"BALKHAB","د_مرکز_نوم__نام_مرکز":"مسجد خوال سیاگک","Polling_Center_Name":"Khowal Siyagak Mosque","د_مرکز_ځای__موقعیت_مرکز":"خوال سیاگک","Polling_Center_Location":"Khowal Siyagak","Verification_Note":"Building","PS_Male":2,"PS_Female":1,"Map_Accuracy":"تعمیر"},"geometry":{"x":7401004.7279964015,"y":4233830.2247552425}},{"attributes":{"OBJECTID":5133,"ولایت":"غور","Province":"GHOR","PC_Code":"2301010","ولسوالي":"چغچران","District":"CHIGHCHERAN","د_مرکز_نوم__نام_مرکز":"مکتب تسراغی ","Polling_Center_Name":"Tasraghi School","د_مرکز_ځای__موقعیت_مرکز":"دهن قیاغک ","Polling_Center_Location":"Dahn Qiyaghak","Verification_Note":"Building","PS_Male":2,"PS_Female":1,"Map_Accuracy":"تعمیر"},"geometry":{"x":7284885.3021733835,"y":4089525.0420983508}},{"attributes":{"OBJECTID":5134,"ولایت":"غور","Province":"GHOR","PC_Code":"2301021","ولسوالي":"چغچران","District":"CHIGHCHERAN","د_مرکز_نوم__نام_مرکز":"لیسه میدان بره خانه ","Polling_Center_Name":"Bara Khana Maidan High School","د_مرکز_ځای__موقعیت_مرکز":"تنگی زرد ","Polling_Center_Location":"Tangai Zard","Verification_Note":"Building","PS_Male":3,"PS_Female":1,"Map_Accuracy":"تعمیر"},"geometry":{"x":7215513.9154212624,"y":4110164.9813357219}},{"attributes":{"OBJECTID":5135,"ولایت":"غور","Province":"GHOR","PC_Code":"2301032","ولسوالي":"چغچران","District":"CHIGHCHERAN","د_مرکز_نوم__نام_مرکز":"منزل عبدالظاهر","Polling_Center_Name":"Abdul Zahir Private House","د_مرکز_ځای__موقعیت_مرکز":" آبول غیبی","Polling_Center_Location":"Abul Ghaibi","Verification_Note":"Village","PS_Male":2,"PS_Female":2,"Map_Accuracy":"قریه"},"geometry":{"x":7274417.4784969613,"y":4060420.5371719524}},{"attributes":{"OBJECTID":5136,"ولایت":"غور","Province":"GHOR","PC_Code":"2304061","ولسوالي":"چار صده","District":"CHAR SADA","د_مرکز_نوم__نام_مرکز":"مسجد قریه خونیه","Polling_Center_Name":"Khonia Village Mosque","د_مرکز_ځای__موقعیت_مرکز":"خونیه","Polling_Center_Location":"Khonia","Verification_Note":"Building","PS_Male":1,"PS_Female":1,"Map_Accuracy":"تعمیر"},"geometry":{"x":7242235.9087173268,"y":4171408.082703203}},{"attributes":{"OBJECTID":5137,"ولایت":"غور","Province":"GHOR","PC_Code":"2305132","ولسوالي":"پسابند ","District":"PASABAND","د_مرکز_نوم__نام_مرکز":"خیمه بازار سیاجر ","Polling_Center_Name":"Siyajar Bazar Tent","د_مرکز_ځای__موقعیت_مرکز":"قریه بازار سیاجر","Polling_Center_Location":"Bazar Siyajar Village","Verification_Note":"Village","PS_Male":1,"PS_Female":1,"Map_Accuracy":"قریه"},"geometry":{"x":7193858.1946026273,"y":3935584.9119261131}},{"attributes":{"OBJECTID":5138,"ولایت":"غور","Province":"GHOR","PC_Code":"2306080","ولسوالي":"شهرک ","District":"SHAHRAK","د_مرکز_نوم__نام_مرکز":"مسجد خره سنگ","Polling_Center_Name":"Khara Sang Mosque","د_مرکز_ځای__موقعیت_مرکز":"خره سنگ","Polling_Center_Location":"Khara Sang","Verification_Note":"Village","PS_Male":2,"PS_Female":1,"Map_Accuracy":"قریه"},"geometry":{"x":7185186.1301974989,"y":4029889.8981006891}},{"attributes":{"OBJECTID":5139,"ولایت":"غور","Province":"GHOR","PC_Code":"2306091","ولسوالي":"شهرک ","District":"SHAHRAK","د_مرکز_نوم__نام_مرکز":"مکتب کمنج","Polling_Center_Name":"Kamanj School","د_مرکز_ځای__موقعیت_مرکز":" کمنج غوک ","Polling_Center_Location":"Kamanj Ghok","Verification_Note":"Village","PS_Male":1,"PS_Female":1,"Map_Accuracy":"قریه"},"geometry":{"x":7163017.8443494849,"y":4080745.5034786612}},{"attributes":{"OBJECTID":5140,"ولایت":"غور","Province":"GHOR","PC_Code":"2307141","ولسوالي":"لعل و سرجنگل ","District":"LAL WA SARJANGAL","د_مرکز_نوم__نام_مرکز":"مکتب ابتدائیه چشمه پادشاه","Polling_Center_Name":"Chashma Padshah Primary School","د_مرکز_ځای__موقعیت_مرکز":"قریه  چشمه پاد شاه","Polling_Center_Location":"Chashma Padshah Village","Verification_Note":"Building","PS_Male":2,"PS_Female":1,"Map_Accuracy":"تعمیر"},"geometry":{"x":7362356.0212296806,"y":4092601.3440171257}},{"attributes":{"OBJECTID":5141,"ولایت":"غور","Province":"GHOR","PC_Code":"2307151","ولسوالي":"لعل و سرجنگل ","District":"LAL WA SARJANGAL","د_مرکز_نوم__نام_مرکز":"مکتب شینیه سبزوار ","Polling_Center_Name":"Shiniya Sabzwar School","د_مرکز_ځای__موقعیت_مرکز":" سبزوار ","Polling_Center_Location":"Sabzwar","Verification_Note":"Village","PS_Male":1,"PS_Female":2,"Map_Accuracy":"قریه"},"geometry":{"x":7382788.4833334349,"y":4071081.3247214854}},{"attributes":{"OBJECTID":5142,"ولایت":"غور","Province":"GHOR","PC_Code":"2307170","ولسوالي":"لعل و سرجنگل ","District":"LAL WA SARJANGAL","د_مرکز_نوم__نام_مرکز":"مکتب شاهی","Polling_Center_Name":"Shahi School","د_مرکز_ځای__موقعیت_مرکز":"قریه پیتاب شاهی ","Polling_Center_Location":"Pitab Shahi Village","Verification_Note":"Building","PS_Male":2,"PS_Female":1,"Map_Accuracy":"تعمیر"},"geometry":{"x":7418450.8254602365,"y":4113302.3393889517}},{"attributes":{"OBJECTID":5143,"ولایت":"غور","Province":"GHOR","PC_Code":"2308213","ولسوالي":"تیوره","District":"TAYWARA","د_مرکز_نوم__نام_مرکز":"منزل عبدلله پای حصار","Polling_Center_Name":"Abdullah Paay Hisar Private House","د_مرکز_ځای__موقعیت_مرکز":"پای حصار","Polling_Center_Location":"Paay Hisar","Verification_Note":"Village","PS_Male":2,"PS_Female":1,"Map_Accuracy":"قریه"},"geometry":{"x":7156152.41624308,"y":4002858.2607642263}},{"attributes":{"OBJECTID":5144,"ولایت":"غور","Province":"GHOR","PC_Code":"2308224","ولسوالي":"تیوره","District":"TAYWARA","د_مرکز_نوم__نام_مرکز":"خانه  عبدالسلام","Polling_Center_Name":"Abdul Salam Private House","د_مرکز_ځای__موقعیت_مرکز":"ساین","Polling_Center_Location":"Saayen","Verification_Note":"Building","PS_Male":1,"PS_Female":2,"Map_Accuracy":"تعمیر"},"geometry":{"x":7157141.2093936652,"y":3941379.6058081388}},{"attributes":{"OBJECTID":5145,"ولایت":"غور","Province":"GHOR","PC_Code":"2309179","ولسوالي":"تولک ","District":"TULAK","د_مرکز_نوم__نام_مرکز":"مکتب چهارراه تولک","Polling_Center_Name":"Chahar Raah Tolak School","د_مرکز_ځای__موقعیت_مرکز":"دهن آب بره ","Polling_Center_Location":"Dahan Aab Bara","Verification_Note":"Village","PS_Male":2,"PS_Female":2,"Map_Accuracy":"قریه"},"geometry":{"x":7089842.5002781339,"y":4046232.6558425054}},{"attributes":{"OBJECTID":5146,"ولایت":"غور","Province":"GHOR","PC_Code":"2310202","ولسوالي":"ساغر ","District":"SAGHAR","د_مرکز_نوم__نام_مرکز":"مکتب ابتدای اسپیاسنگ","Polling_Center_Name":"Aspiyasang Primary School","د_مرکز_ځای__موقعیت_مرکز":"اسپیاسنگ","Polling_Center_Location":"Aspiyasang","Verification_Note":"Building","PS_Male":2,"PS_Female":1,"Map_Accuracy":"تعمیر"},"geometry":{"x":7093290.5613929257,"y":3952476.5923224613}},{"attributes":{"OBJECTID":5147,"ولایت":"دایکندی","Province":"DAYKUNDI","PC_Code":"2401005","ولسوالي":"نیلی","District":"NILI","د_مرکز_نوم__نام_مرکز":"مکتب بالا باغ لزیر","Polling_Center_Name":"Bala Bagh Lazir School","د_مرکز_ځای__موقعیت_مرکز":"لزیر","Polling_Center_Location":"Lazir","Verification_Note":"Building","PS_Male":1,"PS_Female":2,"Map_Accuracy":"تعمیر"},"geometry":{"x":7369346.6024999954,"y":4004983.7215847671}},{"attributes":{"OBJECTID":5148,"ولایت":"دایکندی","Province":"DAYKUNDI","PC_Code":"2402017","ولسوالي":"شهرستان","District":"SHAHRISTAN","د_مرکز_نوم__نام_مرکز":"مسجد بند برلان","Polling_Center_Name":"Band Barlan Mosque","د_مرکز_ځای__موقعیت_مرکز":"بند برلان","Polling_Center_Location":"Band Barlan","Verification_Note":"Building","PS_Male":2,"PS_Female":1,"Map_Accuracy":"تعمیر"},"geometry":{"x":7377073.025641948,"y":3995452.5883214995}},{"attributes":{"OBJECTID":5149,"ولایت":"دایکندی","Province":"DAYKUNDI","PC_Code":"2402028","ولسوالي":"شهرستان","District":"SHAHRISTAN","د_مرکز_نوم__نام_مرکز":"مسجد سید عالم","Polling_Center_Name":"Sayed Alam Mosque","د_مرکز_ځای__موقعیت_مرکز":"سید احمد","Polling_Center_Location":"Sayed Ahmad","Verification_Note":"Building","PS_Male":1,"PS_Female":1,"Map_Accuracy":"تعمیر"},"geometry":{"x":7435841.6438913271,"y":3974498.6313105524}},{"attributes":{"OBJECTID":5150,"ولایت":"دایکندی","Province":"DAYKUNDI","PC_Code":"2403107","ولسوالي":"گیزاب","District":"GIZAB","د_مرکز_نوم__نام_مرکز":"مسجد ملایان قخور","Polling_Center_Name":"Mulayan Qakhor Mosque","د_مرکز_ځای__موقعیت_مرکز":"ملایان قخور","Polling_Center_Location":"Mulayan Qakhor","Verification_Note":"Building","PS_Male":1,"PS_Female":1,"Map_Accuracy":"تعمیر"},"geometry":{"x":7343081.29407531,"y":3971581.4604934677}},{"attributes":{"OBJECTID":5151,"ولایت":"دایکندی","Province":"DAYKUNDI","PC_Code":"2404040","ولسوالي":"اشترلی","District":"ISHTERLAI","د_مرکز_نوم__نام_مرکز":"مسجد خدر باش","Polling_Center_Name":"Khadar Bash Mosque","د_مرکز_ځای__موقعیت_مرکز":"خدر باش، بازار میانه","Polling_Center_Location":"Khadar Bash, Bazar Miyana","Verification_Note":"Building","PS_Male":2,"PS_Female":1,"Map_Accuracy":"تعمیر"},"geometry":{"x":7396145.7257316485,"y":4054934.5196773335}},{"attributes":{"OBJECTID":5152,"ولایت":"دایکندی","Province":"DAYKUNDI","PC_Code":"2404050","ولسوالي":"اشترلی","District":"ISHTERLAI","د_مرکز_نوم__نام_مرکز":"مسجد گرزک سراب","Polling_Center_Name":"Gurzak Sarab Mosque","د_مرکز_ځای__موقعیت_مرکز":"گرزک سراب","Polling_Center_Location":"Gurzak Sarab","Verification_Note":"Building","PS_Male":1,"PS_Female":1,"Map_Accuracy":"تعمیر"},"geometry":{"x":7384931.8599786237,"y":4035817.5528678447}},{"attributes":{"OBJECTID":5153,"ولایت":"دایکندی","Province":"DAYKUNDI","PC_Code":"2405093","ولسوالي":"خدیر","District":"KHEDIR","د_مرکز_نوم__نام_مرکز":"مکتب ابتدائیه نسوان دهن کیتی","Polling_Center_Name":"Dahan Kiti Girls Primary School","د_مرکز_ځای__موقعیت_مرکز":"دهن کیتی","Polling_Center_Location":"Dahan Kiti","Verification_Note":"Building","PS_Male":1,"PS_Female":1,"Map_Accuracy":"تعمیر"},"geometry":{"x":7316511.5635787472,"y":4012203.1673563346}},{"attributes":{"OBJECTID":5154,"ولایت":"دایکندی","Province":"DAYKUNDI","PC_Code":"2406124","ولسوالي":"کیتی","District":"KITI","د_مرکز_نوم__نام_مرکز":"مسجد میانه تمران","Polling_Center_Name":"Miyana Tamran Mosque","د_مرکز_ځای__موقعیت_مرکز":"میانه تمران","Polling_Center_Location":"Miyana Tamran","Verification_Note":"Building","PS_Male":2,"PS_Female":1,"Map_Accuracy":"تعمیر"},"geometry":{"x":7325874.6960431375,"y":3981481.3316541165}},{"attributes":{"OBJECTID":5155,"ولایت":"دایکندی","Province":"DAYKUNDI","PC_Code":"2406136","ولسوالي":"کیتی","District":"KITI","د_مرکز_نوم__نام_مرکز":"مسجد سرکیسو","Polling_Center_Name":"Sar Kiso Mosque","د_مرکز_ځای__موقعیت_مرکز":"سرکیسو","Polling_Center_Location":"Sar Kiso","Verification_Note":"Building","PS_Male":2,"PS_Female":1,"Map_Accuracy":"تعمیر"},"geometry":{"x":7335560.916631639,"y":3954724.0977256373}},{"attributes":{"OBJECTID":5156,"ولایت":"دایکندی","Province":"DAYKUNDI","PC_Code":"2407148","ولسوالي":"میرامور","District":"MIRAMOR","د_مرکز_نوم__نام_مرکز":"مسجد سرسنگ تخاوی","Polling_Center_Name":"Sarsang Takhawi Mosque","د_مرکز_ځای__موقعیت_مرکز":"ده غوچی","Polling_Center_Location":"Deh Ghochi","Verification_Note":"Building","PS_Male":1,"PS_Female":1,"Map_Accuracy":"تعمیر"},"geometry":{"x":7428386.0209954493,"y":4009926.879228957}},{"attributes":{"OBJECTID":5157,"ولایت":"دایکندی","Province":"DAYKUNDI","PC_Code":"2407159","ولسوالي":"میرامور","District":"MIRAMOR","د_مرکز_نوم__نام_مرکز":"مسجد راکو","Polling_Center_Name":"Rako Mosque","د_مرکز_ځای__موقعیت_مرکز":"میرغلام","Polling_Center_Location":"Mir Ghulam","Verification_Note":"Building","PS_Male":1,"PS_Female":1,"Map_Accuracy":"تعمیر"},"geometry":{"x":7439582.529813461,"y":3980139.8634343147}},{"attributes":{"OBJECTID":5158,"ولایت":"دایکندی","Province":"DAYKUNDI","PC_Code":"2408083","ولسوالي":"سنگ تخت","District":"SANG-E-TAKHT","د_مرکز_نوم__نام_مرکز":"مسجد عمومی خاتم الانبیأ خلبرگ","Polling_Center_Name":"Khatim-ul-Anbia Khulbarg Mosque","د_مرکز_ځای__موقعیت_مرکز":"خلبرگ","Polling_Center_Location":"Khulbarg","Verification_Note":"Building","PS_Male":2,"PS_Female":1,"Map_Accuracy":"تعمیر"},"geometry":{"x":7354826.5322856829,"y":4057547.7216449082}},{"attributes":{"OBJECTID":5159,"ولایت":"دایکندی","Province":"DAYKUNDI","PC_Code":"2409063","ولسوالي":"کجران","District":"KEJRAN","د_مرکز_نوم__نام_مرکز":"منبر سلمونجی","Polling_Center_Name":"Salmonji Menbar","د_مرکز_ځای__موقعیت_مرکز":"سلمونجی","Polling_Center_Location":"Salmonji","Verification_Note":"Building","PS_Male":1,"PS_Female":1,"Map_Accuracy":"تعمیر"},"geometry":{"x":7283552.7410768867,"y":3918222.4681542292}},{"attributes":{"OBJECTID":5160,"ولایت":"ارزگان","Province":"UROZGAN","PC_Code":"2501004","ولسوالي":"ترینکوټ","District":"TIRINKOT","د_مرکز_نوم__نام_مرکز":"مسجد کبیر","Polling_Center_Name":"Kabeer Mosque","د_مرکز_ځای__موقعیت_مرکز":"مکتب ګلخانه سپین کیچه","Polling_Center_Location":"Maktab Gulkhana Spin Kicha","Verification_Note":"Building","PS_Male":3,"PS_Female":2,"Map_Accuracy":"تعمیر"},"geometry":{"x":7319262.4830428623,"y":3839663.7239815518}},{"attributes":{"OBJECTID":5161,"ولایت":"ارزگان","Province":"UROZGAN","PC_Code":"2501015","ولسوالي":"ترینکوټ","District":"TIRINKOT","د_مرکز_نوم__نام_مرکز":"د میرآباد کلی مکتب","Polling_Center_Name":"Mir Abad Village School","د_مرکز_ځای__موقعیت_مرکز":"میرآباد کلی","Polling_Center_Location":"Mir Abad Village","Verification_Note":"Building","PS_Male":3,"PS_Female":2,"Map_Accuracy":"تعمیر"},"geometry":{"x":7349921.319073908,"y":3852166.3761893958}},{"attributes":{"OBJECTID":5162,"ولایت":"ارزگان","Province":"UROZGAN","PC_Code":"2502054","ولسوالي":"دهراود","District":"DEHRAOUD","د_مرکز_نوم__نام_مرکز":"د ملا خدای نظر د کلي مکتب","Polling_Center_Name":"Mula Khudai Nazar Village School","د_مرکز_ځای__موقعیت_مرکز":"سیکزی کلی","Polling_Center_Location":"Sikazi Village","Verification_Note":"Building","PS_Male":5,"PS_Female":1,"Map_Accuracy":"تعمیر"},"geometry":{"x":7277282.3178751767,"y":3833734.8001994118}},{"attributes":{"OBJECTID":5163,"ولایت":"ارزگان","Province":"UROZGAN","PC_Code":"2504032","ولسوالي":"شهید حساس","District":"SHAHID-E-HASSAS","د_مرکز_نوم__نام_مرکز":"مکتب بازار یخدان","Polling_Center_Name":"Bazar Yakhdan School","د_مرکز_ځای__موقعیت_مرکز":"بازار یخدان","Polling_Center_Location":"Yakhdan Bazar","Verification_Note":"Building","PS_Male":3,"PS_Female":1,"Map_Accuracy":"تعمیر"},"geometry":{"x":7289660.9895916432,"y":3893440.0082684681}},{"attributes":{"OBJECTID":5164,"ولایت":"ارزگان","Province":"UROZGAN","PC_Code":"2505029","ولسوالي":"خاص ارزگان","District":"KHAS UROZGAN","د_مرکز_نوم__نام_مرکز":"مكتب ابتدائيه نسوان مرکز ولسوالی","Polling_Center_Name":"District Girls Primary School","د_مرکز_ځای__موقعیت_مرکز":"مرکز ولسوالی","Polling_Center_Location":"District Compound","Verification_Note":"Building","PS_Male":4,"PS_Female":2,"Map_Accuracy":"تعمیر"},"geometry":{"x":7417399.3104557618,"y":3885411.0457199439}},{"attributes":{"OBJECTID":5165,"ولایت":"زابل","Province":"ZABUL","PC_Code":"2604025","ولسوالي":"میزان","District":"MIZAN","د_مرکز_نوم__نام_مرکز":"ناوه عالم ګل مکتب ","Polling_Center_Name":"Nawa Alam Gul School","د_مرکز_ځای__موقعیت_مرکز":"مرکز ولسوالی ","Polling_Center_Location":"District Compound","Verification_Note":"Building","PS_Male":2,"PS_Female":2,"Map_Accuracy":"تعمیر"},"geometry":{"x":7404271.9806546606,"y":3786465.8078593016}},{"attributes":{"OBJECTID":5166,"ولایت":"زابل","Province":"ZABUL","PC_Code":"2610036","ولسوالي":"شملزایي","District":"SHEMEL ZAYI","د_مرکز_نوم__نام_مرکز":"كلينیك ولسوالي","Polling_Center_Name":"District Clinic","د_مرکز_ځای__موقعیت_مرکز":"بازار شملزائي","Polling_Center_Location":"Shamalzai Bazar","Verification_Note":"Building","PS_Male":4,"PS_Female":2,"Map_Accuracy":"تعمیر"},"geometry":{"x":7530282.7387939394,"y":3751294.9953815117}},{"attributes":{"OBJECTID":5167,"ولایت":"کندهار","Province":"کندهار","PC_Code":"2701007","ولسوالي":"کندهار","District":"KANDAHAR","د_مرکز_نوم__نام_مرکز":"د ملالي ليسه","Polling_Center_Name":"Malalai High School","د_مرکز_ځای__موقعیت_مرکز":"څلورمه ناحيه","Polling_Center_Location":"D04 - Nahia 4","Verification_Note":"Building","PS_Male":0,"PS_Female":9,"Map_Accuracy":"تعمیر"},"geometry":{"x":7316656.2377285659,"y":3714125.5724209547}},{"attributes":{"OBJECTID":5168,"ولایت":"کندهار","Province":"کندهار","PC_Code":"2701030","ولسوالي":"کندهار","District":"KANDAHAR","د_مرکز_نوم__نام_مرکز":"احمدشاه بابا ليسه","Polling_Center_Name":"Ahmad Shah Baba High School","د_مرکز_ځای__موقعیت_مرکز":"دویمه ناحيه","Polling_Center_Location":"D02 - Nahia 2","Verification_Note":"Building","PS_Male":9,"PS_Female":0,"Map_Accuracy":"تعمیر"},"geometry":{"x":7312421.9938419908,"y":3712690.2647133619}},{"attributes":{"OBJECTID":5169,"ولایت":"کندهار","Province":"کندهار","PC_Code":"2701033","ولسوالي":"کندهار","District":"KANDAHAR","د_مرکز_نوم__نام_مرکز":"د پلان عمومي رياست","Polling_Center_Name":"Plan Omomi Riyasat","د_مرکز_ځای__موقعیت_مرکز":"اوومه ناحيه","Polling_Center_Location":"D07 - Nahia 7","Verification_Note":"Building","PS_Male":6,"PS_Female":0,"Map_Accuracy":"تعمیر"},"geometry":{"x":7311209.7746810205,"y":3713580.4658390507}},{"attributes":{"OBJECTID":5170,"ولایت":"کندهار","Province":"کندهار","PC_Code":"2701050","ولسوالي":"کندهار","District":"KANDAHAR","د_مرکز_نوم__نام_مرکز":"عينو ليسه","Polling_Center_Name":"Aino High School","د_مرکز_ځای__موقعیت_مرکز":"شپږمه ناحيه","Polling_Center_Location":"D06 - Nahia 6","Verification_Note":"Building","PS_Male":0,"PS_Female":4,"Map_Accuracy":"تعمیر"},"geometry":{"x":7314671.6995252073,"y":3713329.752021}},{"attributes":{"OBJECTID":5171,"ولایت":"کندهار","Province":"کندهار","PC_Code":"2701054","ولسوالي":"کندهار","District":"KANDAHAR","د_مرکز_نوم__نام_مرکز":"ریاست کادستر","Polling_Center_Name":"Kadastar Riyasat","د_مرکز_ځای__موقعیت_مرکز":"لسمه ناحيه","Polling_Center_Location":"D10 - Nahia 10","Verification_Note":"Building","PS_Male":5,"PS_Female":5,"Map_Accuracy":"تعمیر"},"geometry":{"x":7318553.1096065417,"y":3713163.616731897}},{"attributes":{"OBJECTID":5172,"ولایت":"کندهار","Province":"کندهار","PC_Code":"2702100","ولسوالي":"ارغنداب","District":"ARGHANDAB","د_مرکز_نوم__نام_مرکز":"د بابا صاحب دوراهی د ابیاری ریاست","Polling_Center_Name":"Baba Sahib Dorahi - Irrigation Department","د_مرکز_ځای__موقعیت_مرکز":"بابا ولي صاحب","Polling_Center_Location":"Baba Wali Sahib","Verification_Note":"Building","PS_Male":0,"PS_Female":3,"Map_Accuracy":"تعمیر"},"geometry":{"x":7310226.6053911187,"y":3718681.8482017443}},{"attributes":{"OBJECTID":5173,"ولایت":"کندهار","Province":"کندهار","PC_Code":"2702111","ولسوالي":"ارغنداب","District":"ARGHANDAB","د_مرکز_نوم__نام_مرکز":"سلطان محمود غزنوي مكتب","Polling_Center_Name":"Sultan Mahmood Ghaznawi School","د_مرکز_ځای__موقعیت_مرکز":"ميراب خوران","Polling_Center_Location":"Mirab Khoran","Verification_Note":"Building","PS_Male":2,"PS_Female":1,"Map_Accuracy":"تعمیر"},"geometry":{"x":7311696.31543985,"y":3720629.3421010152}},{"attributes":{"OBJECTID":5174,"ولایت":"کندهار","Province":"کندهار","PC_Code":"2703087","ولسوالي":"دامان","District":"DAMAN","د_مرکز_نوم__نام_مرکز":"د حاجي حبيب اكا مسجد","Polling_Center_Name":"Haji Habib Aka Mosque","د_مرکز_ځای__موقعیت_مرکز":"سره قلعه","Polling_Center_Location":"Sra Qala","Verification_Note":"Village","PS_Male":1,"PS_Female":1,"Map_Accuracy":"قریه"},"geometry":{"x":7364574.1722900309,"y":3716736.0419698507}},{"attributes":{"OBJECTID":5175,"ولایت":"کندهار","Province":"کندهار","PC_Code":"2703088","ولسوالي":"دامان","District":"DAMAN","د_مرکز_نوم__نام_مرکز":"مكتب ناقلين","Polling_Center_Name":"Naqileen School","د_مرکز_ځای__موقعیت_مرکز":"ناقلين","Polling_Center_Location":"Naqileen","Verification_Note":"Building","PS_Male":1,"PS_Female":1,"Map_Accuracy":"تعمیر"},"geometry":{"x":7324451.1222460531,"y":3707944.0166125521}},{"attributes":{"OBJECTID":5176,"ولایت":"کندهار","Province":"کندهار","PC_Code":"2704177","ولسوالي":"پنجوایې","District":"PANJWAYEE","د_مرکز_نوم__نام_مرکز":"حاجي اكبر كمپ","Polling_Center_Name":"Haji Akbar Camp","د_مرکز_ځای__موقعیت_مرکز":"موشان","Polling_Center_Location":"Moshan","Verification_Note":"Village","PS_Male":2,"PS_Female":1,"Map_Accuracy":"قریه"},"geometry":{"x":7264924.1178130619,"y":3693332.5573034585}},{"attributes":{"OBJECTID":5177,"ولایت":"کندهار","Province":"کندهار","PC_Code":"2704178","ولسوالي":"پنجوایې","District":"PANJWAYEE","د_مرکز_نوم__نام_مرکز":"د مارغر كمپ ښوونځي","Polling_Center_Name":"Marghar Camp School","د_مرکز_ځای__موقعیت_مرکز":"د مارغر كمپ ","Polling_Center_Location":"Marghar Camp","Verification_Note":"Building","PS_Male":2,"PS_Female":1,"Map_Accuracy":"تعمیر"},"geometry":{"x":7291008.9083250836,"y":3703333.66348961}},{"attributes":{"OBJECTID":5178,"ولایت":"کندهار","Province":"کندهار","PC_Code":"2705153","ولسوالي":"ژیړی","District":"ZHIRE","د_مرکز_نوم__نام_مرکز":"يولسم كمپ ښوونځي","Polling_Center_Name":"11th Camp School","د_مرکز_ځای__موقعیت_مرکز":"د ژړي دښت","Polling_Center_Location":"Zharee Dasht","Verification_Note":"Building","PS_Male":4,"PS_Female":4,"Map_Accuracy":"تعمیر"},"geometry":{"x":7277581.4411392994,"y":3718468.3170324191}},{"attributes":{"OBJECTID":5179,"ولایت":"کندهار","Province":"کندهار","PC_Code":"2705165","ولسوالي":"ژیړی","District":"ZHIRE","د_مرکز_نوم__نام_مرکز":"د پوپل نيكه مكتب","Polling_Center_Name":"Popal Neeka School","د_مرکز_ځای__موقعیت_مرکز":"قلق","Polling_Center_Location":"Qolq","Verification_Note":"Village","PS_Male":1,"PS_Female":1,"Map_Accuracy":"قریه"},"geometry":{"x":7266917.8882984,"y":3699365.754972361}},{"attributes":{"OBJECTID":5180,"ولایت":"کندهار","Province":"کندهار","PC_Code":"2705166","ولسوالي":"ژیړی","District":"ZHIRE","د_مرکز_نوم__نام_مرکز":"نادي مكتب","Polling_Center_Name":"Naadi School","د_مرکز_ځای__موقعیت_مرکز":"سنګهسار","Polling_Center_Location":"Sangohsar","Verification_Note":"Village","PS_Male":1,"PS_Female":1,"Map_Accuracy":"قریه"},"geometry":{"x":7273169.5357981957,"y":3702434.5263722092}},{"attributes":{"OBJECTID":5181,"ولایت":"کندهار","Province":"کندهار","PC_Code":"2706093","ولسوالي":"شاه ولي كوټ","District":"SHAH WALI KOT","د_مرکز_نوم__نام_مرکز":"د شيراغا كور","Polling_Center_Name":"Shir Agha Private House","د_مرکز_ځای__موقعیت_مرکز":"قوندلان","Polling_Center_Location":"Qondalan","Verification_Note":"Village","PS_Male":2,"PS_Female":0,"Map_Accuracy":"قریه"},"geometry":{"x":7330468.18685082,"y":3781338.6161077544}},{"attributes":{"OBJECTID":5182,"ولایت":"کندهار","Province":"کندهار","PC_Code":"2707122","ولسوالي":"خاک ریز","District":"KHAKREZ","د_مرکز_نوم__نام_مرکز":"مكتب حاجي ګل","Polling_Center_Name":"Haji Gul School","د_مرکز_ځای__موقعیت_مرکز":"حاجي ګل","Polling_Center_Location":"Haji Gul","Verification_Note":"Village","PS_Male":1,"PS_Female":1,"Map_Accuracy":"قریه"},"geometry":{"x":7293118.8523876034,"y":3758132.6220922992}},{"attributes":{"OBJECTID":5183,"ولایت":"کندهار","Province":"کندهار","PC_Code":"2708250","ولسوالي":"ارغستان","District":"ARGHISTAN","د_مرکز_نوم__نام_مرکز":"ميلمستون","Polling_Center_Name":"Guest House","د_مرکز_ځای__موقعیت_مرکز":"نارغال","Polling_Center_Location":"Narghal","Verification_Note":"Village","PS_Male":2,"PS_Female":2,"Map_Accuracy":"قریه"},"geometry":{"x":7380476.9162959941,"y":3692460.4119720459}},{"attributes":{"OBJECTID":5184,"ولایت":"کندهار","Province":"کندهار","PC_Code":"2710135","ولسوالي":"میوند","District":"MAIWAND","د_مرکز_نوم__نام_مرکز":"كلينيك  بند تيمور","Polling_Center_Name":"Band Taimoor Clinic","د_مرکز_ځای__موقعیت_مرکز":" بند تيمور","Polling_Center_Location":"Band Taimoor","Verification_Note":"Village","PS_Male":2,"PS_Female":0,"Map_Accuracy":"قریه"},"geometry":{"x":7231995.5987029932,"y":3702516.916531682}},{"attributes":{"OBJECTID":5185,"ولایت":"کندهار","Province":"کندهار","PC_Code":"2710142","ولسوالي":"میوند","District":"MAIWAND","د_مرکز_نوم__نام_مرکز":"د غازي محمد ايوب خان ليسه","Polling_Center_Name":"Ghazi Mohamamd Ayub Khan High School","د_مرکز_ځای__موقعیت_مرکز":"زوړ بازار","Polling_Center_Location":"Zor Bazar","Verification_Note":"Building","PS_Male":2,"PS_Female":1,"Map_Accuracy":"تعمیر"},"geometry":{"x":7242711.9509349763,"y":3713259.5100435689}},{"attributes":{"OBJECTID":5186,"ولایت":"کندهار","Province":"کندهار","PC_Code":"2711206","ولسوالي":"سپین بولدک","District":"SPIN BOLDAK","د_مرکز_نوم__نام_مرکز":"د حاجی رزاق مکتب","Polling_Center_Name":"Haji Raziq School","د_مرکز_ځای__موقعیت_مرکز":"يعقوب ماركيټ ويش","Polling_Center_Location":"Yaqoob Wesh Market ","Verification_Note":"Building","PS_Male":5,"PS_Female":0,"Map_Accuracy":"تعمیر"},"geometry":{"x":7392340.2633729018,"y":3626903.3006139919}},{"attributes":{"OBJECTID":5187,"ولایت":"کندهار","Province":"کندهار","PC_Code":"2711216","ولسوالي":"سپین بولدک","District":"SPIN BOLDAK","د_مرکز_نوم__نام_مرکز":"د فيضو كور","Polling_Center_Name":"Faizo Private House","د_مرکز_ځای__موقعیت_مرکز":"سپين بولدك","Polling_Center_Location":"Speen Boldak","Verification_Note":"Building","PS_Male":3,"PS_Female":0,"Map_Accuracy":"تعمیر"},"geometry":{"x":7391148.6438837014,"y":3634019.3458814323}},{"attributes":{"OBJECTID":5188,"ولایت":"کندهار","Province":"کندهار","PC_Code":"2711217","ولسوالي":"سپین بولدک","District":"SPIN BOLDAK","د_مرکز_نوم__نام_مرکز":"د فرمان الله كور","Polling_Center_Name":"Farmanullah Private House","د_مرکز_ځای__موقعیت_مرکز":"نوي كلي","Polling_Center_Location":"Nawai Village","Verification_Note":"Building","PS_Male":3,"PS_Female":3,"Map_Accuracy":"تعمیر"},"geometry":{"x":7395509.7307640612,"y":3627692.6531290933}},{"attributes":{"OBJECTID":5189,"ولایت":"کندهار","Province":"کندهار","PC_Code":"2713261","ولسوالي":"ميانشين","District":"MIYANISHIN","د_مرکز_نوم__نام_مرکز":"د ولسوالي مركز","Polling_Center_Name":"District Building Office","د_مرکز_ځای__موقعیت_مرکز":"چلوار","Polling_Center_Location":"Chalwar","Verification_Note":"Village","PS_Male":1,"PS_Female":1,"Map_Accuracy":"قریه"},"geometry":{"x":7388529.6369029805,"y":3812680.7259764969}},{"attributes":{"OBJECTID":5190,"ولایت":"کندهار","Province":"کندهار","PC_Code":"2715270","ولسوالي":"معروف","District":"MARUF","د_مرکز_نوم__نام_مرکز":"د چودې د كلي مسجد","Polling_Center_Name":"Chody Village Mosque","د_مرکز_ځای__موقعیت_مرکز":"د چودې كلي","Polling_Center_Location":"Chodi Village","Verification_Note":"Village","PS_Male":2,"PS_Female":2,"Map_Accuracy":"قریه"},"geometry":{"x":7483795.6147983484,"y":3718477.1695154458}},{"attributes":{"OBJECTID":5191,"ولایت":"کندهار","Province":"کندهار","PC_Code":"2717016","ولسوالي":"ډند","District":"DAND","د_مرکز_نوم__نام_مرکز":"د كلچه آباد منځني ښوونځي","Polling_Center_Name":"Kulcha Abad Secondary School","د_مرکز_ځای__موقعیت_مرکز":"ډنډ ولسوالي","Polling_Center_Location":"Dand District ","Verification_Note":"Village","PS_Male":3,"PS_Female":2,"Map_Accuracy":"قریه"},"geometry":{"x":7311271.5937338434,"y":3707817.5978095233}},{"attributes":{"OBJECTID":5192,"ولایت":"جوزجان","Province":"JAWZJAN","PC_Code":"2801009","ولسوالي":"شبرغان","District":"SHEBERGHAN","د_مرکز_نوم__نام_مرکز":"لیسه چرمگر خانه","Polling_Center_Name":"Charamgar Khana High School","د_مرکز_ځای__موقعیت_مرکز":"ناحیه جهارم","Polling_Center_Location":"D04 - Nahia 4","Verification_Note":"Building","PS_Male":4,"PS_Female":2,"Map_Accuracy":"تعمیر"},"geometry":{"x":7321089.0811526962,"y":4392729.6551153287}},{"attributes":{"OBJECTID":5193,"ولایت":"جوزجان","Province":"JAWZJAN","PC_Code":"2801018","ولسوالي":"شبرغان","District":"SHEBERGHAN","د_مرکز_نوم__نام_مرکز":"لیسه ینگی اریغ","Polling_Center_Name":"Yangee Areegh High School","د_مرکز_ځای__موقعیت_مرکز":"ناحیه چهارم","Polling_Center_Location":"D04 - Nahia 4","Verification_Note":"Building","PS_Male":3,"PS_Female":2,"Map_Accuracy":"تعمیر"},"geometry":{"x":7324476.6968971826,"y":4401238.7795339972}},{"attributes":{"OBJECTID":5194,"ولایت":"جوزجان","Province":"JAWZJAN","PC_Code":"2801029","ولسوالي":"شبرغان","District":"SHEBERGHAN","د_مرکز_نوم__نام_مرکز":"مکتب متوسطه چغچی","Polling_Center_Name":"Chaghachi Secondary School","د_مرکز_ځای__موقعیت_مرکز":"ناحیه چهارم","Polling_Center_Location":"D04 - Nahia 4","Verification_Note":"Building","PS_Male":2,"PS_Female":1,"Map_Accuracy":"تعمیر"},"geometry":{"x":7322040.654408887,"y":4394373.9143055677}},{"attributes":{"OBJECTID":5195,"ولایت":"جوزجان","Province":"JAWZJAN","PC_Code":"2803116","ولسوالي":"خانقاه","District":"KHANAQA","د_مرکز_نوم__نام_مرکز":"مکتب بیش کپه وطنیه","Polling_Center_Name":"Besh Kapa Watania School","د_مرکز_ځای__موقعیت_مرکز":"بیش کپه وطنیه","Polling_Center_Location":"Besh Kapa Watania","Verification_Note":"Building","PS_Male":2,"PS_Female":1,"Map_Accuracy":"تعمیر"},"geometry":{"x":7362362.9909429923,"y":4424799.2352354154}},{"attributes":{"OBJECTID":5196,"ولایت":"جوزجان","Province":"JAWZJAN","PC_Code":"2804073","ولسوالي":"منگجیک","District":"MINGAJIK","د_مرکز_نوم__نام_مرکز":"مکتب نسوان عباس","Polling_Center_Name":"Abaas Girls School","د_مرکز_ځای__موقعیت_مرکز":"قریه عباش","Polling_Center_Location":"Abaash Village","Verification_Note":"Building","PS_Male":2,"PS_Female":2,"Map_Accuracy":"تعمیر"},"geometry":{"x":7356108.5966347605,"y":4434011.991301991}},{"attributes":{"OBJECTID":5197,"ولایت":"جوزجان","Province":"JAWZJAN","PC_Code":"2805092","ولسوالي":"قوش تیپه","District":"QUSH TEPA","د_مرکز_نوم__نام_مرکز":"مکتب ترکمن قدوق","Polling_Center_Name":"Turkman Qadoq School","د_مرکز_ځای__موقعیت_مرکز":"قوش تبه ","Polling_Center_Location":"Qosh Taba","Verification_Note":"Building","PS_Male":1,"PS_Female":1,"Map_Accuracy":"تعمیر"},"geometry":{"x":7285031.3900807314,"y":4321051.1112378612}},{"attributes":{"OBJECTID":5198,"ولایت":"جوزجان","Province":"JAWZJAN","PC_Code":"2807036","ولسوالي":"آقچه","District":"AQCHAH","د_مرکز_نوم__نام_مرکز":"مسجد  قم اریغ","Polling_Center_Name":"Qum Areegh Mosque","د_مرکز_ځای__موقعیت_مرکز":"قریه قم اریغ","Polling_Center_Location":"Qum Areegh Village","Verification_Note":"Building","PS_Male":2,"PS_Female":1,"Map_Accuracy":"تعمیر"},"geometry":{"x":7365306.6178040206,"y":4430618.4586087912}},{"attributes":{"OBJECTID":5199,"ولایت":"جوزجان","Province":"JAWZJAN","PC_Code":"2807046","ولسوالي":"آقچه","District":"AQCHAH","د_مرکز_نوم__نام_مرکز":"مکتب قره بویین","Polling_Center_Name":"Qara-e-Boyeen School","د_مرکز_ځای__موقعیت_مرکز":"قره بویین","Polling_Center_Location":"Qara-e-Boyeen","Verification_Note":"Building","PS_Male":1,"PS_Female":1,"Map_Accuracy":"تعمیر"},"geometry":{"x":7370451.5018794686,"y":4418352.7215061262}}]}