{"objectIdFieldName":"OBJECTID","globalIdFieldName":"","geometryType":"esriGeometryPoint","spatialReference":{"wkid":102100,"latestWkid":3857},"fields":[{"name":"OBJECTID","type":"esriFieldTypeOID","alias":"OBJECTID","sqlType":"sqlTypeOther","domain":null,"defaultValue":null},{"name":"ولایت","type":"esriFieldTypeString","alias":"ولایت","sqlType":"sqlTypeOther","length":255,"domain":null,"defaultValue":null},{"name":"Province","type":"esriFieldTypeString","alias":"Province","sqlType":"sqlTypeOther","length":255,"domain":null,"defaultValue":null},{"name":"PC_Code","type":"esriFieldTypeString","alias":"PC_Code","sqlType":"sqlTypeOther","length":255,"domain":null,"defaultValue":null},{"name":"ولسوالي","type":"esriFieldTypeString","alias":"ولسوالي","sqlType":"sqlTypeOther","length":255,"domain":null,"defaultValue":null},{"name":"District","type":"esriFieldTypeString","alias":"District","sqlType":"sqlTypeOther","length":255,"domain":null,"defaultValue":null},{"name":"د_مرکز_نوم__نام_مرکز","type":"esriFieldTypeString","alias":"د_مرکز_نوم__نام_مرکز","sqlType":"sqlTypeOther","length":255,"domain":null,"defaultValue":null},{"name":"Polling_Center_Name","type":"esriFieldTypeString","alias":"Polling_Center_Name","sqlType":"sqlTypeOther","length":255,"domain":null,"defaultValue":null},{"name":"د_مرکز_ځای__موقعیت_مرکز","type":"esriFieldTypeString","alias":"د_مرکز_ځای__موقعیت_مرکز","sqlType":"sqlTypeOther","length":255,"domain":null,"defaultValue":null},{"name":"Polling_Center_Location","type":"esriFieldTypeString","alias":"Polling_Center_Location","sqlType":"sqlTypeOther","length":255,"domain":null,"defaultValue":null},{"name":"Verification_Note","type":"esriFieldTypeString","alias":"Verification_Note","sqlType":"sqlTypeOther","length":250,"domain":null,"defaultValue":null},{"name":"PS_Male","type":"esriFieldTypeSmallInteger","alias":"PS_Male","sqlType":"sqlTypeOther","domain":null,"defaultValue":null},{"name":"PS_Female","type":"esriFieldTypeSmallInteger","alias":"PS_Female","sqlType":"sqlTypeOther","domain":null,"defaultValue":null},{"name":"Map_Accuracy","type":"esriFieldTypeString","alias":"Map_Accuracy","sqlType":"sqlTypeOther","length":10,"domain":null,"defaultValue":null}],"features":[{"attributes":{"OBJECTID":5200,"ولایت":"جوزجان","Province":"JAWZJAN","PC_Code":"2807047","ولسوالي":"آقچه","District":"AQCHAH","د_مرکز_نوم__نام_مرکز":"مکتب چکش سربند","Polling_Center_Name":"Chakosh Sarband School","د_مرکز_ځای__موقعیت_مرکز":"چکش سربند ","Polling_Center_Location":"Chakosh Sarband","Verification_Note":"Building","PS_Male":1,"PS_Female":1,"Map_Accuracy":"تعمیر"},"geometry":{"x":7377374.9819871187,"y":4417023.8803811446}},{"attributes":{"OBJECTID":5228,"ولایت":"هلمند","Province":"HELMAND","PC_Code":"3003090","ولسوالي":"ناوه بارکزایی","District":"NAWA-E-BARAKZAYI","د_مرکز_نوم__نام_مرکز":"د حاجی غلام علي مسجد","Polling_Center_Name":"Haji Ghulam Ali Mosque","د_مرکز_ځای__موقعیت_مرکز":"تریخ زابر","Polling_Center_Location":"Treekh Zabar","Verification_Note":"Building","PS_Male":3,"PS_Female":1,"Map_Accuracy":"تعمیر"},"geometry":{"x":7158422.0202852748,"y":3695190.4792318866}},{"attributes":{"OBJECTID":5229,"ولایت":"هلمند","Province":"HELMAND","PC_Code":"3003101","ولسوالي":"ناوه بارکزایی","District":"NAWA-E-BARAKZAYI","د_مرکز_نوم__نام_مرکز":"د لوی کلی مكتب","Polling_Center_Name":"Loy Village School","د_مرکز_ځای__موقعیت_مرکز":"لوی کلی","Polling_Center_Location":"Loy Village","Verification_Note":"Building","PS_Male":3,"PS_Female":0,"Map_Accuracy":"تعمیر"},"geometry":{"x":7149047.1983837932,"y":3663636.2476715893}},{"attributes":{"OBJECTID":5230,"ولایت":"هلمند","Province":"HELMAND","PC_Code":"3006126","ولسوالي":"گرم سیر","District":"GARM SER","د_مرکز_نوم__نام_مرکز":"د ولسوالي مركزی مكتب","Polling_Center_Name":"District Center School","د_مرکز_ځای__موقعیت_مرکز":"د حاجی محمد لعل کلي","Polling_Center_Location":"Haji Mohammad Lal Village","Verification_Note":"Building","PS_Male":2,"PS_Female":1,"Map_Accuracy":"تعمیر"},"geometry":{"x":7146565.6406953,"y":3649747.0506042242}},{"attributes":{"OBJECTID":5231,"ولایت":"هلمند","Province":"HELMAND","PC_Code":"3009189","ولسوالي":"موسی قلعه","District":"MUSA QALA","د_مرکز_نوم__نام_مرکز":"مارکیت لعل جان","Polling_Center_Name":"Lal Jan Market","د_مرکز_ځای__موقعیت_مرکز":"چنه سفلی","Polling_Center_Location":"Chena Sufla","Verification_Note":"Building","PS_Male":4,"PS_Female":3,"Map_Accuracy":"تعمیر"},"geometry":{"x":7210530.2664962746,"y":3808037.8534955159}},{"attributes":{"OBJECTID":5232,"ولایت":"هلمند","Province":"HELMAND","PC_Code":"3011212","ولسوالي":"ریگ خانشین","District":"REG-E-KHAN NISHIN","د_مرکز_نوم__نام_مرکز":"د دوست محمد مسجد","Polling_Center_Name":"Dost Mohammad Mosque","د_مرکز_ځای__موقعیت_مرکز":"قلعه ګو لو  مکتب","Polling_Center_Location":"Qala-e-Golo Maktab","Verification_Note":"District","PS_Male":3,"PS_Female":0,"Map_Accuracy":"ولسوالی"},"geometry":{"x":7063726.5035732612,"y":3591967.1514361724}},{"attributes":{"OBJECTID":5233,"ولایت":"هلمند","Province":"HELMAND","PC_Code":"3014072","ولسوالي":"مارجه","District":"MARJA","د_مرکز_نوم__نام_مرکز":"لیسه مار جه ","Polling_Center_Name":"Marja High School","د_مرکز_ځای__موقعیت_مرکز":"بلاک ۲۵","Polling_Center_Location":"Block 25","Verification_Note":"Village","PS_Male":3,"PS_Female":1,"Map_Accuracy":"قریه"},"geometry":{"x":7138064.1745229959,"y":3702690.8190369904}},{"attributes":{"OBJECTID":5234,"ولایت":"هلمند","Province":"HELMAND","PC_Code":"3014088","ولسوالي":"مارجه","District":"MARJA","د_مرکز_نوم__نام_مرکز":"تعمیر(کوچی مرکز) شین غزک","Polling_Center_Name":"Sheen Ghazak Buliding (Kochi Center)","د_مرکز_ځای__موقعیت_مرکز":"شین غزک","Polling_Center_Location":"Sheen Ghazak","Verification_Note":"Village","PS_Male":1,"PS_Female":1,"Map_Accuracy":"قریه"},"geometry":{"x":7130579.2142658792,"y":3670834.4199363738}},{"attributes":{"OBJECTID":5235,"ولایت":"بادغيس","Province":"BADGHIS","PC_Code":"3101010","ولسوالي":"قلعه نو","District":"QALA-E-NOW","د_مرکز_نوم__نام_مرکز":"مکتب  قریه کندلان","Polling_Center_Name":"Kandalan Village School","د_مرکز_ځای__موقعیت_مرکز":"قریه سرچشمه کندلان","Polling_Center_Location":"Kandalan Sar Cheshma Village","Verification_Note":"Building","PS_Male":2,"PS_Female":2,"Map_Accuracy":"تعمیر"},"geometry":{"x":7027221.117791988,"y":4154591.7461553589}},{"attributes":{"OBJECTID":5236,"ولایت":"بادغيس","Province":"BADGHIS","PC_Code":"3102041","ولسوالي":"آبکمری","District":"AB KAMARI","د_مرکز_نوم__نام_مرکز":"مسجد قریه گل خانه","Polling_Center_Name":"Gulkhana Village Mosque","د_مرکز_ځای__موقعیت_مرکز":"گل خانه","Polling_Center_Location":"Gulkhana ","Verification_Note":"Building","PS_Male":1,"PS_Female":1,"Map_Accuracy":"تعمیر"},"geometry":{"x":7011140.1156590171,"y":4139056.4346108437}},{"attributes":{"OBJECTID":5237,"ولایت":"بادغيس","Province":"BADGHIS","PC_Code":"3103026","ولسوالي":"مقر","District":"MUQUR","د_مرکز_نوم__نام_مرکز":"مکتب اندری","Polling_Center_Name":"Andari School","د_مرکز_ځای__موقعیت_مرکز":"اندری ","Polling_Center_Location":"Andari ","Verification_Note":"Building","PS_Male":1,"PS_Female":1,"Map_Accuracy":"تعمیر"},"geometry":{"x":7045517.3154528216,"y":4163279.2239466757}},{"attributes":{"OBJECTID":5238,"ولایت":"بادغيس","Province":"BADGHIS","PC_Code":"3104062","ولسوالي":"قادس","District":"QADIS","د_مرکز_نوم__نام_مرکز":"مسجد جامع قریه زیارت","Polling_Center_Name":"Zeyarat Village","د_مرکز_ځای__موقعیت_مرکز":"زیارت","Polling_Center_Location":"Ziarat ","Verification_Note":"Building","PS_Male":1,"PS_Female":1,"Map_Accuracy":"تعمیر"},"geometry":{"x":7069814.4841483235,"y":4135112.8468331248}},{"attributes":{"OBJECTID":5239,"ولایت":"بادغيس","Province":"BADGHIS","PC_Code":"3104072","ولسوالي":"قادس","District":"QADIS","د_مرکز_نوم__نام_مرکز":"مسجد قریه شورآب بالا","Polling_Center_Name":"Shuraab-e- Balla Village Mosque","د_مرکز_ځای__موقعیت_مرکز":"شوراب بالا ","Polling_Center_Location":"Shuraab-e- Balla ","Verification_Note":"Building","PS_Male":1,"PS_Female":1,"Map_Accuracy":"تعمیر"},"geometry":{"x":7062406.2833555229,"y":4153376.4289676324}},{"attributes":{"OBJECTID":5240,"ولایت":"بادغيس","Province":"BADGHIS","PC_Code":"3104084","ولسوالي":"قادس","District":"QADIS","د_مرکز_نوم__نام_مرکز":"تعمیر ولسوالی دره بوم","Polling_Center_Name":"Darra-e-Bom District Building","د_مرکز_ځای__موقعیت_مرکز":" دره بوم","Polling_Center_Location":"Darra-e- Bom ","Verification_Note":"Village","PS_Male":2,"PS_Female":1,"Map_Accuracy":"قریه"},"geometry":{"x":7064778.4616293013,"y":4175757.7031341195}},{"attributes":{"OBJECTID":5241,"ولایت":"بادغيس","Province":"BADGHIS","PC_Code":"3106102","ولسوالي":"جوند","District":"JAWAND","د_مرکز_نوم__نام_مرکز":"مکتب تگاب بیست","Polling_Center_Name":"Tagab Beest Village","د_مرکز_ځای__موقعیت_مرکز":"تگاب بیست","Polling_Center_Location":"Tagab Beest","Verification_Note":"Building","PS_Male":1,"PS_Female":1,"Map_Accuracy":"تعمیر"},"geometry":{"x":7167643.144701656,"y":4152196.5103052855}},{"attributes":{"OBJECTID":5242,"ولایت":"بادغيس","Province":"BADGHIS","PC_Code":"3106114","ولسوالي":"جوند","District":"JAWAND","د_مرکز_نوم__نام_مرکز":"مسجدشور آبک","Polling_Center_Name":"Shur Aabak Mosque","د_مرکز_ځای__موقعیت_مرکز":" شور آبک","Polling_Center_Location":"Shur Aabak","Verification_Note":"Village","PS_Male":1,"PS_Female":1,"Map_Accuracy":"قریه"},"geometry":{"x":7168406.0494547114,"y":4127501.8843983337}},{"attributes":{"OBJECTID":5243,"ولایت":"بادغيس","Province":"BADGHIS","PC_Code":"3106179","ولسوالي":"جوند","District":"JAWAND","د_مرکز_نوم__نام_مرکز":"مسجد دهن درم الله یار","Polling_Center_Name":"Dahan Daramullah yar Mosque","د_مرکز_ځای__موقعیت_مرکز":"دهن درم الله یار","Polling_Center_Location":"Dahan Daramullah yar","Verification_Note":"Building","PS_Male":1,"PS_Female":1,"Map_Accuracy":"تعمیر"},"geometry":{"x":7198524.2768502571,"y":4135165.9700737968}},{"attributes":{"OBJECTID":5244,"ولایت":"بادغيس","Province":"BADGHIS","PC_Code":"3107133","ولسوالي":"غورماچ","District":"GHORMACH","د_مرکز_نوم__نام_مرکز":"مسجد قریه غوربند","Polling_Center_Name":"Ghorband Village Mosque ","د_مرکز_ځای__موقعیت_مرکز":" غوربند","Polling_Center_Location":"Ghorband  ","Verification_Note":"Village","PS_Male":1,"PS_Female":1,"Map_Accuracy":"قریه"},"geometry":{"x":7103303.38446185,"y":4244553.9759998694}},{"attributes":{"OBJECTID":5245,"ولایت":"بادغيس","Province":"BADGHIS","PC_Code":"3107134","ولسوالي":"غورماچ","District":"GHORMACH","د_مرکز_نوم__نام_مرکز":"مسجد قریه شورگل خان","Polling_Center_Name":"Shur Gul Khan Village Mosque ","د_مرکز_ځای__موقعیت_مرکز":"شورگل خان","Polling_Center_Location":"Shur Gul Khan  ","Verification_Note":"Building","PS_Male":1,"PS_Female":1,"Map_Accuracy":"تعمیر"},"geometry":{"x":7096166.7264161371,"y":4269386.9208258837}},{"attributes":{"OBJECTID":5246,"ولایت":"بادغيس","Province":"BADGHIS","PC_Code":"3107144","ولسوالي":"غورماچ","District":"GHORMACH","د_مرکز_نوم__نام_مرکز":"کابل زی","Polling_Center_Name":"Kabulzai ","د_مرکز_ځای__موقعیت_مرکز":"کابل زی","Polling_Center_Location":"Kabulzai ","Verification_Note":"Village","PS_Male":1,"PS_Female":1,"Map_Accuracy":"قریه"},"geometry":{"x":7092539.311790552,"y":4272222.07963343}},{"attributes":{"OBJECTID":5247,"ولایت":"هرات","Province":"HERAT","PC_Code":"3201010","ولسوالي":"هرات","District":"HERAT","د_مرکز_نوم__نام_مرکز":"لیسه مهری","Polling_Center_Name":"Mehri High School","د_مرکز_ځای__موقعیت_مرکز":" ناحیه پنجم","Polling_Center_Location":"D05 - Nahia 5","Verification_Note":"Building","PS_Male":4,"PS_Female":5,"Map_Accuracy":"تعمیر"},"geometry":{"x":6922920.6225690469,"y":4076058.3668378145}},{"attributes":{"OBJECTID":5248,"ولایت":"هرات","Province":"HERAT","PC_Code":"3201020","ولسوالي":"هرات","District":"HERAT","د_مرکز_نوم__نام_مرکز":"مجتمع خواهران","Polling_Center_Name":"Mojtameh Khwaharan ","د_مرکز_ځای__موقعیت_مرکز":" ناحیه هفتم","Polling_Center_Location":"D10 - Nahia 10","Verification_Note":"Village","PS_Male":0,"PS_Female":5,"Map_Accuracy":"قریه"},"geometry":{"x":6923008.5070806444,"y":4075515.7138513997}},{"attributes":{"OBJECTID":5249,"ولایت":"هرات","Province":"HERAT","PC_Code":"3201031","ولسوالي":"هرات","District":"HERAT","د_مرکز_نوم__نام_مرکز":"لیسه سیفی","Polling_Center_Name":"Seefi High school","د_مرکز_ځای__موقعیت_مرکز":" ناحیه دهم","Polling_Center_Location":"D10 - Nahia 10","Verification_Note":"Building","PS_Male":5,"PS_Female":6,"Map_Accuracy":"تعمیر"},"geometry":{"x":6922627.2033156231,"y":4073220.85875351}},{"attributes":{"OBJECTID":5250,"ولایت":"هرات","Province":"HERAT","PC_Code":"3201433","ولسوالي":"هرات","District":"HERAT","د_مرکز_نوم__نام_مرکز":"مسجد شهرک صنعتی","Polling_Center_Name":"Shahrak-e-Sanhati","د_مرکز_ځای__موقعیت_مرکز":"ولسوالی گذره مقابل میدان هوایی","Polling_Center_Location":"Guzara District inside of Airport","Verification_Note":"Building","PS_Male":5,"PS_Female":0,"Map_Accuracy":"تعمیر"},"geometry":{"x":6926216.93629358,"y":4057249.9658474922}},{"attributes":{"OBJECTID":5251,"ولایت":"هرات","Province":"HERAT","PC_Code":"3202044","ولسوالي":"انجیل","District":"ENJIL","د_مرکز_نوم__نام_مرکز":"ليسه نوين عليا","Polling_Center_Name":"Khalifa saheb nawin","د_مرکز_ځای__موقعیت_مرکز":"قریه نوین علیا","Polling_Center_Location":"Naween Ulya Village","Verification_Note":"Building","PS_Male":1,"PS_Female":1,"Map_Accuracy":"تعمیر"},"geometry":{"x":6930781.6087114774,"y":4067534.0239971131}},{"attributes":{"OBJECTID":5252,"ولایت":"هرات","Province":"HERAT","PC_Code":"3202054","ولسوالي":"انجیل","District":"ENJIL","د_مرکز_نوم__نام_مرکز":"مکتب ابتدایی صوفیان","Polling_Center_Name":"Sofiyan primary School ","د_مرکز_ځای__موقعیت_مرکز":"قریه صوفیان","Polling_Center_Location":"Sofiyan Village","Verification_Note":"Building","PS_Male":2,"PS_Female":1,"Map_Accuracy":"تعمیر"},"geometry":{"x":6911749.2185225971,"y":4074029.9704624638}},{"attributes":{"OBJECTID":5253,"ولایت":"هرات","Province":"HERAT","PC_Code":"3202055","ولسوالي":"انجیل","District":"ENJIL","د_مرکز_نوم__نام_مرکز":"مکتب متوسطه پروانه","Polling_Center_Name":"Parwana Secondary School ","د_مرکز_ځای__موقعیت_مرکز":"قریه پروانه","Polling_Center_Location":"Parwana Village  ","Verification_Note":"Building","PS_Male":1,"PS_Female":1,"Map_Accuracy":"تعمیر"},"geometry":{"x":6925063.264505595,"y":4096735.9953306317}},{"attributes":{"OBJECTID":5254,"ولایت":"هرات","Province":"HERAT","PC_Code":"3202065","ولسوالي":"انجیل","District":"ENJIL","د_مرکز_نوم__نام_مرکز":"مکتب متوسطه سروستان","Polling_Center_Name":"Srorestan Secondary School","د_مرکز_ځای__موقعیت_مرکز":"قریه  سروستان","Polling_Center_Location":"Srorestan Village ","Verification_Note":"Building","PS_Male":2,"PS_Female":1,"Map_Accuracy":"تعمیر"},"geometry":{"x":6927007.9558972344,"y":4070639.0071487874}},{"attributes":{"OBJECTID":5255,"ولایت":"هرات","Province":"HERAT","PC_Code":"3203092","ولسوالي":"گذره","District":"GUZARA","د_مرکز_نوم__نام_مرکز":"لیسه شمس الدین کورت","Polling_Center_Name":"Shamsudeen-e-kort High School","د_مرکز_ځای__موقعیت_مرکز":"قریه گوشمیر","Polling_Center_Location":"Goshmeer Village","Verification_Note":"Building","PS_Male":2,"PS_Female":1,"Map_Accuracy":"تعمیر"},"geometry":{"x":6919475.9678306691,"y":4064882.5386436209}},{"attributes":{"OBJECTID":5256,"ولایت":"هرات","Province":"HERAT","PC_Code":"3203103","ولسوالي":"گذره","District":"GUZARA","د_مرکز_نوم__نام_مرکز":"مکتب متوسطه تنغارشان","Polling_Center_Name":"Tangharshan Scondary School ","د_مرکز_ځای__موقعیت_مرکز":"قریه تنغارشان ","Polling_Center_Location":"Tangharshan Village ","Verification_Note":"Building","PS_Male":1,"PS_Female":1,"Map_Accuracy":"تعمیر"},"geometry":{"x":6915458.3182773329,"y":4062475.8968260512}},{"attributes":{"OBJECTID":5257,"ولایت":"هرات","Province":"HERAT","PC_Code":"3203114","ولسوالي":"گذره","District":"GUZARA","د_مرکز_نوم__نام_مرکز":"مکتب متوسطه پشت کوه ملا یاسین ","Polling_Center_Name":"Pusht-e- Koh Mullah Yasin Secondary School ","د_مرکز_ځای__موقعیت_مرکز":"پشت کوه ملا یاسین ","Polling_Center_Location":"Pusht-e- Koh Mulla Yasin","Verification_Note":"Building","PS_Male":1,"PS_Female":1,"Map_Accuracy":"تعمیر"},"geometry":{"x":6916790.3884548619,"y":4041999.4988083914}},{"attributes":{"OBJECTID":5258,"ولایت":"هرات","Province":"HERAT","PC_Code":"3204153","ولسوالي":"کرخ ","District":"KARRUKH","د_مرکز_نوم__نام_مرکز":"مکتب علی آباد ","Polling_Center_Name":"Ali Abad School ","د_مرکز_ځای__موقعیت_مرکز":"علی آباد ","Polling_Center_Location":"Ali Abad ","Verification_Note":"Building","PS_Male":2,"PS_Female":1,"Map_Accuracy":"تعمیر"},"geometry":{"x":6955371.5910823643,"y":4096615.01569508}},{"attributes":{"OBJECTID":5259,"ولایت":"هرات","Province":"HERAT","PC_Code":"3205267","ولسوالي":"زنده جان ","District":"ZENDAJAN","د_مرکز_نوم__نام_مرکز":"تعمیر جدید چشمه غوری","Polling_Center_Name":"Chashma-e- Ghori New Buiding ","د_مرکز_ځای__موقعیت_مرکز":" چشمه غوری","Polling_Center_Location":"Chashma-e- Ghori","Verification_Note":"Village","PS_Male":1,"PS_Female":1,"Map_Accuracy":"قریه"},"geometry":{"x":6895404.4070075713,"y":4095573.8570287377}},{"attributes":{"OBJECTID":5227,"ولایت":"هلمند","Province":"HELMAND","PC_Code":"3002068","ولسوالي":"نادعلی","District":"NAD ALI","د_مرکز_نوم__نام_مرکز":"مكتب ابتدائيه ","Polling_Center_Name":"Primary School","د_مرکز_ځای__موقعیت_مرکز":"لوی مانده","Polling_Center_Location":"Loy Maanda","Verification_Note":"Village","PS_Male":4,"PS_Female":0,"Map_Accuracy":"قریه"},"geometry":{"x":7113571.749214258,"y":3736646.0714409277}},{"attributes":{"OBJECTID":5226,"ولایت":"هلمند","Province":"HELMAND","PC_Code":"3001028","ولسوالي":"لشکرگاه","District":"LASHKARGAH","د_مرکز_نوم__نام_مرکز":"خانه ابراهیم خان","Polling_Center_Name":"Ibrahim Khan Private House","د_مرکز_ځای__موقعیت_مرکز":"باباجی","Polling_Center_Location":"Babaji","Verification_Note":"Building","PS_Male":2,"PS_Female":2,"Map_Accuracy":"تعمیر"},"geometry":{"x":7167397.4759438112,"y":3725689.1325585991}},{"attributes":{"OBJECTID":5225,"ولایت":"هلمند","Province":"HELMAND","PC_Code":"3001027","ولسوالي":"لشکرگاه","District":"LASHKARGAH","د_مرکز_نوم__نام_مرکز":"زوړ مکتب باباجی","Polling_Center_Name":"Zor School Babaji","د_مرکز_ځای__موقعیت_مرکز":"دولیزو کلی","Polling_Center_Location":"Dolizo Village","Verification_Note":"Building","PS_Male":2,"PS_Female":2,"Map_Accuracy":"تعمیر"},"geometry":{"x":7161674.6689395383,"y":3719656.3768523112}},{"attributes":{"OBJECTID":5224,"ولایت":"هلمند","Province":"HELMAND","PC_Code":"3001017","ولسوالي":"لشکرگاه","District":"LASHKARGAH","د_مرکز_نوم__نام_مرکز":"د نیک محمد کور","Polling_Center_Name":"Nek Mohammad Private House","د_مرکز_ځای__موقعیت_مرکز":"لوی کاریز","Polling_Center_Location":"Loy Karez","Verification_Note":"Building","PS_Male":3,"PS_Female":1,"Map_Accuracy":"تعمیر"},"geometry":{"x":7164309.0313308239,"y":3701982.1884273887}},{"attributes":{"OBJECTID":5223,"ولایت":"هلمند","Province":"HELMAND","PC_Code":"3001016","ولسوالي":"لشکرگاه","District":"LASHKARGAH","د_مرکز_نوم__نام_مرکز":"د خروټو مسجد","Polling_Center_Name":"Kharoto Mosque","د_مرکز_ځای__موقعیت_مرکز":"صافیان","Polling_Center_Location":"Safiyan","Verification_Note":"Building","PS_Male":3,"PS_Female":3,"Map_Accuracy":"تعمیر"},"geometry":{"x":7166471.6974173859,"y":3708241.3540282249}},{"attributes":{"OBJECTID":5222,"ولایت":"هلمند","Province":"HELMAND","PC_Code":"3001005","ولسوالي":"لشکرگاه","District":"LASHKARGAH","د_مرکز_نوم__نام_مرکز":"د هلكانو ليسه","Polling_Center_Name":"Boys High School","د_مرکز_ځای__موقعیت_مرکز":"ناحیه 2","Polling_Center_Location":"D02 - Nahia 2","Verification_Note":"Building","PS_Male":6,"PS_Female":0,"Map_Accuracy":"تعمیر"},"geometry":{"x":7165079.705071155,"y":3708855.0695307627}},{"attributes":{"OBJECTID":5221,"ولایت":"فارياب","Province":"FARYAB","PC_Code":"2913189","ولسوالي":"اندخوی","District":"ANDKHOY","د_مرکز_نوم__نام_مرکز":"مکتب متوسطه رحمت الله شهید","Polling_Center_Name":"Rahmatullah Shaheed Secondary School","د_مرکز_ځای__موقعیت_مرکز":"اخته چی پایان","Polling_Center_Location":"Akhta Chi Payan","Verification_Note":"Building","PS_Male":3,"PS_Female":2,"Map_Accuracy":"تعمیر"},"geometry":{"x":7249225.24098295,"y":4425762.858126469}},{"attributes":{"OBJECTID":5220,"ولایت":"فارياب","Province":"FARYAB","PC_Code":"2912196","ولسوالي":"قرغان","District":"QURGHAN","د_مرکز_نوم__نام_مرکز":"مسجد حاجی لار","Polling_Center_Name":"Haji Laar Mosque","د_مرکز_ځای__موقعیت_مرکز":"میر آباد","Polling_Center_Location":"Mir Abad","Verification_Note":"Building","PS_Male":2,"PS_Female":1,"Map_Accuracy":"تعمیر"},"geometry":{"x":7244886.0217033625,"y":4421861.8710817471}},{"attributes":{"OBJECTID":5219,"ولایت":"فارياب","Province":"FARYAB","PC_Code":"2911172","ولسوالي":"قرم قل","District":"QARAM QUL","د_مرکز_نوم__نام_مرکز":"مکتب متوسطه سربند","Polling_Center_Name":"Sarband Secondary School","د_مرکز_ځای__موقعیت_مرکز":"سربند","Polling_Center_Location":"Sarband","Verification_Note":"Village","PS_Male":1,"PS_Female":1,"Map_Accuracy":"قریه"},"geometry":{"x":7239267.5377598926,"y":4414629.7267446369}},{"attributes":{"OBJECTID":5218,"ولایت":"فارياب","Province":"FARYAB","PC_Code":"2911171","ولسوالي":"قرم قل","District":"QARAM QUL","د_مرکز_نوم__نام_مرکز":"تعمیر ولسوالی قرمقول","Polling_Center_Name":"Qaramqol District Building","د_مرکز_ځای__موقعیت_مرکز":"مرکز قرمقول ","Polling_Center_Location":"Markaz Qaramqol","Verification_Note":"Building","PS_Male":2,"PS_Female":2,"Map_Accuracy":"تعمیر"},"geometry":{"x":7242798.09663612,"y":4420160.638321206}},{"attributes":{"OBJECTID":5217,"ولایت":"فارياب","Province":"FARYAB","PC_Code":"2910114","ولسوالي":"کوهستان","District":"KOHISTAN","د_مرکز_نوم__نام_مرکز":"مکتب دهندره","Polling_Center_Name":"Dahendara School","د_مرکز_ځای__موقعیت_مرکز":"دهندره","Polling_Center_Location":"Dahendara ","Verification_Note":"Building","PS_Male":1,"PS_Female":1,"Map_Accuracy":"تعمیر"},"geometry":{"x":7186917.1939203218,"y":4212003.5437838957}},{"attributes":{"OBJECTID":5216,"ولایت":"فارياب","Province":"FARYAB","PC_Code":"2909162","ولسوالي":"دولت آباد","District":"DAWLAT ABAD","د_مرکز_نوم__نام_مرکز":"مکتب نسوان توپخانه قلعه ","Polling_Center_Name":"Topkhana Qala Girls School","د_مرکز_ځای__موقعیت_مرکز":"توپخانه قلعه ","Polling_Center_Location":"Topkhana Qala","Verification_Note":"Building","PS_Male":3,"PS_Female":2,"Map_Accuracy":"تعمیر"},"geometry":{"x":7226149.8983204737,"y":4352219.6491946429}},{"attributes":{"OBJECTID":5215,"ولایت":"فارياب","Province":"FARYAB","PC_Code":"2908130","ولسوالي":"گرزیوان","District":"GURZIWAN","د_مرکز_نوم__نام_مرکز":"مسجد جامع سرچکان","Polling_Center_Name":"Sarchakan Mosque","د_مرکز_ځای__موقعیت_مرکز":"سرچکان","Polling_Center_Location":"Sarchakan","Verification_Note":"Building","PS_Male":2,"PS_Female":2,"Map_Accuracy":"تعمیر"},"geometry":{"x":7260540.0467974432,"y":4261194.2541895658}},{"attributes":{"OBJECTID":5214,"ولایت":"فارياب","Province":"FARYAB","PC_Code":"2907111","ولسوالي":"قیصار ","District":"QAISAR","د_مرکز_نوم__نام_مرکز":"مکتب کوهی","Polling_Center_Name":"Kohi School","د_مرکز_ځای__موقعیت_مرکز":"کوهی","Polling_Center_Location":"Kohi","Verification_Note":"Building","PS_Male":2,"PS_Female":1,"Map_Accuracy":"تعمیر"},"geometry":{"x":7159008.9289233908,"y":4259572.8397124782}},{"attributes":{"OBJECTID":5213,"ولایت":"فارياب","Province":"FARYAB","PC_Code":"2907100","ولسوالي":"قیصار ","District":"QAISAR","د_مرکز_نوم__نام_مرکز":"مکتب متوسطه ذکور بوری","Polling_Center_Name":"Bori Boys Secondary School","د_مرکز_ځای__موقعیت_مرکز":"بوری","Polling_Center_Location":"Bori","Verification_Note":"Building","PS_Male":2,"PS_Female":1,"Map_Accuracy":"تعمیر"},"geometry":{"x":7153628.4694283307,"y":4256301.646753855}},{"attributes":{"OBJECTID":5212,"ولایت":"فارياب","Province":"FARYAB","PC_Code":"2907089","ولسوالي":"قیصار ","District":"QAISAR","د_مرکز_نوم__نام_مرکز":"مکتب یکه باغ","Polling_Center_Name":"Yaka Bagh School","د_مرکز_ځای__موقعیت_مرکز":"یکه باغ ","Polling_Center_Location":"Yaka Bagh ","Verification_Note":"Building","PS_Male":1,"PS_Female":1,"Map_Accuracy":"تعمیر"},"geometry":{"x":7134799.7838888429,"y":4252953.1716846}},{"attributes":{"OBJECTID":5211,"ولایت":"فارياب","Province":"FARYAB","PC_Code":"2906156","ولسوالي":"شیرین تگاب","District":"SHIRIN TAGAB","د_مرکز_نوم__نام_مرکز":"مسجد کوه صیاد","Polling_Center_Name":"Koh Sayad Mosque","د_مرکز_ځای__موقعیت_مرکز":"قریه کوه صیاد","Polling_Center_Location":"Koh Sayad Village","Verification_Note":"Village","PS_Male":2,"PS_Female":2,"Map_Accuracy":"قریه"},"geometry":{"x":7219907.7458166331,"y":4337067.793676272}},{"attributes":{"OBJECTID":5210,"ولایت":"فارياب","Province":"FARYAB","PC_Code":"2906147","ولسوالي":"شیرین تگاب","District":"SHIRIN TAGAB","د_مرکز_نوم__نام_مرکز":"مسجد جامع گلزار","Polling_Center_Name":"Gulzar Mosque","د_مرکز_ځای__موقعیت_مرکز":"قریه گلزار","Polling_Center_Location":"Gulzar Village","Verification_Note":"Building","PS_Male":2,"PS_Female":1,"Map_Accuracy":"تعمیر"},"geometry":{"x":7221733.6882546656,"y":4326452.76437325}},{"attributes":{"OBJECTID":5209,"ولایت":"فارياب","Province":"FARYAB","PC_Code":"2905136","ولسوالي":"بل چراغ","District":"BIL CHIRAGH","د_مرکز_نوم__نام_مرکز":"مسجد کمرک آق بلاق","Polling_Center_Name":"Kamrak Aaq Balaq Mosque","د_مرکز_ځای__موقعیت_مرکز":"کمرک آق بلاق","Polling_Center_Location":"Kamrak Aaq Balaq","Verification_Note":"Village","PS_Male":2,"PS_Female":1,"Map_Accuracy":"قریه"},"geometry":{"x":7265626.1463893875,"y":4293469.3421393707}},{"attributes":{"OBJECTID":5208,"ولایت":"فارياب","Province":"FARYAB","PC_Code":"2904070","ولسوالي":"المار","District":"ALMAR","د_مرکز_نوم__نام_مرکز":"مسجد مابین قریه خدایمت ","Polling_Center_Name":"Khudaimat Village Mosque","د_مرکز_ځای__موقعیت_مرکز":"قریه خدایمت ","Polling_Center_Location":"Khudaimat Village","Verification_Note":"Building","PS_Male":1,"PS_Female":1,"Map_Accuracy":"تعمیر"},"geometry":{"x":7186221.6608362831,"y":4282506.4173519164}},{"attributes":{"OBJECTID":5207,"ولایت":"فارياب","Province":"FARYAB","PC_Code":"2903059","ولسوالي":"خواجه سبز پوش ولی","District":"KHWAJA SABZ POSH-E-WALI","د_مرکز_نوم__نام_مرکز":"متوسطه ذکور صحرای قلعه","Polling_Center_Name":"Sahrayee Qala Boys Secondary School","د_مرکز_ځای__موقعیت_مرکز":"صحرایی قلعه","Polling_Center_Location":"Sahrayee Qala","Verification_Note":"Building","PS_Male":2,"PS_Female":2,"Map_Accuracy":"تعمیر"},"geometry":{"x":7218257.9074734673,"y":4314660.002400443}},{"attributes":{"OBJECTID":5206,"ولایت":"فارياب","Province":"FARYAB","PC_Code":"2902053","ولسوالي":"پشتون کوت","District":"PASHTUN KOT","د_مرکز_نوم__نام_مرکز":"مکتب قلعه نیاز بیگ","Polling_Center_Name":"Qala-e-Niyaz Beg School","د_مرکز_ځای__موقعیت_مرکز":"قلعه نیاز بیگ","Polling_Center_Location":"Qala-e-Niyaz Beg","Verification_Note":"Village","PS_Male":1,"PS_Female":1,"Map_Accuracy":"قریه"},"geometry":{"x":7226831.4318653457,"y":4262843.3459769934}},{"attributes":{"OBJECTID":5205,"ولایت":"فارياب","Province":"FARYAB","PC_Code":"2902042","ولسوالي":"پشتون کوت","District":"PASHTUN KOT","د_مرکز_نوم__نام_مرکز":"مسجد بتو جان","Polling_Center_Name":"Bato Jan Mosque","د_مرکز_ځای__موقعیت_مرکز":"بتو جان","Polling_Center_Location":"Bato Jan","Verification_Note":"Village","PS_Male":1,"PS_Female":1,"Map_Accuracy":"قریه"},"geometry":{"x":7214870.7548180558,"y":4262904.9536142275}},{"attributes":{"OBJECTID":5204,"ولایت":"فارياب","Province":"FARYAB","PC_Code":"2902032","ولسوالي":"پشتون کوت","District":"PASHTUN KOT","د_مرکز_نوم__نام_مرکز":"مکتب بوچه","Polling_Center_Name":"Bocha School","د_مرکز_ځای__موقعیت_مرکز":"بوچه","Polling_Center_Location":"Bocha","Verification_Note":"Village","PS_Male":1,"PS_Female":1,"Map_Accuracy":"قریه"},"geometry":{"x":7228306.2024981305,"y":4282245.6674342826}},{"attributes":{"OBJECTID":5203,"ولایت":"فارياب","Province":"FARYAB","PC_Code":"2901012","ولسوالي":"میمنه ","District":"MAIMANA","د_مرکز_نوم__نام_مرکز":"لیسه نسوان نمبر سه (عزیزه شهید)","Polling_Center_Name":"Aziza Shaheed Number 3 Girls High School","د_مرکز_ځای__موقعیت_مرکز":"ناحیه سوم","Polling_Center_Location":"D03 - Nahia 3","Verification_Note":"Building","PS_Male":0,"PS_Female":4,"Map_Accuracy":"تعمیر"},"geometry":{"x":7210637.2256026082,"y":4290295.1578582674}},{"attributes":{"OBJECTID":5202,"ولایت":"فارياب","Province":"FARYAB","PC_Code":"2901001","ولسوالي":"میمنه ","District":"MAIMANA","د_مرکز_نوم__نام_مرکز":"لیسه عالی تجربوی عربخانه","Polling_Center_Name":"Arab Khana High School","د_مرکز_ځای__موقعیت_مرکز":"ناحیه سوم","Polling_Center_Location":"D03 - Nahia 3","Verification_Note":"Building","PS_Male":4,"PS_Female":2,"Map_Accuracy":"تعمیر"},"geometry":{"x":7211052.9259770811,"y":4289628.0778399184}},{"attributes":{"OBJECTID":5201,"ولایت":"جوزجان","Province":"JAWZJAN","PC_Code":"2811100","ولسوالي":"درز آب","District":"DARZAB","د_مرکز_نوم__نام_مرکز":"مکتب بیتو","Polling_Center_Name":"Bito School","د_مرکز_ځای__موقعیت_مرکز":"قریه بتو","Polling_Center_Location":"Bito Village","Verification_Note":"Building","PS_Male":2,"PS_Female":1,"Map_Accuracy":"تعمیر"},"geometry":{"x":7277568.2264025472,"y":4296082.7415750176}},{"attributes":{"OBJECTID":5260,"ولایت":"هرات","Province":"HERAT","PC_Code":"3206120","ولسوالي":"پشتون زرغون","District":"PASHTUN ZARGHUN","د_مرکز_نوم__نام_مرکز":"مسجد دوغ آباد","Polling_Center_Name":"Dogh Abad Mosque ","د_مرکز_ځای__موقعیت_مرکز":"قریه دوغ آباد","Polling_Center_Location":"Dogh Abad Village ","Verification_Note":"Building","PS_Male":2,"PS_Female":1,"Map_Accuracy":"تعمیر"},"geometry":{"x":6976363.831037946,"y":4060226.7701977193}},{"attributes":{"OBJECTID":5261,"ولایت":"هرات","Province":"HERAT","PC_Code":"3206132","ولسوالي":"پشتون زرغون","District":"PASHTUN ZARGHUN","د_مرکز_نوم__نام_مرکز":"مکتب بوکه ","Polling_Center_Name":"Buka School ","د_مرکز_ځای__موقعیت_مرکز":"قریه بوکه ","Polling_Center_Location":"Buka Village ","Verification_Note":"Building","PS_Male":2,"PS_Female":1,"Map_Accuracy":"تعمیر"},"geometry":{"x":6953366.5389232449,"y":4062849.8694199771}},{"attributes":{"OBJECTID":5262,"ولایت":"هرات","Province":"HERAT","PC_Code":"3206133","ولسوالي":"پشتون زرغون","District":"PASHTUN ZARGHUN","د_مرکز_نوم__نام_مرکز":"مسجد چیورشی ","Polling_Center_Name":"Cheorshi Mosque","د_مرکز_ځای__موقعیت_مرکز":"قریه چیورشی ","Polling_Center_Location":"Cheorshi Village ","Verification_Note":"Village","PS_Male":2,"PS_Female":0,"Map_Accuracy":"قریه"},"geometry":{"x":6998359.0150777772,"y":4059298.3380611986}},{"attributes":{"OBJECTID":5263,"ولایت":"هرات","Province":"HERAT","PC_Code":"3206141","ولسوالي":"پشتون زرغون","District":"PASHTUN ZARGHUN","د_مرکز_نوم__نام_مرکز":"مسجد گوشک ","Polling_Center_Name":"Gushak Mosque","د_مرکز_ځای__موقعیت_مرکز":"قریه گوشک ","Polling_Center_Location":"Goshak Village ","Verification_Note":"Building","PS_Male":1,"PS_Female":1,"Map_Accuracy":"تعمیر"},"geometry":{"x":6975432.6813460886,"y":4068171.1141960174}},{"attributes":{"OBJECTID":5264,"ولایت":"هرات","Province":"HERAT","PC_Code":"3207166","ولسوالي":"کشک (رباط سنگی)","District":"KUSHK (RUBAT-E-SANGI)","د_مرکز_نوم__نام_مرکز":"لیسه دخترانه مرکز کشک رباط سنگی دوم","Polling_Center_Name":"Kashak Rubat Sangi duowm Girls High School","د_مرکز_ځای__موقعیت_مرکز":"مرکز کشک رباط سنگی دوم","Polling_Center_Location":"Markaz-e-Kashak Rubat  Sang Duowm ","Verification_Note":"Building","PS_Male":1,"PS_Female":3,"Map_Accuracy":"تعمیر"},"geometry":{"x":6916959.57626975,"y":4136350.268304415}},{"attributes":{"OBJECTID":5265,"ولایت":"هرات","Province":"HERAT","PC_Code":"3207174","ولسوالي":"کشک (رباط سنگی)","District":"KUSHK (RUBAT-E-SANGI)","د_مرکز_نوم__نام_مرکز":"مکتب دوغی دیزوری دوم","Polling_Center_Name":"Doghi School ","د_مرکز_ځای__موقعیت_مرکز":"قریه دیزوری دوم","Polling_Center_Location":"Deh Zuri Duowm Village ","Verification_Note":"Building","PS_Male":0,"PS_Female":2,"Map_Accuracy":"تعمیر"},"geometry":{"x":6920016.0610569343,"y":4150176.0334220305}},{"attributes":{"OBJECTID":5266,"ولایت":"هرات","Province":"HERAT","PC_Code":"3207184","ولسوالي":"کشک (رباط سنگی)","District":"KUSHK (RUBAT-E-SANGI)","د_مرکز_نوم__نام_مرکز":"مکتب خلاوک ها","Polling_Center_Name":"Khalawakha School ","د_مرکز_ځای__موقعیت_مرکز":"قریه خلاوک های علیا و سفلی","Polling_Center_Location":"Khalawakha-e-Ulya and Sufla Village  ","Verification_Note":"Building","PS_Male":2,"PS_Female":1,"Map_Accuracy":"تعمیر"},"geometry":{"x":6928120.0275915079,"y":4170111.4562411234}},{"attributes":{"OBJECTID":5267,"ولایت":"هرات","Province":"HERAT","PC_Code":"3207193","ولسوالي":"کشک (رباط سنگی)","District":"KUSHK (RUBAT-E-SANGI)","د_مرکز_نوم__نام_مرکز":"تعمیر حمام چهل دختر اول","Polling_Center_Name":"Tamer Hamam Chel Dukhtar Awal","د_مرکز_ځای__موقعیت_مرکز":"چهل دخترعلیا ","Polling_Center_Location":"Chehl Dokhtar Ulya","Verification_Note":"Building","PS_Male":2,"PS_Female":0,"Map_Accuracy":"تعمیر"},"geometry":{"x":6935609.6641577929,"y":4180222.194047533}},{"attributes":{"OBJECTID":5268,"ولایت":"هرات","Province":"HERAT","PC_Code":"3208199","ولسوالي":"گلران ","District":"GULRAN","د_مرکز_نوم__نام_مرکز":"مسجد نهراب","Polling_Center_Name":"Nehrab Mosque ","د_مرکز_ځای__موقعیت_مرکز":" نهراب","Polling_Center_Location":"Nehrab","Verification_Note":"Building","PS_Male":2,"PS_Female":1,"Map_Accuracy":"تعمیر"},"geometry":{"x":6848664.1814517379,"y":4178169.2035043314}},{"attributes":{"OBJECTID":5269,"ولایت":"هرات","Province":"HERAT","PC_Code":"3208210","ولسوالي":"گلران ","District":"GULRAN","د_مرکز_نوم__نام_مرکز":"مکتب ابتدایی توتیچی","Polling_Center_Name":"Tootchi Primary School ","د_مرکز_ځای__موقعیت_مرکز":"توتیچی","Polling_Center_Location":"Tootechi","Verification_Note":"Village","PS_Male":2,"PS_Female":3,"Map_Accuracy":"قریه"},"geometry":{"x":6893953.8706279323,"y":4163297.6925884634}},{"attributes":{"OBJECTID":5270,"ولایت":"هرات","Province":"HERAT","PC_Code":"3208222","ولسوالي":"گلران ","District":"GULRAN","د_مرکز_نوم__نام_مرکز":"مسجد سنگ کوتل افضل","Polling_Center_Name":"Sang-e -Kotal-e- Afzal Mosque","د_مرکز_ځای__موقعیت_مرکز":" قریه سنگ کوتل افضل","Polling_Center_Location":"Sang-e- Kotal-e- Afzal village","Verification_Note":"Village","PS_Male":2,"PS_Female":1,"Map_Accuracy":"قریه"},"geometry":{"x":6892463.7345658429,"y":4134556.7649954334}},{"attributes":{"OBJECTID":5271,"ولایت":"هرات","Province":"HERAT","PC_Code":"3209277","ولسوالي":"ادرسکن ","District":"ADRASKAN","د_مرکز_نوم__نام_مرکز":"مسجد غوری","Polling_Center_Name":"Ghori Mosque ","د_مرکز_ځای__موقعیت_مرکز":"قریه غوری","Polling_Center_Location":"Ghori Village ","Verification_Note":"Village","PS_Male":1,"PS_Female":1,"Map_Accuracy":"قریه"},"geometry":{"x":6959144.6394317821,"y":3982693.6311862245}},{"attributes":{"OBJECTID":5272,"ولایت":"هرات","Province":"HERAT","PC_Code":"3209278","ولسوالي":"ادرسکن ","District":"ADRASKAN","د_مرکز_نوم__نام_مرکز":"مکتب متوسطه میرعلی","Polling_Center_Name":"Mir Ali Scondary School ","د_مرکز_ځای__موقعیت_مرکز":"قریه میرعلی","Polling_Center_Location":"Mir Ali Village ","Verification_Note":"Building","PS_Male":1,"PS_Female":1,"Map_Accuracy":"تعمیر"},"geometry":{"x":6929694.7330707535,"y":3998121.7287692279}},{"attributes":{"OBJECTID":5273,"ولایت":"هرات","Province":"HERAT","PC_Code":"3209289","ولسوالي":"ادرسکن ","District":"ADRASKAN","د_مرکز_نوم__نام_مرکز":"مسجد ظهرک ","Polling_Center_Name":"Zuhrak Mosque ","د_مرکز_ځای__موقعیت_مرکز":"قریه ظهرک ","Polling_Center_Location":"Zuhrak Village ","Verification_Note":"Building","PS_Male":1,"PS_Female":2,"Map_Accuracy":"تعمیر"},"geometry":{"x":6959418.65569796,"y":3985163.6493572146}},{"attributes":{"OBJECTID":5274,"ولایت":"هرات","Province":"HERAT","PC_Code":"3209460","ولسوالي":"ادرسکن ","District":"ADRASKAN","د_مرکز_نوم__نام_مرکز":"مسجد ده خار","Polling_Center_Name":"Deh Khar Mosque ","د_مرکز_ځای__موقعیت_مرکز":"ده خار ","Polling_Center_Location":"Deh Khar ","Verification_Note":"Village","PS_Male":2,"PS_Female":1,"Map_Accuracy":"قریه"},"geometry":{"x":6974422.7864728384,"y":3967226.3065787852}},{"attributes":{"OBJECTID":5275,"ولایت":"هرات","Province":"HERAT","PC_Code":"3210411","ولسوالي":"کشک کهنه ","District":"KUSHK-E-KUHNA","د_مرکز_نوم__نام_مرکز":"مسجد قریه شرشره","Polling_Center_Name":"Sharsharah Village Mosque","د_مرکز_ځای__موقعیت_مرکز":"قریه شرشره ","Polling_Center_Location":"Sharsharah Village ","Verification_Note":"Building","PS_Male":1,"PS_Female":1,"Map_Accuracy":"تعمیر"},"geometry":{"x":6960053.0176086053,"y":4122773.9595080093}},{"attributes":{"OBJECTID":5276,"ولایت":"هرات","Province":"HERAT","PC_Code":"3210421","ولسوالي":"کشک کهنه ","District":"KUSHK-E-KUHNA","د_مرکز_نوم__نام_مرکز":"مسجد جامع گله چغر مردانه","Polling_Center_Name":"Galla Chaghar Mardana- Mosque ","د_مرکز_ځای__موقعیت_مرکز":"قریه گله چغر","Polling_Center_Location":"Galla Chaghar Village","Verification_Note":"Building","PS_Male":2,"PS_Female":0,"Map_Accuracy":"تعمیر"},"geometry":{"x":6988633.9005723894,"y":4129629.0565424711}},{"attributes":{"OBJECTID":5277,"ولایت":"هرات","Province":"HERAT","PC_Code":"3211252","ولسوالي":"غوریان ","District":"GHORYAN","د_مرکز_نوم__نام_مرکز":"مسجد جامع سبول","Polling_Center_Name":"Sabool  Mosque","د_مرکز_ځای__موقعیت_مرکز":"قریه سبول","Polling_Center_Location":"Sabool Village ","Verification_Note":"Building","PS_Male":2,"PS_Female":1,"Map_Accuracy":"تعمیر"},"geometry":{"x":6849253.7038715035,"y":4084986.7378758863}},{"attributes":{"OBJECTID":5278,"ولایت":"هرات","Province":"HERAT","PC_Code":"3212380","ولسوالي":"اوبه ","District":"OBE","د_مرکز_نوم__نام_مرکز":"مکتب پسرانه رباط آخند","Polling_Center_Name":"Rubat-e- Akhuod Boys School ","د_مرکز_ځای__موقعیت_مرکز":"قریه رباط آخند","Polling_Center_Location":"Rubat-e- Akhond Village","Verification_Note":"Village","PS_Male":2,"PS_Female":0,"Map_Accuracy":"قریه"},"geometry":{"x":7009289.2979902215,"y":4065433.1807127446}},{"attributes":{"OBJECTID":5279,"ولایت":"هرات","Province":"HERAT","PC_Code":"3213230","ولسوالي":"کهسان ","District":"KOHSAN","د_مرکز_نوم__نام_مرکز":"لیسه کهسان ","Polling_Center_Name":"Kahsan High School ","د_مرکز_ځای__موقعیت_مرکز":"مرکز کهسان ","Polling_Center_Location":"Markaz-e-Kahsan ","Verification_Note":"Building","PS_Male":4,"PS_Female":3,"Map_Accuracy":"تعمیر"},"geometry":{"x":6812737.5457030907,"y":4117506.9806597084}},{"attributes":{"OBJECTID":5280,"ولایت":"هرات","Province":"HERAT","PC_Code":"3213240","ولسوالي":"کهسان ","District":"KOHSAN","د_مرکز_نوم__نام_مرکز":"مسجد قریه ته خم","Polling_Center_Name":"Tukhum Village Mosque ","د_مرکز_ځای__موقعیت_مرکز":"قریه ته خم","Polling_Center_Location":"Takhum Village","Verification_Note":"Building","PS_Male":2,"PS_Female":1,"Map_Accuracy":"تعمیر"},"geometry":{"x":6807894.4498803839,"y":4118656.1305242851}},{"attributes":{"OBJECTID":5281,"ولایت":"هرات","Province":"HERAT","PC_Code":"3213241","ولسوالي":"کهسان ","District":"KOHSAN","د_مرکز_نوم__نام_مرکز":"مسجد آب مزار","Polling_Center_Name":"Aab-e- Mazar Mosque","د_مرکز_ځای__موقعیت_مرکز":" چاه سنگی/آب مزار","Polling_Center_Location":"Chah-e-Sangi/ Aab-e- Mazar ","Verification_Note":"Village","PS_Male":1,"PS_Female":1,"Map_Accuracy":"قریه"},"geometry":{"x":6850349.3247714154,"y":4158161.0534315184}},{"attributes":{"OBJECTID":5282,"ولایت":"هرات","Province":"HERAT","PC_Code":"3214302","ولسوالي":"شیندند","District":"SHINDAND","د_مرکز_نوم__نام_مرکز":"مسجد قدیمی قندیز دوم","Polling_Center_Name":"Qandiz Qademi Duowm Mosque ","د_مرکز_ځای__موقعیت_مرکز":"قندیز دوم ","Polling_Center_Location":"Qandiz Duowm ","Verification_Note":"Building","PS_Male":1,"PS_Female":1,"Map_Accuracy":"تعمیر"},"geometry":{"x":6917136.5764865093,"y":3936506.8495936543}},{"attributes":{"OBJECTID":5283,"ولایت":"هرات","Province":"HERAT","PC_Code":"3214312","ولسوالي":"شیندند","District":"SHINDAND","د_مرکز_نوم__نام_مرکز":"مكتب سردشت کاه","Polling_Center_Name":"Sardasht-e- Kah School ","د_مرکز_ځای__موقعیت_مرکز":"سردشت کاه ","Polling_Center_Location":"Sardashti-e-Kah","Verification_Note":"Village","PS_Male":1,"PS_Female":1,"Map_Accuracy":"قریه"},"geometry":{"x":6897769.2010142617,"y":3934239.6948744506}},{"attributes":{"OBJECTID":5284,"ولایت":"هرات","Province":"HERAT","PC_Code":"3214324","ولسوالي":"شیندند","District":"SHINDAND","د_مرکز_نوم__نام_مرکز":"مدرسه عزیز آباد","Polling_Center_Name":"Madressa Aziz Abad ","د_مرکز_ځای__موقعیت_مرکز":"عزیز آباد ","Polling_Center_Location":"Aziz Abad ","Verification_Note":"Building","PS_Male":3,"PS_Female":1,"Map_Accuracy":"تعمیر"},"geometry":{"x":6937447.8684377335,"y":3940339.3795514926}},{"attributes":{"OBJECTID":5285,"ولایت":"هرات","Province":"HERAT","PC_Code":"3214334","ولسوالي":"شیندند","District":"SHINDAND","د_مرکز_نوم__نام_مرکز":"مسجد بخت آباد","Polling_Center_Name":"Bakht Abad Mosque ","د_مرکز_ځای__موقعیت_مرکز":"شهرآباد سوم ","Polling_Center_Location":"Shahr Abad Seowm","Verification_Note":"Village","PS_Male":2,"PS_Female":1,"Map_Accuracy":"قریه"},"geometry":{"x":6920777.0778314248,"y":3923669.5991686434}},{"attributes":{"OBJECTID":5286,"ولایت":"هرات","Province":"HERAT","PC_Code":"3214346","ولسوالي":"شیندند","District":"SHINDAND","د_مرکز_نوم__نام_مرکز":"مسجد قبر میر کوه زور","Polling_Center_Name":"Koh-e- Zoor Qabre Mir Mosque","د_مرکز_ځای__موقعیت_مرکز":"قبر میر ","Polling_Center_Location":"Qabre Mir ","Verification_Note":"Village","PS_Male":2,"PS_Female":1,"Map_Accuracy":"قریه"},"geometry":{"x":7017556.2082068063,"y":3927388.2832480893}},{"attributes":{"OBJECTID":5287,"ولایت":"هرات","Province":"HERAT","PC_Code":"3215353","ولسوالي":"فرسی ","District":"FERSI","د_مرکز_نوم__نام_مرکز":"مکتب متوسطه تیک","Polling_Center_Name":"Tik Secondary School ","د_مرکز_ځای__موقعیت_مرکز":"قریه تیک ","Polling_Center_Location":"Tik Village ","Verification_Note":"Village","PS_Male":2,"PS_Female":1,"Map_Accuracy":"قریه"},"geometry":{"x":7062606.6194771267,"y":4008438.7572556585}},{"attributes":{"OBJECTID":5288,"ولایت":"هرات","Province":"HERAT","PC_Code":"3216389","ولسوالي":"چشت شریف","District":"CHISHT-E-SHARIF","د_مرکز_نوم__نام_مرکز":"مکتب اسد الله چشتی","Polling_Center_Name":"Asadullah-e-Chashti School","د_مرکز_ځای__موقعیت_مرکز":"مرکز چشت شریف ","Polling_Center_Location":"Chasht-e- Sharif Center","Verification_Note":"Building","PS_Male":2,"PS_Female":1,"Map_Accuracy":"تعمیر"},"geometry":{"x":7095275.8999834284,"y":4074033.8678604141}},{"attributes":{"OBJECTID":5289,"ولایت":"هرات","Province":"HERAT","PC_Code":"3216399","ولسوالي":"چشت شریف","District":"CHISHT-E-SHARIF","د_مرکز_نوم__نام_مرکز":"کلینیک دره تخت","Polling_Center_Name":"Dara Takht Clinic","د_مرکز_ځای__موقعیت_مرکز":"قریه دره تخت ","Polling_Center_Location":"Dar Takht Village","Verification_Note":"Village","PS_Male":2,"PS_Female":1,"Map_Accuracy":"قریه"},"geometry":{"x":7130067.9630291276,"y":4077934.5169234648}},{"attributes":{"OBJECTID":5290,"ولایت":" فراه","Province":"FARAH","PC_Code":"3301004","ولسوالي":"فراه","District":"FARAH","د_مرکز_نوم__نام_مرکز":"مسجد قلعه بهبود","Polling_Center_Name":"Qala-e-Behbod Mosque","د_مرکز_ځای__موقعیت_مرکز":"قلعه بهبود","Polling_Center_Location":"Qala-e-Behbod","Verification_Note":"Building","PS_Male":2,"PS_Female":2,"Map_Accuracy":"تعمیر"},"geometry":{"x":6914061.9889237322,"y":3816328.6572972238}},{"attributes":{"OBJECTID":5291,"ولایت":" فراه","Province":"FARAH","PC_Code":"3301005","ولسوالي":"فراه","District":"FARAH","د_مرکز_نوم__نام_مرکز":"مسجد جامع ","Polling_Center_Name":"Mosque","د_مرکز_ځای__موقعیت_مرکز":"چهار برجک","Polling_Center_Location":"Chahar Burjak ","Verification_Note":"Building","PS_Male":2,"PS_Female":2,"Map_Accuracy":"تعمیر"},"geometry":{"x":6916410.6854641326,"y":3814401.3863497153}},{"attributes":{"OBJECTID":5292,"ولایت":" فراه","Province":"FARAH","PC_Code":"3301028","ولسوالي":"فراه","District":"FARAH","د_مرکز_نوم__نام_مرکز":"لیسه مردانه ","Polling_Center_Name":"Boys High School","د_مرکز_ځای__موقعیت_مرکز":"دهک کلان","Polling_Center_Location":"Dehak Kalan","Verification_Note":"Building","PS_Male":3,"PS_Female":1,"Map_Accuracy":"تعمیر"},"geometry":{"x":6920500.4388780445,"y":3822059.2939893529}},{"attributes":{"OBJECTID":5293,"ولایت":" فراه","Province":"FARAH","PC_Code":"3302232","ولسوالي":"پشت رود","District":"PUSHTRUD","د_مرکز_نوم__نام_مرکز":"مسجد آب سوراخ ","Polling_Center_Name":"Aab Sorakh Mosque","د_مرکز_ځای__موقعیت_مرکز":"آب سوراخ","Polling_Center_Location":"Aab Sorakh ","Verification_Note":"Village","PS_Male":1,"PS_Female":1,"Map_Accuracy":"قریه"},"geometry":{"x":6908582.7100034989,"y":3829836.1282197461}},{"attributes":{"OBJECTID":5294,"ولایت":" فراه","Province":"FARAH","PC_Code":"3304075","ولسوالي":"قلعه کاه ","District":"QALA-E-KAH","د_مرکز_نوم__نام_مرکز":"مسجد رباط","Polling_Center_Name":"Rubat  Mosque ","د_مرکز_ځای__موقعیت_مرکز":"رباط","Polling_Center_Location":"Rubat ","Verification_Note":"Building","PS_Male":1,"PS_Female":1,"Map_Accuracy":"تعمیر"},"geometry":{"x":6798848.4722112305,"y":3823846.7796136737}},{"attributes":{"OBJECTID":5295,"ولایت":" فراه","Province":"FARAH","PC_Code":"3305086","ولسوالي":"شیب کوه ","District":"SHIB KOH","د_مرکز_نوم__نام_مرکز":"مکتب ابتدائیه دهزک","Polling_Center_Name":"Dehzak Primary School ","د_مرکز_ځای__موقعیت_مرکز":" دهزک","Polling_Center_Location":"Dehzak ","Verification_Note":"Building","PS_Male":1,"PS_Female":1,"Map_Accuracy":"تعمیر"},"geometry":{"x":6853147.2900787368,"y":3783905.3670556992}},{"attributes":{"OBJECTID":5296,"ولایت":" فراه","Province":"FARAH","PC_Code":"3306128","ولسوالي":"بالا بلوک ","District":"BALA BULUK","د_مرکز_نوم__نام_مرکز":"مکتب ابتدائیه گنج آباد ","Polling_Center_Name":"Ganj Abad Primary School ","د_مرکز_ځای__موقعیت_مرکز":"گنج آباد","Polling_Center_Location":"Ganj Abad","Verification_Note":"Building","PS_Male":1,"PS_Female":1,"Map_Accuracy":"تعمیر"},"geometry":{"x":6952807.2954049818,"y":3846522.8782647774}},{"attributes":{"OBJECTID":5297,"ولایت":" فراه","Province":"FARAH","PC_Code":"3307065","ولسوالي":"انار دره ","District":"ANAR DARA","د_مرکز_نوم__نام_مرکز":"مکتب ابتدائیه کلاته ملا حیدر ","Polling_Center_Name":"Kalata Mulla Haidar Primary School","د_مرکز_ځای__موقعیت_مرکز":"کلاته ملا حیدر ","Polling_Center_Location":"Kalata Mulla Haidar  ","Verification_Note":"Building","PS_Male":1,"PS_Female":1,"Map_Accuracy":"تعمیر"},"geometry":{"x":6862788.6622707807,"y":3868726.1906194314}},{"attributes":{"OBJECTID":5298,"ولایت":" فراه","Province":"FARAH","PC_Code":"3309101","ولسوالي":"لاش جوین ","District":"LASH-E-JUWAYN","د_مرکز_نوم__نام_مرکز":" مسجد خیر آباد","Polling_Center_Name":"Khair Abad Mosque ","د_مرکز_ځای__موقعیت_مرکز":"خیر آباد","Polling_Center_Location":"Khair Abad ","Verification_Note":"Village","PS_Male":1,"PS_Female":1,"Map_Accuracy":"قریه"},"geometry":{"x":6847760.4920518622,"y":3707193.6478229314}},{"attributes":{"OBJECTID":5299,"ولایت":" فراه","Province":"FARAH","PC_Code":"3311193","ولسوالي":"پرچمن","District":"PUR CHAMAN","د_مرکز_نوم__نام_مرکز":" مسجد واسپ","Polling_Center_Name":"Wasp Mosque ","د_مرکز_ځای__موقعیت_مرکز":"  واسپ","Polling_Center_Location":"Wasp","Verification_Note":"Building","PS_Male":1,"PS_Female":1,"Map_Accuracy":"تعمیر"},"geometry":{"x":7142346.3870913535,"y":3917194.4081537127}},{"attributes":{"OBJECTID":5300,"ولایت":" فراه","Province":"FARAH","PC_Code":"3311205","ولسوالي":"پرچمن","District":"PUR CHAMAN","د_مرکز_نوم__نام_مرکز":" مسجد کمرک بالا","Polling_Center_Name":"Kamarak Bala Mosque  ","د_مرکز_ځای__موقعیت_مرکز":" کمرک بالا","Polling_Center_Location":"Kamarak Bala ","Verification_Note":"Building","PS_Male":1,"PS_Female":1,"Map_Accuracy":"تعمیر"},"geometry":{"x":7097235.9790682718,"y":3920402.7253201306}},{"attributes":{"OBJECTID":5301,"ولایت":" فراه","Province":"FARAH","PC_Code":"3311216","ولسوالي":"پرچمن","District":"PUR CHAMAN","د_مرکز_نوم__نام_مرکز":"مسجد کالوشت","Polling_Center_Name":"Kalwesht Mosque ","د_مرکز_ځای__موقعیت_مرکز":"کالوشت","Polling_Center_Location":"Kalwesht ","Verification_Note":"Building","PS_Male":1,"PS_Female":1,"Map_Accuracy":"تعمیر"},"geometry":{"x":7046591.0019602738,"y":3890696.9554879516}},{"attributes":{"OBJECTID":5302,"ولایت":"نيمروز","Province":"NIMROZ","PC_Code":"3401008","ولسوالي":" زرنج","District":"ZARANJ","د_مرکز_نوم__نام_مرکز":"کمپ هندیها (مرکز اضافه شده)","Polling_Center_Name":"Camp Hendi Ha","د_مرکز_ځای__موقعیت_مرکز":"زرنج ","Polling_Center_Location":"Zaranj ","Verification_Note":"Building","PS_Male":3,"PS_Female":2,"Map_Accuracy":"تعمیر"},"geometry":{"x":6889976.7558407784,"y":3628185.9405626431}},{"attributes":{"OBJECTID":5303,"ولایت":"نيمروز","Province":"NIMROZ","PC_Code":"3402011","ولسوالي":"کنگ","District":"KANG","د_مرکز_نوم__نام_مرکز":"مکتب ماککی","Polling_Center_Name":"Makaki School","د_مرکز_ځای__موقعیت_مرکز":"ماککی","Polling_Center_Location":"Makaki ","Verification_Note":"Building","PS_Male":1,"PS_Female":1,"Map_Accuracy":"تعمیر"},"geometry":{"x":6881273.7145609371,"y":3647477.7530196607}},{"attributes":{"OBJECTID":5304,"ولایت":"نيمروز","Province":"NIMROZ","PC_Code":"3403035","ولسوالي":"اصل چغانسور","District":"ASL-E-CHAKHANSUR","د_مرکز_نوم__نام_مرکز":"دشت معصوم خان","Polling_Center_Name":"Dasht-e-Masoom Khan","د_مرکز_ځای__موقعیت_مرکز":"دشت","Polling_Center_Location":"Dasht ","Verification_Note":"Building","PS_Male":1,"PS_Female":1,"Map_Accuracy":"تعمیر"},"geometry":{"x":6907291.2380442545,"y":3656799.539730683}},{"attributes":{"OBJECTID":5305,"ولایت":"نيمروز","Province":"NIMROZ","PC_Code":"3403036","ولسوالي":"اصل چغانسور","District":"ASL-E-CHAKHANSUR","د_مرکز_نوم__نام_مرکز":"مکتب سرگز","Polling_Center_Name":"Sar Gaz School ","د_مرکز_ځای__موقعیت_مرکز":" سرگز","Polling_Center_Location":"Sar Gaz ","Verification_Note":"Building","PS_Male":1,"PS_Female":1,"Map_Accuracy":"تعمیر"},"geometry":{"x":6904408.6977538057,"y":3654597.2847240046}},{"attributes":{"OBJECTID":5306,"ولایت":"نيمروز","Province":"NIMROZ","PC_Code":"3405043","ولسوالي":"خاشرود","District":"KHASHROD","د_مرکز_نوم__نام_مرکز":"مسجد قریه","Polling_Center_Name":"Pusht Hassan Village Mosque","د_مرکز_ځای__موقعیت_مرکز":"پشت حسن","Polling_Center_Location":"Pusht Hassan Village","Verification_Note":"Village","PS_Male":1,"PS_Female":1,"Map_Accuracy":"قریه"},"geometry":{"x":7006072.6932512373,"y":3718999.0131402537}},{"attributes":{"OBJECTID":5307,"ولایت":"نيمروز","Province":"NIMROZ","PC_Code":"3406054","ولسوالي":"دلارام","District":"DELARAM","د_مرکز_نوم__نام_مرکز":"شیله گی ","Polling_Center_Name":"Shelagi","د_مرکز_ځای__موقعیت_مرکز":"شیله گی ","Polling_Center_Location":"Shelagi","Verification_Note":"Building","PS_Male":2,"PS_Female":1,"Map_Accuracy":"تعمیر"},"geometry":{"x":7060537.1456154883,"y":3784089.9250624254}},{"attributes":{"OBJECTID":5308,"ولایت":"نيمروز","Province":"NIMROZ","PC_Code":"3406055","ولسوالي":"دلارام","District":"DELARAM","د_مرکز_نوم__نام_مرکز":"کچ ستار ","Polling_Center_Name":"Kech Star","د_مرکز_ځای__موقعیت_مرکز":"کچ ستار ","Polling_Center_Location":"Kech Star","Verification_Note":"Village","PS_Male":1,"PS_Female":1,"Map_Accuracy":"قریه"},"geometry":{"x":7068352.9994967654,"y":3785701.674335964}},{"attributes":{"OBJECTID":5309,"ولایت":"ننگرهار","Province":"NANGARHAR","PC_Code":"0604124","ولسوالي":"چپرهار","District":"CHAPARHAR","د_مرکز_نوم__نام_مرکز":"سنګينه مکتب","Polling_Center_Name":"Sangina School","د_مرکز_ځای__موقعیت_مرکز":"سنګينه","Polling_Center_Location":"Sangina","Verification_Note":"Building","PS_Male":1,"PS_Female":1,"Map_Accuracy":"تعمیر"},"geometry":{"x":7829063.1433409564,"y":4060583.5274570808}},{"attributes":{"OBJECTID":5310,"ولایت":"ننگرهار","Province":"NANGARHAR","PC_Code":"0604125","ولسوالي":"چپرهار","District":"CHAPARHAR","د_مرکز_نوم__نام_مرکز":"سپين جومات","Polling_Center_Name":"Speen Mosque","د_مرکز_ځای__موقعیت_مرکز":"سپين جومات کمپونه","Polling_Center_Location":"Speen Mosque Camps","Verification_Note":"Village","PS_Male":1,"PS_Female":1,"Map_Accuracy":"قریه"},"geometry":{"x":7837640.8277422115,"y":4059913.2957840934}},{"attributes":{"OBJECTID":5311,"ولایت":"غزنى","Province":"GHAZNI","PC_Code":"1105059","ولسوالي":"ده یک","District":"DEH YAK","د_مرکز_نوم__نام_مرکز":"مکتب لغاوت","Polling_Center_Name":"Laghawat School","د_مرکز_ځای__موقعیت_مرکز":" لغاوت","Polling_Center_Location":"laghawat","Verification_Note":"Village","PS_Male":2,"PS_Female":1,"Map_Accuracy":"قریه"},"geometry":{"x":7629421.1922683083,"y":3956697.5400544703}},{"attributes":{"OBJECTID":5312,"ولایت":"پکتيکا","Province":"PAKTIKA","PC_Code":"1205080","ولسوالي":"سروضه ","District":"SAR RAWZA","د_مرکز_نوم__نام_مرکز":"پړاو جومات ","Polling_Center_Name":"Parraaw Mosque","د_مرکز_ځای__موقعیت_مرکز":"پړاو ","Polling_Center_Location":"Parraaw","Verification_Note":"Building","PS_Male":0,"PS_Female":2,"Map_Accuracy":"تعمیر"},"geometry":{"x":7684474.8854140081,"y":3904585.9552647397}},{"attributes":{"OBJECTID":5313,"ولایت":"پکتيکا","Province":"PAKTIKA","PC_Code":"1209114","ولسوالي":"جانی خیل","District":"JANI KHEL","د_مرکز_نوم__نام_مرکز":"سدی خیل د کلی جومات","Polling_Center_Name":"Sadi Khel Village Mosque","د_مرکز_ځای__موقعیت_مرکز":"شادی خیل","Polling_Center_Location":"Shadi Khel","Verification_Note":"District","PS_Male":0,"PS_Female":2,"Map_Accuracy":"ولسوالی"},"geometry":{"x":7627133.6424110085,"y":3839840.2383232415}},{"attributes":{"OBJECTID":5314,"ولایت":"پکتيا","Province":"PAKTYA","PC_Code":"1306024","ولسوالي":"سید کرم","District":"SAYYID KARAM","د_مرکز_نوم__نام_مرکز":"د خند خیلو مکتب","Polling_Center_Name":"Khandh Khel School","د_مرکز_ځای__موقعیت_مرکز":"خنډخیل","Polling_Center_Location":"Khandh Khel","Verification_Note":"Village","PS_Male":0,"PS_Female":3,"Map_Accuracy":"قریه"},"geometry":{"x":7727520.2935057729,"y":3989133.143940255}},{"attributes":{"OBJECTID":5315,"ولایت":"کابل","Province":"KABUL","PC_Code":"0101002","ولسوالي":"کابل - ناحیه 01","District":"KABUL-D01","د_مرکز_نوم__نام_مرکز":" مسجد ملا محمود","Polling_Center_Name":"Molla Muhmod Mosque","د_مرکز_ځای__موقعیت_مرکز":"شور بازار","Polling_Center_Location":"Shur Bazar","Verification_Note":"Building","PS_Male":3,"PS_Female":2,"Map_Accuracy":"تعمیر"},"geometry":{"x":7701574.8738830313,"y":4097509.9688592181}},{"attributes":{"OBJECTID":5316,"ولایت":"کابل","Province":"KABUL","PC_Code":"0101119","ولسوالي":"کابل - ناحیه 06","District":"KABUL-D06","د_مرکز_نوم__نام_مرکز":" مرکز ناحيه ششم","Polling_Center_Name":"6th Nahia Center","د_مرکز_ځای__موقعیت_مرکز":"مرکز ناحيه ششم","Polling_Center_Location":"6th Nahia Center","Verification_Note":"Building","PS_Male":3,"PS_Female":2,"Map_Accuracy":"تعمیر"},"geometry":{"x":7696223.1103263088,"y":4096554.5628365576}},{"attributes":{"OBJECTID":5317,"ولایت":"کابل","Province":"KABUL","PC_Code":"0101156","ولسوالي":"کابل - ناحیه 08","District":"KABUL-D08","د_مرکز_نوم__نام_مرکز":" ليسه استاد بيتاب","Polling_Center_Name":"Ustad Betab High School","د_مرکز_ځای__موقعیت_مرکز":"سرک اول شاه شهيد","Polling_Center_Location":"Shah Shaheed, First Road ","Verification_Note":"Building","PS_Male":3,"PS_Female":3,"Map_Accuracy":"تعمیر"},"geometry":{"x":7703460.35332432,"y":4098002.6799227446}},{"attributes":{"OBJECTID":5318,"ولایت":"کابل","Province":"KABUL","PC_Code":"0101175","ولسوالي":"کابل - ناحیه 08","District":"KABUL-D08","د_مرکز_نوم__نام_مرکز":" مسجد عثمان غنی ","Polling_Center_Name":"Usman Ghani Mosque","د_مرکز_ځای__موقعیت_مرکز":"سرک نوشصت متره، رحمان مینه","Polling_Center_Location":"New 60 Meter Road, Rahman Mina","Verification_Note":"Building","PS_Male":3,"PS_Female":1,"Map_Accuracy":"تعمیر"},"geometry":{"x":7704950.6174038388,"y":4096926.1626539752}},{"attributes":{"OBJECTID":5319,"ولایت":"کابل","Province":"KABUL","PC_Code":"0101261","ولسوالي":"کابل - ناحیه 13","District":"KABUL-D13","د_مرکز_نوم__نام_مرکز":" مسجد سجادي","Polling_Center_Name":"Sajadi Mosque","د_مرکز_ځای__موقعیت_مرکز":"قریه ده قابل","Polling_Center_Location":"Deh Qabil Village","Verification_Note":"Building","PS_Male":2,"PS_Female":1,"Map_Accuracy":"تعمیر"},"geometry":{"x":7691487.7094317712,"y":4095784.3383763507}},{"attributes":{"OBJECTID":5320,"ولایت":"کابل","Province":"KABUL","PC_Code":"0101297","ولسوالي":"کابل - ناحیه 15","District":"KABUL-D15","د_مرکز_نوم__نام_مرکز":"مسجد خدر","Polling_Center_Name":"Kheder Mosque","د_مرکز_ځای__موقعیت_مرکز":"خواجه بغرا","Polling_Center_Location":"Khwaja Bughra","Verification_Note":"Building","PS_Male":3,"PS_Female":3,"Map_Accuracy":"تعمیر"},"geometry":{"x":7698865.9686211348,"y":4105909.8232365549}},{"attributes":{"OBJECTID":5321,"ولایت":"کابل","Province":"KABUL","PC_Code":"0101331","ولسوالي":"کابل - ناحیه 21","District":"KABUL-D21","د_مرکز_نوم__نام_مرکز":" مسجد حاجی ستار خان شامحمد خیل","Polling_Center_Name":"Haji Satar Khan Shah Mohammad Khel Mosque","د_مرکز_ځای__موقعیت_مرکز":"ناحیه ۲۱، پروژه","Polling_Center_Location":"Nahia 21, Proja","Verification_Note":"Building","PS_Male":3,"PS_Female":3,"Map_Accuracy":"تعمیر"},"geometry":{"x":7721786.3567788154,"y":4102071.2082338259}},{"attributes":{"OBJECTID":5322,"ولایت":"کابل","Province":"KABUL","PC_Code":"0109447","ولسوالي":"خاک جبار","District":"KHAK-E-JABAR","د_مرکز_نوم__نام_مرکز":" مسجد جامع خورد کابل","Polling_Center_Name":"Khurd Kabul Mosque","د_مرکز_ځای__موقعیت_مرکز":"خورد کابل","Polling_Center_Location":"Khurd Kabul","Verification_Note":"Building","PS_Male":1,"PS_Female":1,"Map_Accuracy":"تعمیر"},"geometry":{"x":7723846.6490088552,"y":4080777.4836070687}},{"attributes":{"OBJECTID":5323,"ولایت":"کابل","Province":"KABUL","PC_Code":"0115478","ولسوالي":"سروبی","District":"SURUBI","د_مرکز_نوم__نام_مرکز":"مکتب جگدلک","Polling_Center_Name":"Jegdalak School","د_مرکز_ځای__موقعیت_مرکز":"جگدلک","Polling_Center_Location":"Jegdalak","Verification_Note":"Building","PS_Male":1,"PS_Female":1,"Map_Accuracy":"تعمیر"},"geometry":{"x":7766114.5316456519,"y":4087924.7570748404}},{"attributes":{"OBJECTID":5324,"ولایت":"پروان","Province":"PARWAN","PC_Code":"0301029","ولسوالي":"چاریکار","District":"CHARIKAR","د_مرکز_نوم__نام_مرکز":"مسجد جامع ده ملا یوسف","Polling_Center_Name":"Deh Molla Yousuf Mosque","د_مرکز_ځای__موقعیت_مرکز":"ده ملا یوسف","Polling_Center_Location":"Deh Mula Yousuf","Verification_Note":"Building","PS_Male":1,"PS_Female":1,"Map_Accuracy":"تعمیر"},"geometry":{"x":7703642.2115236521,"y":4168235.6101218835}},{"attributes":{"OBJECTID":5325,"ولایت":"پروان","Province":"PARWAN","PC_Code":"0304039","ولسوالي":"سیدخیل ","District":"SAYID KHIAL","د_مرکز_نوم__نام_مرکز":"دارالحفاظ سید خیل ","Polling_Center_Name":"Darul Hifaaz Said Khel","د_مرکز_ځای__موقعیت_مرکز":"بازار سیدخیل ","Polling_Center_Location":"Saded Khel Bazar","Verification_Note":"Building","PS_Male":2,"PS_Female":1,"Map_Accuracy":"تعمیر"},"geometry":{"x":7709199.3717860356,"y":4175236.5639577135}},{"attributes":{"OBJECTID":5326,"ولایت":"وردک","Province":"WARDAK","PC_Code":"0405129","ولسوالي":"سید آباد","District":"SAYYD ABAD","د_مرکز_نوم__نام_مرکز":"خانه شخصی","Polling_Center_Name":"Private House","د_مرکز_ځای__موقعیت_مرکز":"کوربت باغک","Polling_Center_Location":"Kurbat Baghak","Verification_Note":"Village","PS_Male":1,"PS_Female":1,"Map_Accuracy":"قریه"},"geometry":{"x":7623711.7280182131,"y":3992129.5317180455}},{"attributes":{"OBJECTID":5327,"ولایت":"وردک","Province":"WARDAK","PC_Code":"0407025","ولسوالي":"حصه اول بهسود","District":"HISSA-E-AWALI BIHSUD","د_مرکز_نوم__نام_مرکز":"مکتب قلعه سید تیمور","Polling_Center_Name":"Qala-e-Sayed Temor School","د_مرکز_ځای__موقعیت_مرکز":"قلعه سید تیمور","Polling_Center_Location":"Qala-e-Sayed Temor","Verification_Note":"Building","PS_Male":1,"PS_Female":1,"Map_Accuracy":"تعمیر"},"geometry":{"x":7587438.7094288208,"y":4070679.8590024337}},{"attributes":{"OBJECTID":5328,"ولایت":"ننگرهار","Province":"NANGARHAR","PC_Code":"0602069","ولسوالي":"بهسود","District":"BEHSUD","د_مرکز_نوم__نام_مرکز":"وزیر محمد ګل خان لیسه","Polling_Center_Name":"Wazir Mohammad Gul Khan High School","د_مرکز_ځای__موقعیت_مرکز":"فارم هډه","Polling_Center_Location":"Farm Hada ","Verification_Note":"Building","PS_Male":4,"PS_Female":2,"Map_Accuracy":"تعمیر"},"geometry":{"x":7840672.7042427585,"y":4082310.998478584}},{"attributes":{"OBJECTID":5329,"ولایت":"ننگرهار","Province":"NANGARHAR","PC_Code":"0603092","ولسوالي":"سرخرود","District":"SURKH RUD","د_مرکز_نوم__نام_مرکز":"کوزککرک مکتب","Polling_Center_Name":"Koz Kakrak School","د_مرکز_ځای__موقعیت_مرکز":"کوزککړک","Polling_Center_Location":"Koz Kakrak","Verification_Note":"Village","PS_Male":2,"PS_Female":1,"Map_Accuracy":"قریه"},"geometry":{"x":7810627.7406568862,"y":4080352.0560295731}},{"attributes":{"OBJECTID":5330,"ولایت":"ننگرهار","Province":"NANGARHAR","PC_Code":"0604116","ولسوالي":"چپرهار","District":"CHAPARHAR","د_مرکز_نوم__نام_مرکز":"عامه دیره (باغچه)","Polling_Center_Name":"Aama dera (Baghcha)","د_مرکز_ځای__موقعیت_مرکز":"کنډی باغ باډول کلی","Polling_Center_Location":"Kandibagh Badol village","Verification_Note":"Village","PS_Male":2,"PS_Female":1,"Map_Accuracy":"قریه"},"geometry":{"x":7836103.98313497,"y":4067659.4580177143}},{"attributes":{"OBJECTID":5331,"ولایت":"ننگرهار","Province":"NANGARHAR","PC_Code":"0605150","ولسوالي":"کامه","District":"KAMA","د_مرکز_نوم__نام_مرکز":"وکيل باغ","Polling_Center_Name":"Wakel Bagh","د_مرکز_ځای__موقعیت_مرکز":"قلعه اخند","Polling_Center_Location":"Qala-e- Akhund ","Verification_Note":"Building","PS_Male":0,"PS_Female":2,"Map_Accuracy":"تعمیر"},"geometry":{"x":7857015.8237015158,"y":4084626.1766890213}},{"attributes":{"OBJECTID":5332,"ولایت":"ننگرهار","Province":"NANGARHAR","PC_Code":"0606186","ولسوالي":"کوز کنړ","District":"KUZ KUNAR","د_مرکز_نوم__نام_مرکز":"لوي کلي جومات","Polling_Center_Name":"Loy Kalay Mosque","د_مرکز_ځای__موقعیت_مرکز":"لوي کلي","Polling_Center_Location":"Loy Kalay","Verification_Note":"Village","PS_Male":2,"PS_Female":0,"Map_Accuracy":"قریه"},"geometry":{"x":7860735.7125412971,"y":4110370.3585303724}},{"attributes":{"OBJECTID":5333,"ولایت":"ننگرهار","Province":"NANGARHAR","PC_Code":"0606209","ولسوالي":"کوز کنړ","District":"KUZ KUNAR","د_مرکز_نوم__نام_مرکز":"جامع جومات","Polling_Center_Name":"Mosque","د_مرکز_ځای__موقعیت_مرکز":"کوهنه ده","Polling_Center_Location":"Kohna Deh","Verification_Note":"Building","PS_Male":1,"PS_Female":1,"Map_Accuracy":"تعمیر"},"geometry":{"x":7855966.4571632147,"y":4106430.0963571519}},{"attributes":{"OBJECTID":5334,"ولایت":"ننگرهار","Province":"NANGARHAR","PC_Code":"0607145","ولسوالي":"رودات","District":"RODAT","د_مرکز_نوم__نام_مرکز":"کډي جومات","Polling_Center_Name":"Kadee Mosque","د_مرکز_ځای__موقعیت_مرکز":"کډي","Polling_Center_Location":"Kadee","Verification_Note":"Village","PS_Male":2,"PS_Female":0,"Map_Accuracy":"قریه"},"geometry":{"x":7849410.2801682167,"y":4060894.6949101985}},{"attributes":{"OBJECTID":5335,"ولایت":"ننگرهار","Province":"NANGARHAR","PC_Code":"0608295","ولسوالي":"خوګیاڼي","District":"KHUGYANI","د_مرکز_نوم__نام_مرکز":"غلام حیدر خان عالی لیسه","Polling_Center_Name":"Ghulam Haidar Khan High School","د_مرکز_ځای__موقعیت_مرکز":"ميمله","Polling_Center_Location":"Memla","Verification_Note":"Building","PS_Male":2,"PS_Female":1,"Map_Accuracy":"تعمیر"},"geometry":{"x":7803530.0600176789,"y":4067317.3805107474}},{"attributes":{"OBJECTID":5336,"ولایت":"ننگرهار","Province":"NANGARHAR","PC_Code":"0610335","ولسوالي":"ده بالا","District":"DEH BALA","د_مرکز_نوم__نام_مرکز":"ګورګورۍ لوي جومات","Polling_Center_Name":"Gorgoray Loy Mosque","د_مرکز_ځای__موقعیت_مرکز":"ګورګورۍ","Polling_Center_Location":"Gorgoray","Verification_Note":"Building","PS_Male":2,"PS_Female":0,"Map_Accuracy":"تعمیر"},"geometry":{"x":7837308.2340467907,"y":4042723.1220673621}},{"attributes":{"OBJECTID":5337,"ولایت":"ننگرهار","Province":"NANGARHAR","PC_Code":"0615373","ولسوالي":"اچین","District":"ACHIN","د_مرکز_نوم__نام_مرکز":"زري خوله","Polling_Center_Name":"Zaree khola","د_مرکز_ځای__موقعیت_مرکز":"زري خوله کلی","Polling_Center_Location":"Zaree Khola Village","Verification_Note":"District","PS_Male":0,"PS_Female":2,"Map_Accuracy":"ولسوالی"},"geometry":{"x":7870516.7639776133,"y":4043842.9166389927}},{"attributes":{"OBJECTID":5338,"ولایت":"ننگرهار","Province":"NANGARHAR","PC_Code":"0618504","ولسوالي":"لعل پور","District":"LALPOOR","د_مرکز_نوم__نام_مرکز":"ګل ډاګ لیسه ","Polling_Center_Name":"Gul Daag Village","د_مرکز_ځای__موقعیت_مرکز":"ګلداګ کلي","Polling_Center_Location":"Gul Daag Village","Verification_Note":"Building","PS_Male":3,"PS_Female":2,"Map_Accuracy":"تعمیر"},"geometry":{"x":7899494.434134379,"y":4064869.4846345186}},{"attributes":{"OBJECTID":5339,"ولایت":"ننگرهار","Province":"NANGARHAR","PC_Code":"0619240","ولسوالي":"شیرزاد","District":"SHER ZAD","د_مرکز_نوم__نام_مرکز":"خاده خيل ميداني","Polling_Center_Name":"Khada Khel Maidany","د_مرکز_ځای__موقعیت_مرکز":"خاده خيل","Polling_Center_Location":"Khada Khel","Verification_Note":"Village","PS_Male":0,"PS_Female":2,"Map_Accuracy":"قریه"},"geometry":{"x":7797532.84378944,"y":4056644.9005745277}},{"attributes":{"OBJECTID":5340,"ولایت":"ننگرهار","Province":"NANGARHAR","PC_Code":"0621252","ولسوالي":"حصارک","District":"HESARAK","د_مرکز_نوم__نام_مرکز":"سياه اب مکتب","Polling_Center_Name":"Siya Aab School","د_مرکز_ځای__موقعیت_مرکز":"سياه اب","Polling_Center_Location":"Siya Aab","Verification_Note":"Village","PS_Male":2,"PS_Female":0,"Map_Accuracy":"قریه"},"geometry":{"x":7773561.3569621779,"y":4066336.801766485}},{"attributes":{"OBJECTID":5341,"ولایت":"ننگرهار","Province":"NANGARHAR","PC_Code":"0622412","ولسوالي":"در بابا","District":"DUR BABA","د_مرکز_نوم__نام_مرکز":"سره ګټه منځنی ښوونځی","Polling_Center_Name":"Sra Gata Secondary School","د_مرکز_ځای__موقعیت_مرکز":"سره ګټه","Polling_Center_Location":"Sra Gata","Verification_Note":"Village","PS_Male":2,"PS_Female":1,"Map_Accuracy":"قریه"},"geometry":{"x":7899765.234380465,"y":4038914.5107840672}},{"attributes":{"OBJECTID":5342,"ولایت":"لغمان","Province":"LAGHMAN","PC_Code":"0705112","ولسوالي":"دولت شاه","District":"DAWLAT SHAH","د_مرکز_نوم__نام_مرکز":"د ګمنډوک جومات ","Polling_Center_Name":"Gamndok Mosque","د_مرکز_ځای__موقعیت_مرکز":"ګمنډوک","Polling_Center_Location":"Gandomak","Verification_Note":"Village","PS_Male":1,"PS_Female":1,"Map_Accuracy":"قریه"},"geometry":{"x":7780540.16953592,"y":4163391.53784208}},{"attributes":{"OBJECTID":5343,"ولایت":"پنجشیر","Province":"PANJSHIR","PC_Code":"0801006","ولسوالي":" بازارک","District":"BAZARAK","د_مرکز_نوم__نام_مرکز":"مسجد خانیز","Polling_Center_Name":"Khan Khez Mosque","د_مرکز_ځای__موقعیت_مرکز":"خانیز","Polling_Center_Location":"Khan khez","Verification_Note":"Building","PS_Male":2,"PS_Female":1,"Map_Accuracy":"تعمیر"},"geometry":{"x":7736546.8125279285,"y":4203809.0880765542}},{"attributes":{"OBJECTID":5344,"ولایت":"پنجشیر","Province":"PANJSHIR","PC_Code":"0803062","ولسوالي":"دره","District":"DARAH","د_مرکز_نوم__نام_مرکز":"مسجد کهنه ده پوجاوه ","Polling_Center_Name":"Deh Pojawa Old Mosque","د_مرکز_ځای__موقعیت_مرکز":"پوجاوه ","Polling_Center_Location":"Pojawa","Verification_Note":"Village","PS_Male":2,"PS_Female":1,"Map_Accuracy":"قریه"},"geometry":{"x":7752249.8460278325,"y":4207541.6037128791}},{"attributes":{"OBJECTID":5345,"ولایت":"پنجشیر","Province":"PANJSHIR","PC_Code":"0807076","ولسوالي":"پریان","District":"PARYAN","د_مرکز_نوم__نام_مرکز":"مسجد کل کوا","Polling_Center_Name":"Kalkoa Mosque ","د_مرکز_ځای__موقعیت_مرکز":"کل کوا","Polling_Center_Location":"kalkoa","Verification_Note":"Village","PS_Male":1,"PS_Female":1,"Map_Accuracy":"قریه"},"geometry":{"x":7801609.7999146879,"y":4257768.8066838607}},{"attributes":{"OBJECTID":5346,"ولایت":"بغلان","Province":"BAGHLAN","PC_Code":"0901040","ولسوالي":"پلخمری","District":"PUL-E-KHUMRI","د_مرکز_نوم__نام_مرکز":" در بین باغ مسجد اکه خیل","Polling_Center_Name":"Aka Khel Mosque Garden","د_مرکز_ځای__موقعیت_مرکز":"قریه اکه خیل","Polling_Center_Location":"Aka Khel Village","Verification_Note":"Building","PS_Male":2,"PS_Female":1,"Map_Accuracy":"تعمیر"},"geometry":{"x":7643117.1041797474,"y":4306587.5478669629}},{"attributes":{"OBJECTID":5347,"ولایت":"بغلان","Province":"BAGHLAN","PC_Code":"0902087","ولسوالي":"دهنه غوری","District":"DAHANA-E-GHURI","د_مرکز_نوم__نام_مرکز":"مکتب تاجک ها دهنه بالا","Polling_Center_Name":"Tajikaha Dahana Bala School","د_مرکز_ځای__موقعیت_مرکز":"تاجک ها دهنه بالا","Polling_Center_Location":"Tajikha Dahana Bala","Verification_Note":"Building","PS_Male":1,"PS_Female":1,"Map_Accuracy":"تعمیر"},"geometry":{"x":7621650.2914238013,"y":4286935.2902038544}},{"attributes":{"OBJECTID":5348,"ولایت":"بغلان","Province":"BAGHLAN","PC_Code":"0905054","ولسوالي":"بغلان جدید","District":"BAGLAN-E-JADEED","د_مرکز_نوم__نام_مرکز":"سرک 11مکتب متوسطه میا گل شهید","Polling_Center_Name":"Meya Gul Shahid Secondary School","د_مرکز_ځای__موقعیت_مرکز":"سرک یازده","Polling_Center_Location":"Road 11","Verification_Note":"Building","PS_Male":1,"PS_Female":1,"Map_Accuracy":"تعمیر"},"geometry":{"x":7651935.6060354337,"y":4318905.7248479053}},{"attributes":{"OBJECTID":5349,"ولایت":"بغلان","Province":"BAGHLAN","PC_Code":"0907125","ولسوالي":"اندراب","District":"ANDARAB","د_مرکز_نوم__نام_مرکز":"لیسه کفتر خانه ","Polling_Center_Name":"Kafter Khana High School","د_مرکز_ځای__موقعیت_مرکز":"قریه کفتر خانه","Polling_Center_Location":"Kaftar Khana Village","Verification_Note":"Building","PS_Male":2,"PS_Female":1,"Map_Accuracy":"تعمیر"},"geometry":{"x":7696570.1043110639,"y":4249413.8322840333}},{"attributes":{"OBJECTID":5350,"ولایت":"بغلان","Province":"BAGHLAN","PC_Code":"0909199","ولسوالي":"جلگه","District":"JALGA","د_مرکز_نوم__نام_مرکز":"مدرسه یرم سفلی ","Polling_Center_Name":"Yarm Sufla Madrassa","د_مرکز_ځای__موقعیت_مرکز":"یرم سفلی","Polling_Center_Location":"Yarm Sufla ","Verification_Note":"Building","PS_Male":1,"PS_Female":1,"Map_Accuracy":"تعمیر"},"geometry":{"x":7709065.8618679494,"y":4290527.1714380383}},{"attributes":{"OBJECTID":5351,"ولایت":"باميان","Province":"BAMYAN","PC_Code":"1001017","ولسوالي":"بامیان","District":"BAMYAN","د_مرکز_نوم__نام_مرکز":"منبر جیم قلعه","Polling_Center_Name":"Monbar Jeem Qala","د_مرکز_ځای__موقعیت_مرکز":"جیم قلعه پیتو","Polling_Center_Location":"Jeem Qala-e-Petaw","Verification_Note":"Building","PS_Male":2,"PS_Female":1,"Map_Accuracy":"تعمیر"},"geometry":{"x":7517687.0207871087,"y":4144191.1350000352}},{"attributes":{"OBJECTID":5352,"ولایت":"باميان","Province":"BAMYAN","PC_Code":"1004062","ولسوالي":"کهمرد","District":"KAHMARD","د_مرکز_نوم__نام_مرکز":"مسجد چوکری دره","Polling_Center_Name":"Chokri Dara Mosque","د_مرکز_ځای__موقعیت_مرکز":"چوکری دره","Polling_Center_Location":"Chokri Dara","Verification_Note":"Building","PS_Male":1,"PS_Female":1,"Map_Accuracy":"تعمیر"},"geometry":{"x":7557695.5930950195,"y":4216120.0010648668}},{"attributes":{"OBJECTID":5353,"ولایت":"باميان","Province":"BAMYAN","PC_Code":"1006102","ولسوالي":"پنجاب","District":"PANJAB","د_مرکز_نوم__نام_مرکز":"مسجد کف قول","Polling_Center_Name":"Kaf Qol Mosque","د_مرکز_ځای__موقعیت_مرکز":"کف قول","Polling_Center_Location":"Kaf Qol","Verification_Note":"Building","PS_Male":2,"PS_Female":1,"Map_Accuracy":"تعمیر"},"geometry":{"x":7482298.6459459029,"y":4093225.5908649042}},{"attributes":{"OBJECTID":5354,"ولایت":"باميان","Province":"BAMYAN","PC_Code":"1007124","ولسوالي":"ورس","District":"WARAS","د_مرکز_نوم__نام_مرکز":"مسجد قلعه سوخته","Polling_Center_Name":"Qala-e-Sokhta Mosque","د_مرکز_ځای__موقعیت_مرکز":"قلعه سوخته","Polling_Center_Location":"Qala-e-Sokhta","Verification_Note":"Building","PS_Male":2,"PS_Female":1,"Map_Accuracy":"تعمیر"},"geometry":{"x":7432921.0623912923,"y":4069124.1924136654}},{"attributes":{"OBJECTID":5355,"ولایت":"باميان","Province":"BAMYAN","PC_Code":"1007146","ولسوالي":"ورس","District":"WARAS","د_مرکز_نوم__نام_مرکز":"مسجد دیوان","Polling_Center_Name":"Dewan Mosque","د_مرکز_ځای__موقعیت_مرکز":"دیوان","Polling_Center_Location":"Dewan","Verification_Note":"Building","PS_Male":1,"PS_Female":1,"Map_Accuracy":"تعمیر"},"geometry":{"x":7478578.3608087376,"y":4037811.5055828393}},{"attributes":{"OBJECTID":5356,"ولایت":"غزنى","Province":"GHAZNI","PC_Code":"1101054","ولسوالي":"غزنی","District":"GHAZNI","د_مرکز_نوم__نام_مرکز":"قلعه کوپی مسجد حاجی الخ","Polling_Center_Name":"Haji Alakh Mosque","د_مرکز_ځای__موقعیت_مرکز":"قلعه کوچی","Polling_Center_Location":"Qala-e-Kuchi","Verification_Note":"Village","PS_Male":1,"PS_Female":2,"Map_Accuracy":"قریه"},"geometry":{"x":7610027.5135588646,"y":3967761.8542057648}},{"attributes":{"OBJECTID":5357,"ولایت":"غزنى","Province":"GHAZNI","PC_Code":"1106107","ولسوالي":"جغتو","District":"JAGHATU","د_مرکز_نوم__نام_مرکز":"مکتب کهنه قول اصیل","Polling_Center_Name":"Qoul Asel Old School ","د_مرکز_ځای__موقعیت_مرکز":"قریه قباق جای","Polling_Center_Location":"Qabaq Jay Village","Verification_Note":"Building","PS_Male":1,"PS_Female":2,"Map_Accuracy":"تعمیر"},"geometry":{"x":7571017.4648382254,"y":3964730.6410923004}},{"attributes":{"OBJECTID":5358,"ولایت":"غزنى","Province":"GHAZNI","PC_Code":"1109093","ولسوالي":"رشیدان","District":"RASHIDAN","د_مرکز_نوم__نام_مرکز":"مسجد قریه لاغری","Polling_Center_Name":"Laghari Village Mosque","د_مرکز_ځای__موقعیت_مرکز":"قریه لاغری","Polling_Center_Location":"Laghari Village","Verification_Note":"Village","PS_Male":2,"PS_Female":1,"Map_Accuracy":"قریه"},"geometry":{"x":7586442.6304175667,"y":3985382.9725067243}},{"attributes":{"OBJECTID":5359,"ولایت":"غزنى","Province":"GHAZNI","PC_Code":"1115367","ولسوالي":"مقر","District":"MUQUR","د_مرکز_نوم__نام_مرکز":"مسجد قریه احمد خیل","Polling_Center_Name":"Ahamd Khel Village Mosque","د_مرکز_ځای__موقعیت_مرکز":"قریه احمد خیل","Polling_Center_Location":"Ahamd Khel Village","Verification_Note":"Building","PS_Male":1,"PS_Female":1,"Map_Accuracy":"تعمیر"},"geometry":{"x":7545151.9247424938,"y":3864468.0747448355}},{"attributes":{"OBJECTID":5360,"ولایت":"غزنى","Province":"GHAZNI","PC_Code":"1117395","ولسوالي":"گیلان","District":"GELAN","د_مرکز_نوم__نام_مرکز":"مسجد قریه بنګش","Polling_Center_Name":"Bangish Village Mosque","د_مرکز_ځای__موقعیت_مرکز":"قریه بنګش","Polling_Center_Location":"Bangish Village","Verification_Note":"Village","PS_Male":1,"PS_Female":1,"Map_Accuracy":"قریه"},"geometry":{"x":7510668.2578745075,"y":3879241.1164201573}},{"attributes":{"OBJECTID":5361,"ولایت":"پکتيکا","Province":"PAKTIKA","PC_Code":"1207095","ولسوالي":"زرغون شهر ","District":"ZARGHUN SHAHR","د_مرکز_نوم__نام_مرکز":"جامع جومات محمد حسن ","Polling_Center_Name":"Mohammad Hassan Mosque","د_مرکز_ځای__موقعیت_مرکز":"محمد حسن","Polling_Center_Location":"Mohammad Hassan","Verification_Note":"Building","PS_Male":2,"PS_Female":0,"Map_Accuracy":"تعمیر"},"geometry":{"x":7622184.591583766,"y":3870084.9527254477}},{"attributes":{"OBJECTID":5362,"ولایت":"پکتيکا","Province":"PAKTIKA","PC_Code":"1208130","ولسوالي":"گومل","District":"GOMAL","د_مرکز_نوم__نام_مرکز":"سروکی میلمستون","Polling_Center_Name":"Saroki Guest House","د_مرکز_ځای__موقعیت_مرکز":"عموواز","Polling_Center_Location":"Amovaz","Verification_Note":"Village","PS_Male":0,"PS_Female":3,"Map_Accuracy":"قریه"},"geometry":{"x":7681070.5394632369,"y":3803908.1121822074}},{"attributes":{"OBJECTID":5363,"ولایت":"پکتيکا","Province":"PAKTIKA","PC_Code":"1217300","ولسوالي":"وازه خواه","District":"WAZAKHWAH","د_مرکز_نوم__نام_مرکز":"د ولسوالي مركز ابتدائيه ښوونځي","Polling_Center_Name":"District Center Primary School","د_مرکز_ځای__موقعیت_مرکز":"مرکزابتدائیه ښوونځی","Polling_Center_Location":"District Center","Verification_Note":"Building","PS_Male":2,"PS_Female":0,"Map_Accuracy":"تعمیر"},"geometry":{"x":7610211.9109557793,"y":3788966.0583850592}},{"attributes":{"OBJECTID":5364,"ولایت":"پکتيا","Province":"PAKTYA","PC_Code":"1306038","ولسوالي":"سید کرم","District":"SAYYID KARAM","د_مرکز_نوم__نام_مرکز":"د کلگر مدرسه","Polling_Center_Name":"Kalgar Madrassa","د_مرکز_ځای__موقعیت_مرکز":"کلگر","Polling_Center_Location":"Kalgar","Verification_Note":"Building","PS_Male":2,"PS_Female":0,"Map_Accuracy":"تعمیر"},"geometry":{"x":7732106.1633811109,"y":3986009.4095264375}},{"attributes":{"OBJECTID":5365,"ولایت":"پکتيا","Province":"PAKTYA","PC_Code":"1307077","ولسوالي":"ځاځی اریوب","District":"JAJI ARYOB","د_مرکز_نوم__نام_مرکز":"د کوټکی مسجد","Polling_Center_Name":"Kotkai Mosque","د_مرکز_ځای__موقعیت_مرکز":"کوټکی","Polling_Center_Location":"Kotkai","Verification_Note":"Village","PS_Male":3,"PS_Female":1,"Map_Accuracy":"قریه"},"geometry":{"x":7774317.9165042527,"y":4025839.2807658836}},{"attributes":{"OBJECTID":5366,"ولایت":"خوست","Province":"KHOST","PC_Code":"1401010","ولسوالي":"خوست","District":"KHOST","د_مرکز_نوم__نام_مرکز":"زوړ جومات ( مرديخېل)","Polling_Center_Name":"Old Mosque","د_مرکز_ځای__موقعیت_مرکز":"شمل مرديخيل","Polling_Center_Location":"Shamal Mardi Khel","Verification_Note":"Building","PS_Male":1,"PS_Female":1,"Map_Accuracy":"تعمیر"},"geometry":{"x":7781000.9075499736,"y":3936850.8582338765}},{"attributes":{"OBJECTID":5367,"ولایت":"خوست","Province":"KHOST","PC_Code":"1402084","ولسوالي":"مندوزی","District":"MANDUZAY","د_مرکز_نوم__نام_مرکز":"د ميټا خان ليسه ","Polling_Center_Name":"Meta Khan High School","د_مرکز_ځای__موقعیت_مرکز":"قریه ميټا خان","Polling_Center_Location":"Meta Khan Village ","Verification_Note":"Building","PS_Male":1,"PS_Female":1,"Map_Accuracy":"تعمیر"},"geometry":{"x":7766378.3822159246,"y":3935439.8422454149}},{"attributes":{"OBJECTID":5368,"ولایت":"خوست","Province":"KHOST","PC_Code":"1403174","ولسوالي":"گربز","District":"GURBUZ","د_مرکز_نوم__نام_مرکز":"مستربل غازي آباد جومات","Polling_Center_Name":"Mister Bill Ghazi Abad Mosque","د_مرکز_ځای__موقعیت_مرکز":"غازی آباد کلی","Polling_Center_Location":"Ghazi Abad Village","Verification_Note":"Village","PS_Male":2,"PS_Female":2,"Map_Accuracy":"قریه"},"geometry":{"x":7793608.8843930885,"y":3926713.0101472512}},{"attributes":{"OBJECTID":5369,"ولایت":"خوست","Province":"KHOST","PC_Code":"1407166","ولسوالي":"صبری","District":"SABARI","د_مرکز_نوم__نام_مرکز":"کورړو جومات","Polling_Center_Name":"Korro Village Mosque","د_مرکز_ځای__موقعیت_مرکز":"کورړو کلى","Polling_Center_Location":"Korro Village","Verification_Note":"Village","PS_Male":2,"PS_Female":1,"Map_Accuracy":"قریه"},"geometry":{"x":7798056.3993921466,"y":3959334.9076485559}},{"attributes":{"OBJECTID":5370,"ولایت":"خوست","Province":"KHOST","PC_Code":"1413103","ولسوالي":"ځاځي میدان","District":"JAJI MAIDAN","د_مرکز_نوم__نام_مرکز":"د مغل خيلو جومات","Polling_Center_Name":"Moghul Khel Mosque","د_مرکز_ځای__موقعیت_مرکز":"مغل خيل","Polling_Center_Location":"Moghul Khel","Verification_Note":"Building","PS_Male":2,"PS_Female":1,"Map_Accuracy":"تعمیر"},"geometry":{"x":7805823.10794463,"y":3978313.0400206596}},{"attributes":{"OBJECTID":5371,"ولایت":"کنړ ","Province":"KUNAR","PC_Code":"1507019","ولسوالي":"دره پیچ","District":"DARA-E-PECH","د_مرکز_نوم__نام_مرکز":"مسجد قریه","Polling_Center_Name":"Kandagal Village Mosque","د_مرکز_ځای__موقعیت_مرکز":"کندگل","Polling_Center_Location":"Kandagal","Verification_Note":"Village","PS_Male":2,"PS_Female":1,"Map_Accuracy":"قریه"},"geometry":{"x":7898584.6989729665,"y":4155686.6573648527}},{"attributes":{"OBJECTID":5372,"ولایت":"کنړ ","Province":"KUNAR","PC_Code":"1509093","ولسوالي":"څوکی","District":"SAWKAI","د_مرکز_نوم__نام_مرکز":"مکتب ترناب","Polling_Center_Name":"Tarnab Village School","د_مرکز_ځای__موقعیت_مرکز":"ترناب","Polling_Center_Location":"Tarnab","Verification_Note":"Village","PS_Male":3,"PS_Female":1,"Map_Accuracy":"قریه"},"geometry":{"x":7892942.1555479579,"y":4123841.1632315964}},{"attributes":{"OBJECTID":5373,"ولایت":"کنړ ","Province":"KUNAR","PC_Code":"1515108","ولسوالي":"نری","District":"NARI","د_مرکز_نوم__نام_مرکز":"مرکز پولیس","Polling_Center_Name":"Police Station","د_مرکز_ځای__موقعیت_مرکز":"خانانوکڅ","Polling_Center_Location":"Khanano Kas","Verification_Note":"Village","PS_Male":3,"PS_Female":1,"Map_Accuracy":"قریه"},"geometry":{"x":7962752.2702244148,"y":4200727.9603493065}},{"attributes":{"OBJECTID":5374,"ولایت":"نورستان","Province":"NOORISTAN","PC_Code":"1607053","ولسوالي":"منډول","District":"MANDOL","د_مرکز_نوم__نام_مرکز":"مسجد جناخیل","Polling_Center_Name":"Jana Khel Mosque","د_مرکز_ځای__موقعیت_مرکز":"جناخیل","Polling_Center_Location":"Jana Khel","Verification_Note":"Village","PS_Male":1,"PS_Female":1,"Map_Accuracy":"قریه"},"geometry":{"x":7819213.6671532393,"y":4212615.0241628662}},{"attributes":{"OBJECTID":5375,"ولایت":"بدخشان","Province":"BADAKHSHAN","PC_Code":"1702047","ولسوالي":"ارگو","District":"ARGO","د_مرکز_نوم__نام_مرکز":"مکتب قدم ","Polling_Center_Name":"Qadam School","د_مرکز_ځای__موقعیت_مرکز":"قدم ","Polling_Center_Location":"Qadam","Verification_Note":"Building","PS_Male":2,"PS_Female":1,"Map_Accuracy":"تعمیر"},"geometry":{"x":7817710.3653349653,"y":4451033.4153530821}},{"attributes":{"OBJECTID":5376,"ولایت":"بدخشان","Province":"BADAKHSHAN","PC_Code":"1706104","ولسوالي":"بهارک","District":"BAHARAK","د_مرکز_نوم__نام_مرکز":"مکتب چبچی یردار","Polling_Center_Name":"Chabchi Yardar School","د_مرکز_ځای__موقعیت_مرکز":"چبچی یردار","Polling_Center_Location":"Chabchi Yardar","Verification_Note":"Building","PS_Male":1,"PS_Female":1,"Map_Accuracy":"تعمیر"},"geometry":{"x":7890370.2712208778,"y":4436733.0467601717}},{"attributes":{"OBJECTID":5377,"ولایت":"بدخشان","Province":"BADAKHSHAN","PC_Code":"1708122","ولسوالي":"کوهستان","District":"KOHISTAN","د_مرکز_نوم__نام_مرکز":"لیسه مراغ ","Polling_Center_Name":"Muragh High School","د_مرکز_ځای__موقعیت_مرکز":"میدان پایان","Polling_Center_Location":"Maidan Payan","Verification_Note":"Building","PS_Male":1,"PS_Female":1,"Map_Accuracy":"تعمیر"},"geometry":{"x":7867639.23863022,"y":4497556.7542616278}},{"attributes":{"OBJECTID":5378,"ولایت":"بدخشان","Province":"BADAKHSHAN","PC_Code":"1715150","ولسوالي":"کشم","District":"KISHM","د_مرکز_نوم__نام_مرکز":"مکتب نسوان مشهد ","Polling_Center_Name":"Mashhad Girls School","د_مرکز_ځای__موقعیت_مرکز":"حوز شهر","Polling_Center_Location":"Hawz Shahr","Verification_Note":"Building","PS_Male":3,"PS_Female":1,"Map_Accuracy":"تعمیر"},"geometry":{"x":7803591.1276639365,"y":4413775.3869346231}},{"attributes":{"OBJECTID":5379,"ولایت":"بدخشان","Province":"BADAKHSHAN","PC_Code":"1716099","ولسوالي":"وردوج","District":"WARDOOJ","د_مرکز_نوم__نام_مرکز":"لیسه کزده ","Polling_Center_Name":"Kazdah High School","د_مرکز_ځای__موقعیت_مرکز":"کزده ","Polling_Center_Location":"Kazdah","Verification_Note":"Building","PS_Male":1,"PS_Female":1,"Map_Accuracy":"تعمیر"},"geometry":{"x":7919821.55794359,"y":4388392.8420557082}},{"attributes":{"OBJECTID":5380,"ولایت":"بدخشان","Province":"BADAKHSHAN","PC_Code":"1719214","ولسوالي":"شغنان","District":"SHIGHNAN","د_مرکز_نوم__نام_مرکز":"لیسه سر چشمه ","Polling_Center_Name":"Sar Chashma High School","د_مرکز_ځای__موقعیت_مرکز":"سر چشمه","Polling_Center_Location":"Sar Chashma","Verification_Note":"Building","PS_Male":3,"PS_Female":1,"Map_Accuracy":"تعمیر"},"geometry":{"x":7959179.9520676024,"y":4520042.0971573219}},{"attributes":{"OBJECTID":5381,"ولایت":"بدخشان","Province":"BADAKHSHAN","PC_Code":"1728210","ولسوالي":"واخان","District":"WAKHAN","د_مرکز_نوم__نام_مرکز":"مکتب متوسطه نیشت خور ","Polling_Center_Name":"Nesht Khor Secondary School","د_مرکز_ځای__موقعیت_مرکز":"نیشت خور","Polling_Center_Location":"Nesht Khor","Verification_Note":"Building","PS_Male":1,"PS_Female":1,"Map_Accuracy":"تعمیر"},"geometry":{"x":8155808.505675178,"y":4439126.7461087927}},{"attributes":{"OBJECTID":5382,"ولایت":"تخار","Province":"TAKHAR","PC_Code":"1801020","ولسوالي":"تالقان","District":"TALUQAN","د_مرکز_نوم__نام_مرکز":"لیسه سید ناصر","Polling_Center_Name":"Sayed Naser High School","د_مرکز_ځای__موقعیت_مرکز":"ابدال","Polling_Center_Location":"Abdaal","Verification_Note":"Building","PS_Male":2,"PS_Female":1,"Map_Accuracy":"تعمیر"},"geometry":{"x":7732100.5684635006,"y":4404431.2469462827}},{"attributes":{"OBJECTID":5383,"ولایت":"تخار","Province":"TAKHAR","PC_Code":"1806081","ولسوالي":"نمک آب","District":"NAMAK AB","د_مرکز_نوم__نام_مرکز":"مکتب ابتدائیه باغ قاضی","Polling_Center_Name":"Bagh Qazi Primary School","د_مرکز_ځای__موقعیت_مرکز":"باغ قاضی","Polling_Center_Location":"Bag Qazi","Verification_Note":"Building","PS_Male":2,"PS_Female":2,"Map_Accuracy":"تعمیر"},"geometry":{"x":7761424.8095909618,"y":4373329.0396767408}},{"attributes":{"OBJECTID":5384,"ولایت":"تخار","Province":"TAKHAR","PC_Code":"1812173","ولسوالي":"دشت قلعه","District":"DASHT-E-QALA","د_مرکز_نوم__نام_مرکز":" لیسه سریغ","Polling_Center_Name":"Sareegh High School","د_مرکز_ځای__موقعیت_مرکز":"سریغ","Polling_Center_Location":"Sareegh","Verification_Note":"Building","PS_Male":2,"PS_Female":1,"Map_Accuracy":"تعمیر"},"geometry":{"x":7734144.26184427,"y":4451604.6368468553}},{"attributes":{"OBJECTID":5385,"ولایت":"کندز","Province":"KUNDUZ","PC_Code":"1901036","ولسوالي":"کندز","District":"KUNDUZ","د_مرکز_نوم__نام_مرکز":"مکتب متوسطه بولک اول","Polling_Center_Name":"Bolak Awal Secondary School","د_مرکز_ځای__موقعیت_مرکز":"بولک اول","Polling_Center_Location":"Bolak Awal","Verification_Note":"Building","PS_Male":3,"PS_Female":1,"Map_Accuracy":"تعمیر"},"geometry":{"x":7672232.1203242615,"y":4394877.5752431825}},{"attributes":{"OBJECTID":5386,"ولایت":"کندز","Province":"KUNDUZ","PC_Code":"1904149","ولسوالي":"خان آباد","District":"KHAN ABAD","د_مرکز_نوم__نام_مرکز":"مکتب موسی زی","Polling_Center_Name":"Musa Zai School","د_مرکز_ځای__موقعیت_مرکز":"قریه شوراب","Polling_Center_Location":"Shorab Village","Verification_Note":"Building","PS_Male":1,"PS_Female":1,"Map_Accuracy":"تعمیر"},"geometry":{"x":7685488.951428581,"y":4380217.3949472979}},{"attributes":{"OBJECTID":5387,"ولایت":"سمنگان","Province":"SAMANGAN","PC_Code":"2002021","ولسوالي":"حضرت سلطان","District":"HAZRAT-E-SULTAN","د_مرکز_نوم__نام_مرکز":"مکتب متوسطه قوش بره ","Polling_Center_Name":"Qosh Bara Secondary School","د_مرکز_ځای__موقعیت_مرکز":"قریه قوش بره ","Polling_Center_Location":"Qosh Bara Village","Verification_Note":"Building","PS_Male":2,"PS_Female":1,"Map_Accuracy":"تعمیر"},"geometry":{"x":7563732.6156146936,"y":4366969.3552565351}},{"attributes":{"OBJECTID":5388,"ولایت":"سمنگان","Province":"SAMANGAN","PC_Code":"2006050","ولسوالي":"دره صوف پائین","District":"DARA-E-SOOF-E-PAYIN","د_مرکز_نوم__نام_مرکز":"لیسه ذکور دهی","Polling_Center_Name":"Dehi Boys School","د_مرکز_ځای__موقعیت_مرکز":"مرکز ولسوالی","Polling_Center_Location":"District Compound","Verification_Note":"Building","PS_Male":4,"PS_Female":2,"Map_Accuracy":"تعمیر"},"geometry":{"x":7488238.6205787919,"y":4294927.8015657291}},{"attributes":{"OBJECTID":5389,"ولایت":"سمنگان","Province":"SAMANGAN","PC_Code":"2007035","ولسوالي":"دره صوف بالا","District":"DARA-E-SOOF-E-BALA","د_مرکز_نوم__نام_مرکز":"مکتب نسوان زیره کی ","Polling_Center_Name":"Zeraki Girls School","د_مرکز_ځای__موقعیت_مرکز":"قریه زیره کی","Polling_Center_Location":"Zeraki Village","Verification_Note":"Building","PS_Male":2,"PS_Female":1,"Map_Accuracy":"تعمیر"},"geometry":{"x":7490196.6781016812,"y":4273929.7689275742}},{"attributes":{"OBJECTID":5390,"ولایت":"بلخ","Province":"BALKH","PC_Code":"2101006","ولسوالي":"مزار شریف","District":"MAZAR-E-SHARIF","د_مرکز_نوم__نام_مرکز":"لیسه گوهر شاد بیگم ","Polling_Center_Name":"Gawhar Shad Begum High School","د_مرکز_ځای__موقعیت_مرکز":"ناحیه دوم مزار شاروالی ","Polling_Center_Location":"D02 - Nahia 2","Verification_Note":"Building","PS_Male":3,"PS_Female":2,"Map_Accuracy":"تعمیر"},"geometry":{"x":7468303.9770114645,"y":4399095.7500917017}},{"attributes":{"OBJECTID":5391,"ولایت":"بلخ","Province":"BALKH","PC_Code":"2101026","ولسوالي":"مزار شریف","District":"MAZAR-E-SHARIF","د_مرکز_نوم__نام_مرکز":"لیسه زراعت","Polling_Center_Name":"Agriculture High School","د_مرکز_ځای__موقعیت_مرکز":"گذر قصابها ناحیه ششم مزار شاروالی ","Polling_Center_Location":"D06 - Nahia 6 Guzar Qasabha","Verification_Note":"Building","PS_Male":1,"PS_Female":1,"Map_Accuracy":"تعمیر"},"geometry":{"x":7472522.0394968577,"y":4398693.3850707635}},{"attributes":{"OBJECTID":5392,"ولایت":"بلخ","Province":"BALKH","PC_Code":"2106166","ولسوالي":"بلخ","District":"BALKH","د_مرکز_نوم__نام_مرکز":"مکتب چار باغ گلشن","Polling_Center_Name":"Char Bagh Gulshan School","د_مرکز_ځای__موقعیت_مرکز":"قریه شنکی","Polling_Center_Location":"Shenkay Village","Verification_Note":"Building","PS_Male":2,"PS_Female":1,"Map_Accuracy":"تعمیر"},"geometry":{"x":7442411.9629144333,"y":4404621.8648759648}},{"attributes":{"OBJECTID":5393,"ولایت":"بلخ","Province":"BALKH","PC_Code":"2110082","ولسوالي":"خلم","District":"KHULM","د_مرکز_نوم__نام_مرکز":"مکتب ناهید شهید","Polling_Center_Name":"Nahid Shaheed School","د_مرکز_ځای__موقعیت_مرکز":"تیبه شیخی افغانیه ( لغمانی ) ","Polling_Center_Location":"Teba Shekhi Afghania (Laghmani)","Verification_Note":"Building","PS_Male":1,"PS_Female":2,"Map_Accuracy":"تعمیر"},"geometry":{"x":7536847.1178090163,"y":4400001.7264689133}},{"attributes":{"OBJECTID":5394,"ولایت":"بلخ","Province":"BALKH","PC_Code":"2115305","ولسوالي":"زاری","District":"ZARI","د_مرکز_نوم__نام_مرکز":"مکتب نسوان ایلاقیه","Polling_Center_Name":"Elaqya Girls School","د_مرکز_ځای__موقعیت_مرکز":"قریه بلند اریغ","Polling_Center_Location":"Boland Areegh Village","Verification_Note":"Building","PS_Male":2,"PS_Female":2,"Map_Accuracy":"تعمیر"},"geometry":{"x":7422467.6334382184,"y":4293351.5494261459}},{"attributes":{"OBJECTID":5395,"ولایت":"سرپل","Province":"SAR-E-PUL","PC_Code":"2203061","ولسوالي":"کوهستانات","District":"KOHISTANAT","د_مرکز_نوم__نام_مرکز":"لیسه جرغان","Polling_Center_Name":"Jarghan High School","د_مرکز_ځای__موقعیت_مرکز":"جرغان","Polling_Center_Location":"Jarghan","Verification_Note":"Building","PS_Male":3,"PS_Female":2,"Map_Accuracy":"تعمیر"},"geometry":{"x":7340468.7180215716,"y":4288723.0741091}},{"attributes":{"OBJECTID":5396,"ولایت":"سرپل","Province":"SAR-E-PUL","PC_Code":"2205102","ولسوالي":"سنگ چارک","District":"SANG CHARAK","د_مرکز_نوم__نام_مرکز":"مدرسه قریه دهمرده","Polling_Center_Name":"Dehmarda Village Mosque","د_مرکز_ځای__موقعیت_مرکز":"قریه دهمرده","Polling_Center_Location":"Dehmarda Village","Verification_Note":"Building","PS_Male":1,"PS_Female":1,"Map_Accuracy":"تعمیر"},"geometry":{"x":7379317.82881479,"y":4269988.2793629244}},{"attributes":{"OBJECTID":5397,"ولایت":"غور","Province":"GHOR","PC_Code":"2301016","ولسوالي":"چغچران","District":"CHIGHCHERAN","د_مرکز_نوم__نام_مرکز":"کلینیک بره خانه","Polling_Center_Name":"Bara Khana Clinic","د_مرکز_ځای__موقعیت_مرکز":" بره خانه","Polling_Center_Location":"Bara Khana","Verification_Note":"Building","PS_Male":3,"PS_Female":2,"Map_Accuracy":"تعمیر"},"geometry":{"x":7231838.9799718075,"y":4103728.2298137397}},{"attributes":{"OBJECTID":5398,"ولایت":"غور","Province":"GHOR","PC_Code":"2301038","ولسوالي":"چغچران","District":"CHIGHCHERAN","د_مرکز_نوم__نام_مرکز":"مکتب ابتدائیه اسپارف","Polling_Center_Name":"Isparaf Primary School","د_مرکز_ځای__موقعیت_مرکز":"مرکز اسپارف ","Polling_Center_Location":"Markaz Isparaf","Verification_Note":"Building","PS_Male":2,"PS_Female":2,"Map_Accuracy":"تعمیر"},"geometry":{"x":7324496.5885769948,"y":4164844.04700613}},{"attributes":{"OBJECTID":5399,"ولایت":"غور","Province":"GHOR","PC_Code":"2302238","ولسوالي":"دولینه","District":"DULEENA","د_مرکز_نوم__نام_مرکز":"خیمه در بازار دولینه","Polling_Center_Name":"Dolina Bazar Tent","د_مرکز_ځای__موقعیت_مرکز":"بازار دولینه. ","Polling_Center_Location":"Bazar Dolina","Verification_Note":"Village","PS_Male":1,"PS_Female":1,"Map_Accuracy":"قریه"},"geometry":{"x":7211192.6375039965,"y":4053225.1433404684}}]}