{"objectIdFieldName":"OBJECTID","globalIdFieldName":"","geometryType":"esriGeometryPoint","spatialReference":{"wkid":102100,"latestWkid":3857},"fields":[{"name":"OBJECTID","type":"esriFieldTypeOID","alias":"OBJECTID","sqlType":"sqlTypeOther","domain":null,"defaultValue":null},{"name":"ولایت","type":"esriFieldTypeString","alias":"ولایت","sqlType":"sqlTypeOther","length":255,"domain":null,"defaultValue":null},{"name":"Province","type":"esriFieldTypeString","alias":"Province","sqlType":"sqlTypeOther","length":255,"domain":null,"defaultValue":null},{"name":"PC_Code","type":"esriFieldTypeString","alias":"PC_Code","sqlType":"sqlTypeOther","length":255,"domain":null,"defaultValue":null},{"name":"ولسوالي","type":"esriFieldTypeString","alias":"ولسوالي","sqlType":"sqlTypeOther","length":255,"domain":null,"defaultValue":null},{"name":"District","type":"esriFieldTypeString","alias":"District","sqlType":"sqlTypeOther","length":255,"domain":null,"defaultValue":null},{"name":"د_مرکز_نوم__نام_مرکز","type":"esriFieldTypeString","alias":"د_مرکز_نوم__نام_مرکز","sqlType":"sqlTypeOther","length":255,"domain":null,"defaultValue":null},{"name":"Polling_Center_Name","type":"esriFieldTypeString","alias":"Polling_Center_Name","sqlType":"sqlTypeOther","length":255,"domain":null,"defaultValue":null},{"name":"د_مرکز_ځای__موقعیت_مرکز","type":"esriFieldTypeString","alias":"د_مرکز_ځای__موقعیت_مرکز","sqlType":"sqlTypeOther","length":255,"domain":null,"defaultValue":null},{"name":"Polling_Center_Location","type":"esriFieldTypeString","alias":"Polling_Center_Location","sqlType":"sqlTypeOther","length":255,"domain":null,"defaultValue":null},{"name":"Verification_Note","type":"esriFieldTypeString","alias":"Verification_Note","sqlType":"sqlTypeOther","length":250,"domain":null,"defaultValue":null},{"name":"PS_Male","type":"esriFieldTypeSmallInteger","alias":"PS_Male","sqlType":"sqlTypeOther","domain":null,"defaultValue":null},{"name":"PS_Female","type":"esriFieldTypeSmallInteger","alias":"PS_Female","sqlType":"sqlTypeOther","domain":null,"defaultValue":null},{"name":"Map_Accuracy","type":"esriFieldTypeString","alias":"Map_Accuracy","sqlType":"sqlTypeOther","length":10,"domain":null,"defaultValue":null}],"features":[{"attributes":{"OBJECTID":5400,"ولایت":"کندهار","Province":"کندهار","PC_Code":"2704192","ولسوالي":"پنجوایې","District":"PANJWAYEE","د_مرکز_نوم__نام_مرکز":"د شيرعلي منطقه","Polling_Center_Name":"Shir Ali Place","د_مرکز_ځای__موقعیت_مرکز":"موشان","Polling_Center_Location":"Moshan","Verification_Note":"Village","PS_Male":4,"PS_Female":3,"Map_Accuracy":"قریه"},"geometry":{"x":7265204.28114152,"y":3692430.7400120869}},{"attributes":{"OBJECTID":5401,"ولایت":"هلمند","Province":"HELMAND","PC_Code":"3006120","ولسوالي":"گرم سیر","District":"GARM SER","د_مرکز_نوم__نام_مرکز":"د حاجی علی احمد کور","Polling_Center_Name":"Haji Ali Ahmad Private House","د_مرکز_ځای__موقعیت_مرکز":"بنادر","Polling_Center_Location":"Banadar","Verification_Note":"Village","PS_Male":2,"PS_Female":1,"Map_Accuracy":"قریه"},"geometry":{"x":7130277.7223456278,"y":3585386.392855607}},{"attributes":{"OBJECTID":5402,"ولایت":"هرات","Province":"HERAT","PC_Code":"3205273","ولسوالي":"زنده جان ","District":"ZENDAJAN","د_مرکز_نوم__نام_مرکز":"مسجد قلعه نو","Polling_Center_Name":"Qalae Now Mosque ","د_مرکز_ځای__موقعیت_مرکز":" قلعه نو سرمزار ","Polling_Center_Location":"Qala-e- Now Sar Mazar  ","Verification_Note":"Village","PS_Male":2,"PS_Female":1,"Map_Accuracy":"قریه"},"geometry":{"x":6872143.92778676,"y":4075411.5521053821}},{"attributes":{"OBJECTID":5403,"ولایت":"کابل","Province":"KABUL","PC_Code":"0101012","ولسوالي":"کابل - ناحیه 01","District":"KABUL-D01","د_مرکز_نوم__نام_مرکز":" مسجد سر گردنه","Polling_Center_Name":"Sar-e-Gardana Mosque","د_مرکز_ځای__موقعیت_مرکز":"سر گردنه","Polling_Center_Location":"Sar-e-Gardana","Verification_Note":"Building","PS_Male":1,"PS_Female":1,"Map_Accuracy":"تعمیر"},"geometry":{"x":7702013.4782427363,"y":4096777.3010693118}},{"attributes":{"OBJECTID":5404,"ولایت":"کابل","Province":"KABUL","PC_Code":"0101050","ولسوالي":"کابل - ناحیه 04","District":"KABUL-D04","د_مرکز_نوم__نام_مرکز":" ليسه نسوان تاجور سلطانه","Polling_Center_Name":"Tajwar Sultana Girls High School","د_مرکز_ځای__موقعیت_مرکز":"چهار راهي تايمني","Polling_Center_Location":"Taimani Square","Verification_Note":"Building","PS_Male":3,"PS_Female":5,"Map_Accuracy":"تعمیر"},"geometry":{"x":7696842.86934616,"y":4102959.0090503916}},{"attributes":{"OBJECTID":5405,"ولایت":"کابل","Province":"KABUL","PC_Code":"0101089","ولسوالي":"کابل - ناحیه 05","District":"KABUL-D05","د_مرکز_نوم__نام_مرکز":" ليسه ناهيد شهيد","Polling_Center_Name":"Naheed Shaheed High School","د_مرکز_ځای__موقعیت_مرکز":"قسمت ب خوشحال مينه","Polling_Center_Location":"Phase B of Khush-hal Mina","Verification_Note":"Building","PS_Male":4,"PS_Female":4,"Map_Accuracy":"تعمیر"},"geometry":{"x":7691531.516990982,"y":4099479.1292758659}},{"attributes":{"OBJECTID":5406,"ولایت":"کابل","Province":"KABUL","PC_Code":"0101108","ولسوالي":"کابل - ناحیه 06","District":"KABUL-D06","د_مرکز_نوم__نام_مرکز":" ليسه نسوان سر آسياب","Polling_Center_Name":"Sar Asiab Girls High School","د_مرکز_ځای__موقعیت_مرکز":"سر آسياب","Polling_Center_Location":"Sar Asiab","Verification_Note":"Building","PS_Male":3,"PS_Female":5,"Map_Accuracy":"تعمیر"},"geometry":{"x":7695295.3614448905,"y":4090826.1879838556}},{"attributes":{"OBJECTID":5407,"ولایت":"کابل","Province":"KABUL","PC_Code":"0101129","ولسوالي":"کابل - ناحیه 07","District":"KABUL-D07","د_مرکز_نوم__نام_مرکز":" ليسه نسوان غازي ادي","Polling_Center_Name":"Ghazi Adi Girls High School","د_مرکز_ځای__موقعیت_مرکز":"تني کوت","Polling_Center_Location":"Tani Kot","Verification_Note":"Building","PS_Male":3,"PS_Female":5,"Map_Accuracy":"تعمیر"},"geometry":{"x":7698885.5174369067,"y":4092504.3108065128}},{"attributes":{"OBJECTID":5408,"ولایت":"کابل","Province":"KABUL","PC_Code":"0101146","ولسوالي":"کابل - ناحیه 08","District":"KABUL-D08","د_مرکز_نوم__نام_مرکز":" ليسه عبدالحي حبيبي","Polling_Center_Name":"Abdul Hai Habibi High School","د_مرکز_ځای__موقعیت_مرکز":"قلعچه","Polling_Center_Location":"Qalacha","Verification_Note":"Building","PS_Male":3,"PS_Female":3,"Map_Accuracy":"تعمیر"},"geometry":{"x":7704831.0435727984,"y":4094945.1148557737}},{"attributes":{"OBJECTID":5409,"ولایت":"کابل","Province":"KABUL","PC_Code":"0101181","ولسوالي":"کابل - ناحیه 09","District":"KABUL-D09","د_مرکز_نوم__نام_مرکز":" لیسه حاجی عبدالقدیر","Polling_Center_Name":"Haji Abdul Qadir High School","د_مرکز_ځای__موقعیت_مرکز":"مکروريان سوم","Polling_Center_Location":"3rd Makrorian","Verification_Note":"Building","PS_Male":3,"PS_Female":3,"Map_Accuracy":"تعمیر"},"geometry":{"x":7703619.7917782068,"y":4101528.6628734991}},{"attributes":{"OBJECTID":5410,"ولایت":"کابل","Province":"KABUL","PC_Code":"0101197","ولسوالي":"کابل - ناحیه 10","District":"KABUL-D10","د_مرکز_نوم__نام_مرکز":" مسجد مصطفوي","Polling_Center_Name":"Mustafawi Mosque","د_مرکز_ځای__موقعیت_مرکز":"چهار قلعه","Polling_Center_Location":"Chahar Qala","Verification_Note":"Building","PS_Male":2,"PS_Female":1,"Map_Accuracy":"تعمیر"},"geometry":{"x":7701308.2970984355,"y":4102923.0058082491}},{"attributes":{"OBJECTID":5411,"ولایت":"کابل","Province":"KABUL","PC_Code":"0101217","ولسوالي":"کابل - ناحیه 10","District":"KABUL-D10","د_مرکز_نوم__نام_مرکز":"مسجد جعفري","Polling_Center_Name":"Jafari Mosque","د_مرکز_ځای__موقعیت_مرکز":"قلعه خاطر","Polling_Center_Location":"Qala-e-Khatir","Verification_Note":"Building","PS_Male":1,"PS_Female":1,"Map_Accuracy":"تعمیر"},"geometry":{"x":7702171.40943072,"y":4102469.0772278979}},{"attributes":{"OBJECTID":5412,"ولایت":"کابل","Province":"KABUL","PC_Code":"0101236","ولسوالي":"کابل - ناحیه 11","District":"KABUL-D11","د_مرکز_نوم__نام_مرکز":"  لیسه نسوان سیدالناصری","Polling_Center_Name":"Sayedul Naseri Girls High School","د_مرکز_ځای__موقعیت_مرکز":"حصه دوم خير خانه","Polling_Center_Location":"Hesa-e-Duwom, Khair Khana","Verification_Note":"Building","PS_Male":3,"PS_Female":4,"Map_Accuracy":"تعمیر"},"geometry":{"x":7696924.8984525315,"y":4104893.4790024981}},{"attributes":{"OBJECTID":5413,"ولایت":"کابل","Province":"KABUL","PC_Code":"0101252","ولسوالي":"کابل - ناحیه 12","District":"KABUL-D12","د_مرکز_نوم__نام_مرکز":"  لیسه قیام الدین خادم ","Polling_Center_Name":"Qeyamuddin Khadim High School","د_مرکز_ځای__موقعیت_مرکز":"احمد شاه بابا مينه","Polling_Center_Location":"Ahmad Shah Baba Mina","Verification_Note":"Building","PS_Male":3,"PS_Female":3,"Map_Accuracy":"تعمیر"},"geometry":{"x":7718007.9506223053,"y":4100174.7450971305}},{"attributes":{"OBJECTID":5414,"ولایت":"کابل","Province":"KABUL","PC_Code":"0101306","ولسوالي":"کابل - ناحیه 15","District":"KABUL-D15","د_مرکز_نوم__نام_مرکز":" ليسه عبدالاحمد جاوید","Polling_Center_Name":"Abdul Ahmad Jawed High School","د_مرکز_ځای__موقعیت_مرکز":"قصبه خانه سازي","Polling_Center_Location":"Qasaba-e-Khana Sazi","Verification_Note":"Building","PS_Male":3,"PS_Female":3,"Map_Accuracy":"تعمیر"},"geometry":{"x":7704954.2809282765,"y":4106975.1375789419}},{"attributes":{"OBJECTID":5415,"ولایت":"کابل","Province":"KABUL","PC_Code":"0102400","ولسوالي":"پغمان","District":"PAGHMAN","د_مرکز_نوم__نام_مرکز":" مکتب حسن البصري","Polling_Center_Name":"Hasanul Basri School","د_مرکز_ځای__موقعیت_مرکز":"ارغنده بالا","Polling_Center_Location":"Arghanda-e-Bala","Verification_Note":"Village","PS_Male":3,"PS_Female":2,"Map_Accuracy":"قریه"},"geometry":{"x":7675351.805639144,"y":4094699.5474272966}},{"attributes":{"OBJECTID":5416,"ولایت":"کابل","Province":"KABUL","PC_Code":"0103421","ولسوالي":"چهار آسیاب","District":"CHAHAR ASYAB","د_مرکز_نوم__نام_مرکز":" مکتب ابتدائیه قلعه لقمان","Polling_Center_Name":"Qala Luqman Primary School","د_مرکز_ځای__موقعیت_مرکز":"قلعه لقمان","Polling_Center_Location":"Qala-e-Loqman","Verification_Note":"Building","PS_Male":3,"PS_Female":2,"Map_Accuracy":"تعمیر"},"geometry":{"x":7694567.2640702128,"y":4083403.9793896526}},{"attributes":{"OBJECTID":5417,"ولایت":"کابل","Province":"KABUL","PC_Code":"0104461","ولسوالي":"بگرامی","District":"BAGRAMI","د_مرکز_نوم__نام_مرکز":"مسجد احمدزی","Polling_Center_Name":"Ahmadzai Mosque","د_مرکز_ځای__موقعیت_مرکز":"قريه کاريز بکر","Polling_Center_Location":"Karez Bakr Village","Verification_Note":"Village","PS_Male":1,"PS_Female":1,"Map_Accuracy":"قریه"},"geometry":{"x":7715620.1241677031,"y":4091663.0308026373}},{"attributes":{"OBJECTID":5418,"ولایت":"کابل","Province":"KABUL","PC_Code":"0106393","ولسوالي":"شکردره","District":"SHAKAR DARA","د_مرکز_نوم__نام_مرکز":"لیسه محمدحسن خان","Polling_Center_Name":"Mohammad Hassan Khan High School","د_مرکز_ځای__موقعیت_مرکز":"قلعه دشت","Polling_Center_Location":"Qala-e-Dasht","Verification_Note":"Building","PS_Male":3,"PS_Female":3,"Map_Accuracy":"تعمیر"},"geometry":{"x":7691027.8463889137,"y":4117659.302885063}},{"attributes":{"OBJECTID":5419,"ولایت":"کابل","Province":"KABUL","PC_Code":"0108341","ولسوالي":"میر بچه کوت","District":"MIR BACHA KOT","د_مرکز_نوم__نام_مرکز":" مکتب مير بچه کوت","Polling_Center_Name":"Mir Bacha Kot School","د_مرکز_ځای__موقعیت_مرکز":"مرکز ولسوالی ","Polling_Center_Location":"District Compound","Verification_Note":"Building","PS_Male":2,"PS_Female":2,"Map_Accuracy":"تعمیر"},"geometry":{"x":7694176.9578979872,"y":4130080.320329994}},{"attributes":{"OBJECTID":5420,"ولایت":"کابل","Province":"KABUL","PC_Code":"0111384","ولسوالي":"گلدره","District":"GULDARA","د_مرکز_نوم__نام_مرکز":"مسجد ملک آغا","Polling_Center_Name":"Malik Agha Mosque","د_مرکز_ځای__موقعیت_مرکز":"ده بالا","Polling_Center_Location":"Deh Bala","Verification_Note":"Building","PS_Male":3,"PS_Female":2,"Map_Accuracy":"تعمیر"},"geometry":{"x":7688883.1750980429,"y":4128600.3195470273}},{"attributes":{"OBJECTID":5421,"ولایت":"کابل","Province":"KABUL","PC_Code":"0114365","ولسوالي":"قره باغ","District":"QARA BAGH","د_مرکز_نوم__نام_مرکز":"لیسه عالی داودزي","Polling_Center_Name":"Dowod Zai High School","د_مرکز_ځای__موقعیت_مرکز":"داودزي","Polling_Center_Location":"Dawod Zai","Verification_Note":"Building","PS_Male":2,"PS_Female":2,"Map_Accuracy":"تعمیر"},"geometry":{"x":7700474.47292418,"y":4139853.547629483}},{"attributes":{"OBJECTID":5422,"ولایت":"کابل","Province":"KABUL","PC_Code":"0115516","ولسوالي":"سروبی","District":"SURUBI","د_مرکز_نوم__نام_مرکز":" مکتب تورکانی","Polling_Center_Name":"Turkanai School","د_مرکز_ځای__موقعیت_مرکز":" تورکانی","Polling_Center_Location":"Turkani","Verification_Note":"Building","PS_Male":1,"PS_Female":1,"Map_Accuracy":"تعمیر"},"geometry":{"x":7753736.4563790187,"y":4094182.8013426438}},{"attributes":{"OBJECTID":5423,"ولایت":"کاپيسا","Province":"KAPISA","PC_Code":"0204028","ولسوالي":"حصه اول کوهستان ","District":"HISSA-E-AWALI KOHISTAN","د_مرکز_نوم__نام_مرکز":"لیسه محمد عمر شهید","Polling_Center_Name":"Mohammad Omar Shaheed High School ","د_مرکز_ځای__موقعیت_مرکز":"قر سعیدی ","Polling_Center_Location":"Qur Sayedi ","Verification_Note":"Building","PS_Male":3,"PS_Female":2,"Map_Accuracy":"تعمیر"},"geometry":{"x":7718470.1023939028,"y":4177762.4173041135}},{"attributes":{"OBJECTID":5424,"ولایت":"کاپيسا","Province":"KAPISA","PC_Code":"0205053","ولسوالي":"نجراب ","District":"NIJRAB","د_مرکز_نوم__نام_مرکز":"مکتب یاسین زایی ","Polling_Center_Name":"Yasenzaye School  ","د_مرکز_ځای__موقعیت_مرکز":"یاسین زایی ","Polling_Center_Location":"Yasen Zaye","Verification_Note":"Village","PS_Male":2,"PS_Female":1,"Map_Accuracy":"قریه"},"geometry":{"x":7748348.5164368115,"y":4163580.1167430654}},{"attributes":{"OBJECTID":5425,"ولایت":"پروان","Province":"PARWAN","PC_Code":"0301018","ولسوالي":"چاریکار","District":"CHARIKAR","د_مرکز_نوم__نام_مرکز":"مسجد جامع پیشان ","Polling_Center_Name":"Jami Peshan Mosque","د_مرکز_ځای__موقعیت_مرکز":"پیشان ","Polling_Center_Location":"Peshan","Verification_Note":"Building","PS_Male":2,"PS_Female":1,"Map_Accuracy":"تعمیر"},"geometry":{"x":7699108.2916716859,"y":4163638.18898578}},{"attributes":{"OBJECTID":5426,"ولایت":"پروان","Province":"PARWAN","PC_Code":"0302102","ولسوالي":"بگرام ","District":"BAGRAM","د_مرکز_نوم__نام_مرکز":"لیسه ناصری ","Polling_Center_Name":"Nasiri High School","د_مرکز_ځای__موقعیت_مرکز":"صیاد ","Polling_Center_Location":"Sayaad","Verification_Note":"Building","PS_Male":2,"PS_Female":2,"Map_Accuracy":"تعمیر"},"geometry":{"x":7715092.0590124242,"y":4162385.1845847443}},{"attributes":{"OBJECTID":5427,"ولایت":"پروان","Province":"PARWAN","PC_Code":"0303073","ولسوالي":"شینواری ","District":"SHINWARI","د_مرکز_نوم__نام_مرکز":"لیسه نعمانیه ","Polling_Center_Name":"Nomania High School","د_مرکز_ځای__موقعیت_مرکز":"اشتر شهر","Polling_Center_Location":"Ashtar Shahar","Verification_Note":"Building","PS_Male":2,"PS_Female":1,"Map_Accuracy":"تعمیر"},"geometry":{"x":7674915.2562372386,"y":4166109.0398145616}},{"attributes":{"OBJECTID":5428,"ولایت":"پروان","Province":"PARWAN","PC_Code":"0304049","ولسوالي":"سیدخیل ","District":"SAYID KHIAL","د_مرکز_نوم__نام_مرکز":"لیسه سیف الرحمن شهید","Polling_Center_Name":"Saifurahman Shaheed High School","د_مرکز_ځای__موقعیت_مرکز":"برج مستوفی ","Polling_Center_Location":"Burj-e-Mustofi ","Verification_Note":"Building","PS_Male":1,"PS_Female":1,"Map_Accuracy":"تعمیر"},"geometry":{"x":7709813.7718856,"y":4177462.8530680612}},{"attributes":{"OBJECTID":5429,"ولایت":"پروان","Province":"PARWAN","PC_Code":"0306069","ولسوالي":"سالنگ ","District":"SALANG","د_مرکز_نوم__نام_مرکز":"مسجد جامع اونامک","Polling_Center_Name":"Awnamak Mosque","د_مرکز_ځای__موقعیت_مرکز":"اونامک سالنگ ","Polling_Center_Location":"Awnamak-e-Salang ","Verification_Note":"Village","PS_Male":1,"PS_Female":1,"Map_Accuracy":"قریه"},"geometry":{"x":7703427.8501480818,"y":4199532.7008015811}},{"attributes":{"OBJECTID":5430,"ولایت":"پروان","Province":"PARWAN","PC_Code":"0310123","ولسوالي":"شیخ علی ","District":"SHAYKH ALI","د_مرکز_نوم__نام_مرکز":"لیسه دهن جرف ","Polling_Center_Name":"Dahan-e-Jarf High School","د_مرکز_ځای__موقعیت_مرکز":"دهن جرف ","Polling_Center_Location":"Dahan-e-Jarf","Verification_Note":"Building","PS_Male":1,"PS_Female":1,"Map_Accuracy":"تعمیر"},"geometry":{"x":7620469.1526646651,"y":4154283.1626899764}},{"attributes":{"OBJECTID":5431,"ولایت":"وردک","Province":"WARDAK","PC_Code":"0401013","ولسوالي":"میدان شهر","District":"MAYDAN SHAHR","د_مرکز_نوم__نام_مرکز":"خیمه کوه ابراهیم خیل","Polling_Center_Name":"Koh-e-Ibrahim Khel Tent","د_مرکز_ځای__موقعیت_مرکز":"قریه کوه ابراهیم خیل","Polling_Center_Location":"Koh-e-Ibrahim Khel Village","Verification_Note":"Village","PS_Male":1,"PS_Female":2,"Map_Accuracy":"قریه"},"geometry":{"x":7664898.1662922353,"y":4074667.8970782012}},{"attributes":{"OBJECTID":5432,"ولایت":"وردک","Province":"WARDAK","PC_Code":"0403017","ولسوالي":"جلریز","District":"JALREZ","د_مرکز_نوم__نام_مرکز":"لیسه عالی خواجه محمد ولی","Polling_Center_Name":"Khwaja Mohammad Wali High School","د_مرکز_ځای__موقعیت_مرکز":"بازار زیارت ","Polling_Center_Location":"Bazar-e-Ziarat","Verification_Note":"Building","PS_Male":2,"PS_Female":1,"Map_Accuracy":"تعمیر"},"geometry":{"x":7644435.610077329,"y":4092086.5559115335}},{"attributes":{"OBJECTID":5433,"ولایت":"وردک","Province":"WARDAK","PC_Code":"0405117","ولسوالي":"سید آباد","District":"SAYYD ABAD","د_مرکز_نوم__نام_مرکز":"خیمه در قریه هفت اسیا  ","Polling_Center_Name":"Tent in Haft Asia Village","د_مرکز_ځای__موقعیت_مرکز":"هفت اسیا","Polling_Center_Location":"Haft Asia","Verification_Note":"Village","PS_Male":1,"PS_Female":1,"Map_Accuracy":"قریه"},"geometry":{"x":7638001.9724646024,"y":4007791.4970734492}},{"attributes":{"OBJECTID":5434,"ولایت":"وردک","Province":"WARDAK","PC_Code":"0405140","ولسوالي":"سید آباد","District":"SAYYD ABAD","د_مرکز_نوم__نام_مرکز":"خیمه کوه شیخ آباد","Polling_Center_Name":"Tent of Koh-e-Shaikh Abad","د_مرکز_ځای__موقعیت_مرکز":"کوه شیخ آباد","Polling_Center_Location":"Koh-e-Shaikh Abad","Verification_Note":"Village","PS_Male":2,"PS_Female":2,"Map_Accuracy":"قریه"},"geometry":{"x":7654005.05985957,"y":4040562.1824178994}},{"attributes":{"OBJECTID":5435,"ولایت":"وردک","Province":"WARDAK","PC_Code":"0408072","ولسوالي":"جغتو","District":"JAGHATU","د_مرکز_نوم__نام_مرکز":"منزل سید فاروق","Polling_Center_Name":"Sayed Farooq House","د_مرکز_ځای__موقعیت_مرکز":"قریه سدد سربند","Polling_Center_Location":"Sadad-e-Sarband Village","Verification_Note":"Village","PS_Male":1,"PS_Female":1,"Map_Accuracy":"قریه"},"geometry":{"x":7609445.0677191392,"y":3998047.2329131737}},{"attributes":{"OBJECTID":5436,"ولایت":"وردک","Province":"WARDAK","PC_Code":"0408073","ولسوالي":"جغتو","District":"JAGHATU","د_مرکز_نوم__نام_مرکز":"مکتب کودان ","Polling_Center_Name":"Kudan School","د_مرکز_ځای__موقعیت_مرکز":"کوشان","Polling_Center_Location":"Kushan","Verification_Note":"District","PS_Male":2,"PS_Female":2,"Map_Accuracy":"ولسوالی"},"geometry":{"x":7606968.97080826,"y":4006151.9382769689}},{"attributes":{"OBJECTID":5437,"ولایت":"وردک","Province":"WARDAK","PC_Code":"0409046","ولسوالي":"مرکز بهسود","District":"MARKAZ-E-BEHSUD","د_مرکز_نوم__نام_مرکز":"مسجد کردن قاده","Polling_Center_Name":"Gardan Qada Mosque","د_مرکز_ځای__موقعیت_مرکز":"کردن قاده","Polling_Center_Location":"Gardan Qada","Verification_Note":"Building","PS_Male":1,"PS_Female":1,"Map_Accuracy":"تعمیر"},"geometry":{"x":7531832.0099959373,"y":4101216.9021553695}},{"attributes":{"OBJECTID":5438,"ولایت":"لوگر","Province":"LOGAR","PC_Code":"0501004","ولسوالي":"پل علم","District":"PULI ALAM","د_مرکز_نوم__نام_مرکز":"مکتب متوسطه پادخواب شانه","Polling_Center_Name":"Pad Khawb-e-Shana Secondary School","د_مرکز_ځای__موقعیت_مرکز":"پادخواب خدر","Polling_Center_Location":"Pad Khawb Khadr","Verification_Note":"Building","PS_Male":3,"PS_Female":2,"Map_Accuracy":"تعمیر"},"geometry":{"x":7686830.3312551305,"y":4023001.5219527557}},{"attributes":{"OBJECTID":5439,"ولایت":"لوگر","Province":"LOGAR","PC_Code":"0502026","ولسوالي":"برکی برک","District":"BARAKI BARAK","د_مرکز_نوم__نام_مرکز":"مکتب پنده","Polling_Center_Name":"Pandah School","د_مرکز_ځای__موقعیت_مرکز":"پنده","Polling_Center_Location":"Pandah","Verification_Note":"Building","PS_Male":1,"PS_Female":1,"Map_Accuracy":"تعمیر"},"geometry":{"x":7678015.6899593845,"y":4024961.8622158319}},{"attributes":{"OBJECTID":5440,"ولایت":"لوگر","Province":"LOGAR","PC_Code":"0504048","ولسوالي":"خوشی","District":"KHUSHI","د_مرکز_نوم__نام_مرکز":"شين ګل قلعه","Polling_Center_Name":"Sheen Gul Qala","د_مرکز_ځای__موقعیت_مرکز":"کنډو","Polling_Center_Location":"Kandow","Verification_Note":"Building","PS_Male":1,"PS_Female":1,"Map_Accuracy":"تعمیر"},"geometry":{"x":7714642.8815274835,"y":4032804.1362526193}},{"attributes":{"OBJECTID":5441,"ولایت":"لوگر","Province":"LOGAR","PC_Code":"0506070","ولسوالي":"خروار","District":"KHAR WAR","د_مرکز_نوم__نام_مرکز":"مکتب ابتدائيه هورياخيل","Polling_Center_Name":"Horya Khel Primary School","د_مرکز_ځای__موقعیت_مرکز":"هورياخيل","Polling_Center_Location":"Horya Khel","Verification_Note":"Building","PS_Male":2,"PS_Female":1,"Map_Accuracy":"تعمیر"},"geometry":{"x":7667482.7877954468,"y":3989616.0852680206}},{"attributes":{"OBJECTID":5442,"ولایت":"ننگرهار","Province":"NANGARHAR","PC_Code":"0601011","ولسوالي":"جلال آباد","District":"JALALABAD","د_مرکز_نوم__نام_مرکز":"بي بي حواليسه","Polling_Center_Name":"Bibi Hawa High School","د_مرکز_ځای__موقعیت_مرکز":"دویمه ناحیه","Polling_Center_Location":"D02-Nahia 2","Verification_Note":"Building","PS_Male":0,"PS_Female":7,"Map_Accuracy":"تعمیر"},"geometry":{"x":7842586.6959452145,"y":4086123.4390428811}},{"attributes":{"OBJECTID":5443,"ولایت":"ننگرهار","Province":"NANGARHAR","PC_Code":"0601032","ولسوالي":"جلال آباد","District":"JALALABAD","د_مرکز_نوم__نام_مرکز":"چهل متره جومات","Polling_Center_Name":"Chelmetra Mosque","د_مرکز_ځای__موقعیت_مرکز":"څلورمه ناحیه","Polling_Center_Location":"D04-Nahia 4","Verification_Note":"Building","PS_Male":4,"PS_Female":0,"Map_Accuracy":"تعمیر"},"geometry":{"x":7844000.8653604053,"y":4085801.0490643978}},{"attributes":{"OBJECTID":5444,"ولایت":"ننگرهار","Province":"NANGARHAR","PC_Code":"0602056","ولسوالي":"بهسود","District":"BEHSUD","د_مرکز_نوم__نام_مرکز":"ثمرخيل مکتب","Polling_Center_Name":"Samar Khel School","د_مرکز_ځای__موقعیت_مرکز":"ثمرخيل","Polling_Center_Location":"Samar khel","Verification_Note":"Building","PS_Male":4,"PS_Female":2,"Map_Accuracy":"تعمیر"},"geometry":{"x":7855123.0016266182,"y":4078797.7622447088}},{"attributes":{"OBJECTID":5445,"ولایت":"ننگرهار","Province":"NANGARHAR","PC_Code":"0603080","ولسوالي":"سرخرود","District":"SURKH RUD","د_مرکز_نوم__نام_مرکز":"کلينیک","Polling_Center_Name":"Clinic ","د_مرکز_ځای__موقعیت_مرکز":"شيخ مصرې","Polling_Center_Location":"Shekh Mesri","Verification_Note":"Building","PS_Male":2,"PS_Female":1,"Map_Accuracy":"تعمیر"},"geometry":{"x":7828720.9828484952,"y":4079592.2263208032}},{"attributes":{"OBJECTID":5446,"ولایت":"ننگرهار","Province":"NANGARHAR","PC_Code":"0604104","ولسوالي":"چپرهار","District":"CHAPARHAR","د_مرکز_نوم__نام_مرکز":"ډاګو لوي کلي جومات","Polling_Center_Name":"Daago Loy Kali Mosque","د_مرکز_ځای__موقعیت_مرکز":"ډاګو کلى","Polling_Center_Location":"Daago Village","Verification_Note":"Village","PS_Male":0,"PS_Female":2,"Map_Accuracy":"قریه"},"geometry":{"x":7828582.4067803882,"y":4063653.9867057577}},{"attributes":{"OBJECTID":5447,"ولایت":"ننگرهار","Province":"NANGARHAR","PC_Code":"0605173","ولسوالي":"کامه","District":"KAMA","د_مرکز_نوم__نام_مرکز":"مرادعلي ليسه","Polling_Center_Name":"Murad Ali High School","د_مرکز_ځای__موقعیت_مرکز":"زرشوي","Polling_Center_Location":"Zershwee","Verification_Note":"Building","PS_Male":2,"PS_Female":1,"Map_Accuracy":"تعمیر"},"geometry":{"x":7859418.2664052695,"y":4085407.5468257964}},{"attributes":{"OBJECTID":5448,"ولایت":"ننگرهار","Province":"NANGARHAR","PC_Code":"0607133","ولسوالي":"رودات","District":"RODAT","د_مرکز_نوم__نام_مرکز":"مزينه جومات","Polling_Center_Name":"Mazeena Mosque","د_مرکز_ځای__موقعیت_مرکز":"مزينه","Polling_Center_Location":"Mazeena","Verification_Note":"Village","PS_Male":2,"PS_Female":1,"Map_Accuracy":"قریه"},"geometry":{"x":7846947.9219749384,"y":4056990.6297468618}},{"attributes":{"OBJECTID":5449,"ولایت":"ننگرهار","Province":"NANGARHAR","PC_Code":"0608284","ولسوالي":"خوګیاڼي","District":"KHUGYANI","د_مرکز_نوم__نام_مرکز":"قيلغو لیسه مکتب","Polling_Center_Name":"Qilgho High School","د_مرکز_ځای__موقعیت_مرکز":"قيلغو","Polling_Center_Location":"Qilgho","Verification_Note":"Building","PS_Male":2,"PS_Female":1,"Map_Accuracy":"تعمیر"},"geometry":{"x":7811490.9576294869,"y":4062475.7109761164}},{"attributes":{"OBJECTID":5450,"ولایت":"ننگرهار","Province":"NANGARHAR","PC_Code":"0609442","ولسوالي":"بټي کوټ","District":"BATI KOT","د_مرکز_نوم__نام_مرکز":"ګره ټۍ انجونو مکتب","Polling_Center_Name":"Garatai Girls' School","د_مرکز_ځای__موقعیت_مرکز":"ډاګي کلي","Polling_Center_Location":"Dagai Village","Verification_Note":"Building","PS_Male":2,"PS_Female":1,"Map_Accuracy":"تعمیر"},"geometry":{"x":7871952.2956030853,"y":4062927.4282291606}},{"attributes":{"OBJECTID":5451,"ولایت":"ننگرهار","Province":"NANGARHAR","PC_Code":"0610322","ولسوالي":"ده بالا","District":"DEH BALA","د_مرکز_نوم__نام_مرکز":"مکتب غلنۍ","Polling_Center_Name":"Ghalanay School","د_مرکز_ځای__موقعیت_مرکز":"غلنۍ","Polling_Center_Location":"Ghalanay","Verification_Note":"Village","PS_Male":1,"PS_Female":1,"Map_Accuracy":"قریه"},"geometry":{"x":7846224.5434334762,"y":4050273.85997016}},{"attributes":{"OBJECTID":5452,"ولایت":"ننگرهار","Province":"NANGARHAR","PC_Code":"0610323","ولسوالي":"ده بالا","District":"DEH BALA","د_مرکز_نوم__نام_مرکز":"جومات شابۍ","Polling_Center_Name":"Shabay Mosque","د_مرکز_ځای__موقعیت_مرکز":"شابۍ","Polling_Center_Location":"Shabay","Verification_Note":"Village","PS_Male":1,"PS_Female":1,"Map_Accuracy":"قریه"},"geometry":{"x":7835266.6702078767,"y":4043106.0542576015}},{"attributes":{"OBJECTID":5453,"ولایت":"ننگرهار","Province":"NANGARHAR","PC_Code":"0614484","ولسوالي":"ګوشته","District":"GOSHTA","د_مرکز_نوم__نام_مرکز":"سربند ابتدائيه مکتب","Polling_Center_Name":"Sarband Primary School","د_مرکز_ځای__موقعیت_مرکز":"سربندکلي","Polling_Center_Location":"Sarband Village","Verification_Note":"Building","PS_Male":2,"PS_Female":1,"Map_Accuracy":"تعمیر"},"geometry":{"x":7875738.3160127625,"y":4078500.3789290264}},{"attributes":{"OBJECTID":5454,"ولایت":"ننگرهار","Province":"NANGARHAR","PC_Code":"0616425","ولسوالي":"شینوار","District":"SHINWAR","د_مرکز_نوم__نام_مرکز":"کنګالان جومات","Polling_Center_Name":"Kangalan Mosque","د_مرکز_ځای__موقعیت_مرکز":"کتيلي","Polling_Center_Location":"Katelay","Verification_Note":"Village","PS_Male":0,"PS_Female":3,"Map_Accuracy":"قریه"},"geometry":{"x":7884111.095740512,"y":4054010.6802120507}},{"attributes":{"OBJECTID":5455,"ولایت":"ننگرهار","Province":"NANGARHAR","PC_Code":"0620400","ولسوالي":"نازیان","District":"NAZYAN","د_مرکز_نوم__نام_مرکز":"نصرت جومات","Polling_Center_Name":"Nasrat Mosque","د_مرکز_ځای__موقعیت_مرکز":"لنډې کلې","Polling_Center_Location":"Landai Village","Verification_Note":"Village","PS_Male":2,"PS_Female":1,"Map_Accuracy":"قریه"},"geometry":{"x":7882478.7167462744,"y":4049138.9484244585}},{"attributes":{"OBJECTID":5456,"ولایت":"ننگرهار","Province":"NANGARHAR","PC_Code":"0620401","ولسوالي":"نازیان","District":"NAZYAN","د_مرکز_نوم__نام_مرکز":" تپو کلې جومات","Polling_Center_Name":"Tapoo Village Mosque","د_مرکز_ځای__موقعیت_مرکز":"تپو کلې","Polling_Center_Location":"Tapoo Village","Verification_Note":"District","PS_Male":1,"PS_Female":1,"Map_Accuracy":"ولسوالی"},"geometry":{"x":7886276.0605745539,"y":4034280.1455787197}},{"attributes":{"OBJECTID":5457,"ولایت":"لغمان","Province":"LAGHMAN","PC_Code":"0702040","ولسوالي":"قرغه یي","District":"QARGHAYEE","د_مرکز_نوم__نام_مرکز":"د خروټو دکلي دحضرت عمر(رض) جومات ","Polling_Center_Name":"Kharoto Village Hazrat Omar Mosque","د_مرکز_ځای__موقعیت_مرکز":"خروټی","Polling_Center_Location":"Kharoty","Verification_Note":"Village","PS_Male":4,"PS_Female":3,"Map_Accuracy":"قریه"},"geometry":{"x":7815814.991817344,"y":4103807.3162532896}},{"attributes":{"OBJECTID":5458,"ولایت":"غزنى","Province":"GHAZNI","PC_Code":"1103082","ولسوالي":"خواجه عمری","District":"KHWAJA OMARI","د_مرکز_نوم__نام_مرکز":"مسجد ده درات","Polling_Center_Name":"Deh Darat Mosque","د_مرکز_ځای__موقعیت_مرکز":"ده درات","Polling_Center_Location":"Deh Darat","Verification_Note":"Village","PS_Male":2,"PS_Female":1,"Map_Accuracy":"قریه"},"geometry":{"x":7613387.217054233,"y":3989690.96001862}},{"attributes":{"OBJECTID":5459,"ولایت":"غزنى","Province":"GHAZNI","PC_Code":"1106117","ولسوالي":"جغتو","District":"JAGHATU","د_مرکز_نوم__نام_مرکز":"مسجد نو ده شاشی","Polling_Center_Name":"Deh Shashi New Mosque","د_مرکز_ځای__موقعیت_مرکز":"ده شاشی","Polling_Center_Location":"Deh Shashi","Verification_Note":"Building","PS_Male":5,"PS_Female":0,"Map_Accuracy":"تعمیر"},"geometry":{"x":7584822.2204949819,"y":3967941.8519438803}},{"attributes":{"OBJECTID":5460,"ولایت":"غزنى","Province":"GHAZNI","PC_Code":"1110263","ولسوالي":"ناور","District":"NAWUR","د_مرکز_نوم__نام_مرکز":"مسجد قریه کورله","Polling_Center_Name":"Koralah Village Mosque","د_مرکز_ځای__موقعیت_مرکز":"قریه کورله ","Polling_Center_Location":"Korala Village ","Verification_Note":"Village","PS_Male":1,"PS_Female":1,"Map_Accuracy":"قریه"},"geometry":{"x":7540220.6783545986,"y":4005519.6904003695}},{"attributes":{"OBJECTID":5461,"ولایت":"غزنى","Province":"GHAZNI","PC_Code":"1111191","ولسوالي":"قره باغ","District":"QARA BAGH","د_مرکز_نوم__نام_مرکز":"مسجد سنگ دی","Polling_Center_Name":"Sang De Mosque","د_مرکز_ځای__موقعیت_مرکز":"مسجد سنگده گلکو","Polling_Center_Location":"Sang Deh Gulko","Verification_Note":"Building","PS_Male":0,"PS_Female":2,"Map_Accuracy":"تعمیر"},"geometry":{"x":7558563.5545043163,"y":3930901.7905326262}},{"attributes":{"OBJECTID":5462,"ولایت":"غزنى","Province":"GHAZNI","PC_Code":"1113377","ولسوالي":"آب بند","District":"AB BAND","د_مرکز_نوم__نام_مرکز":"کلینیک عالم خیل","Polling_Center_Name":"Alam Khel Clinic","د_مرکز_ځای__موقعیت_مرکز":"عالم خیل","Polling_Center_Location":"Alam Khel","Verification_Note":"Village","PS_Male":0,"PS_Female":2,"Map_Accuracy":"قریه"},"geometry":{"x":7579493.4143568426,"y":3873920.7438243032}},{"attributes":{"OBJECTID":5463,"ولایت":"پکتيکا","Province":"PAKTIKA","PC_Code":"1205285","ولسوالي":"سروضه ","District":"SAR RAWZA","د_مرکز_نوم__نام_مرکز":"سروضي كلينیك","Polling_Center_Name":"Sar Rawza Clinic","د_مرکز_ځای__موقعیت_مرکز":"مستو خان باغ ","Polling_Center_Location":"Musto Khan Bagh","Verification_Note":"Village","PS_Male":2,"PS_Female":0,"Map_Accuracy":"قریه"},"geometry":{"x":7683070.9028454125,"y":3911287.0185258165}},{"attributes":{"OBJECTID":5464,"ولایت":"پکتيکا","Province":"PAKTIKA","PC_Code":"1214262","ولسوالي":"برمل","District":"BARMAL","د_مرکز_نوم__نام_مرکز":"سیف الرحمن میلمستون","Polling_Center_Name":"Saifurahman Guest House","د_مرکز_ځای__موقعیت_مرکز":"ﭙﯾتوگی","Polling_Center_Location":"Petogay","Verification_Note":"Building","PS_Male":0,"PS_Female":2,"Map_Accuracy":"تعمیر"},"geometry":{"x":7703238.5525784977,"y":3836155.7541833594}},{"attributes":{"OBJECTID":5465,"ولایت":"پکتيکا","Province":"PAKTIKA","PC_Code":"1217219","ولسوالي":"وازه خواه","District":"WAZAKHWAH","د_مرکز_نوم__نام_مرکز":"د بازار جومات","Polling_Center_Name":"Bazar Mosque","د_مرکز_ځای__موقعیت_مرکز":"بازار","Polling_Center_Location":"Bazar","Verification_Note":"Building","PS_Male":5,"PS_Female":0,"Map_Accuracy":"تعمیر"},"geometry":{"x":7609444.2929354794,"y":3789083.6232963353}},{"attributes":{"OBJECTID":5466,"ولایت":"پکتيا","Province":"PAKTYA","PC_Code":"1301010","ولسوالي":"گردیز","District":"GARDEZ","د_مرکز_نوم__نام_مرکز":"لیسه عالی دره ","Polling_Center_Name":"Dara High School","د_مرکز_ځای__موقعیت_مرکز":"دره","Polling_Center_Location":"Dara","Verification_Note":"Building","PS_Male":3,"PS_Female":2,"Map_Accuracy":"تعمیر"},"geometry":{"x":7718288.8898476139,"y":3965080.9981224313}},{"attributes":{"OBJECTID":5467,"ولایت":"پکتيا","Province":"PAKTYA","PC_Code":"1303090","ولسوالي":"زرمت","District":"ZURMAT","د_مرکز_نوم__نام_مرکز":"کوتی خیل مکتب","Polling_Center_Name":"Koti Khel School","د_مرکز_ځای__موقعیت_مرکز":"کوتی خیل","Polling_Center_Location":"Koti Khel","Verification_Note":"Building","PS_Male":2,"PS_Female":1,"Map_Accuracy":"تعمیر"},"geometry":{"x":7672316.5227621794,"y":3957974.0177553296}},{"attributes":{"OBJECTID":5468,"ولایت":"پکتيا","Province":"PAKTYA","PC_Code":"1307062","ولسوالي":"ځاځی اریوب","District":"JAJI ARYOB","د_مرکز_نوم__نام_مرکز":"د سپری مکتب","Polling_Center_Name":"Speri School","د_مرکز_ځای__موقعیت_مرکز":"سپری کلی ","Polling_Center_Location":"Speri Village","Verification_Note":"District","PS_Male":3,"PS_Female":1,"Map_Accuracy":"ولسوالی"},"geometry":{"x":7764400.7781036422,"y":4019414.0643328056}},{"attributes":{"OBJECTID":5469,"ولایت":"پکتيا","Province":"PAKTYA","PC_Code":"1308143","ولسوالي":" لجه احمد خیل","District":"LAJA AHMAD KHEL","د_مرکز_نوم__نام_مرکز":"سکندرخیل کلینیک","Polling_Center_Name":"Sakandar Khel Clinic ","د_مرکز_ځای__موقعیت_مرکز":"ورسک کلی، احمدخیل","Polling_Center_Location":"Worsak Village, Ahmad Khel","Verification_Note":"Building","PS_Male":0,"PS_Female":2,"Map_Accuracy":"تعمیر"},"geometry":{"x":7756877.8247269541,"y":4014293.0059205517}},{"attributes":{"OBJECTID":5470,"ولایت":"پکتيا","Province":"PAKTYA","PC_Code":"1313052","ولسوالي":"میرزکه","District":"MEERZAKA","د_مرکز_نوم__نام_مرکز":"مکتب چورړکای ","Polling_Center_Name":"Chorrkay School","د_مرکز_ځای__موقعیت_مرکز":"چورړکای، میرزکه","Polling_Center_Location":"Chorrkay, Merzaka","Verification_Note":"Village","PS_Male":0,"PS_Female":2,"Map_Accuracy":"قریه"},"geometry":{"x":7740197.1901380755,"y":3998006.9446351379}},{"attributes":{"OBJECTID":5471,"ولایت":"خوست","Province":"KHOST","PC_Code":"1401021","ولسوالي":"خوست","District":"KHOST","د_مرکز_نوم__نام_مرکز":"پخوانى ملکي روغتون ","Polling_Center_Name":"Former Civil Hospital ","د_مرکز_ځای__موقعیت_مرکز":"خوست ښار متون تپه","Polling_Center_Location":"Khost City, Maton Tapa","Verification_Note":"Building","PS_Male":3,"PS_Female":2,"Map_Accuracy":"تعمیر"},"geometry":{"x":7782262.29430363,"y":3940827.7268761769}},{"attributes":{"OBJECTID":5472,"ولایت":"خوست","Province":"KHOST","PC_Code":"1412156","ولسوالي":"شمل","District":"SHAMUL","د_مرکز_نوم__نام_مرکز":" د سيد خيلو کلینيک","Polling_Center_Name":"Sayed Khel Clinic","د_مرکز_ځای__موقعیت_مرکز":" د سيد خيلو کلی","Polling_Center_Location":"Sayed Khail Village","Verification_Note":"Building","PS_Male":2,"PS_Female":1,"Map_Accuracy":"تعمیر"},"geometry":{"x":7737121.7554339841,"y":3941858.2805976123}},{"attributes":{"OBJECTID":5473,"ولایت":"نورستان","Province":"NOORISTAN","PC_Code":"1601007","ولسوالي":"پارون","District":"PAROON","د_مرکز_نوم__نام_مرکز":"دارالعلوم پشکی","Polling_Center_Name":"Pashki Dar-ul-Ulom ","د_مرکز_ځای__موقعیت_مرکز":"پشکی","Polling_Center_Location":"Pashki","Verification_Note":"Building","PS_Male":2,"PS_Female":1,"Map_Accuracy":"تعمیر"},"geometry":{"x":7892218.2426729314,"y":4208821.242632769}},{"attributes":{"OBJECTID":5474,"ولایت":"بلخ","Province":"BALKH","PC_Code":"2107260","ولسوالي":"شولگره","District":"SHOLGARA","د_مرکز_نوم__نام_مرکز":"تکیه خانه آقچه دالان","Polling_Center_Name":"Takya Khana Aqcha Dalan ","د_مرکز_ځای__موقعیت_مرکز":"قریه آقچه دالان","Polling_Center_Location":"Aqcha Dalan Village","Verification_Note":"Building","PS_Male":2,"PS_Female":1,"Map_Accuracy":"تعمیر"},"geometry":{"x":7470774.0173628032,"y":4332099.6205598339}},{"attributes":{"OBJECTID":5475,"ولایت":"بلخ","Province":"BALKH","PC_Code":"2108220","ولسوالي":"چمتال","District":"CHIMTAL","د_مرکز_نوم__نام_مرکز":"مکتب دوم امام صاحب","Polling_Center_Name":"Emam Sahib Number 2 School","د_مرکز_ځای__موقعیت_مرکز":"قریه امام صاحب دوم","Polling_Center_Location":"Emam Sahib 2 Village","Verification_Note":"Village","PS_Male":1,"PS_Female":1,"Map_Accuracy":"قریه"},"geometry":{"x":7407107.8034944125,"y":4369499.3668424934}},{"attributes":{"OBJECTID":5476,"ولایت":"غور","Province":"GHOR","PC_Code":"2304067","ولسوالي":"چار صده","District":"CHAR SADA","د_مرکز_نوم__نام_مرکز":"مسجد جامع فلا خور","Polling_Center_Name":"Falakhor Mosque","د_مرکز_ځای__موقعیت_مرکز":" فلا خور","Polling_Center_Location":"Falakhor","Verification_Note":"Village","PS_Male":1,"PS_Female":1,"Map_Accuracy":"قریه"},"geometry":{"x":7263696.4508463591,"y":4179001.1562296674}},{"attributes":{"OBJECTID":5477,"ولایت":"غور","Province":"GHOR","PC_Code":"2309185","ولسوالي":"تولک ","District":"TULAK","د_مرکز_نوم__نام_مرکز":"منزل ارباب غفور","Polling_Center_Name":"Arbab Ghafoor Private House","د_مرکز_ځای__موقعیت_مرکز":" ابشیکان","Polling_Center_Location":"Abshikan ","Verification_Note":"Village","PS_Male":2,"PS_Female":1,"Map_Accuracy":"قریه"},"geometry":{"x":7096902.7998323292,"y":4047148.5263227224}},{"attributes":{"OBJECTID":5478,"ولایت":"دایکندی","Province":"DAYKUNDI","PC_Code":"2402023","ولسوالي":"شهرستان","District":"SHAHRISTAN","د_مرکز_نوم__نام_مرکز":"مسجد چهاراسپان","Polling_Center_Name":"Chaharaspan Mosque","د_مرکز_ځای__موقعیت_مرکز":"چهاراسپان","Polling_Center_Location":"Chaharaspan","Verification_Note":"Building","PS_Male":2,"PS_Female":1,"Map_Accuracy":"تعمیر"},"geometry":{"x":7373938.7719453126,"y":3999743.9672281072}},{"attributes":{"OBJECTID":5479,"ولایت":"دایکندی","Province":"DAYKUNDI","PC_Code":"2403113","ولسوالي":"گیزاب","District":"GIZAB","د_مرکز_نوم__نام_مرکز":"بلدنگ کهنه دولتی","Polling_Center_Name":"Old Governmental Building","د_مرکز_ځای__موقعیت_مرکز":"ربات خشک","Polling_Center_Location":"Rabat Khushk","Verification_Note":"Village","PS_Male":1,"PS_Female":1,"Map_Accuracy":"قریه"},"geometry":{"x":7354854.6204196028,"y":3927901.769046858}},{"attributes":{"OBJECTID":5480,"ولایت":"دایکندی","Province":"DAYKUNDI","PC_Code":"2405099","ولسوالي":"خدیر","District":"KHEDIR","د_مرکز_نوم__نام_مرکز":"مسجد کالوه","Polling_Center_Name":"Kaloh Mosque","د_مرکز_ځای__موقعیت_مرکز":"کالوه","Polling_Center_Location":"Kaloh","Verification_Note":"Building","PS_Male":2,"PS_Female":1,"Map_Accuracy":"تعمیر"},"geometry":{"x":7322527.0952028148,"y":4000425.4012480751}},{"attributes":{"OBJECTID":5481,"ولایت":"دایکندی","Province":"DAYKUNDI","PC_Code":"2407165","ولسوالي":"میرامور","District":"MIRAMOR","د_مرکز_نوم__نام_مرکز":"مکتب سنگان","Polling_Center_Name":"Sangan School","د_مرکز_ځای__موقعیت_مرکز":"سنگان","Polling_Center_Location":"Sangan","Verification_Note":"Building","PS_Male":2,"PS_Female":1,"Map_Accuracy":"تعمیر"},"geometry":{"x":7448531.954522267,"y":3998292.5572305694}},{"attributes":{"OBJECTID":5482,"ولایت":"دایکندی","Province":"DAYKUNDI","PC_Code":"2409058","ولسوالي":"کجران","District":"KEJRAN","د_مرکز_نوم__نام_مرکز":"منبر سرخ سرک","Polling_Center_Name":"Surkh Sarak Menbar","د_مرکز_ځای__موقعیت_مرکز":"سرخ سرک","Polling_Center_Location":"Surkh Sarak","Verification_Note":"Building","PS_Male":1,"PS_Female":1,"Map_Accuracy":"تعمیر"},"geometry":{"x":7310148.160772346,"y":3921019.9607798979}},{"attributes":{"OBJECTID":5483,"ولایت":"ارزگان","Province":"UROZGAN","PC_Code":"2503021","ولسوالي":"چوره","District":"CHORA","د_مرکز_نوم__نام_مرکز":"د سرآب کلی مکتب","Polling_Center_Name":"Sarab Village School","د_مرکز_ځای__موقعیت_مرکز":"سرآب کلی","Polling_Center_Location":"Sarab Village","Verification_Note":"Building","PS_Male":3,"PS_Female":1,"Map_Accuracy":"تعمیر"},"geometry":{"x":7360460.600957863,"y":3879410.2588249668}},{"attributes":{"OBJECTID":5484,"ولایت":"ارزگان","Province":"UROZGAN","PC_Code":"2503022","ولسوالي":"چوره","District":"CHORA","د_مرکز_نوم__نام_مرکز":"مدرسه کمیسان","Polling_Center_Name":"Kamisan Madrassa","د_مرکز_ځای__موقعیت_مرکز":"کمیسان","Polling_Center_Location":"Kamisan","Verification_Note":"Village","PS_Male":1,"PS_Female":1,"Map_Accuracy":"قریه"},"geometry":{"x":7396516.8693667315,"y":3907448.7212236896}},{"attributes":{"OBJECTID":5485,"ولایت":"زابل","Province":"ZABUL","PC_Code":"2601001","ولسوالي":"قلات","District":"QALAT","د_مرکز_نوم__نام_مرکز":"بی بی خالا لیسه","Polling_Center_Name":"Bibi Khala High School","د_مرکز_ځای__موقعیت_مرکز":"ښاروالي","Polling_Center_Location":"Shaarwali","Verification_Note":"Building","PS_Male":4,"PS_Female":2,"Map_Accuracy":"تعمیر"},"geometry":{"x":7447868.6395252571,"y":3776979.5879675969}},{"attributes":{"OBJECTID":5486,"ولایت":"کندهار","Province":"کندهار","PC_Code":"2703077","ولسوالي":"دامان","District":"DAMAN","د_مرکز_نوم__نام_مرکز":"د حيات الله كور","Polling_Center_Name":"Hayatullah Private House","د_مرکز_ځای__موقعیت_مرکز":"مومند قلعه","Polling_Center_Location":"Momand Qala","Verification_Note":"Village","PS_Male":0,"PS_Female":2,"Map_Accuracy":"قریه"},"geometry":{"x":7336262.5834196135,"y":3709709.9533334225}},{"attributes":{"OBJECTID":5487,"ولایت":"کندهار","Province":"کندهار","PC_Code":"2703078","ولسوالي":"دامان","District":"DAMAN","د_مرکز_نوم__نام_مرکز":"نساجی مكتب ","Polling_Center_Name":"Nisaji School","د_مرکز_ځای__موقعیت_مرکز":"نساجي","Polling_Center_Location":"Nisaji","Verification_Note":"Building","PS_Male":2,"PS_Female":3,"Map_Accuracy":"تعمیر"},"geometry":{"x":7330917.9508781545,"y":3712914.2550439462}},{"attributes":{"OBJECTID":5488,"ولایت":"کندهار","Province":"کندهار","PC_Code":"2705159","ولسوالي":"ژیړی","District":"ZHIRE","د_مرکز_نوم__نام_مرکز":"د ولسوالي اداري تعمير","Polling_Center_Name":"District Building Office","د_مرکز_ځای__موقعیت_مرکز":"د ولسوالي مركز","Polling_Center_Location":"District Compound","Verification_Note":"Building","PS_Male":2,"PS_Female":1,"Map_Accuracy":"تعمیر"},"geometry":{"x":7284056.7712409161,"y":3708784.693946667}},{"attributes":{"OBJECTID":5489,"ولایت":"جوزجان","Province":"JAWZJAN","PC_Code":"2809062","ولسوالي":"مردیان","District":"MARDYAN","د_مرکز_نوم__نام_مرکز":"مکتب فتح آباد","Polling_Center_Name":"Fath Abad School","د_مرکز_ځای__موقعیت_مرکز":"فتح آباد","Polling_Center_Location":"Fath Abad","Verification_Note":"Building","PS_Male":2,"PS_Female":2,"Map_Accuracy":"تعمیر"},"geometry":{"x":7382982.2716425955,"y":4431931.642638512}},{"attributes":{"OBJECTID":5490,"ولایت":"فارياب","Province":"FARYAB","PC_Code":"2902017","ولسوالي":"پشتون کوت","District":"PASHTUN KOT","د_مرکز_نوم__نام_مرکز":"مکتب بادقاق","Polling_Center_Name":"Badqaaq School","د_مرکز_ځای__موقعیت_مرکز":"بادقاق","Polling_Center_Location":"Badqaaq","Verification_Note":"Village","PS_Male":1,"PS_Female":1,"Map_Accuracy":"قریه"},"geometry":{"x":7197218.5582225807,"y":4314904.319261916}},{"attributes":{"OBJECTID":5491,"ولایت":"فارياب","Province":"FARYAB","PC_Code":"2914179","ولسوالي":"خان چار باغ","District":"KHANI CHARBAGH","د_مرکز_نوم__نام_مرکز":"مکتب  ابتدائیه مختلط عرب شاه بالا ","Polling_Center_Name":"Arab Shah Bala Mukhtalat Primary School","د_مرکز_ځای__موقعیت_مرکز":"عرب شاه بالا ","Polling_Center_Location":"Arab Shah Bala","Verification_Note":"Building","PS_Male":1,"PS_Female":1,"Map_Accuracy":"تعمیر"},"geometry":{"x":7252607.3876008615,"y":4433617.38130708}},{"attributes":{"OBJECTID":5492,"ولایت":"هلمند","Province":"HELMAND","PC_Code":"3003106","ولسوالي":"ناوه بارکزایی","District":"NAWA-E-BARAKZAYI","د_مرکز_نوم__نام_مرکز":"مكتب خسرآباد","Polling_Center_Name":"Khusr Abad School","د_مرکز_ځای__موقعیت_مرکز":"خسرآباد شرقی","Polling_Center_Location":"Khusr Abad Sharqi","Verification_Note":"Building","PS_Male":2,"PS_Female":2,"Map_Accuracy":"تعمیر"},"geometry":{"x":7160602.1213418059,"y":3688291.9843827412}},{"attributes":{"OBJECTID":5493,"ولایت":"هلمند","Province":"HELMAND","PC_Code":"3004058","ولسوالي":"نهرسراج","District":"NAHR-E-SARAJ","د_مرکز_نوم__نام_مرکز":"خانه حاجی علی محمد","Polling_Center_Name":"Haji Ali Mohammad Private House","د_مرکز_ځای__موقعیت_مرکز":" پساو","Polling_Center_Location":"Pasaw","Verification_Note":"District","PS_Male":4,"PS_Female":0,"Map_Accuracy":"ولسوالی"},"geometry":{"x":7201691.550134249,"y":3736488.9341472536}},{"attributes":{"OBJECTID":5494,"ولایت":"هلمند","Province":"HELMAND","PC_Code":"3008132","ولسوالي":"سنگین قلعه","District":"SANGIN QALA","د_مرکز_نوم__نام_مرکز":"مكتب بوستانزي","Polling_Center_Name":"Bostanzai School","د_مرکز_ځای__موقعیت_مرکز":"بوستانزي","Polling_Center_Location":"Bostanzai ","Verification_Note":"Village","PS_Male":5,"PS_Female":0,"Map_Accuracy":"قریه"},"geometry":{"x":7236703.1841963679,"y":3794053.6444101259}},{"attributes":{"OBJECTID":5495,"ولایت":"هلمند","Province":"HELMAND","PC_Code":"3011218","ولسوالي":"ریگ خانشین","District":"REG-E-KHAN NISHIN","د_مرکز_نوم__نام_مرکز":"د شهباز كور( کوچی مرکز)","Polling_Center_Name":"Shahbaz Private House (Kochi Center)","د_مرکز_ځای__موقعیت_مرکز":"تاعز","Polling_Center_Location":"Taayez","Verification_Note":"Village","PS_Male":2,"PS_Female":1,"Map_Accuracy":"قریه"},"geometry":{"x":7067059.0395469032,"y":3573594.990613699}},{"attributes":{"OBJECTID":5496,"ولایت":"بادغيس","Province":"BADGHIS","PC_Code":"3102036","ولسوالي":"آبکمری","District":"AB KAMARI","د_مرکز_نوم__نام_مرکز":"مکتب قریه آبکمری ","Polling_Center_Name":"Aabkamari Village School ","د_مرکز_ځای__موقعیت_مرکز":"قریه آبکمری ","Polling_Center_Location":"Aabkamari School ","Verification_Note":"Building","PS_Male":3,"PS_Female":1,"Map_Accuracy":"تعمیر"},"geometry":{"x":7019005.1582836993,"y":4160300.813075453}},{"attributes":{"OBJECTID":5497,"ولایت":"بادغيس","Province":"BADGHIS","PC_Code":"3103021","ولسوالي":"مقر","District":"MUQUR","د_مرکز_نوم__نام_مرکز":"کلینیک کمری","Polling_Center_Name":"Kamari clinic","د_مرکز_ځای__موقعیت_مرکز":"کمری ","Polling_Center_Location":"kamari","Verification_Note":"Building","PS_Male":2,"PS_Female":1,"Map_Accuracy":"تعمیر"},"geometry":{"x":7032442.015268527,"y":4175306.2358593792}},{"attributes":{"OBJECTID":5498,"ولایت":"بادغيس","Province":"BADGHIS","PC_Code":"3106097","ولسوالي":"جوند","District":"JAWAND","د_مرکز_نوم__نام_مرکز":"مسجد کلان","Polling_Center_Name":"Kalan Mosque","د_مرکز_ځای__موقعیت_مرکز":" مرغزار","Polling_Center_Location":"Marghzar ","Verification_Note":"Village","PS_Male":1,"PS_Female":1,"Map_Accuracy":"قریه"},"geometry":{"x":7150070.0873585716,"y":4112841.2694048062}},{"attributes":{"OBJECTID":5499,"ولایت":"بادغيس","Province":"BADGHIS","PC_Code":"3107139","ولسوالي":"غورماچ","District":"GHORMACH","د_مرکز_نوم__نام_مرکز":"مسجد شرشر تاجمیر","Polling_Center_Name":"Sharshar-e- Tajmir Mosque ","د_مرکز_ځای__موقعیت_مرکز":"شرشر تاجمیر","Polling_Center_Location":"Sharshar-e- Tajmir  ","Verification_Note":"Village","PS_Male":1,"PS_Female":1,"Map_Accuracy":"قریه"},"geometry":{"x":7092335.1896930635,"y":4241619.5076975822}},{"attributes":{"OBJECTID":5500,"ولایت":"هرات","Province":"HERAT","PC_Code":"3202071","ولسوالي":"انجیل","District":"ENJIL","د_مرکز_نوم__نام_مرکز":"لیسه دخترانه حوض کرباس","Polling_Center_Name":"Hauz karbas Girls School","د_مرکز_ځای__موقعیت_مرکز":"قریه  حوض کرباس","Polling_Center_Location":"Hauz karbas Village","Verification_Note":"Building","PS_Male":2,"PS_Female":3,"Map_Accuracy":"تعمیر"},"geometry":{"x":6919587.1448325142,"y":4075736.8950739503}},{"attributes":{"OBJECTID":5501,"ولایت":"هرات","Province":"HERAT","PC_Code":"3206126","ولسوالي":"پشتون زرغون","District":"PASHTUN ZARGHUN","د_مرکز_نوم__نام_مرکز":"مکتب معموره ","Polling_Center_Name":"Mamora Mosque","د_مرکز_ځای__موقعیت_مرکز":"قریه معموره ","Polling_Center_Location":"Mahmura Village ","Verification_Note":"Building","PS_Male":3,"PS_Female":1,"Map_Accuracy":"تعمیر"},"geometry":{"x":6971655.0288225375,"y":4062205.6688610017}},{"attributes":{"OBJECTID":5502,"ولایت":"هرات","Province":"HERAT","PC_Code":"3207188","ولسوالي":"کشک (رباط سنگی)","District":"KUSHK (RUBAT-E-SANGI)","د_مرکز_نوم__نام_مرکز":"مکتب شیروایی","Polling_Center_Name":"Shirwayee School ","د_مرکز_ځای__موقعیت_مرکز":"قریه شیروانی ","Polling_Center_Location":"Shirwani Village ","Verification_Note":"Building","PS_Male":2,"PS_Female":0,"Map_Accuracy":"تعمیر"},"geometry":{"x":6928127.0785680488,"y":4154277.4070254564}},{"attributes":{"OBJECTID":5503,"ولایت":"هرات","Province":"HERAT","PC_Code":"3208205","ولسوالي":"گلران ","District":"GULRAN","د_مرکز_نوم__نام_مرکز":"کلینیک کاریز الیاس","Polling_Center_Name":"Kariz-e- Elyas Clinic ","د_مرکز_ځای__موقعیت_مرکز":"کاریز الیاس","Polling_Center_Location":"Kariz Elyas","Verification_Note":"Village","PS_Male":2,"PS_Female":2,"Map_Accuracy":"قریه"},"geometry":{"x":6828662.917621959,"y":4221632.810817793}},{"attributes":{"OBJECTID":5504,"ولایت":"هرات","Province":"HERAT","PC_Code":"3210416","ولسوالي":"کشک کهنه ","District":"KUSHK-E-KUHNA","د_مرکز_نوم__نام_مرکز":"مسجد جامع لهر سرخ","Polling_Center_Name":"Lahr-e-Sorkh  Mosque ","د_مرکز_ځای__موقعیت_مرکز":"قریه لهر سرخ غوری","Polling_Center_Location":"Lahr-e- Sorkh-e-Ghuri Village","Verification_Note":"Building","PS_Male":2,"PS_Female":1,"Map_Accuracy":"تعمیر"},"geometry":{"x":6968332.0652119108,"y":4138623.522295095}},{"attributes":{"OBJECTID":5505,"ولایت":"هرات","Province":"HERAT","PC_Code":"3211258","ولسوالي":"غوریان ","District":"GHORYAN","د_مرکز_نوم__نام_مرکز":"مسجد هفت چاه","Polling_Center_Name":"Haft Chah Mosque ","د_مرکز_ځای__موقعیت_مرکز":"مرکزهفت چاه","Polling_Center_Location":"Markaz-e-Haft Chah ","Verification_Note":"Building","PS_Male":2,"PS_Female":1,"Map_Accuracy":"تعمیر"},"geometry":{"x":6796572.4361288622,"y":4031701.1100511253}},{"attributes":{"OBJECTID":5506,"ولایت":"هرات","Province":"HERAT","PC_Code":"3212367","ولسوالي":"اوبه ","District":"OBE","د_مرکز_نوم__نام_مرکز":"مکتب بند بنفش زنانه","Polling_Center_Name":"Band-e-Benafsh Girls School","د_مرکز_ځای__موقعیت_مرکز":"قریه بند بنفش","Polling_Center_Location":"Band-e-Benafsh Village","Verification_Note":"Village","PS_Male":0,"PS_Female":2,"Map_Accuracy":"قریه"},"geometry":{"x":7035915.932561446,"y":4079360.2713364884}},{"attributes":{"OBJECTID":5507,"ولایت":"هرات","Province":"HERAT","PC_Code":"3214464","ولسوالي":"شیندند","District":"SHINDAND","د_مرکز_نوم__نام_مرکز":"مكتب سنگستان","Polling_Center_Name":"Sangistan School ","د_مرکز_ځای__موقعیت_مرکز":"سنگستان ","Polling_Center_Location":"Sangistan ","Verification_Note":"Village","PS_Male":1,"PS_Female":1,"Map_Accuracy":"قریه"},"geometry":{"x":6915928.4227133468,"y":3934791.9828795269}},{"attributes":{"OBJECTID":5508,"ولایت":" فراه","Province":"FARAH","PC_Code":"3301011","ولسوالي":"فراه","District":"FARAH","د_مرکز_نوم__نام_مرکز":"لیسه مردانه قریه یزده ","Polling_Center_Name":"Yazdeh Village Boys High School","د_مرکز_ځای__موقعیت_مرکز":"قریه یزده","Polling_Center_Location":"Yazdeh Village ","Verification_Note":"Building","PS_Male":2,"PS_Female":2,"Map_Accuracy":"تعمیر"},"geometry":{"x":6913329.5957299024,"y":3814261.3829928711}},{"attributes":{"OBJECTID":5509,"ولایت":" فراه","Province":"FARAH","PC_Code":"3304081","ولسوالي":"قلعه کاه ","District":"QALA-E-KAH","د_مرکز_نوم__نام_مرکز":"مکتب ابتدائیه گنگ","Polling_Center_Name":"Gang Primary School ","د_مرکز_ځای__موقعیت_مرکز":" گنگ","Polling_Center_Location":"Ganak ","Verification_Note":"Building","PS_Male":1,"PS_Female":1,"Map_Accuracy":"تعمیر"},"geometry":{"x":6841770.818832323,"y":3811177.6491422877}},{"attributes":{"OBJECTID":5510,"ولایت":" فراه","Province":"FARAH","PC_Code":"3306134","ولسوالي":"بالا بلوک ","District":"BALA BULUK","د_مرکز_نوم__نام_مرکز":" مکتب ابتدایی","Polling_Center_Name":"Primary School ","د_مرکز_ځای__موقعیت_مرکز":"فراه رود","Polling_Center_Location":"Farah Rud ","Verification_Note":"Building","PS_Male":2,"PS_Female":1,"Map_Accuracy":"تعمیر"},"geometry":{"x":6968433.6475868411,"y":3862628.1087446138}},{"attributes":{"OBJECTID":5511,"ولایت":" فراه","Province":"FARAH","PC_Code":"3311188","ولسوالي":"پرچمن","District":"PUR CHAMAN","د_مرکز_نوم__نام_مرکز":" مسجد فراه رود","Polling_Center_Name":"Farah Rud Mosque","د_مرکز_ځای__موقعیت_مرکز":"فراه رود","Polling_Center_Location":"Farah Rud ","Verification_Note":"Building","PS_Male":1,"PS_Female":1,"Map_Accuracy":"تعمیر"},"geometry":{"x":7047233.9599619992,"y":3917096.2171927094}},{"attributes":{"OBJECTID":5512,"ولایت":" فراه","Province":"FARAH","PC_Code":"3311211","ولسوالي":"پرچمن","District":"PUR CHAMAN","د_مرکز_نوم__نام_مرکز":"مسجد ارغمن","Polling_Center_Name":"Arghaman Mosque","د_مرکز_ځای__موقعیت_مرکز":"ارغمن","Polling_Center_Location":"Arghaman","Verification_Note":"Building","PS_Male":1,"PS_Female":1,"Map_Accuracy":"تعمیر"},"geometry":{"x":7100610.940013051,"y":3895140.3588297665}},{"attributes":{"OBJECTID":5513,"ولایت":"نيمروز","Province":"NIMROZ","PC_Code":"3402017","ولسوالي":"کنگ","District":"KANG","د_مرکز_نوم__نام_مرکز":"مکتب ریئس","Polling_Center_Name":"Deh Raees Village School","د_مرکز_ځای__موقعیت_مرکز":" ده ریئس","Polling_Center_Location":"Deh Raees Village","Verification_Note":"Building","PS_Male":1,"PS_Female":1,"Map_Accuracy":"تعمیر"},"geometry":{"x":6882881.5999276266,"y":3640815.8284042925}},{"attributes":{"OBJECTID":5514,"ولایت":"ننگرهار","Province":"NANGARHAR","PC_Code":"0611311","ولسوالي":"پچیر و اګام","District":"PACHIR WAGAM","د_مرکز_نوم__نام_مرکز":"لنډيخيل مکتب","Polling_Center_Name":"Landi Khel School","د_مرکز_ځای__موقعیت_مرکز":"لنډيخيل","Polling_Center_Location":"Landi Khel","Verification_Note":"Building","PS_Male":0,"PS_Female":2,"Map_Accuracy":"تعمیر"},"geometry":{"x":7822448.6683286354,"y":4055805.3097132742}},{"attributes":{"OBJECTID":5515,"ولایت":"ننگرهار","Province":"NANGARHAR","PC_Code":"0612228","ولسوالي":"دره نور","District":"DARAH-E-NOOR","د_مرکز_نوم__نام_مرکز":"سرکلاک جومات","Polling_Center_Name":"Sarkalak Mosque","د_مرکز_ځای__موقعیت_مرکز":"سرګلک","Polling_Center_Location":"SargKalak","Verification_Note":"Village","PS_Male":1,"PS_Female":1,"Map_Accuracy":"قریه"},"geometry":{"x":7861018.2814839557,"y":4124806.1169572622}},{"attributes":{"OBJECTID":5516,"ولایت":"ننگرهار","Province":"NANGARHAR","PC_Code":"0617475","ولسوالي":"مهمند دره","District":"MUHMAND DARA","د_مرکز_نوم__نام_مرکز":"غزګې جومات","Polling_Center_Name":"Ghazgai Mosque","د_مرکز_ځای__موقعیت_مرکز":"غزګۍ","Polling_Center_Location":"Ghazgai ","Verification_Note":"Village","PS_Male":2,"PS_Female":0,"Map_Accuracy":"قریه"},"geometry":{"x":7896328.287403632,"y":4060842.3195925355}},{"attributes":{"OBJECTID":5517,"ولایت":"ننگرهار","Province":"NANGARHAR","PC_Code":"0621263","ولسوالي":"حصارک","District":"HESARAK","د_مرکز_نوم__نام_مرکز":"ملک ديره","Polling_Center_Name":"Malak Dera","د_مرکز_ځای__موقعیت_مرکز":"ناور","Polling_Center_Location":"Naawar","Verification_Note":"Village","PS_Male":2,"PS_Female":1,"Map_Accuracy":"قریه"},"geometry":{"x":7770935.1309124753,"y":4066012.4200677052}},{"attributes":{"OBJECTID":5518,"ولایت":"لغمان","Province":"LAGHMAN","PC_Code":"0701003","ولسوالي":"مهترلام","District":"MEHTARLAM","د_مرکز_نوم__نام_مرکز":"د شهرنو لمړنۍ تجربوي ښوونځی","Polling_Center_Name":"Shahr-e-Naw Exprimental School","د_مرکز_ځای__موقعیت_مرکز":"مهترلام","Polling_Center_Location":"Mahtarlam","Verification_Note":"Building","PS_Male":3,"PS_Female":1,"Map_Accuracy":"تعمیر"},"geometry":{"x":7815919.9850214645,"y":4119690.1013078243}},{"attributes":{"OBJECTID":5519,"ولایت":"لغمان","Province":"LAGHMAN","PC_Code":"0703091","ولسوالي":"علیشنګ","District":"ALISHING","د_مرکز_نوم__نام_مرکز":"د نجيل ښوونځی ","Polling_Center_Name":"Najel School","د_مرکز_ځای__موقعیت_مرکز":"عليشنګ","Polling_Center_Location":"Alishang","Verification_Note":"Village","PS_Male":2,"PS_Female":1,"Map_Accuracy":"قریه"},"geometry":{"x":7804758.95817795,"y":4134293.3438508511}},{"attributes":{"OBJECTID":5520,"ولایت":"لغمان","Province":"LAGHMAN","PC_Code":"0704058","ولسوالي":"علینګار","District":"ALINGAR","د_مرکز_نوم__نام_مرکز":"د کچور ښوونځی ","Polling_Center_Name":"Kachoor School","د_مرکز_ځای__موقعیت_مرکز":"کچور","Polling_Center_Location":"Kachoor","Verification_Note":"Building","PS_Male":2,"PS_Female":1,"Map_Accuracy":"تعمیر"},"geometry":{"x":7826687.3104482889,"y":4142233.3779048771}},{"attributes":{"OBJECTID":5521,"ولایت":"لغمان","Province":"LAGHMAN","PC_Code":"0705123","ولسوالي":"دولت شاه","District":"DAWLAT SHAH","د_مرکز_نوم__نام_مرکز":"د زرکمر ښوونځی","Polling_Center_Name":"ZarKamar  Mosque","د_مرکز_ځای__موقعیت_مرکز":"مندول","Polling_Center_Location":"Mandol","Verification_Note":"Building","PS_Male":1,"PS_Female":1,"Map_Accuracy":"تعمیر"},"geometry":{"x":7803667.1299330816,"y":4152731.4514162838}},{"attributes":{"OBJECTID":5522,"ولایت":"پنجشیر","Province":"PANJSHIR","PC_Code":"0802028","ولسوالي":"رخه","District":"RUKHA","د_مرکز_نوم__نام_مرکز":"لیسه نسوان پیاوشت ","Polling_Center_Name":"Peyawesht Girls High School","د_مرکز_ځای__موقعیت_مرکز":"پیاوشت ","Polling_Center_Location":"Peyawesht","Verification_Note":"Building","PS_Male":1,"PS_Female":1,"Map_Accuracy":"تعمیر"},"geometry":{"x":7730822.6952932552,"y":4200672.215737313}},{"attributes":{"OBJECTID":5523,"ولایت":"پنجشیر","Province":"PANJSHIR","PC_Code":"0804019","ولسوالي":"حصه اول خنج","District":"HISSA-E-AWAL KHINJ","د_مرکز_نوم__نام_مرکز":"مسجد متا ","Polling_Center_Name":"Mata Mosque","د_مرکز_ځای__موقعیت_مرکز":"متا ","Polling_Center_Location":"Mata","Verification_Note":"Building","PS_Male":2,"PS_Female":1,"Map_Accuracy":"تعمیر"},"geometry":{"x":7764872.8061404563,"y":4224645.781846866}},{"attributes":{"OBJECTID":5524,"ولایت":"پنجشیر","Province":"PANJSHIR","PC_Code":"0806091","ولسوالي":"شتل","District":"SHUTUL","د_مرکز_نوم__نام_مرکز":"کورابه","Polling_Center_Name":"Koraba ","د_مرکز_ځای__موقعیت_مرکز":"کورابه ","Polling_Center_Location":"Koraba","Verification_Note":"Village","PS_Male":1,"PS_Female":1,"Map_Accuracy":"قریه"},"geometry":{"x":7715778.4082384706,"y":4192318.0243810043}},{"attributes":{"OBJECTID":5525,"ولایت":"پنجشیر","Province":"PANJSHIR","PC_Code":"0808048","ولسوالي":"آبشار","District":"ABSHAR","د_مرکز_نوم__نام_مرکز":"مکتب بابا علی ","Polling_Center_Name":"Baba Ali School ","د_مرکز_ځای__موقعیت_مرکز":"بابا علی ","Polling_Center_Location":"Baba Ali","Verification_Note":"Village","PS_Male":1,"PS_Female":1,"Map_Accuracy":"قریه"},"geometry":{"x":7759956.6068081334,"y":4198240.6560187861}},{"attributes":{"OBJECTID":5526,"ولایت":"بغلان","Province":"BAGHLAN","PC_Code":"0901011","ولسوالي":"پلخمری","District":"PUL-E-KHUMRI","د_مرکز_نوم__نام_مرکز":"لیسه بند دو","Polling_Center_Name":"Band Du High School","د_مرکز_ځای__موقعیت_مرکز":"ناحیه سوم","Polling_Center_Location":"Third Nahia","Verification_Note":"Building","PS_Male":2,"PS_Female":1,"Map_Accuracy":"تعمیر"},"geometry":{"x":7646114.8690487333,"y":4298804.84742026}},{"attributes":{"OBJECTID":5527,"ولایت":"بغلان","Province":"BAGHLAN","PC_Code":"0901030","ولسوالي":"پلخمری","District":"PUL-E-KHUMRI","د_مرکز_نوم__نام_مرکز":"مکتب لیسه حضرت امام حسین","Polling_Center_Name":"Hazrat Imam Hussain School","د_مرکز_ځای__موقعیت_مرکز":"سی جریبه و صد جریبه عقب گورگان","Polling_Center_Location":"See Bia U Sad Bia Behind Gorgan","Verification_Note":"Building","PS_Male":2,"PS_Female":1,"Map_Accuracy":"تعمیر"},"geometry":{"x":7632367.8737361617,"y":4296882.0021361932}},{"attributes":{"OBJECTID":5528,"ولایت":"بغلان","Province":"BAGHLAN","PC_Code":"0902078","ولسوالي":"دهنه غوری","District":"DAHANA-E-GHURI","د_مرکز_نوم__نام_مرکز":"لیسه صیاد و خشک","Polling_Center_Name":"Sayad and  Khoshk High School","د_مرکز_ځای__موقعیت_مرکز":"صیاد و خشک","Polling_Center_Location":"Sayad and Khoshak","Verification_Note":"Building","PS_Male":1,"PS_Female":1,"Map_Accuracy":"تعمیر"},"geometry":{"x":7618333.3847066723,"y":4283011.5648538992}},{"attributes":{"OBJECTID":5529,"ولایت":"بغلان","Province":"BAGHLAN","PC_Code":"0903096","ولسوالي":"دوشی","District":"DUSHI","د_مرکز_نوم__نام_مرکز":" لیسه زکورکلان گذر","Polling_Center_Name":"Kalan Guzar Boys High School","د_مرکز_ځای__موقعیت_مرکز":" قریه کلان گذر","Polling_Center_Location":"Kalan Guzar village","Verification_Note":"Building","PS_Male":2,"PS_Female":1,"Map_Accuracy":"تعمیر"},"geometry":{"x":7617993.7622986026,"y":4241610.62710508}},{"attributes":{"OBJECTID":5530,"ولایت":"بغلان","Province":"BAGHLAN","PC_Code":"0904132","ولسوالي":"نهرین","District":"NAHREEN","د_مرکز_نوم__نام_مرکز":"مکتب اره کش ","Polling_Center_Name":"Ara Kash School","د_مرکز_ځای__موقعیت_مرکز":"اره کش ","Polling_Center_Location":"Arakash","Verification_Note":"Building","PS_Male":1,"PS_Female":1,"Map_Accuracy":"تعمیر"},"geometry":{"x":7683398.5495026633,"y":4306653.5077636912}},{"attributes":{"OBJECTID":5531,"ولایت":"بغلان","Province":"BAGHLAN","PC_Code":"0905044","ولسوالي":"بغلان جدید","District":"BAGLAN-E-JADEED","د_مرکز_نوم__نام_مرکز":"کلینیک بشرها","Polling_Center_Name":"Basharha Clinic","د_مرکز_ځای__موقعیت_مرکز":"بشرها حسن تال ","Polling_Center_Location":"Bashar Ha Hassan Tal","Verification_Note":"Building","PS_Male":2,"PS_Female":1,"Map_Accuracy":"تعمیر"},"geometry":{"x":7665022.2574682049,"y":4334308.924281083}},{"attributes":{"OBJECTID":5532,"ولایت":"بغلان","Province":"BAGHLAN","PC_Code":"0905063","ولسوالي":"بغلان جدید","District":"BAGLAN-E-JADEED","د_مرکز_نوم__نام_مرکز":"صحت عامه بغلان جدید","Polling_Center_Name":"Baghlan JadeedHealth Department","د_مرکز_ځای__موقعیت_مرکز":"شهربغلان جدید","Polling_Center_Location":"Shahr-e-Baghlan Jadeed ","Verification_Note":"Building","PS_Male":1,"PS_Female":1,"Map_Accuracy":"تعمیر"},"geometry":{"x":7653378.4090500474,"y":4325954.9981589094}},{"attributes":{"OBJECTID":5533,"ولایت":"بغلان","Province":"BAGHLAN","PC_Code":"0906115","ولسوالي":"خنجان","District":"KHINJAN","د_مرکز_نوم__نام_مرکز":"مکتب متوسطه  للمه ی ","Polling_Center_Name":"Lalmaie Primary School","د_مرکز_ځای__موقعیت_مرکز":"قریه للمه ئی","Polling_Center_Location":"Lalmaie Village","Verification_Note":"Building","PS_Male":2,"PS_Female":1,"Map_Accuracy":"تعمیر"},"geometry":{"x":7673298.6946294531,"y":4232878.95641809}},{"attributes":{"OBJECTID":5534,"ولایت":"بغلان","Province":"BAGHLAN","PC_Code":"0908189","ولسوالي":"ده صلاح ","District":"DEH SALAH","د_مرکز_نوم__نام_مرکز":"مسجد شریف گدالی ","Polling_Center_Name":"Gudali Sharif Mosque","د_مرکز_ځای__موقعیت_مرکز":"گدالی","Polling_Center_Location":"Gadali","Verification_Note":"Building","PS_Male":2,"PS_Female":1,"Map_Accuracy":"تعمیر"},"geometry":{"x":7724463.497024022,"y":4263110.4364988506}},{"attributes":{"OBJECTID":5535,"ولایت":"بغلان","Province":"BAGHLAN","PC_Code":"0910155","ولسوالي":"برکه","District":"BURKA","د_مرکز_نوم__نام_مرکز":" مکتب عبدالمومن شهید ","Polling_Center_Name":"Abdulmomin Shaheed School","د_مرکز_ځای__موقعیت_مرکز":"یکه توت","Polling_Center_Location":"Yaka Toot","Verification_Note":"Building","PS_Male":1,"PS_Female":1,"Map_Accuracy":"تعمیر"},"geometry":{"x":7695103.9787499346,"y":4342287.6777067482}},{"attributes":{"OBJECTID":5536,"ولایت":"بغلان","Province":"BAGHLAN","PC_Code":"0912174","ولسوالي":"پل حصار","District":"PUL-E-HISAR","د_مرکز_نوم__نام_مرکز":"مسجد جامع ده یک","Polling_Center_Name":"Deh Yak  Mosque","د_مرکز_ځای__موقعیت_مرکز":"ده یک","Polling_Center_Location":"Dehyak","Verification_Note":"Building","PS_Male":1,"PS_Female":1,"Map_Accuracy":"تعمیر"},"geometry":{"x":7731191.6481607594,"y":4249524.839173384}},{"attributes":{"OBJECTID":5537,"ولایت":"بغلان","Province":"BAGHLAN","PC_Code":"0913215","ولسوالي":"خوست و فرنگ","District":"KHOST WA FIRING","د_مرکز_نوم__نام_مرکز":"مکتب ابتدائی وچ","Polling_Center_Name":"Wach Primary School","د_مرکز_ځای__موقعیت_مرکز":"وچ","Polling_Center_Location":"Wach","Verification_Note":"Building","PS_Male":1,"PS_Female":1,"Map_Accuracy":"تعمیر"},"geometry":{"x":7732859.8241636567,"y":4298905.8310063034}},{"attributes":{"OBJECTID":5538,"ولایت":"باميان","Province":"BAMYAN","PC_Code":"1001006","ولسوالي":"بامیان","District":"BAMYAN","د_مرکز_نوم__نام_مرکز":"مکتب قازان ","Polling_Center_Name":"Qazan School","د_مرکز_ځای__موقعیت_مرکز":"قازان نوروزی","Polling_Center_Location":"Qazan-e-Nawrozi","Verification_Note":"Building","PS_Male":2,"PS_Female":1,"Map_Accuracy":"تعمیر"},"geometry":{"x":7540330.7911421135,"y":4128173.5608320758}},{"attributes":{"OBJECTID":5539,"ولایت":"باميان","Province":"BAMYAN","PC_Code":"1002028","ولسوالي":"شیبر","District":"SHEBAR","د_مرکز_نوم__نام_مرکز":"مسجد جلمش","Polling_Center_Name":"Jalmash School","د_مرکز_ځای__موقعیت_مرکز":"جلمش","Polling_Center_Location":"Jalmash","Verification_Note":"Building","PS_Male":1,"PS_Female":1,"Map_Accuracy":"تعمیر"},"geometry":{"x":7576331.596841082,"y":4165186.1946573704}},{"attributes":{"OBJECTID":5540,"ولایت":"باميان","Province":"BAMYAN","PC_Code":"1003163","ولسوالي":"سیغان","District":"SAIGHAN","د_مرکز_نوم__نام_مرکز":"منبر عمومی قلعه بیگل","Polling_Center_Name":"Munbar Umomi Qala-e-Begal","د_مرکز_ځای__موقعیت_مرکز":"قلعه بیگل","Polling_Center_Location":"Qala-e-Begal","Verification_Note":"Building","PS_Male":1,"PS_Female":1,"Map_Accuracy":"تعمیر"},"geometry":{"x":7508439.5403680876,"y":4191114.34997721}},{"attributes":{"OBJECTID":5541,"ولایت":"باميان","Province":"BAMYAN","PC_Code":"1005074","ولسوالي":"یکاولنگ","District":"YAKAWLANG","د_مرکز_نوم__نام_مرکز":"مکتب ده سرخ","Polling_Center_Name":"Deh Surkh School","د_مرکز_ځای__موقعیت_مرکز":"دهن چارده","Polling_Center_Location":"Dahane Chardeh","Verification_Note":"Building","PS_Male":2,"PS_Female":2,"Map_Accuracy":"تعمیر"},"geometry":{"x":7438799.9771702737,"y":4126341.3724670485}},{"attributes":{"OBJECTID":5542,"ولایت":"باميان","Province":"BAMYAN","PC_Code":"1005094","ولسوالي":"یکاولنگ","District":"YAKAWLANG","د_مرکز_نوم__نام_مرکز":"منبر دم دشت سبز دره","Polling_Center_Name":"Munbar-e-Dam Dasht Sabz Dara","د_مرکز_ځای__موقعیت_مرکز":"دم دشت سبز دره","Polling_Center_Location":"Dam Dasht-e-Sabz Dara","Verification_Note":"Building","PS_Male":2,"PS_Female":1,"Map_Accuracy":"تعمیر"},"geometry":{"x":7421659.4773121551,"y":4139633.8113753423}},{"attributes":{"OBJECTID":5543,"ولایت":"باميان","Province":"BAMYAN","PC_Code":"1006113","ولسوالي":"پنجاب","District":"PANJAB","د_مرکز_نوم__نام_مرکز":"مسجد شینیه میان کاوک","Polling_Center_Name":"Shenia Miyan Kawak Mosque","د_مرکز_ځای__موقعیت_مرکز":"شینیه","Polling_Center_Location":"Shenia","Verification_Note":"Building","PS_Male":1,"PS_Female":1,"Map_Accuracy":"تعمیر"},"geometry":{"x":7416487.3800739869,"y":4062170.0593031496}},{"attributes":{"OBJECTID":5544,"ولایت":"باميان","Province":"BAMYAN","PC_Code":"1007157","ولسوالي":"ورس","District":"WARAS","د_مرکز_نوم__نام_مرکز":"مسجد شینیه تنگی سپی","Polling_Center_Name":"Shenia Tangi Spi Mosque","د_مرکز_ځای__موقعیت_مرکز":"شینیه تنگی سپی","Polling_Center_Location":"Shenia Tangi Spi","Verification_Note":"Building","PS_Male":2,"PS_Female":1,"Map_Accuracy":"تعمیر"},"geometry":{"x":7431974.5005159341,"y":4035292.5292477831}},{"attributes":{"OBJECTID":5545,"ولایت":"غزنى","Province":"GHAZNI","PC_Code":"1101017","ولسوالي":"غزنی","District":"GHAZNI","د_مرکز_نوم__نام_مرکز":"مسجد کلای سبز","Polling_Center_Name":"Kala-e-Sabz Mosque","د_مرکز_ځای__موقعیت_مرکز":"کلا سبز ","Polling_Center_Location":"Kala-e-Sabz","Verification_Note":"Village","PS_Male":0,"PS_Female":5,"Map_Accuracy":"قریه"},"geometry":{"x":7617059.3197762,"y":3969310.2965224311}},{"attributes":{"OBJECTID":5546,"ولایت":"غزنى","Province":"GHAZNI","PC_Code":"1105065","ولسوالي":"ده یک","District":"DEH YAK","د_مرکز_نوم__نام_مرکز":"کلینیک جان آباد","Polling_Center_Name":"Jan Abad Clinic","د_مرکز_ځای__موقعیت_مرکز":"جان آباد","Polling_Center_Location":"Jan Abad","Verification_Note":"Building","PS_Male":2,"PS_Female":1,"Map_Accuracy":"تعمیر"},"geometry":{"x":7636220.855045937,"y":3948708.0569588318}},{"attributes":{"OBJECTID":5547,"ولایت":"غزنى","Province":"GHAZNI","PC_Code":"1107229","ولسوالي":"اندر","District":"ANDAR","د_مرکز_نوم__نام_مرکز":"د میری د بازار مکتب","Polling_Center_Name":"Meeri Bazar School","د_مرکز_ځای__موقعیت_مرکز":"میری بازار ","Polling_Center_Location":"Meeri Bazar","Verification_Note":"Building","PS_Male":2,"PS_Female":1,"Map_Accuracy":"تعمیر"},"geometry":{"x":7618819.4401125126,"y":3939112.6282968894}},{"attributes":{"OBJECTID":5548,"ولایت":"غزنى","Province":"GHAZNI","PC_Code":"1107250","ولسوالي":"اندر","District":"ANDAR","د_مرکز_نوم__نام_مرکز":"مکتب قریه قلعه سردادر","Polling_Center_Name":"Qala-e-Sardar School","د_مرکز_ځای__موقعیت_مرکز":"بازار قریه سردار","Polling_Center_Location":"Qala-e-Sardar Bazar","Verification_Note":"Building","PS_Male":3,"PS_Female":1,"Map_Accuracy":"تعمیر"},"geometry":{"x":7630066.671656508,"y":3940733.3777280152}},{"attributes":{"OBJECTID":5549,"ولایت":"غزنى","Province":"GHAZNI","PC_Code":"1111150","ولسوالي":"قره باغ","District":"QARA BAGH","د_مرکز_نوم__نام_مرکز":"مسجد بالا قریه گنگی","Polling_Center_Name":"Gangay Village Upper Mosque","د_مرکز_ځای__موقعیت_مرکز":"قریه گنگی","Polling_Center_Location":"Gangay Village ","Verification_Note":"Village","PS_Male":1,"PS_Female":0,"Map_Accuracy":"قریه"},"geometry":{"x":7599221.4122138172,"y":3931084.1255769879}},{"attributes":{"OBJECTID":5550,"ولایت":"غزنى","Province":"GHAZNI","PC_Code":"1111167","ولسوالي":"قره باغ","District":"QARA BAGH","د_مرکز_نوم__نام_مرکز":"مکتب بی بی زهرا آهین","Polling_Center_Name":"Bi Bi Zahra Aaheen School","د_مرکز_ځای__موقعیت_مرکز":"قریه آهین","Polling_Center_Location":"Aaheen Village","Verification_Note":"Building","PS_Male":0,"PS_Female":2,"Map_Accuracy":"تعمیر"},"geometry":{"x":7582496.7318420187,"y":3930721.4008126557}},{"attributes":{"OBJECTID":5551,"ولایت":"غزنى","Province":"GHAZNI","PC_Code":"1114335","ولسوالي":"جاغوری","District":"JAGHURI","د_مرکز_نوم__نام_مرکز":"مسجد عمومی قریه جودری","Polling_Center_Name":"Jodari Village Mosque","د_مرکز_ځای__موقعیت_مرکز":"قریه جودری ","Polling_Center_Location":"Jodari Village","Verification_Note":"Village","PS_Male":1,"PS_Female":1,"Map_Accuracy":"قریه"},"geometry":{"x":7501119.1984833963,"y":3912073.7121987045}},{"attributes":{"OBJECTID":5552,"ولایت":"غزنى","Province":"GHAZNI","PC_Code":"1114355","ولسوالي":"جاغوری","District":"JAGHURI","د_مرکز_نوم__نام_مرکز":"مسجد عمومی قریه دهن دوره","Polling_Center_Name":"Dahan-e-Dawra Village Mosque","د_مرکز_ځای__موقعیت_مرکز":"قریه دهن دوره","Polling_Center_Location":"Dahan-e-Dawra Village","Verification_Note":"Building","PS_Male":1,"PS_Female":1,"Map_Accuracy":"تعمیر"},"geometry":{"x":7489947.2934992388,"y":3924052.8762136176}},{"attributes":{"OBJECTID":5553,"ولایت":"غزنى","Province":"GHAZNI","PC_Code":"1116300","ولسوالي":"مالستان","District":"MALISTAN","د_مرکز_نوم__نام_مرکز":"مسجد قوجنگی","Polling_Center_Name":"Qojangi Mosque","د_مرکز_ځای__موقعیت_مرکز":"قریه قوچنګی","Polling_Center_Location":"Quchangi Village","Verification_Note":"Building","PS_Male":1,"PS_Female":1,"Map_Accuracy":"تعمیر"},"geometry":{"x":7467249.71130237,"y":3897321.9883433729}},{"attributes":{"OBJECTID":5554,"ولایت":"پکتيکا","Province":"PAKTIKA","PC_Code":"1207101","ولسوالي":"زرغون شهر ","District":"ZARGHUN SHAHR","د_مرکز_نوم__نام_مرکز":"ولسوالی مرکز","Polling_Center_Name":"District Center","د_مرکز_ځای__موقعیت_مرکز":"بک خیل","Polling_Center_Location":"Bak Khel","Verification_Note":"Village","PS_Male":3,"PS_Female":0,"Map_Accuracy":"قریه"},"geometry":{"x":7632218.90042761,"y":3871289.094102338}},{"attributes":{"OBJECTID":5555,"ولایت":"پکتيا","Province":"PAKTYA","PC_Code":"1302195","ولسوالي":"احمد آبا","District":"AHMADABA","د_مرکز_نوم__نام_مرکز":"د مچلغو لیسه","Polling_Center_Name":"Machalgho High School","د_مرکز_ځای__موقعیت_مرکز":"نوره خیل، مچلغو","Polling_Center_Location":"Noora Khel, Machalgho","Verification_Note":"Village","PS_Male":3,"PS_Female":1,"Map_Accuracy":"قریه"},"geometry":{"x":7722430.3622969575,"y":3996279.7235970125}},{"attributes":{"OBJECTID":5556,"ولایت":"پکتيا","Province":"PAKTYA","PC_Code":"1310167","ولسوالي":"څمکنی","District":"SAMKANI","د_مرکز_نوم__نام_مرکز":"چنار مسجد","Polling_Center_Name":"Chinar Mosque","د_مرکز_ځای__موقعیت_مرکز":"لواړی، پیران","Polling_Center_Location":"Lowarry, Peeran","Verification_Note":"Village","PS_Male":0,"PS_Female":4,"Map_Accuracy":"قریه"},"geometry":{"x":7768159.3905414939,"y":3991369.9322455823}},{"attributes":{"OBJECTID":5557,"ولایت":"خوست","Province":"KHOST","PC_Code":"1401043","ولسوالي":"خوست","District":"KHOST","د_مرکز_نوم__نام_مرکز":"د ګل مرجان هجره لټک  ","Polling_Center_Name":"Gul Mar Jan Hojra","د_مرکز_ځای__موقعیت_مرکز":"لټک حاجي عمرخان کلى","Polling_Center_Location":"Latak Haji Omer Khan Village","Verification_Note":"Building","PS_Male":2,"PS_Female":1,"Map_Accuracy":"تعمیر"},"geometry":{"x":7789148.4590047747,"y":3940224.617114678}},{"attributes":{"OBJECTID":5558,"ولایت":"خوست","Province":"KHOST","PC_Code":"1402094","ولسوالي":"مندوزی","District":"MANDUZAY","د_مرکز_نوم__نام_مرکز":"د ورزې کلي جومات","Polling_Center_Name":"Warza Village Mosque","د_مرکز_ځای__موقعیت_مرکز":" ورزه کلى","Polling_Center_Location":"Warza Village","Verification_Note":"Village","PS_Male":1,"PS_Female":1,"Map_Accuracy":"قریه"},"geometry":{"x":7769667.5481159538,"y":3943556.2382532433}},{"attributes":{"OBJECTID":5559,"ولایت":"خوست","Province":"KHOST","PC_Code":"1404142","ولسوالي":"تڼي","District":"TANAY","د_مرکز_نوم__نام_مرکز":"عيسې خيل جومات ","Polling_Center_Name":"Esa Khel Mosque","د_مرکز_ځای__موقعیت_مرکز":"سيناکي","Polling_Center_Location":"Sinaki","Verification_Note":"Village","PS_Male":3,"PS_Female":1,"Map_Accuracy":"قریه"},"geometry":{"x":7767642.62654091,"y":3918535.1383403242}},{"attributes":{"OBJECTID":5560,"ولایت":"خوست","Province":"KHOST","PC_Code":"1406118","ولسوالي":"نادرشاه کوت","District":"NADIRSHAH KOT","د_مرکز_نوم__نام_مرکز":"د جمعه نورهجره ","Polling_Center_Name":"Juma Noor Hojra","د_مرکز_ځای__موقعیت_مرکز":" پکى  کلى","Polling_Center_Location":"Pakai Village","Verification_Note":"Building","PS_Male":1,"PS_Female":1,"Map_Accuracy":"تعمیر"},"geometry":{"x":7754824.9486013874,"y":3935524.9568174034}},{"attributes":{"OBJECTID":5561,"ولایت":"کنړ ","Province":"KUNAR","PC_Code":"1501010","ولسوالي":"اسعد آباد","District":"ASAD ABAD","د_مرکز_نوم__نام_مرکز":"مکتب ابتدائیه","Polling_Center_Name":"Primary School","د_مرکز_ځای__موقعیت_مرکز":"څاګی","Polling_Center_Location":"Sagai","Verification_Note":"Building","PS_Male":4,"PS_Female":2,"Map_Accuracy":"تعمیر"},"geometry":{"x":7924301.2156663761,"y":4150547.3461797684}},{"attributes":{"OBJECTID":5562,"ولایت":"کنړ ","Province":"KUNAR","PC_Code":"1505039","ولسوالي":"سرکاڼو","District":"SAR KANI","د_مرکز_نوم__نام_مرکز":"مکتب دخترانه","Polling_Center_Name":"Girls School","د_مرکز_ځای__موقعیت_مرکز":"سرکاڼو","Polling_Center_Location":"Sarkany","Verification_Note":"Building","PS_Male":3,"PS_Female":1,"Map_Accuracy":"تعمیر"},"geometry":{"x":7915690.6853361689,"y":4135114.8935750723}},{"attributes":{"OBJECTID":5563,"ولایت":"کنړ ","Province":"KUNAR","PC_Code":"1507030","ولسوالي":"دره پیچ","District":"DARA-E-PECH","د_مرکز_نوم__نام_مرکز":"مدرسه قریه","Polling_Center_Name":"Kandro Village Madrassa","د_مرکز_ځای__موقعیت_مرکز":"کندرو","Polling_Center_Location":"Kandro","Verification_Note":"Village","PS_Male":1,"PS_Female":3,"Map_Accuracy":"قریه"},"geometry":{"x":7889983.7532509193,"y":4159870.77558399}},{"attributes":{"OBJECTID":5564,"ولایت":"نورستان","Province":"NOORISTAN","PC_Code":"1604013","ولسوالي":"نورګرام","District":"NOOR GRAM","د_مرکز_نوم__نام_مرکز":"مکتب متوسطه ملیل و مشقه","Polling_Center_Name":"Maleel wa Mashqa Secondary School","د_مرکز_ځای__موقعیت_مرکز":"ملیل","Polling_Center_Location":"Maleel","Verification_Note":"Village","PS_Male":2,"PS_Female":1,"Map_Accuracy":"قریه"},"geometry":{"x":7843312.322027199,"y":4158028.7690499723}},{"attributes":{"OBJECTID":5565,"ولایت":"بدخشان","Province":"BADAKHSHAN","PC_Code":"1701001","ولسوالي":"فیض آباد","District":"FAIZ ABAD","د_مرکز_نوم__نام_مرکز":"مکتب فیضی شهید","Polling_Center_Name":"Faizi Shaheed School","د_مرکز_ځای__موقعیت_مرکز":"فیض آباد","Polling_Center_Location":"Faiz Abad","Verification_Note":"Building","PS_Male":2,"PS_Female":1,"Map_Accuracy":"تعمیر"},"geometry":{"x":7859243.1285635978,"y":4475569.9228159264}},{"attributes":{"OBJECTID":5566,"ولایت":"بدخشان","Province":"BADAKHSHAN","PC_Code":"1701022","ولسوالي":"فیض آباد","District":"FAIZ ABAD","د_مرکز_نوم__نام_مرکز":"مکتب پلنگ دره ","Polling_Center_Name":"Palang Dara School","د_مرکز_ځای__موقعیت_مرکز":"پلنگ دره ","Polling_Center_Location":"Palang Dara","Verification_Note":"Building","PS_Male":1,"PS_Female":1,"Map_Accuracy":"تعمیر"},"geometry":{"x":7869868.3847166821,"y":4475541.195171982}},{"attributes":{"OBJECTID":5567,"ولایت":"بدخشان","Province":"BADAKHSHAN","PC_Code":"1702059","ولسوالي":"ارگو","District":"ARGO","د_مرکز_نوم__نام_مرکز":"مکتب متوسطه ارغند ","Polling_Center_Name":"Arghand Secondary School","د_مرکز_ځای__موقعیت_مرکز":"قریه ارغند","Polling_Center_Location":"Arghand Village","Verification_Note":"Building","PS_Male":5,"PS_Female":4,"Map_Accuracy":"تعمیر"},"geometry":{"x":7832558.0098488592,"y":4454744.8512229323}},{"attributes":{"OBJECTID":5568,"ولایت":"بدخشان","Province":"BADAKHSHAN","PC_Code":"1704035","ولسوالي":"یفتل سفلا","District":"YAFTAL-E-SUFLA","د_مرکز_نوم__نام_مرکز":"مکتب لب دریا کوکچه دهن سابات ","Polling_Center_Name":"Lab Darya Kokcha School","د_مرکز_ځای__موقعیت_مرکز":"دهن سابات ","Polling_Center_Location":"Dahan Sabat","Verification_Note":"Building","PS_Male":2,"PS_Female":1,"Map_Accuracy":"تعمیر"},"geometry":{"x":7841215.7340771854,"y":4471244.8961993009}},{"attributes":{"OBJECTID":5569,"ولایت":"بدخشان","Province":"BADAKHSHAN","PC_Code":"1707064","ولسوالي":"درایم","District":"DARAYIM","د_مرکز_نوم__نام_مرکز":"لیسه نسوان شهر سعادت ","Polling_Center_Name":"Shahr-e-Saadat Girls High School","د_مرکز_ځای__موقعیت_مرکز":"لنگر","Polling_Center_Location":"Langar","Verification_Note":"Building","PS_Male":3,"PS_Female":2,"Map_Accuracy":"تعمیر"},"geometry":{"x":7825897.1379859634,"y":4434952.439769879}},{"attributes":{"OBJECTID":5570,"ولایت":"بدخشان","Province":"BADAKHSHAN","PC_Code":"1709133","ولسوالي":"یاوان","District":"YAWAN","د_مرکز_نوم__نام_مرکز":"مکتب قطار بید پایان ","Polling_Center_Name":"Qataar Bed Payan School","د_مرکز_ځای__موقعیت_مرکز":"بید پایان","Polling_Center_Location":"Bed Payan","Verification_Note":"Building","PS_Male":1,"PS_Female":1,"Map_Accuracy":"تعمیر"},"geometry":{"x":7844048.2128794268,"y":4505886.6630756408}},{"attributes":{"OBJECTID":5571,"ولایت":"بدخشان","Province":"BADAKHSHAN","PC_Code":"1711183","ولسوالي":"تشکان ","District":"TASHKAN","د_مرکز_نوم__نام_مرکز":"مکتب بازار تیشکان ","Polling_Center_Name":"Bazar Teshkan School","د_مرکز_ځای__موقعیت_مرکز":"بازار تیشکان ","Polling_Center_Location":"Bazar Teshkan","Verification_Note":"Building","PS_Male":1,"PS_Female":1,"Map_Accuracy":"تعمیر"},"geometry":{"x":7822197.1909197569,"y":4423804.0932845995}},{"attributes":{"OBJECTID":5572,"ولایت":"بدخشان","Province":"BADAKHSHAN","PC_Code":"1713147","ولسوالي":"شهر بزرگ","District":"SHAHR-E-BUZURG","د_مرکز_نوم__نام_مرکز":"مکتب ملوان","Polling_Center_Name":"Malwan School","د_مرکز_ځای__موقعیت_مرکز":"ملوان","Polling_Center_Location":"Malwan","Verification_Note":"Building","PS_Male":1,"PS_Female":1,"Map_Accuracy":"تعمیر"},"geometry":{"x":7798748.2355558947,"y":4473087.8239276856}},{"attributes":{"OBJECTID":5573,"ولایت":"بدخشان","Province":"BADAKHSHAN","PC_Code":"1715161","ولسوالي":"کشم","District":"KISHM","د_مرکز_نوم__نام_مرکز":"مکتب قره بلا","Polling_Center_Name":"Qara Bala School","د_مرکز_ځای__موقعیت_مرکز":"ماد انه ","Polling_Center_Location":"Madana","Verification_Note":"Building","PS_Male":2,"PS_Female":2,"Map_Accuracy":"تعمیر"},"geometry":{"x":7794917.3901268579,"y":4410348.5710303411}},{"attributes":{"OBJECTID":5574,"ولایت":"بدخشان","Province":"BADAKHSHAN","PC_Code":"1717175","ولسوالي":"تگاب","District":"TAGAB","د_مرکز_نوم__نام_مرکز":"مسجد هنگران ","Polling_Center_Name":"Hangaran Mosque","د_مرکز_ځای__موقعیت_مرکز":"هنگران","Polling_Center_Location":"Hangaran","Verification_Note":"Building","PS_Male":1,"PS_Female":1,"Map_Accuracy":"تعمیر"},"geometry":{"x":7813955.7592855915,"y":4377120.6878785193}},{"attributes":{"OBJECTID":5575,"ولایت":"بدخشان","Province":"BADAKHSHAN","PC_Code":"1720241","ولسوالي":"خواهان","District":"KHWAHAN","د_مرکز_نوم__نام_مرکز":"مکتب روین زار","Polling_Center_Name":"Raween Zaar School","د_مرکز_ځای__موقعیت_مرکز":"قریه روین زار ","Polling_Center_Location":"Raween Zaar","Verification_Note":"Building","PS_Male":2,"PS_Female":1,"Map_Accuracy":"تعمیر"},"geometry":{"x":7839546.3246543333,"y":4556094.2723656595}},{"attributes":{"OBJECTID":5576,"ولایت":"بدخشان","Province":"BADAKHSHAN","PC_Code":"1723198","ولسوالي":"اشکاشم","District":"ESHKASHIM","د_مرکز_نوم__نام_مرکز":"مسجد تربت","Polling_Center_Name":"Torbat Mosque","د_مرکز_ځای__موقعیت_مرکز":"تربت","Polling_Center_Location":"Torbat","Verification_Note":"Building","PS_Male":2,"PS_Female":1,"Map_Accuracy":"تعمیر"},"geometry":{"x":7968215.8052290641,"y":4397409.9761827886}},{"attributes":{"OBJECTID":5577,"ولایت":"بدخشان","Province":"BADAKHSHAN","PC_Code":"1727271","ولسوالي":"درواز بالا (نسی) ","District":"DARWAZ-E-BALA","د_مرکز_نوم__نام_مرکز":"تعمیر ولسوالی","Polling_Center_Name":"District Building","د_مرکز_ځای__موقعیت_مرکز":"مرکز ولسوالی دروازه پائین","Polling_Center_Location":"Darwaza Payeen District Office","Verification_Note":"Village","PS_Male":2,"PS_Female":1,"Map_Accuracy":"قریه"},"geometry":{"x":7881739.7245330289,"y":4642238.8479346037}},{"attributes":{"OBJECTID":5578,"ولایت":"تخار","Province":"TAKHAR","PC_Code":"1801009","ولسوالي":"تالقان","District":"TALUQAN","د_مرکز_نوم__نام_مرکز":"لیسه سرای سنگ","Polling_Center_Name":"Sray Sang High School","د_مرکز_ځای__موقعیت_مرکز":"قریه گنبد","Polling_Center_Location":"Gunbad Village","Verification_Note":"Building","PS_Male":2,"PS_Female":2,"Map_Accuracy":"تعمیر"},"geometry":{"x":7738268.84044769,"y":4407217.4380481616}},{"attributes":{"OBJECTID":5579,"ولایت":"تخار","Province":"TAKHAR","PC_Code":"1801031","ولسوالي":"تالقان","District":"TALUQAN","د_مرکز_نوم__نام_مرکز":"مدرسه تخته کوپرک","Polling_Center_Name":"Takhta Koparak Madrassa","د_مرکز_ځای__موقعیت_مرکز":"تخته کوپرک","Polling_Center_Location":"Takhta Koparak","Verification_Note":"Building","PS_Male":2,"PS_Female":1,"Map_Accuracy":"تعمیر"},"geometry":{"x":7728707.5347993933,"y":4405665.9530848116}},{"attributes":{"OBJECTID":5580,"ولایت":"تخار","Province":"TAKHAR","PC_Code":"1803189","ولسوالي":"بهارک","District":"BAHARAK","د_مرکز_نوم__نام_مرکز":"مسجد حسن نورعلی","Polling_Center_Name":"Raketi Mosque","د_مرکز_ځای__موقعیت_مرکز":"حسن نورعلی","Polling_Center_Location":"Hassan Noor Ali","Verification_Note":"Building","PS_Male":2,"PS_Female":1,"Map_Accuracy":"تعمیر"},"geometry":{"x":7718427.6574965753,"y":4406642.167225033}},{"attributes":{"OBJECTID":5581,"ولایت":"تخار","Province":"TAKHAR","PC_Code":"1807195","ولسوالي":"کلفگان","District":"KALAFGAN","د_مرکز_نوم__نام_مرکز":"مکتب ابتدائیه قرق ساي  ","Polling_Center_Name":"Qoroq Saay Primary School","د_مرکز_ځای__موقعیت_مرکز":"قرق ساي","Polling_Center_Location":"Qoroq Saay","Verification_Note":"Building","PS_Male":1,"PS_Female":1,"Map_Accuracy":"تعمیر"},"geometry":{"x":7771506.2666919343,"y":4409310.943117857}},{"attributes":{"OBJECTID":5582,"ولایت":"تخار","Province":"TAKHAR","PC_Code":"1809056","ولسوالي":"خواجه غار","District":"KHWAJA GHAR","د_مرکز_نوم__نام_مرکز":"مسجد چبق","Polling_Center_Name":"Chebq Mosque","د_مرکز_ځای__موقعیت_مرکز":"چبق","Polling_Center_Location":"Chebq","Verification_Note":"Building","PS_Male":2,"PS_Female":2,"Map_Accuracy":"تعمیر"},"geometry":{"x":7722967.3719733208,"y":4439218.3811534643}},{"attributes":{"OBJECTID":5583,"ولایت":"تخار","Province":"TAKHAR","PC_Code":"1810118","ولسوالي":"رستاق","District":"RUSTAQ","د_مرکز_نوم__نام_مرکز":"مکتب ابتدائیه نارستان","Polling_Center_Name":"Narastan Primary School","د_مرکز_ځای__موقعیت_مرکز":"قریه نارستان","Polling_Center_Location":"Narastan Village","Verification_Note":"Building","PS_Male":1,"PS_Female":1,"Map_Accuracy":"تعمیر"},"geometry":{"x":7761998.0140205212,"y":4435977.8384298235}},{"attributes":{"OBJECTID":5584,"ولایت":"تخار","Province":"TAKHAR","PC_Code":"1811070","ولسوالي":"اشکمش","District":"ESHKAMESH","د_مرکز_نوم__نام_مرکز":"مکتب ابتدائیه باد گذر","Polling_Center_Name":"Baad Guzar Primary School","د_مرکز_ځای__موقعیت_مرکز":"باد گذر","Polling_Center_Location":"Baad Guzar","Verification_Note":"Building","PS_Male":3,"PS_Female":1,"Map_Accuracy":"تعمیر"},"geometry":{"x":7718309.9715327881,"y":4361630.94289884}},{"attributes":{"OBJECTID":5585,"ولایت":"تخار","Province":"TAKHAR","PC_Code":"1813182","ولسوالي":"ورسج","District":"WARSAJ","د_مرکز_نوم__نام_مرکز":"مکتب ابتدائیه پیو","Polling_Center_Name":"Pyo Primary School","د_مرکز_ځای__موقعیت_مرکز":"پیو","Polling_Center_Location":"Pyo","Verification_Note":"Building","PS_Male":2,"PS_Female":1,"Map_Accuracy":"تعمیر"},"geometry":{"x":7819456.815637812,"y":4316880.174086757}},{"attributes":{"OBJECTID":5586,"ولایت":"تخار","Province":"TAKHAR","PC_Code":"1816135","ولسوالي":"چا آب","District":"CHAH AB","د_مرکز_نوم__نام_مرکز":"لیسه امام اعظم رح","Polling_Center_Name":"Imam Azam High School","د_مرکز_ځای__موقعیت_مرکز":"خلیان","Polling_Center_Location":"Khulyan","Verification_Note":"Building","PS_Male":2,"PS_Female":2,"Map_Accuracy":"تعمیر"},"geometry":{"x":7771067.8237454966,"y":4480041.6724135131}},{"attributes":{"OBJECTID":5587,"ولایت":"کندز","Province":"KUNDUZ","PC_Code":"1901002","ولسوالي":"کندز","District":"KUNDUZ","د_مرکز_نوم__نام_مرکز":"کلینیک حیوانی","Polling_Center_Name":"Veterinary Clinic","د_مرکز_ځای__موقعیت_مرکز":"سرک چارده","Polling_Center_Location":"14th Road","Verification_Note":"Building","PS_Male":2,"PS_Female":2,"Map_Accuracy":"تعمیر"},"geometry":{"x":7664738.5920285694,"y":4399424.9063798711}},{"attributes":{"OBJECTID":5588,"ولایت":"کندز","Province":"KUNDUZ","PC_Code":"1901024","ولسوالي":"کندز","District":"KUNDUZ","د_مرکز_نوم__نام_مرکز":"لیسه زرخرید اتمانزی","Polling_Center_Name":"Zar Khareed Otmanzai High School","د_مرکز_ځای__موقعیت_مرکز":"ناحیه سه","Polling_Center_Location":"D03 - Nahia 3","Verification_Note":"Building","PS_Male":2,"PS_Female":2,"Map_Accuracy":"تعمیر"},"geometry":{"x":7662757.724028822,"y":4404883.8436607718}},{"attributes":{"OBJECTID":5589,"ولایت":"کندز","Province":"KUNDUZ","PC_Code":"1901047","ولسوالي":"کندز","District":"KUNDUZ","د_مرکز_نوم__نام_مرکز":"مکتب قشلیش ","Polling_Center_Name":"Qashlesh School","د_مرکز_ځای__موقعیت_مرکز":"قریه قشلش وکیل قره","Polling_Center_Location":"Qashlesh Wakil Qara Village","Verification_Note":"Village","PS_Male":1,"PS_Female":2,"Map_Accuracy":"قریه"},"geometry":{"x":7645581.98598589,"y":4415267.878984347}},{"attributes":{"OBJECTID":5590,"ولایت":"کندز","Province":"KUNDUZ","PC_Code":"1902121","ولسوالي":"چاردره","District":"CHAR DARA","د_مرکز_نوم__نام_مرکز":"مکتب ماماخیل","Polling_Center_Name":"Mama khel School","د_مرکز_ځای__موقعیت_مرکز":"ماماخیل","Polling_Center_Location":"Mama Khel","Verification_Note":"Building","PS_Male":1,"PS_Female":1,"Map_Accuracy":"تعمیر"},"geometry":{"x":7648799.1871747039,"y":4400898.7660183385}},{"attributes":{"OBJECTID":5591,"ولایت":"کندز","Province":"KUNDUZ","PC_Code":"1903208","ولسوالي":"علی آباد","District":"ALI ABAD","د_مرکز_نوم__نام_مرکز":"متوسطه نسوان عرضه بیگی","Polling_Center_Name":"Arza Begi Girls Secondary School","د_مرکز_ځای__موقعیت_مرکز":"قریخ عرض بیگی","Polling_Center_Location":"Arz Begi Village","Verification_Note":"Building","PS_Male":1,"PS_Female":1,"Map_Accuracy":"تعمیر"},"geometry":{"x":7668816.1648638025,"y":4378171.8457925394}},{"attributes":{"OBJECTID":5592,"ولایت":"کندز","Province":"KUNDUZ","PC_Code":"1904159","ولسوالي":"خان آباد","District":"KHAN ABAD","د_مرکز_نوم__نام_مرکز":"مکتب متوسط خواجه پسته","Polling_Center_Name":"Khwaja Pasta Secondary School","د_مرکز_ځای__موقعیت_مرکز":"قریه خواجه پسته","Polling_Center_Location":"Khwaja Pasta Village","Verification_Note":"Building","PS_Male":1,"PS_Female":1,"Map_Accuracy":"تعمیر"},"geometry":{"x":7682966.3259761818,"y":4394016.4682559073}},{"attributes":{"OBJECTID":5593,"ولایت":"کندز","Province":"KUNDUZ","PC_Code":"1905092","ولسوالي":"حضرت امام صاحب","District":"HAZRAT-E-IMAM SAHIB","د_مرکز_نوم__نام_مرکز":"لیسه نمبر دوم امام صاحب","Polling_Center_Name":"Imam Sahib Number 2 High School","د_مرکز_ځای__موقعیت_مرکز":"آقبای","Polling_Center_Location":"Aqbaay","Verification_Note":"Building","PS_Male":3,"PS_Female":1,"Map_Accuracy":"تعمیر"},"geometry":{"x":7671493.8260842264,"y":4466586.6464581415}},{"attributes":{"OBJECTID":5594,"ولایت":"کندز","Province":"KUNDUZ","PC_Code":"1906188","ولسوالي":"دشت ارچی","District":"DASHT-E-ARCHI","د_مرکز_نوم__نام_مرکز":"مکتب شا ه روان","Polling_Center_Name":"Shah Rawan School","د_مرکز_ځای__موقعیت_مرکز":"قریه شاه روان","Polling_Center_Location":"Shah Rawan Village","Verification_Note":"Building","PS_Male":2,"PS_Female":1,"Map_Accuracy":"تعمیر"},"geometry":{"x":7705922.527840443,"y":4451866.37775328}},{"attributes":{"OBJECTID":5595,"ولایت":"کندز","Province":"KUNDUZ","PC_Code":"1907108","ولسوالي":"قلعه ذال","District":"QALA-E-ZAL","د_مرکز_نوم__نام_مرکز":"لیسه  آق تپه","Polling_Center_Name":"Aaq Tapa High School","د_مرکز_ځای__موقعیت_مرکز":"آق تپه","Polling_Center_Location":"Aaq Tapa","Verification_Note":"Building","PS_Male":3,"PS_Female":1,"Map_Accuracy":"تعمیر"},"geometry":{"x":7630139.1540033519,"y":4436543.3112274036}},{"attributes":{"OBJECTID":5596,"ولایت":"سمنگان","Province":"SAMANGAN","PC_Code":"2003077","ولسوالي":"خرم و سارباغ","District":"KHURAM WA SARBAGH","د_مرکز_نوم__نام_مرکز":"لیسه اندر شیر خرم ","Polling_Center_Name":"Andar Sher Khuram High School","د_مرکز_ځای__موقعیت_مرکز":"قریه خرم","Polling_Center_Location":"Khuram Village","Verification_Note":"Building","PS_Male":2,"PS_Female":1,"Map_Accuracy":"تعمیر"},"geometry":{"x":7570950.7321430743,"y":4291152.6285598278}},{"attributes":{"OBJECTID":5597,"ولایت":"سمنگان","Province":"SAMANGAN","PC_Code":"2005071","ولسوالي":"روی دوآب","District":"ROI-DO-AB","د_مرکز_نوم__نام_مرکز":"مدرسه پیچگاه ","Polling_Center_Name":"Pechgah Madrassa","د_مرکز_ځای__موقعیت_مرکز":"قریه پیچگاه","Polling_Center_Location":"Pechgah Village","Verification_Note":"Building","PS_Male":2,"PS_Female":1,"Map_Accuracy":"تعمیر"},"geometry":{"x":7527559.8952185921,"y":4231600.0590195283}},{"attributes":{"OBJECTID":5598,"ولایت":"سمنگان","Province":"SAMANGAN","PC_Code":"2006059","ولسوالي":"دره صوف پائین","District":"DARA-E-SOOF-E-PAYIN","د_مرکز_نوم__نام_مرکز":"مکتب متوسطه توقسن","Polling_Center_Name":"Toqsan Secondary School","د_مرکز_ځای__موقعیت_مرکز":"قریه توقسن","Polling_Center_Location":"Toqsan Village","Verification_Note":"Building","PS_Male":3,"PS_Female":2,"Map_Accuracy":"تعمیر"},"geometry":{"x":7491629.5491913185,"y":4316064.0832387134}},{"attributes":{"OBJECTID":5599,"ولایت":"سمنگان","Province":"SAMANGAN","PC_Code":"2007046","ولسوالي":"دره صوف بالا","District":"DARA-E-SOOF-E-BALA","د_مرکز_نوم__نام_مرکز":"منبر کوته","Polling_Center_Name":"Menbar Kota","د_مرکز_ځای__موقعیت_مرکز":"قریه کوته","Polling_Center_Location":"Kota Village","Verification_Note":"Building","PS_Male":2,"PS_Female":1,"Map_Accuracy":"تعمیر"},"geometry":{"x":7474061.96320121,"y":4222814.8148856834}}]}