{"objectIdFieldName":"OBJECTID","globalIdFieldName":"","geometryType":"esriGeometryPoint","spatialReference":{"wkid":102100,"latestWkid":3857},"fields":[{"name":"OBJECTID","type":"esriFieldTypeOID","alias":"OBJECTID","sqlType":"sqlTypeOther","domain":null,"defaultValue":null},{"name":"ولایت","type":"esriFieldTypeString","alias":"ولایت","sqlType":"sqlTypeOther","length":255,"domain":null,"defaultValue":null},{"name":"Province","type":"esriFieldTypeString","alias":"Province","sqlType":"sqlTypeOther","length":255,"domain":null,"defaultValue":null},{"name":"PC_Code","type":"esriFieldTypeString","alias":"PC_Code","sqlType":"sqlTypeOther","length":255,"domain":null,"defaultValue":null},{"name":"ولسوالي","type":"esriFieldTypeString","alias":"ولسوالي","sqlType":"sqlTypeOther","length":255,"domain":null,"defaultValue":null},{"name":"District","type":"esriFieldTypeString","alias":"District","sqlType":"sqlTypeOther","length":255,"domain":null,"defaultValue":null},{"name":"د_مرکز_نوم__نام_مرکز","type":"esriFieldTypeString","alias":"د_مرکز_نوم__نام_مرکز","sqlType":"sqlTypeOther","length":255,"domain":null,"defaultValue":null},{"name":"Polling_Center_Name","type":"esriFieldTypeString","alias":"Polling_Center_Name","sqlType":"sqlTypeOther","length":255,"domain":null,"defaultValue":null},{"name":"د_مرکز_ځای__موقعیت_مرکز","type":"esriFieldTypeString","alias":"د_مرکز_ځای__موقعیت_مرکز","sqlType":"sqlTypeOther","length":255,"domain":null,"defaultValue":null},{"name":"Polling_Center_Location","type":"esriFieldTypeString","alias":"Polling_Center_Location","sqlType":"sqlTypeOther","length":255,"domain":null,"defaultValue":null},{"name":"Verification_Note","type":"esriFieldTypeString","alias":"Verification_Note","sqlType":"sqlTypeOther","length":250,"domain":null,"defaultValue":null},{"name":"PS_Male","type":"esriFieldTypeSmallInteger","alias":"PS_Male","sqlType":"sqlTypeOther","domain":null,"defaultValue":null},{"name":"PS_Female","type":"esriFieldTypeSmallInteger","alias":"PS_Female","sqlType":"sqlTypeOther","domain":null,"defaultValue":null},{"name":"Map_Accuracy","type":"esriFieldTypeString","alias":"Map_Accuracy","sqlType":"sqlTypeOther","length":10,"domain":null,"defaultValue":null}],"features":[{"attributes":{"OBJECTID":5800,"ولایت":"بغلان","Province":"BAGHLAN","PC_Code":"0905050","ولسوالي":"بغلان جدید","District":"BAGLAN-E-JADEED","د_مرکز_نوم__نام_مرکز":"مکتب متوسطه جلوگیر","Polling_Center_Name":"Jelawgir Secondary School","د_مرکز_ځای__موقعیت_مرکز":"جلوگیرمرکزی","Polling_Center_Location":"Central Jelawgir","Verification_Note":"Building","PS_Male":1,"PS_Female":1,"Map_Accuracy":"تعمیر"},"geometry":{"x":7672182.2926069871,"y":4358478.738773644}},{"attributes":{"OBJECTID":5801,"ولایت":"پکتيا","Province":"PAKTYA","PC_Code":"1305123","ولسوالي":"وزه ځدراڼ","District":"WUZA ZADRAN","د_مرکز_نوم__نام_مرکز":"د کمیشنر کور","Polling_Center_Name":"Commissioner House","د_مرکز_ځای__موقعیت_مرکز":"میته خیل","Polling_Center_Location":"Mita Khel","Verification_Note":"Village","PS_Male":1,"PS_Female":1,"Map_Accuracy":"قریه"},"geometry":{"x":7733889.4515298493,"y":3952840.6301608235}},{"attributes":{"OBJECTID":5802,"ولایت":"کندز","Province":"KUNDUZ","PC_Code":"1905072","ولسوالي":"حضرت امام صاحب","District":"HAZRAT-E-IMAM SAHIB","د_مرکز_نوم__نام_مرکز":"مکتب یکه توت","Polling_Center_Name":"Yaka Toot School","د_مرکز_ځای__موقعیت_مرکز":"قریه یکه توت","Polling_Center_Location":"Yaka Toot Village","Verification_Note":"Building","PS_Male":1,"PS_Female":1,"Map_Accuracy":"تعمیر"},"geometry":{"x":7688631.1210542135,"y":4464673.8503323719}},{"attributes":{"OBJECTID":5803,"ولایت":"سمنگان","Province":"SAMANGAN","PC_Code":"2003096","ولسوالي":"خرم و سارباغ","District":"KHURAM WA SARBAGH","د_مرکز_نوم__نام_مرکز":"مکتب نوبلاق ","Polling_Center_Name":"Noblaq School","د_مرکز_ځای__موقعیت_مرکز":"قریه نوبلاق","Polling_Center_Location":"Noblaq Village","Verification_Note":"Building","PS_Male":1,"PS_Female":1,"Map_Accuracy":"تعمیر"},"geometry":{"x":7601761.1753018238,"y":4294616.7998835146}},{"attributes":{"OBJECTID":5804,"ولایت":"بادغيس","Province":"BADGHIS","PC_Code":"3104177","ولسوالي":"قادس","District":"QADIS","د_مرکز_نوم__نام_مرکز":"مکتب دره تبر ","Polling_Center_Name":"Mosque ","د_مرکز_ځای__موقعیت_مرکز":"دره تبر افغان","Polling_Center_Location":"Darra-e-Tabar Afghan ","Verification_Note":"Village","PS_Male":1,"PS_Female":1,"Map_Accuracy":"قریه"},"geometry":{"x":7048529.1210491732,"y":4125655.2402932793}},{"attributes":{"OBJECTID":5805,"ولایت":"بادغيس","Province":"BADGHIS","PC_Code":"3104178","ولسوالي":"قادس","District":"QADIS","د_مرکز_نوم__نام_مرکز":"مسجد جر درشت","Polling_Center_Name":"Jar-e- Durosht Mosque ","د_مرکز_ځای__موقعیت_مرکز":"جر در شت ","Polling_Center_Location":"Jar-e- Durosht ","Verification_Note":"Village","PS_Male":1,"PS_Female":1,"Map_Accuracy":"قریه"},"geometry":{"x":7075535.2306288108,"y":4125923.1022057757}},{"attributes":{"OBJECTID":5806,"ولایت":"هرات","Province":"HERAT","PC_Code":"3203087","ولسوالي":"گذره","District":"GUZARA","د_مرکز_نوم__نام_مرکز":"مکتب دخترانه","Polling_Center_Name":"Girls School ","د_مرکز_ځای__موقعیت_مرکز":"قریه شکور خانی(مرکز گذره دوم)","Polling_Center_Location":"Shokor khani Village (MarkazGuzara Duwom)","Verification_Note":"Building","PS_Male":0,"PS_Female":3,"Map_Accuracy":"تعمیر"},"geometry":{"x":6926283.437444184,"y":4061921.8984559178}},{"attributes":{"OBJECTID":5807,"ولایت":"هرات","Province":"HERAT","PC_Code":"3203115","ولسوالي":"گذره","District":"GUZARA","د_مرکز_نوم__نام_مرکز":"موقعیت کوچی ها  خم زیارت","Polling_Center_Name":"Kochis Location","د_مرکز_ځای__موقعیت_مرکز":"خم زیارت ","Polling_Center_Location":"Khum Ziarat","Verification_Note":"District","PS_Male":1,"PS_Female":1,"Map_Accuracy":"ولسوالی"},"geometry":{"x":6914851.5391101129,"y":4036453.6735883951}},{"attributes":{"OBJECTID":5808,"ولایت":"کابل","Province":"KABUL","PC_Code":"0102414","ولسوالي":"پغمان","District":"PAGHMAN","د_مرکز_نوم__نام_مرکز":" مسجد قلعه يعقوب خيل","Polling_Center_Name":"Qala-e-Yaqoub Khel Mosque ","د_مرکز_ځای__موقعیت_مرکز":"مرغ گيران","Polling_Center_Location":"Murgh Geran","Verification_Note":"Building","PS_Male":3,"PS_Female":2,"Map_Accuracy":"تعمیر"},"geometry":{"x":7678799.1209133491,"y":4094507.2284378707}},{"attributes":{"OBJECTID":5809,"ولایت":"کابل","Province":"KABUL","PC_Code":"0102415","ولسوالي":"پغمان","District":"PAGHMAN","د_مرکز_نوم__نام_مرکز":" مسجد قلعه ملک","Polling_Center_Name":"Qala-e-Malik Mosque","د_مرکز_ځای__موقعیت_مرکز":"قلعه ملک","Polling_Center_Location":"Qala-e-Malak","Verification_Note":"Village","PS_Male":2,"PS_Female":1,"Map_Accuracy":"قریه"},"geometry":{"x":7679127.3024607562,"y":4106181.519588992}},{"attributes":{"OBJECTID":5810,"ولایت":"کاپيسا","Province":"KAPISA","PC_Code":"0201009","ولسوالي":"محمود راقی ","District":"MAHMUDI RAQI","د_مرکز_نوم__نام_مرکز":"لیسه ذکور محمود راقی ","Polling_Center_Name":"Mahmood Raqi Boys High School","د_مرکز_ځای__موقعیت_مرکز":"بازار ده باباعلی ","Polling_Center_Location":"Bazar De BaBa Ali","Verification_Note":"Building","PS_Male":4,"PS_Female":2,"Map_Accuracy":"تعمیر"},"geometry":{"x":7718820.9769760966,"y":4170405.6672890335}},{"attributes":{"OBJECTID":5811,"ولایت":"کاپيسا","Province":"KAPISA","PC_Code":"0201010","ولسوالي":"محمود راقی ","District":"MAHMUDI RAQI","د_مرکز_نوم__نام_مرکز":"لیسه نسوان محمود راقی ","Polling_Center_Name":"Mahmood Raqi Girls High School","د_مرکز_ځای__موقعیت_مرکز":"رحمن خیل ","Polling_Center_Location":"Rahman Khel","Verification_Note":"Building","PS_Male":3,"PS_Female":2,"Map_Accuracy":"تعمیر"},"geometry":{"x":7717913.9869533293,"y":4170024.6546404734}},{"attributes":{"OBJECTID":5812,"ولایت":"غور","Province":"GHOR","PC_Code":"2301022","ولسوالي":"چغچران","District":"CHIGHCHERAN","د_مرکز_نوم__نام_مرکز":"منزل عبدالرحمن","Polling_Center_Name":"Abdul Rahman Private House","د_مرکز_ځای__موقعیت_مرکز":"سر جی","Polling_Center_Location":"Sar Ji","Verification_Note":"District","PS_Male":3,"PS_Female":1,"Map_Accuracy":"ولسوالی"},"geometry":{"x":7256185.0263840556,"y":4127857.0453744903}},{"attributes":{"OBJECTID":5813,"ولایت":"غزنى","Province":"GHAZNI","PC_Code":"1111183","ولسوالي":"قره باغ","District":"QARA BAGH","د_مرکز_نوم__نام_مرکز":"مسجد حسینا سرکانی","Polling_Center_Name":"Husaina Sarkani Mosque","د_مرکز_ځای__موقعیت_مرکز":"حسینا سرکانی","Polling_Center_Location":"Hussaina Sarkani","Verification_Note":"Village","PS_Male":2,"PS_Female":1,"Map_Accuracy":"قریه"},"geometry":{"x":7551164.1056498811,"y":3921334.8744160905}},{"attributes":{"OBJECTID":5814,"ولایت":"ارزگان","Province":"UROZGAN","PC_Code":"2501052","ولسوالي":"ترینکوټ","District":"TIRINKOT","د_مرکز_نوم__نام_مرکز":"مدرسه ملا میرباز زیارت","Polling_Center_Name":"Mula Mir Baz Ziarat Madrassa","د_مرکز_ځای__موقعیت_مرکز":"ملا میرباز زیارت","Polling_Center_Location":"Mula Mir Baz Ziarat","Verification_Note":"Village","PS_Male":2,"PS_Female":0,"Map_Accuracy":"قریه"},"geometry":{"x":7336332.7826037072,"y":3832285.0046515316}},{"attributes":{"OBJECTID":5815,"ولایت":"ارزگان","Province":"UROZGAN","PC_Code":"2502036","ولسوالي":"دهراود","District":"DEHRAOUD","د_مرکز_نوم__نام_مرکز":"لیسه ملا احمد ","Polling_Center_Name":"Mula Ahmad High School","د_مرکز_ځای__موقعیت_مرکز":"میاندو کلی","Polling_Center_Location":"Miyando Village","Verification_Note":"Building","PS_Male":5,"PS_Female":1,"Map_Accuracy":"تعمیر"},"geometry":{"x":7289356.89368587,"y":3849428.8275464848}},{"attributes":{"OBJECTID":5816,"ولایت":"غزنى","Province":"GHAZNI","PC_Code":"1113373","ولسوالي":"آب بند","District":"AB BAND","د_مرکز_نوم__نام_مرکز":"حویلی جج محمد","Polling_Center_Name":"Jaj Mohammad House","د_مرکز_ځای__موقعیت_مرکز":" بادام کیجه","Polling_Center_Location":"Badam Keejah","Verification_Note":"Village","PS_Male":2,"PS_Female":0,"Map_Accuracy":"قریه"},"geometry":{"x":7559629.3829689175,"y":3883944.2476181835}},{"attributes":{"OBJECTID":5817,"ولایت":"غزنى","Province":"GHAZNI","PC_Code":"1113374","ولسوالي":"آب بند","District":"AB BAND","د_مرکز_نوم__نام_مرکز":"حویلی عبدالله خان","Polling_Center_Name":"Abdullah Khan House","د_مرکز_ځای__موقعیت_مرکز":" بادام کیجه","Polling_Center_Location":"Badam Keejah","Verification_Note":"Village","PS_Male":0,"PS_Female":2,"Map_Accuracy":"قریه"},"geometry":{"x":7559671.9682401232,"y":3884435.8289527446}},{"attributes":{"OBJECTID":5818,"ولایت":"ننگرهار","Province":"NANGARHAR","PC_Code":"0602049","ولسوالي":"بهسود","District":"BEHSUD","د_مرکز_نوم__نام_مرکز":"حاجی حلیم مسجد","Polling_Center_Name":"Haji Haleem Mosque","د_مرکز_ځای__موقعیت_مرکز":"نادر شاهي","Polling_Center_Location":"Nader Shahee","Verification_Note":"Building","PS_Male":3,"PS_Female":1,"Map_Accuracy":"تعمیر"},"geometry":{"x":7846864.4379228167,"y":4084485.7072059736}},{"attributes":{"OBJECTID":5819,"ولایت":"غزنى","Province":"GHAZNI","PC_Code":"1101052","ولسوالي":"غزنی","District":"GHAZNI","د_مرکز_نوم__نام_مرکز":"لیسه محمد جان خان کوچی","Polling_Center_Name":"Mohammad Jan Khan Kuchi High School","د_مرکز_ځای__موقعیت_مرکز":"گنج غزنی، ناحیه اول ","Polling_Center_Location":"Nahia 1, Kanj-e-Ghazni","Verification_Note":"Building","PS_Male":1,"PS_Female":2,"Map_Accuracy":"تعمیر"},"geometry":{"x":7616303.5060747042,"y":3965094.51024428}},{"attributes":{"OBJECTID":5820,"ولایت":"کابل","Province":"KABUL","PC_Code":"0101023","ولسوالي":"کابل - ناحیه 02","District":"KABUL-D02","د_مرکز_نوم__نام_مرکز":"مکتب قاري عبدالله","Polling_Center_Name":"Qari Abdullah School","د_مرکز_ځای__موقعیت_مرکز":"جوي شير ده افغانان","Polling_Center_Location":"Joy Sher, Deh Afghanan","Verification_Note":"Building","PS_Male":3,"PS_Female":2,"Map_Accuracy":"تعمیر"},"geometry":{"x":7699624.1434090286,"y":4098247.9046396688}},{"attributes":{"OBJECTID":5821,"ولایت":"کابل","Province":"KABUL","PC_Code":"0101024","ولسوالي":"کابل - ناحیه 02","District":"KABUL-D02","د_مرکز_نوم__نام_مرکز":"مسجد حاجي مير احمد","Polling_Center_Name":"Haji Mir Ahmad Mosque","د_مرکز_ځای__موقعیت_مرکز":"سينما بهارستان","Polling_Center_Location":"Baharistan Cinema ","Verification_Note":"Building","PS_Male":3,"PS_Female":2,"Map_Accuracy":"تعمیر"},"geometry":{"x":7697251.3896134757,"y":4100366.1188337728}},{"attributes":{"OBJECTID":5822,"ولایت":"کابل","Province":"KABUL","PC_Code":"0101041","ولسوالي":"کابل - ناحیه 03","District":"KABUL-D03","د_مرکز_نوم__نام_مرکز":"  مکتب متوسطه نسوان گذرگاه","Polling_Center_Name":"Guzargah Girls Secondary School","د_مرکز_ځای__موقعیت_مرکز":"حصه دوم","Polling_Center_Location":"Hesa-e-Duwom","Verification_Note":"Building","PS_Male":2,"PS_Female":3,"Map_Accuracy":"تعمیر"},"geometry":{"x":7698175.6964962333,"y":4096326.64606449}},{"attributes":{"OBJECTID":5823,"ولایت":"کابل","Province":"KABUL","PC_Code":"0101080","ولسوالي":"کابل - ناحیه 05","District":"KABUL-D05","د_مرکز_نوم__نام_مرکز":" مسجد محمدي پغماني ها","Polling_Center_Name":"Paghmaneha Mohammadia Mosque","د_مرکز_ځای__موقعیت_مرکز":"قلعه واحد","Polling_Center_Location":"Qala-e-Wahid","Verification_Note":"Building","PS_Male":2,"PS_Female":1,"Map_Accuracy":"تعمیر"},"geometry":{"x":7693349.6169708781,"y":4098250.0784163773}},{"attributes":{"OBJECTID":5824,"ولایت":"کابل","Province":"KABUL","PC_Code":"0101100","ولسوالي":"کابل - ناحیه 06","District":"KABUL-D06","د_مرکز_نوم__نام_مرکز":" مکتب متوسطه گلخانه","Polling_Center_Name":"Gulkhana Secondary School","د_مرکز_ځای__موقعیت_مرکز":"قریه ده قابل","Polling_Center_Location":"Deh Qabil Village","Verification_Note":"Building","PS_Male":7,"PS_Female":5,"Map_Accuracy":"تعمیر"},"geometry":{"x":7692390.4448236041,"y":4096236.7047146633}},{"attributes":{"OBJECTID":5825,"ولایت":"کابل","Province":"KABUL","PC_Code":"0101101","ولسوالي":"کابل - ناحیه 06","District":"KABUL-D06","د_مرکز_نوم__نام_مرکز":" مسجد احمدي","Polling_Center_Name":"Ahmadi Mosque","د_مرکز_ځای__موقعیت_مرکز":" داش هاي حاجي حسين","Polling_Center_Location":"Dash hai Haji Hussain","Verification_Note":"Building","PS_Male":3,"PS_Female":2,"Map_Accuracy":"تعمیر"},"geometry":{"x":7693805.2454203069,"y":4095394.8325901106}},{"attributes":{"OBJECTID":5826,"ولایت":"کابل","Province":"KABUL","PC_Code":"0101140","ولسوالي":"کابل - ناحیه 07","District":"KABUL-D07","د_مرکز_نوم__نام_مرکز":" ليسه نسوان ايميني","Polling_Center_Name":"Imini Girls High School","د_مرکز_ځای__موقعیت_مرکز":"جنگلک","Polling_Center_Location":"Jangalak","Verification_Note":"Building","PS_Male":3,"PS_Female":3,"Map_Accuracy":"تعمیر"},"geometry":{"x":7698372.0863418877,"y":4095761.9908140227}},{"attributes":{"OBJECTID":5827,"ولایت":"کابل","Province":"KABUL","PC_Code":"0101493","ولسوالي":"کابل - ناحیه 09","District":"KABUL-D09","د_مرکز_نوم__نام_مرکز":"مسجد سهیل بن عمر","Polling_Center_Name":"Sohel Ibne Omer Mosque","د_مرکز_ځای__موقعیت_مرکز":" مکروریان چهار","Polling_Center_Location":"4th Makrorian","Verification_Note":"Building","PS_Male":2,"PS_Female":1,"Map_Accuracy":"تعمیر"},"geometry":{"x":7703935.35247834,"y":4101975.4569916204}},{"attributes":{"OBJECTID":5828,"ولایت":"کابل","Province":"KABUL","PC_Code":"0101228","ولسوالي":"کابل - ناحیه 10","District":"KABUL-D10","د_مرکز_نوم__نام_مرکز":" مسجد احمد مجتبي","Polling_Center_Name":"Ahmad Mujtaba Mosque","د_مرکز_ځای__موقعیت_مرکز":"وزیر اکبر خان","Polling_Center_Location":"Wazir Akbar Khan","Verification_Note":"Building","PS_Male":2,"PS_Female":1,"Map_Accuracy":"تعمیر"},"geometry":{"x":7701182.2511522062,"y":4101510.333784841}},{"attributes":{"OBJECTID":5829,"ولایت":"کابل","Province":"KABUL","PC_Code":"0101229","ولسوالي":"کابل - ناحیه 11","District":"KABUL-D11","د_مرکز_نوم__نام_مرکز":"مکتب متوسطه هزاره بغل","Polling_Center_Name":"Hazara Baghal Secondary School","د_مرکز_ځای__موقعیت_مرکز":"هزاره بغل","Polling_Center_Location":"Hazara Baghal","Verification_Note":"Building","PS_Male":3,"PS_Female":2,"Map_Accuracy":"تعمیر"},"geometry":{"x":7694442.4738078453,"y":4108151.0596598759}},{"attributes":{"OBJECTID":5830,"ولایت":"کابل","Province":"KABUL","PC_Code":"0101281","ولسوالي":"کابل - ناحیه 13","District":"KABUL-D13","د_مرکز_نوم__نام_مرکز":" مسجد سرور کاينات","Polling_Center_Name":"Sarwar-e-Kaienat Mosque","د_مرکز_ځای__موقعیت_مرکز":"ريگ ريشن","Polling_Center_Location":"Reg Reshan","Verification_Note":"Building","PS_Male":2,"PS_Female":1,"Map_Accuracy":"تعمیر"},"geometry":{"x":7688972.8073256426,"y":4097514.6160329506}},{"attributes":{"OBJECTID":5831,"ولایت":"کابل","Province":"KABUL","PC_Code":"0101314","ولسوالي":"کابل - ناحیه 16","District":"KABUL-D16","د_مرکز_نوم__نام_مرکز":"ليسه شهرک خراسان","Polling_Center_Name":"Shahrak-e-Khurasan High School","د_مرکز_ځای__موقعیت_مرکز":"شهرک خراسان","Polling_Center_Location":"Shahrak-e-Khurasan","Verification_Note":"Building","PS_Male":5,"PS_Female":3,"Map_Accuracy":"تعمیر"},"geometry":{"x":7708275.8931202814,"y":4098735.5220468342}},{"attributes":{"OBJECTID":5832,"ولایت":"کابل","Province":"KABUL","PC_Code":"0102410","ولسوالي":"پغمان","District":"PAGHMAN","د_مرکز_نوم__نام_مرکز":" مکتب ابتدائيه کشکک","Polling_Center_Name":"Keshkak Primary School","د_مرکز_ځای__موقعیت_مرکز":"کشکک","Polling_Center_Location":"Kashkak","Verification_Note":"Village","PS_Male":2,"PS_Female":1,"Map_Accuracy":"قریه"},"geometry":{"x":7683578.5308553837,"y":4101780.9716317877}},{"attributes":{"OBJECTID":5833,"ولایت":"کابل","Province":"KABUL","PC_Code":"0104450","ولسوالي":"بگرامی","District":"BAGRAMI","د_مرکز_نوم__نام_مرکز":"لیسه ذکور شينه","Polling_Center_Name":"Sheena Boys High School","د_مرکز_ځای__موقعیت_مرکز":"قريه شينه","Polling_Center_Location":"Sheena Village","Verification_Note":"Building","PS_Male":2,"PS_Female":1,"Map_Accuracy":"تعمیر"},"geometry":{"x":7713791.3787049055,"y":4098877.6743609011}},{"attributes":{"OBJECTID":5834,"ولایت":"کابل","Province":"KABUL","PC_Code":"0105471","ولسوالي":"ده سبز","District":"DEHSABZ","د_مرکز_نوم__نام_مرکز":"متوسطه ده سبز خاص","Polling_Center_Name":"Faiz alquran Madrasa","د_مرکز_ځای__موقعیت_مرکز":"علي خيل","Polling_Center_Location":"Ali Khel","Verification_Note":"Building","PS_Male":3,"PS_Female":2,"Map_Accuracy":"تعمیر"},"geometry":{"x":7722643.9432115778,"y":4114217.6416379586}},{"attributes":{"OBJECTID":5835,"ولایت":"کابل","Province":"KABUL","PC_Code":"0107436","ولسوالي":"موسهی","District":"MUSAHI","د_مرکز_نوم__نام_مرکز":"مسجد خانان خيل","Polling_Center_Name":"Khanan Khel Mosque","د_مرکز_ځای__موقعیت_مرکز":"خانان خيل","Polling_Center_Location":"Khanan Khel","Verification_Note":"Building","PS_Male":2,"PS_Female":1,"Map_Accuracy":"تعمیر"},"geometry":{"x":7702355.0776849613,"y":4074796.8858878762}},{"attributes":{"OBJECTID":5836,"ولایت":"کابل","Province":"KABUL","PC_Code":"0113376","ولسوالي":"استالف","District":"ESTALEF","د_مرکز_نوم__نام_مرکز":" لیسه مولوی محمد يعقوب شاه ","Polling_Center_Name":"Mawlawi Mohammad Yaqoub Shah High School","د_مرکز_ځای__موقعیت_مرکز":"تنگي ميانه","Polling_Center_Location":"Tangi Miana","Verification_Note":"Building","PS_Male":2,"PS_Female":2,"Map_Accuracy":"تعمیر"},"geometry":{"x":7691560.8852990456,"y":4141919.9470667988}},{"attributes":{"OBJECTID":5837,"ولایت":"کاپيسا","Province":"KAPISA","PC_Code":"0203069","ولسوالي":"کوه بند","District":"KOH BAND","د_مرکز_نوم__نام_مرکز":"مسجد حبیب خیل ","Polling_Center_Name":"Habib Khel Mosque","د_مرکز_ځای__موقعیت_مرکز":"درنامه ","Polling_Center_Location":"Darnama","Verification_Note":"Building","PS_Male":2,"PS_Female":1,"Map_Accuracy":"تعمیر"},"geometry":{"x":7735554.3335890137,"y":4172326.3938270584}},{"attributes":{"OBJECTID":5838,"ولایت":"کاپيسا","Province":"KAPISA","PC_Code":"0204038","ولسوالي":"حصه اول کوهستان ","District":"HISSA-E-AWALI KOHISTAN","د_مرکز_نوم__نام_مرکز":"سالون خواجه میرخیل ","Polling_Center_Name":"Saloon Khwaja Mirkhel ","د_مرکز_ځای__موقعیت_مرکز":"خواجه میرخیل","Polling_Center_Location":"Khwaja Mir Khel","Verification_Note":"Building","PS_Male":2,"PS_Female":1,"Map_Accuracy":"تعمیر"},"geometry":{"x":7714951.7663977556,"y":4180628.0211547837}},{"attributes":{"OBJECTID":5839,"ولایت":"کاپيسا","Province":"KAPISA","PC_Code":"0205042","ولسوالي":"نجراب ","District":"NIJRAB","د_مرکز_نوم__نام_مرکز":"مکتب متوسطه روزاخیل ","Polling_Center_Name":"Ruzakhel  Secondary School ","د_مرکز_ځای__موقعیت_مرکز":"روزاخیل ","Polling_Center_Location":"Ruza Khel ","Verification_Note":"Building","PS_Male":1,"PS_Female":1,"Map_Accuracy":"تعمیر"},"geometry":{"x":7749083.8473519981,"y":4170627.4433338046}},{"attributes":{"OBJECTID":5840,"ولایت":"پروان","Province":"PARWAN","PC_Code":"0301007","ولسوالي":"چاریکار","District":"CHARIKAR","د_مرکز_نوم__نام_مرکز":"لیسه تتمدره علیا","Polling_Center_Name":"Tatmdara-e-Ulya High School","د_مرکز_ځای__موقعیت_مرکز":"تتمدره علیا","Polling_Center_Location":"Tatumdara-e-Ulya","Verification_Note":"Building","PS_Male":3,"PS_Female":1,"Map_Accuracy":"تعمیر"},"geometry":{"x":7702736.9079911634,"y":4174658.6914631948}},{"attributes":{"OBJECTID":5841,"ولایت":"پروان","Province":"PARWAN","PC_Code":"0302112","ولسوالي":"بگرام ","District":"BAGRAM","د_مرکز_نوم__نام_مرکز":"لیسه ذکور میدان","Polling_Center_Name":"Maidan Boys High School","د_مرکز_ځای__موقعیت_مرکز":"فامیلی های میدان هوائی ","Polling_Center_Location":"Famili hai Maidan Hawaye","Verification_Note":"Building","PS_Male":3,"PS_Female":2,"Map_Accuracy":"تعمیر"},"geometry":{"x":7708348.35097684,"y":4155859.5364866778}},{"attributes":{"OBJECTID":5842,"ولایت":"پروان","Province":"PARWAN","PC_Code":"0309133","ولسوالي":"سرخ پارسا ","District":"SURKHI PARSA","د_مرکز_نوم__نام_مرکز":"دارالعلوم عبدالروف حجت","Polling_Center_Name":"Abdul Rawoof Hojat Darul Olum ","د_مرکز_ځای__موقعیت_مرکز":"قریه باقی پیرسلطان ","Polling_Center_Location":"Baqi Peer Sultan Village ","Verification_Note":"Building","PS_Male":1,"PS_Female":1,"Map_Accuracy":"تعمیر"},"geometry":{"x":7642948.2636816725,"y":4139571.30235707}},{"attributes":{"OBJECTID":5843,"ولایت":"وردک","Province":"WARDAK","PC_Code":"0401002","ولسوالي":"میدان شهر","District":"MAYDAN SHAHR","د_مرکز_نوم__نام_مرکز":"مکتب پل سرخ","Polling_Center_Name":"Pul-e-Surkh School","د_مرکز_ځای__موقعیت_مرکز":"قریه شهاب الدین","Polling_Center_Location":"Shahabuddin Village","Verification_Note":"Building","PS_Male":1,"PS_Female":2,"Map_Accuracy":"تعمیر"},"geometry":{"x":7665151.8311290964,"y":4073098.1642194092}},{"attributes":{"OBJECTID":5844,"ولایت":"وردک","Province":"WARDAK","PC_Code":"0402152","ولسوالي":"نرخ","District":"NERKH","د_مرکز_نوم__نام_مرکز":"مکتب سرمردا","Polling_Center_Name":"Sare Marda School","د_مرکز_ځای__موقعیت_مرکز":"سرمردا","Polling_Center_Location":"Sarmarda","Verification_Note":"Village","PS_Male":2,"PS_Female":1,"Map_Accuracy":"قریه"},"geometry":{"x":7642855.7093174458,"y":4077345.2380467281}},{"attributes":{"OBJECTID":5845,"ولایت":"وردک","Province":"WARDAK","PC_Code":"0404085","ولسوالي":"چک وردک","District":"CHAKI WARDAK","د_مرکز_نوم__نام_مرکز":"مکتب سر کوه","Polling_Center_Name":"Sar-e-Koh School","د_مرکز_ځای__موقعیت_مرکز":"لندو","Polling_Center_Location":"Lando","Verification_Note":"Village","PS_Male":1,"PS_Female":1,"Map_Accuracy":"قریه"},"geometry":{"x":7638028.43756035,"y":4042589.0864039361}},{"attributes":{"OBJECTID":5846,"ولایت":"وردک","Province":"WARDAK","PC_Code":"0404106","ولسوالي":"چک وردک","District":"CHAKI WARDAK","د_مرکز_نوم__نام_مرکز":"مسجد کلان قریه قادرخیل","Polling_Center_Name":"Qadir Khel Village Mosque","د_مرکز_ځای__موقعیت_مرکز":"قریه قادر خیل","Polling_Center_Location":"Qader Khel Village ","Verification_Note":"Village","PS_Male":1,"PS_Female":1,"Map_Accuracy":"قریه"},"geometry":{"x":7622176.4474498183,"y":4024936.012157701}},{"attributes":{"OBJECTID":5847,"ولایت":"وردک","Province":"WARDAK","PC_Code":"0409035","ولسوالي":"مرکز بهسود","District":"MARKAZ-E-BEHSUD","د_مرکز_نوم__نام_مرکز":"لیسه شهدا","Polling_Center_Name":"Shuhada High School","د_مرکز_ځای__موقعیت_مرکز":"پل افغانان","Polling_Center_Location":"Pul-e-Afghanan","Verification_Note":"Village","PS_Male":1,"PS_Female":1,"Map_Accuracy":"قریه"},"geometry":{"x":7559368.777361799,"y":4087994.05196622}},{"attributes":{"OBJECTID":5848,"ولایت":"وردک","Province":"WARDAK","PC_Code":"0409056","ولسوالي":"مرکز بهسود","District":"MARKAZ-E-BEHSUD","د_مرکز_نوم__نام_مرکز":"کلینیک سرتاله","Polling_Center_Name":"Sare Tala Clinic","د_مرکز_ځای__موقعیت_مرکز":"سرتاله","Polling_Center_Location":"Sare Tala","Verification_Note":"Building","PS_Male":1,"PS_Female":1,"Map_Accuracy":"تعمیر"},"geometry":{"x":7576075.32601494,"y":4086517.5276872218}},{"attributes":{"OBJECTID":5849,"ولایت":"لوگر","Province":"LOGAR","PC_Code":"0501015","ولسوالي":"پل علم","District":"PULI ALAM","د_مرکز_نوم__نام_مرکز":"مکتب قلعه شاهى","Polling_Center_Name":"Qala-e-Shahi School","د_مرکز_ځای__موقعیت_مرکز":"شاهى","Polling_Center_Location":"Shahi","Verification_Note":"Building","PS_Male":2,"PS_Female":2,"Map_Accuracy":"تعمیر"},"geometry":{"x":7685354.8715546988,"y":4036488.6154533625}},{"attributes":{"OBJECTID":5850,"ولایت":"لوگر","Province":"LOGAR","PC_Code":"0502037","ولسوالي":"برکی برک","District":"BARAKI BARAK","د_مرکز_نوم__نام_مرکز":"مسجد پل راجان ","Polling_Center_Name":"Pul-e-Rajan Mosque ","د_مرکز_ځای__موقعیت_مرکز":"پل راجان","Polling_Center_Location":"Pul-e-Rajan","Verification_Note":"Building","PS_Male":2,"PS_Female":1,"Map_Accuracy":"تعمیر"},"geometry":{"x":7673906.5558221191,"y":4017316.2419520915}},{"attributes":{"OBJECTID":5851,"ولایت":"لوگر","Province":"LOGAR","PC_Code":"0505060","ولسوالي":"محمد آغه","District":"MOHAMMAD AGHA","د_مرکز_نوم__نام_مرکز":"مکتب محمد جان خان","Polling_Center_Name":"Mohammad Jan Khan School","د_مرکز_ځای__موقعیت_مرکز":"ذيد آباد","Polling_Center_Location":"Zaid Abad","Verification_Note":"Building","PS_Male":2,"PS_Female":2,"Map_Accuracy":"تعمیر"},"geometry":{"x":7695792.1480496526,"y":4064854.7104939967}},{"attributes":{"OBJECTID":5852,"ولایت":"لوگر","Province":"LOGAR","PC_Code":"0507081","ولسوالي":"اذره","District":"AZRA","د_مرکز_نوم__نام_مرکز":"مکتب ببر","Polling_Center_Name":"Baber School","د_مرکز_ځای__موقعیت_مرکز":"ببر","Polling_Center_Location":"Baber","Verification_Note":"Building","PS_Male":3,"PS_Female":3,"Map_Accuracy":"تعمیر"},"geometry":{"x":7751528.6604803391,"y":4051114.3804802448}},{"attributes":{"OBJECTID":5853,"ولایت":"ننگرهار","Province":"NANGARHAR","PC_Code":"0601021","ولسوالي":"جلال آباد","District":"JALALABAD","د_مرکز_نوم__نام_مرکز":"چکنوري ليسه","Polling_Center_Name":"Cheknowri High School","د_مرکز_ځای__موقعیت_مرکز":"دریمه ناحیه","Polling_Center_Location":"D03-Nahia 3","Verification_Note":"Building","PS_Male":6,"PS_Female":0,"Map_Accuracy":"تعمیر"},"geometry":{"x":7840520.1230695024,"y":4087306.3010064587}},{"attributes":{"OBJECTID":5854,"ولایت":"ننگرهار","Province":"NANGARHAR","PC_Code":"0601042","ولسوالي":"جلال آباد","District":"JALALABAD","د_مرکز_نوم__نام_مرکز":"عبدالرحيم مکتب","Polling_Center_Name":"Abdul Rahim School","د_مرکز_ځای__موقعیت_مرکز":"اوله ناحیه","Polling_Center_Location":"D01-Nahia 1","Verification_Note":"Building","PS_Male":0,"PS_Female":4,"Map_Accuracy":"تعمیر"},"geometry":{"x":7846350.0758628957,"y":4085634.8296976313}},{"attributes":{"OBJECTID":5855,"ولایت":"ننگرهار","Province":"NANGARHAR","PC_Code":"0605161","ولسوالي":"کامه","District":"KAMA","د_مرکز_نوم__نام_مرکز":"سید سرور قادری لیسه ","Polling_Center_Name":"Sayed Sarwar Qadery High School","د_مرکز_ځای__موقعیت_مرکز":"خاص کامه ","Polling_Center_Location":"Khasa Kama ","Verification_Note":"Village","PS_Male":2,"PS_Female":1,"Map_Accuracy":"قریه"},"geometry":{"x":7865611.5850522481,"y":4084325.1092792973}},{"attributes":{"OBJECTID":5856,"ولایت":"ننگرهار","Province":"NANGARHAR","PC_Code":"0606197","ولسوالي":"کوز کنړ","District":"KUZ KUNAR","د_مرکز_نوم__نام_مرکز":"ګوریک کلینیک","Polling_Center_Name":"Goreek Clinic","د_مرکز_ځای__موقعیت_مرکز":"ګوریک","Polling_Center_Location":"Goreek","Verification_Note":"Village","PS_Male":1,"PS_Female":2,"Map_Accuracy":"قریه"},"geometry":{"x":7861324.5514593832,"y":4103802.51374007}},{"attributes":{"OBJECTID":5857,"ولایت":"ننگرهار","Province":"NANGARHAR","PC_Code":"0606198","ولسوالي":"کوز کنړ","District":"KUZ KUNAR","د_مرکز_نوم__نام_مرکز":"عام کور","Polling_Center_Name":"Public House","د_مرکز_ځای__موقعیت_مرکز":"کوزکاشکوټ کلی","Polling_Center_Location":"Koz Kashkot Village","Verification_Note":"Village","PS_Male":0,"PS_Female":2,"Map_Accuracy":"قریه"},"geometry":{"x":7867091.5133396722,"y":4105855.2296729833}},{"attributes":{"OBJECTID":5858,"ولایت":"ننگرهار","Province":"NANGARHAR","PC_Code":"0609455","ولسوالي":"بټي کوټ","District":"BATI KOT","د_مرکز_نوم__نام_مرکز":"جینکو لیسه ","Polling_Center_Name":"Girls High School","د_مرکز_ځای__موقعیت_مرکز":"حاجیانو کلی ","Polling_Center_Location":"Hajiyano village","Verification_Note":"Building","PS_Male":2,"PS_Female":1,"Map_Accuracy":"تعمیر"},"geometry":{"x":7874748.534345109,"y":4061059.3280956149}},{"attributes":{"OBJECTID":5859,"ولایت":"ننگرهار","Province":"NANGARHAR","PC_Code":"0614500","ولسوالي":"ګوشته","District":"GOSHTA","د_مرکز_نوم__نام_مرکز":"ماماخیل مکتب","Polling_Center_Name":"Mama Khel School","د_مرکز_ځای__موقعیت_مرکز":"ماما خيل","Polling_Center_Location":"Mama Khel","Verification_Note":"Building","PS_Male":1,"PS_Female":1,"Map_Accuracy":"تعمیر"},"geometry":{"x":7885439.77546031,"y":4086462.695788756}},{"attributes":{"OBJECTID":5860,"ولایت":"ننگرهار","Province":"NANGARHAR","PC_Code":"0615386","ولسوالي":"اچین","District":"ACHIN","د_مرکز_نوم__نام_مرکز":"میرانو ازاد میدان","Polling_Center_Name":"Milano Open Space","د_مرکز_ځای__موقعیت_مرکز":"عبدلخيل چينه","Polling_Center_Location":"Abdul Khel Cheena","Verification_Note":"Village","PS_Male":2,"PS_Female":0,"Map_Accuracy":"قریه"},"geometry":{"x":7871182.7150201686,"y":4039803.0898646861}},{"attributes":{"OBJECTID":5861,"ولایت":"ننگرهار","Province":"NANGARHAR","PC_Code":"0615387","ولسوالي":"اچین","District":"ACHIN","د_مرکز_نوم__نام_مرکز":"میرانو کلی جومات","Polling_Center_Name":"Mirano Village Mosque","د_مرکز_ځای__موقعیت_مرکز":"عبدالخيل چينه","Polling_Center_Location":"Abdul Khel Cheena","Verification_Note":"Village","PS_Male":0,"PS_Female":2,"Map_Accuracy":"قریه"},"geometry":{"x":7871620.5134267546,"y":4039881.8435648456}},{"attributes":{"OBJECTID":5862,"ولایت":"ننگرهار","Province":"NANGARHAR","PC_Code":"0619244","ولسوالي":"شیرزاد","District":"SHER ZAD","د_مرکز_نوم__نام_مرکز":"ماماخيل کلینيک","Polling_Center_Name":"Mama Khel Clinic ","د_مرکز_ځای__موقعیت_مرکز":"ماما خيل","Polling_Center_Location":"Mama Khel ","Verification_Note":"Village","PS_Male":3,"PS_Female":0,"Map_Accuracy":"قریه"},"geometry":{"x":7791992.3914694265,"y":4062045.0281122923}},{"attributes":{"OBJECTID":5863,"ولایت":"لغمان","Province":"LAGHMAN","PC_Code":"0701030","ولسوالي":"مهترلام","District":"MEHTARLAM","د_مرکز_نوم__نام_مرکز":"ارصلاح قلعه جومات","Polling_Center_Name":"Arsalah Qala Mosque","د_مرکز_ځای__موقعیت_مرکز":"ارصلاح قلعه","Polling_Center_Location":"Arsalah Qala","Verification_Note":"Village","PS_Male":2,"PS_Female":1,"Map_Accuracy":"قریه"},"geometry":{"x":7822161.5953993872,"y":4127515.1453161091}},{"attributes":{"OBJECTID":5864,"ولایت":"لغمان","Province":"LAGHMAN","PC_Code":"0703101","ولسوالي":"علیشنګ","District":"ALISHING","د_مرکز_نوم__نام_مرکز":"ميا، صاحب دیری د کلي جومات ","Polling_Center_Name":"Dera Mia Sahib Village Mosque","د_مرکز_ځای__موقعیت_مرکز":"میاصاحب دیره","Polling_Center_Location":"Miya Sahib Dera","Verification_Note":"Building","PS_Male":1,"PS_Female":1,"Map_Accuracy":"تعمیر"},"geometry":{"x":7803936.2169722021,"y":4135400.7295116559}},{"attributes":{"OBJECTID":5865,"ولایت":"پنجشیر","Province":"PANJSHIR","PC_Code":"0805038","ولسوالي":"عنابه","District":"UNABA","د_مرکز_نوم__نام_مرکز":"مکتب نسوان دشتک","Polling_Center_Name":"Dashtak Girls School ","د_مرکز_ځای__موقعیت_مرکز":"دشتک ","Polling_Center_Location":"Dashtak","Verification_Note":"Building","PS_Male":1,"PS_Female":1,"Map_Accuracy":"تعمیر"},"geometry":{"x":7729728.1319285,"y":4197927.513737388}},{"attributes":{"OBJECTID":5866,"ولایت":"بغلان","Province":"BAGHLAN","PC_Code":"0901021","ولسوالي":"پلخمری","District":"PUL-E-KHUMRI","د_مرکز_نوم__نام_مرکز":"مسچد زمان خیل گاوسوار","Polling_Center_Name":"Zaman Khil Gaw Sovar Mosque","د_مرکز_ځای__موقعیت_مرکز":"ناحیه سوم","Polling_Center_Location":"Third Nahia","Verification_Note":"Building","PS_Male":1,"PS_Female":1,"Map_Accuracy":"تعمیر"},"geometry":{"x":7646083.4713863581,"y":4299921.3817310184}},{"attributes":{"OBJECTID":5867,"ولایت":"بغلان","Province":"BAGHLAN","PC_Code":"0903106","ولسوالي":"دوشی","District":"DUSHI","د_مرکز_نوم__نام_مرکز":"صالون اجتماعی  زرد سنگ","Polling_Center_Name":"Zard Sang Social Saloon","د_مرکز_ځای__موقعیت_مرکز":"قریه زرد سنگ","Polling_Center_Location":"Zard Sang","Verification_Note":"Building","PS_Male":1,"PS_Female":1,"Map_Accuracy":"تعمیر"},"geometry":{"x":7652165.2993331626,"y":4256950.406817019}},{"attributes":{"OBJECTID":5868,"ولایت":"بغلان","Province":"BAGHLAN","PC_Code":"0904143","ولسوالي":"نهرین","District":"NAHREEN","د_مرکز_نوم__نام_مرکز":"مسجد سرکاتب لعل محمد ","Polling_Center_Name":"Sar Kateb Lal Mohammad Mosque ","د_مرکز_ځای__موقعیت_مرکز":"تاوه شخ","Polling_Center_Location":"Tawa Shakh","Verification_Note":"Building","PS_Male":1,"PS_Female":1,"Map_Accuracy":"تعمیر"},"geometry":{"x":7694280.4360438511,"y":4311073.1241134778}},{"attributes":{"OBJECTID":5869,"ولایت":"بغلان","Province":"BAGHLAN","PC_Code":"0905074","ولسوالي":"بغلان جدید","District":"BAGLAN-E-JADEED","د_مرکز_نوم__نام_مرکز":"مسجد جامع ابوبکر","Polling_Center_Name":"Abobakr Jamae Mosque","د_مرکز_ځای__موقعیت_مرکز":"قریه ابوبکر","Polling_Center_Location":"Abobakr Village","Verification_Note":"Building","PS_Male":2,"PS_Female":1,"Map_Accuracy":"تعمیر"},"geometry":{"x":7665246.4348851517,"y":4350708.08783415}},{"attributes":{"OBJECTID":5870,"ولایت":"بغلان","Province":"BAGHLAN","PC_Code":"0911164","ولسوالي":"تاله و برفک","District":"TALA WA BARFAK","د_مرکز_نوم__نام_مرکز":"مدرسه نعمانیه ","Polling_Center_Name":"Numania Madrassa","د_مرکز_ځای__موقعیت_مرکز":"زیر باغ","Polling_Center_Location":"Zer Bagh","Verification_Note":"Building","PS_Male":2,"PS_Female":1,"Map_Accuracy":"تعمیر"},"geometry":{"x":7586147.0793959089,"y":4211013.7992271557}},{"attributes":{"OBJECTID":5871,"ولایت":"بغلان","Province":"BAGHLAN","PC_Code":"0913204","ولسوالي":"خوست و فرنگ","District":"KHOST WA FIRING","د_مرکز_نوم__نام_مرکز":"مکتب متوسطه ملم","Polling_Center_Name":"Malam Secondary School","د_مرکز_ځای__موقعیت_مرکز":"قریه سنگان","Polling_Center_Location":"Sangan Village","Verification_Note":"Building","PS_Male":1,"PS_Female":1,"Map_Accuracy":"تعمیر"},"geometry":{"x":7766538.7479611672,"y":4300523.9211260751}},{"attributes":{"OBJECTID":5872,"ولایت":"بغلان","Province":"BAGHLAN","PC_Code":"0915218","ولسوالي":"فرنگ و غارو","District":"FIRING WA GHARU","د_مرکز_نوم__نام_مرکز":"مکتب لیسه میهن رامین دهنه فرنگ","Polling_Center_Name":"Mahan Rameen High School","د_مرکز_ځای__موقعیت_مرکز":"دهنه فرنگ","Polling_Center_Location":"Dahana Farang","Verification_Note":"Building","PS_Male":1,"PS_Female":1,"Map_Accuracy":"تعمیر"},"geometry":{"x":7746318.82148201,"y":4318257.1066630855}},{"attributes":{"OBJECTID":5873,"ولایت":"باميان","Province":"BAMYAN","PC_Code":"1003038","ولسوالي":"سیغان","District":"SAIGHAN","د_مرکز_نوم__نام_مرکز":"مکتب دخترانه غورچی","Polling_Center_Name":"Ghorchi Girls School","د_مرکز_ځای__موقعیت_مرکز":"غورچی","Polling_Center_Location":"Ghorchi","Verification_Note":"Building","PS_Male":0,"PS_Female":2,"Map_Accuracy":"تعمیر"},"geometry":{"x":7541943.284022525,"y":4191880.8354540169}},{"attributes":{"OBJECTID":5874,"ولایت":"باميان","Province":"BAMYAN","PC_Code":"1005084","ولسوالي":"یکاولنگ","District":"YAKAWLANG","د_مرکز_نوم__نام_مرکز":"منبر کشکک نقشی","Polling_Center_Name":"Munbar-e-Kushkak Naqshi","د_مرکز_ځای__موقعیت_مرکز":"کشکک نقشی","Polling_Center_Location":"Kushkak Naqshi","Verification_Note":"Building","PS_Male":1,"PS_Female":1,"Map_Accuracy":"تعمیر"},"geometry":{"x":7464291.5761721209,"y":4161793.8291830197}},{"attributes":{"OBJECTID":5875,"ولایت":"غزنى","Province":"GHAZNI","PC_Code":"1101006","ولسوالي":"غزنی","District":"GHAZNI","د_مرکز_نوم__نام_مرکز":"لیسه شمس العارفین","Polling_Center_Name":"Shams-ul-Arefeen High School","د_مرکز_ځای__موقعیت_مرکز":"پلان سوم شهر","Polling_Center_Location":"Plan-e-Sewam Shahar","Verification_Note":"Building","PS_Male":5,"PS_Female":0,"Map_Accuracy":"تعمیر"},"geometry":{"x":7615986.4614857547,"y":3967567.234350577}},{"attributes":{"OBJECTID":5876,"ولایت":"غزنى","Province":"GHAZNI","PC_Code":"1107239","ولسوالي":"اندر","District":"ANDAR","د_مرکز_نوم__نام_مرکز":"کلینیک قریه کنسف","Polling_Center_Name":"Kanasf Village Clinic","د_مرکز_ځای__موقعیت_مرکز":"قریه کنسف ","Polling_Center_Location":"Kanasf Village","Verification_Note":"Village","PS_Male":3,"PS_Female":0,"Map_Accuracy":"قریه"},"geometry":{"x":7613899.4971057214,"y":3927796.6715527326}},{"attributes":{"OBJECTID":5877,"ولایت":"غزنى","Province":"GHAZNI","PC_Code":"1108078","ولسوالي":"زنخان","District":"ZANAKHAN","د_مرکز_نوم__نام_مرکز":"د قلعه سبز د کلی مسجد","Polling_Center_Name":"Kala-e-Sabz Village Mosque","د_مرکز_ځای__موقعیت_مرکز":"قلعه سبز","Polling_Center_Location":"Kala-e-Sabz","Verification_Note":"Village","PS_Male":0,"PS_Female":2,"Map_Accuracy":"قریه"},"geometry":{"x":7649437.9606767707,"y":3996462.7694763243}},{"attributes":{"OBJECTID":5878,"ولایت":"غزنى","Province":"GHAZNI","PC_Code":"1111139","ولسوالي":"قره باغ","District":"QARA BAGH","د_مرکز_نوم__نام_مرکز":"مسجد قریه شیر","Polling_Center_Name":"Sheer Village Mosque","د_مرکز_ځای__موقعیت_مرکز":"قریه شیر","Polling_Center_Location":"Sheer Village","Verification_Note":"Village","PS_Male":0,"PS_Female":2,"Map_Accuracy":"قریه"},"geometry":{"x":7573545.9056208208,"y":3927886.3369233161}},{"attributes":{"OBJECTID":5879,"ولایت":"غزنى","Province":"GHAZNI","PC_Code":"1111177","ولسوالي":"قره باغ","District":"QARA BAGH","د_مرکز_نوم__نام_مرکز":"لیسه قلیاقل","Polling_Center_Name":"Qalia Qul High School","د_مرکز_ځای__موقعیت_مرکز":"قریه قلیاقل","Polling_Center_Location":"Qalia Qul Village","Verification_Note":"Building","PS_Male":0,"PS_Female":3,"Map_Accuracy":"تعمیر"},"geometry":{"x":7568373.9530979916,"y":3946133.8051157817}},{"attributes":{"OBJECTID":5880,"ولایت":"غزنى","Province":"GHAZNI","PC_Code":"1111178","ولسوالي":"قره باغ","District":"QARA BAGH","د_مرکز_نوم__نام_مرکز":"مسجد حسینه زردالو","Polling_Center_Name":"Haseena Zardalo Mosque","د_مرکز_ځای__موقعیت_مرکز":"قریه زردالو","Polling_Center_Location":"Zardalo Village","Verification_Note":"Building","PS_Male":3,"PS_Female":0,"Map_Accuracy":"تعمیر"},"geometry":{"x":7551120.0810176618,"y":3921297.2391228154}},{"attributes":{"OBJECTID":5881,"ولایت":"غزنى","Province":"GHAZNI","PC_Code":"1112209","ولسوالي":"گیرو","District":"GIRO","د_مرکز_نوم__نام_مرکز":"مسجد قلعه شکور","Polling_Center_Name":"Qala-e-Shukoor Mosque","د_مرکز_ځای__موقعیت_مرکز":" قلعه شکور","Polling_Center_Location":"Qala-e-Shukur","Verification_Note":"Village","PS_Male":0,"PS_Female":2,"Map_Accuracy":"قریه"},"geometry":{"x":7592415.8372580372,"y":3897764.71061071}},{"attributes":{"OBJECTID":5882,"ولایت":"غزنى","Province":"GHAZNI","PC_Code":"1112210","ولسوالي":"گیرو","District":"GIRO","د_مرکز_نوم__نام_مرکز":"مسجد قریه زیګی","Polling_Center_Name":"Zygi Village Mosque","د_مرکز_ځای__موقعیت_مرکز":"قریه زیګی","Polling_Center_Location":"Zygi Village","Verification_Note":"Village","PS_Male":3,"PS_Female":0,"Map_Accuracy":"قریه"},"geometry":{"x":7596777.3883406706,"y":3889338.895902507}},{"attributes":{"OBJECTID":5883,"ولایت":"پکتيکا","Province":"PAKTIKA","PC_Code":"1201002","ولسوالي":"شرن","District":"SHARAN","د_مرکز_نوم__نام_مرکز":"شرن روغتون","Polling_Center_Name":"Sharan Hospital","د_مرکز_ځای__موقعیت_مرکز":"شرنه بازار","Polling_Center_Location":"Sharana Bazaar","Verification_Note":"Village","PS_Male":0,"PS_Female":3,"Map_Accuracy":"قریه"},"geometry":{"x":7657416.0293200389,"y":3918717.491260685}},{"attributes":{"OBJECTID":5884,"ولایت":"پکتيکا","Province":"PAKTIKA","PC_Code":"1201003","ولسوالي":"شرن","District":"SHARAN","د_مرکز_نوم__نام_مرکز":"لومړنۍ ښوونځی","Polling_Center_Name":"Primary School","د_مرکز_ځای__موقعیت_مرکز":"محمد خیل بازار","Polling_Center_Location":"Mohammad Khel Bazaar","Verification_Note":"Building","PS_Male":2,"PS_Female":0,"Map_Accuracy":"تعمیر"},"geometry":{"x":7651061.5064694136,"y":3918726.0045646951}},{"attributes":{"OBJECTID":5885,"ولایت":"پکتيکا","Province":"PAKTIKA","PC_Code":"1201004","ولسوالي":"شرن","District":"SHARAN","د_مرکز_نوم__نام_مرکز":"زوړ د پولیو مرکز","Polling_Center_Name":"Polio Old Center","د_مرکز_ځای__موقعیت_مرکز":"محمد خیل بازار","Polling_Center_Location":"Mohammad Khel Bazaar","Verification_Note":"Village","PS_Male":0,"PS_Female":2,"Map_Accuracy":"قریه"},"geometry":{"x":7650955.7640851066,"y":3918807.6081111059}},{"attributes":{"OBJECTID":5886,"ولایت":"پکتيکا","Province":"PAKTIKA","PC_Code":"1202029","ولسوالي":"مټا خان","District":"MATA KHAN","د_مرکز_نوم__نام_مرکز":"جومات کوتی خیل","Polling_Center_Name":"Koti Khel Mosque","د_مرکز_ځای__موقعیت_مرکز":"کوتی خیل","Polling_Center_Location":"Koti Khel","Verification_Note":"Village","PS_Male":2,"PS_Female":0,"Map_Accuracy":"قریه"},"geometry":{"x":7666762.2690517008,"y":3932151.9593750611}},{"attributes":{"OBJECTID":5887,"ولایت":"پکتيکا","Province":"PAKTIKA","PC_Code":"1202030","ولسوالي":"مټا خان","District":"MATA KHAN","د_مرکز_نوم__نام_مرکز":"کلینیک کوتی خیل","Polling_Center_Name":"Koti Khel Clinic","د_مرکز_ځای__موقعیت_مرکز":"کوتی خیل","Polling_Center_Location":"Koti Khel","Verification_Note":"Village","PS_Male":0,"PS_Female":2,"Map_Accuracy":"قریه"},"geometry":{"x":7666848.8845210969,"y":3932270.7725275457}},{"attributes":{"OBJECTID":5888,"ولایت":"پکتيکا","Province":"PAKTIKA","PC_Code":"1202032","ولسوالي":"مټا خان","District":"MATA KHAN","د_مرکز_نوم__نام_مرکز":"قلعه سیدو (خیمه ) ","Polling_Center_Name":"Qala-e-Saydo Tent ","د_مرکز_ځای__موقعیت_مرکز":"قلعه سیدو ","Polling_Center_Location":"Qala-e-Saydo ","Verification_Note":"Village","PS_Male":3,"PS_Female":2,"Map_Accuracy":"قریه"},"geometry":{"x":7670677.1484511383,"y":3937516.9469648898}},{"attributes":{"OBJECTID":5889,"ولایت":"پکتيکا","Province":"PAKTIKA","PC_Code":"1204055","ولسوالي":"یحی خیل","District":"YAHYA KHEL","د_مرکز_نوم__نام_مرکز":"ښوونځی قرب الدین ","Polling_Center_Name":"Qurbuddin School","د_مرکز_ځای__موقعیت_مرکز":"قرب الدین کلی ","Polling_Center_Location":"Qurbuddin Village","Verification_Note":"Village","PS_Male":2,"PS_Female":0,"Map_Accuracy":"قریه"},"geometry":{"x":7644833.1197338179,"y":3893555.7232209519}},{"attributes":{"OBJECTID":5890,"ولایت":"پکتيکا","Province":"PAKTIKA","PC_Code":"1204056","ولسوالي":"یحی خیل","District":"YAHYA KHEL","د_مرکز_نوم__نام_مرکز":"میلمستون بانگل","Polling_Center_Name":"Bangal Guest House","د_مرکز_ځای__موقعیت_مرکز":"قرب الدین کلی ","Polling_Center_Location":"Qurbuddin Village","Verification_Note":"Village","PS_Male":0,"PS_Female":2,"Map_Accuracy":"قریه"},"geometry":{"x":7644916.799708236,"y":3893505.8429715037}},{"attributes":{"OBJECTID":5891,"ولایت":"پکتيکا","Province":"PAKTIKA","PC_Code":"1207087","ولسوالي":"زرغون شهر ","District":"ZARGHUN SHAHR","د_مرکز_نوم__نام_مرکز":"سه ګانه مرکز زرغون شهر بازار ","Polling_Center_Name":"Segana Zarghon City","د_مرکز_ځای__موقعیت_مرکز":"سه ګانه ","Polling_Center_Location":"Segana","Verification_Note":"Village","PS_Male":3,"PS_Female":0,"Map_Accuracy":"قریه"},"geometry":{"x":7625802.4627894051,"y":3885151.2832451686}},{"attributes":{"OBJECTID":5892,"ولایت":"پکتيکا","Province":"PAKTIKA","PC_Code":"1207088","ولسوالي":"زرغون شهر ","District":"ZARGHUN SHAHR","د_مرکز_نوم__نام_مرکز":"عبدالمنان کور","Polling_Center_Name":"Abdul Manan House","د_مرکز_ځای__موقعیت_مرکز":"سه ګانه ","Polling_Center_Location":"Segana","Verification_Note":"Village","PS_Male":0,"PS_Female":3,"Map_Accuracy":"قریه"},"geometry":{"x":7625799.0018664338,"y":3885155.4063509926}},{"attributes":{"OBJECTID":5893,"ولایت":"پکتيکا","Province":"PAKTIKA","PC_Code":"1207105","ولسوالي":"زرغون شهر ","District":"ZARGHUN SHAHR","د_مرکز_نوم__نام_مرکز":"حاجی پاچا جومات","Polling_Center_Name":"Haji Pacha Mosque","د_مرکز_ځای__موقعیت_مرکز":"بکخیل ","Polling_Center_Location":"Bak Khel","Verification_Note":"Village","PS_Male":3,"PS_Female":0,"Map_Accuracy":"قریه"},"geometry":{"x":7631448.4348547347,"y":3871190.2102929503}},{"attributes":{"OBJECTID":5894,"ولایت":"پکتيکا","Province":"PAKTIKA","PC_Code":"1207106","ولسوالي":"زرغون شهر ","District":"ZARGHUN SHAHR","د_مرکز_نوم__نام_مرکز":"حاجی خیال میلمستون","Polling_Center_Name":"Haji Kheyal Guest House","د_مرکز_ځای__موقعیت_مرکز":"بکخیل ","Polling_Center_Location":"Bak Khel","Verification_Note":"Village","PS_Male":0,"PS_Female":2,"Map_Accuracy":"قریه"},"geometry":{"x":7632720.8355588131,"y":3870750.0323763341}},{"attributes":{"OBJECTID":5895,"ولایت":"پکتيکا","Province":"PAKTIKA","PC_Code":"1208142","ولسوالي":"گومل","District":"GOMAL","د_مرکز_نوم__نام_مرکز":"چهار بران منځنی ښوونځی ","Polling_Center_Name":"Chahar Baran Secondary School","د_مرکز_ځای__موقعیت_مرکز":"چهار بران ","Polling_Center_Location":"Charhar Baran","Verification_Note":"Village","PS_Male":0,"PS_Female":2,"Map_Accuracy":"قریه"},"geometry":{"x":7673400.6521510668,"y":3868155.0227916986}},{"attributes":{"OBJECTID":5896,"ولایت":"پکتيکا","Province":"PAKTIKA","PC_Code":"1208143","ولسوالي":"گومل","District":"GOMAL","د_مرکز_نوم__نام_مرکز":"سعید خیل منځنی ښوونځی ","Polling_Center_Name":"Saied Khel Secondary School","د_مرکز_ځای__موقعیت_مرکز":"سعید خیل","Polling_Center_Location":"Saied Khel","Verification_Note":"Village","PS_Male":2,"PS_Female":0,"Map_Accuracy":"قریه"},"geometry":{"x":7670519.4332229756,"y":3861346.65554706}},{"attributes":{"OBJECTID":5897,"ولایت":"پکتيکا","Province":"PAKTIKA","PC_Code":"1210295","ولسوالي":"سروبی","District":"SURUBI","د_مرکز_نوم__نام_مرکز":"اضعركلا جومات","Polling_Center_Name":"Asghar Kala Mosque","د_مرکز_ځای__موقعیت_مرکز":"اضعركلا","Polling_Center_Location":"Asghar Kala","Verification_Note":"District","PS_Male":2,"PS_Female":0,"Map_Accuracy":"ولسوالی"},"geometry":{"x":7686195.28584281,"y":3862429.1848746464}},{"attributes":{"OBJECTID":5898,"ولایت":"پکتيکا","Province":"PAKTIKA","PC_Code":"1211170","ولسوالي":"اورگون","District":"URGOON","د_مرکز_نوم__نام_مرکز":"شیخیا ارگون جومات","Polling_Center_Name":"Shaikhia Orgon Mosque","د_مرکز_ځای__موقعیت_مرکز":"شیخیا ارگون","Polling_Center_Location":"Shaikhia Argon","Verification_Note":"Village","PS_Male":0,"PS_Female":3,"Map_Accuracy":"قریه"},"geometry":{"x":7697393.7527706623,"y":3880303.6851155013}},{"attributes":{"OBJECTID":5899,"ولایت":"پکتيکا","Province":"PAKTIKA","PC_Code":"1211171","ولسوالي":"اورگون","District":"URGOON","د_مرکز_نوم__نام_مرکز":"کلندر مدرسه","Polling_Center_Name":"Kalandar Madrassa","د_مرکز_ځای__موقعیت_مرکز":"زوړ ارگون","Polling_Center_Location":"Old Argon","Verification_Note":"Building","PS_Male":2,"PS_Female":0,"Map_Accuracy":"تعمیر"},"geometry":{"x":7699534.5724071525,"y":3881609.6234140918}},{"attributes":{"OBJECTID":5900,"ولایت":"پکتيکا","Province":"PAKTIKA","PC_Code":"1211178","ولسوالي":"اورگون","District":"URGOON","د_مرکز_نوم__نام_مرکز":"نظیر میلمستون","Polling_Center_Name":"Nazir Guest House","د_مرکز_ځای__موقعیت_مرکز":"بیبی کوت کلی","Polling_Center_Location":"Bebi Kot Village","Verification_Note":"Village","PS_Male":0,"PS_Female":2,"Map_Accuracy":"قریه"},"geometry":{"x":7707972.7211662754,"y":3887201.9559401125}},{"attributes":{"OBJECTID":5901,"ولایت":"پکتيکا","Province":"PAKTIKA","PC_Code":"1211179","ولسوالي":"اورگون","District":"URGOON","د_مرکز_نوم__نام_مرکز":"پشتی جومات","Polling_Center_Name":"Pashti Mosque","د_مرکز_ځای__موقعیت_مرکز":"ﭙشتی کلی","Polling_Center_Location":"Pashti Village","Verification_Note":"Building","PS_Male":3,"PS_Female":0,"Map_Accuracy":"تعمیر"},"geometry":{"x":7705762.1264729612,"y":3892413.1266269088}},{"attributes":{"OBJECTID":5902,"ولایت":"پکتيکا","Province":"PAKTIKA","PC_Code":"1212192","ولسوالي":"زیړوک","District":"ZIRUK","د_مرکز_نوم__نام_مرکز":"گلستان کلینیک","Polling_Center_Name":"Gulistan Clinic","د_مرکز_ځای__موقعیت_مرکز":"سترکلی","Polling_Center_Location":"Ster Kalai","Verification_Note":"Village","PS_Male":3,"PS_Female":0,"Map_Accuracy":"قریه"},"geometry":{"x":7717631.0417508,"y":3917588.6112039983}},{"attributes":{"OBJECTID":5903,"ولایت":"پکتيکا","Province":"PAKTIKA","PC_Code":"1212193","ولسوالي":"زیړوک","District":"ZIRUK","د_مرکز_نوم__نام_مرکز":"سرومیدان منځنی ښوونځی","Polling_Center_Name":"Sro Maidan Secondary School","د_مرکز_ځای__موقعیت_مرکز":"سرو میدان","Polling_Center_Location":"Sro Maidan","Verification_Note":"Building","PS_Male":2,"PS_Female":0,"Map_Accuracy":"تعمیر"},"geometry":{"x":7710362.7517468035,"y":3911554.5140521079}},{"attributes":{"OBJECTID":5904,"ولایت":"پکتيکا","Province":"PAKTIKA","PC_Code":"1214249","ولسوالي":"برمل","District":"BARMAL","د_مرکز_نوم__نام_مرکز":"د ولسوالی جومات","Polling_Center_Name":"District Mosque","د_مرکز_ځای__موقعیت_مرکز":"د ولسوالی مرکز","Polling_Center_Location":"District Center","Verification_Note":"Building","PS_Male":5,"PS_Female":0,"Map_Accuracy":"تعمیر"},"geometry":{"x":7709729.096714925,"y":3848088.1213682294}},{"attributes":{"OBJECTID":5905,"ولایت":"پکتيکا","Province":"PAKTIKA","PC_Code":"1219231","ولسوالي":"تروو","District":"TURWO","د_مرکز_نوم__نام_مرکز":"ولسوالی مرکز توری ښوونځی","Polling_Center_Name":"Turwo District School","د_مرکز_ځای__موقعیت_مرکز":"ولسوالی مرکز","Polling_Center_Location":"Turwo District Center","Verification_Note":"Village","PS_Male":3,"PS_Female":1,"Map_Accuracy":"قریه"},"geometry":{"x":7614630.1884471737,"y":3736169.2535746917}},{"attributes":{"OBJECTID":5906,"ولایت":"پکتيکا","Province":"PAKTIKA","PC_Code":"1219234","ولسوالي":"تروو","District":"TURWO","د_مرکز_نوم__نام_مرکز":"مرکز ولسوالی خیمه ","Polling_Center_Name":"District Compound Tent","د_مرکز_ځای__موقعیت_مرکز":"ولسوالی مرکز","Polling_Center_Location":"Turwo District Center","Verification_Note":"Village","PS_Male":2,"PS_Female":2,"Map_Accuracy":"قریه"},"geometry":{"x":7614464.4490874708,"y":3736323.2935434207}},{"attributes":{"OBJECTID":5907,"ولایت":"پکتيا","Province":"PAKTYA","PC_Code":"1311186","ولسوالي":"ډنډ پټان","District":"DAND PATAN","د_مرکز_نوم__نام_مرکز":"د سورگی مسجد","Polling_Center_Name":"Sorgai Mosque","د_مرکز_ځای__موقعیت_مرکز":"نری زاور","Polling_Center_Location":"Narai Zawar","Verification_Note":"Village","PS_Male":0,"PS_Female":2,"Map_Accuracy":"قریه"},"geometry":{"x":7781479.78062227,"y":4006258.5255860761}},{"attributes":{"OBJECTID":5908,"ولایت":"پکتيا","Province":"PAKTYA","PC_Code":"1312147","ولسوالي":"لجه منګل","District":"LAJA MANGAL","د_مرکز_نوم__نام_مرکز":"چرگو کلی مسجد","Polling_Center_Name":"Chargo Village Mosque","د_مرکز_ځای__موقعیت_مرکز":"چرګو کلی، لجه منګل","Polling_Center_Location":"Chargo Village, Laja Mangal ","Verification_Note":"Village","PS_Male":0,"PS_Female":2,"Map_Accuracy":"قریه"},"geometry":{"x":7750975.56291116,"y":4003218.3731226251}},{"attributes":{"OBJECTID":5909,"ولایت":"پکتيا","Province":"PAKTYA","PC_Code":"1312155","ولسوالي":"لجه منګل","District":"LAJA MANGAL","د_مرکز_نوم__نام_مرکز":"شرابک مسجد","Polling_Center_Name":"Sharabak Mosque","د_مرکز_ځای__موقعیت_مرکز":"شرابک، لجه منګل","Polling_Center_Location":"Sharabak, Laja Mangal","Verification_Note":"Village","PS_Male":0,"PS_Female":2,"Map_Accuracy":"قریه"},"geometry":{"x":7750383.0816193372,"y":3988994.7746626213}},{"attributes":{"OBJECTID":5910,"ولایت":"خوست","Province":"KHOST","PC_Code":"1401031","ولسوالي":"خوست","District":"KHOST","د_مرکز_نوم__نام_مرکز":"د سرباز جومات ","Polling_Center_Name":"Sarbaz Mosque","د_مرکز_ځای__موقعیت_مرکز":" لکڼ ذوخي خيل","Polling_Center_Location":"Lakan Zokhi Khel ","Verification_Note":"Building","PS_Male":2,"PS_Female":1,"Map_Accuracy":"تعمیر"},"geometry":{"x":7801407.2797046676,"y":3940591.1792006567}},{"attributes":{"OBJECTID":5911,"ولایت":"خوست","Province":"KHOST","PC_Code":"1405073","ولسوالي":"موسی خیل","District":"MUSA KHEL","د_مرکز_نوم__نام_مرکز":"د مندي جومات","Polling_Center_Name":"Mandai Mosque","د_مرکز_ځای__موقعیت_مرکز":"منداى","Polling_Center_Location":"Mandai","Verification_Note":"Village","PS_Male":2,"PS_Female":1,"Map_Accuracy":"قریه"},"geometry":{"x":7763051.9721538611,"y":3964311.9255273938}},{"attributes":{"OBJECTID":5912,"ولایت":"خوست","Province":"KHOST","PC_Code":"1411128","ولسوالي":"سپیره","District":"SPERA","د_مرکز_نوم__نام_مرکز":"سپيره ګلى جومات ","Polling_Center_Name":"Spera Village Mosque","د_مرکز_ځای__موقعیت_مرکز":" سپيره کلى","Polling_Center_Location":"Spera Village","Verification_Note":"Village","PS_Male":0,"PS_Female":2,"Map_Accuracy":"قریه"},"geometry":{"x":7738530.7039650567,"y":3922242.3393744454}},{"attributes":{"OBJECTID":5913,"ولایت":"کنړ ","Province":"KUNAR","PC_Code":"1503016","ولسوالي":"واټه پور","District":"WATAPOOR","د_مرکز_نوم__نام_مرکز":"مسجدقریه","Polling_Center_Name":"Shamirkot Village Mosque","د_مرکز_ځای__موقعیت_مرکز":"شامیر کوت","Polling_Center_Location":"Shamirkot","Verification_Note":"Village","PS_Male":2,"PS_Female":2,"Map_Accuracy":"قریه"},"geometry":{"x":7913976.4464411773,"y":4153734.5630594939}},{"attributes":{"OBJECTID":5914,"ولایت":"نورستان","Province":"NOORISTAN","PC_Code":"1605024","ولسوالي":"دو آب","District":"DUAB","د_مرکز_نوم__نام_مرکز":"کلم","Polling_Center_Name":"Kalam","د_مرکز_ځای__موقعیت_مرکز":"سبزار کلم","Polling_Center_Location":"Sabzar Kalam","Verification_Note":"Village","PS_Male":1,"PS_Female":1,"Map_Accuracy":"قریه"},"geometry":{"x":7832821.3216327988,"y":4201898.615834482}},{"attributes":{"OBJECTID":5915,"ولایت":"بدخشان","Province":"BADAKHSHAN","PC_Code":"1701011","ولسوالي":"فیض آباد","District":"FAIZ ABAD","د_مرکز_نوم__نام_مرکز":"لیسه سایف شهید ","Polling_Center_Name":"Sayef Shaheed High School","د_مرکز_ځای__موقعیت_مرکز":"ناحیه شهر جدید","Polling_Center_Location":"Nahia Shahr Jadid","Verification_Note":"Building","PS_Male":3,"PS_Female":1,"Map_Accuracy":"تعمیر"},"geometry":{"x":7855080.1169059947,"y":4454759.3591536283}},{"attributes":{"OBJECTID":5916,"ولایت":"بدخشان","Province":"BADAKHSHAN","PC_Code":"1704024","ولسوالي":"یفتل سفلا","District":"YAFTAL-E-SUFLA","د_مرکز_نوم__نام_مرکز":"مسجد ارویشا","Polling_Center_Name":"Arweesha Mosque","د_مرکز_ځای__موقعیت_مرکز":"ارویشا","Polling_Center_Location":"Arweesha","Verification_Note":"Building","PS_Male":2,"PS_Female":2,"Map_Accuracy":"تعمیر"},"geometry":{"x":7848017.19689098,"y":4473512.8430531248}},{"attributes":{"OBJECTID":5917,"ولایت":"بدخشان","Province":"BADAKHSHAN","PC_Code":"1712119","ولسوالي":"شهدا","District":"SHUHADA","د_مرکز_نوم__نام_مرکز":"مکتب متوسطه محمد رحیم ","Polling_Center_Name":"Mohammad Raheem Secondary School","د_مرکز_ځای__موقعیت_مرکز":"مکتب ","Polling_Center_Location":"Maktab","Verification_Note":"Building","PS_Male":1,"PS_Female":1,"Map_Accuracy":"تعمیر"},"geometry":{"x":7933278.7585653625,"y":4446087.3150874823}},{"attributes":{"OBJECTID":5918,"ولایت":"بدخشان","Province":"BADAKHSHAN","PC_Code":"1725192","ولسوالي":"زیباک","District":"ZEBAK","د_مرکز_نوم__نام_مرکز":"لیسه نسوان زیباک","Polling_Center_Name":"Zebaak Girls High School","د_مرکز_ځای__موقعیت_مرکز":"زیباک","Polling_Center_Location":"Zebaak","Verification_Note":"Building","PS_Male":1,"PS_Female":1,"Map_Accuracy":"تعمیر"},"geometry":{"x":7941871.3686839454,"y":4373969.6173472852}},{"attributes":{"OBJECTID":5919,"ولایت":"تخار","Province":"TAKHAR","PC_Code":"1802037","ولسوالي":"هزارسموچ","District":"HAZAR SUMUCH","د_مرکز_نوم__نام_مرکز":"مکتب متوسطه آق مسجد","Polling_Center_Name":"Aaq Masjid Secondary School","د_مرکز_ځای__موقعیت_مرکز":"آق مسجد","Polling_Center_Location":"Aaq Masjid","Verification_Note":"Building","PS_Male":1,"PS_Female":1,"Map_Accuracy":"تعمیر"},"geometry":{"x":7749758.3955988213,"y":4414410.3858563453}},{"attributes":{"OBJECTID":5920,"ولایت":"تخار","Province":"TAKHAR","PC_Code":"1808093","ولسوالي":"فرخار","District":"FARKHAR","د_مرکز_نوم__نام_مرکز":"پل مشتان","Polling_Center_Name":"Pul Mushtan","د_مرکز_ځای__موقعیت_مرکز":"سرپل مشتان","Polling_Center_Location":"Sar Pul Mushtan","Verification_Note":"Building","PS_Male":1,"PS_Female":1,"Map_Accuracy":"تعمیر"},"geometry":{"x":7790215.69566093,"y":4345513.1698045209}},{"attributes":{"OBJECTID":5921,"ولایت":"تخار","Province":"TAKHAR","PC_Code":"1810107","ولسوالي":"رستاق","District":"RUSTAQ","د_مرکز_نوم__نام_مرکز":"مسجد لنگر سادات","Polling_Center_Name":"Langar Sadat Mosque","د_مرکز_ځای__موقعیت_مرکز":"لنگر سادات","Polling_Center_Location":"Langar Sadat","Verification_Note":"Building","PS_Male":1,"PS_Female":1,"Map_Accuracy":"تعمیر"},"geometry":{"x":7782512.4447841756,"y":4476382.1787029132}},{"attributes":{"OBJECTID":5922,"ولایت":"تخار","Province":"TAKHAR","PC_Code":"1810129","ولسوالي":"رستاق","District":"RUSTAQ","د_مرکز_نوم__نام_مرکز":"لیسه حضرت عثمان","Polling_Center_Name":"Hazrat Usman High School","د_مرکز_ځای__موقعیت_مرکز":"سقابه ","Polling_Center_Location":"Saqaba","Verification_Note":"Building","PS_Male":3,"PS_Female":1,"Map_Accuracy":"تعمیر"},"geometry":{"x":7765317.524166584,"y":4447513.5336807892}},{"attributes":{"OBJECTID":5923,"ولایت":"تخار","Province":"TAKHAR","PC_Code":"1815161","ولسوالي":"درقد","District":"DARQAD","د_مرکز_نوم__نام_مرکز":"لیسه ذکور درقد","Polling_Center_Name":"Darqad Boys High School","د_مرکز_ځای__موقعیت_مرکز":"درقد","Polling_Center_Location":"Darqad","Verification_Note":"Building","PS_Male":2,"PS_Female":1,"Map_Accuracy":"تعمیر"},"geometry":{"x":7731700.7990213595,"y":4493179.97240103}},{"attributes":{"OBJECTID":5924,"ولایت":"تخار","Province":"TAKHAR","PC_Code":"1816198","ولسوالي":"چا آب","District":"CHAH AB","د_مرکز_نوم__نام_مرکز":"مكتب ابتدائيه گذر صفكان ","Polling_Center_Name":"Guzar Safkan Primary School","د_مرکز_ځای__موقعیت_مرکز":"گذر صفكان","Polling_Center_Location":"Guzar Safkan","Verification_Note":"Building","PS_Male":1,"PS_Female":1,"Map_Accuracy":"تعمیر"},"geometry":{"x":7779731.6961493045,"y":4492138.4050982073}},{"attributes":{"OBJECTID":5925,"ولایت":"کندز","Province":"KUNDUZ","PC_Code":"1901013","ولسوالي":"کندز","District":"KUNDUZ","د_مرکز_نوم__نام_مرکز":"مکتب متوسطه ترکمن ها","Polling_Center_Name":"Turkmans Secondary School","د_مرکز_ځای__موقعیت_مرکز":"ناحیه سوم","Polling_Center_Location":"D03 - Nahia 3","Verification_Note":"Building","PS_Male":2,"PS_Female":3,"Map_Accuracy":"تعمیر"},"geometry":{"x":7665483.3817608953,"y":4403759.9849789366}},{"attributes":{"OBJECTID":5926,"ولایت":"کندز","Province":"KUNDUZ","PC_Code":"1901196","ولسوالي":"کندز","District":"KUNDUZ","د_مرکز_نوم__نام_مرکز":"لیسه کنم سادات","Polling_Center_Name":"Kanam Sadat High School","د_مرکز_ځای__موقعیت_مرکز":"کنم خورد","Polling_Center_Location":"Kanam Khord","Verification_Note":"Building","PS_Male":2,"PS_Female":1,"Map_Accuracy":"تعمیر"},"geometry":{"x":7678081.01223658,"y":4408083.1777615324}},{"attributes":{"OBJECTID":5927,"ولایت":"کندز","Province":"KUNDUZ","PC_Code":"1905063","ولسوالي":"حضرت امام صاحب","District":"HAZRAT-E-IMAM SAHIB","د_مرکز_نوم__نام_مرکز":"مکتب شیرخان بندر","Polling_Center_Name":"Sher Khan Bandar School","د_مرکز_ځای__موقعیت_مرکز":"شیرخان بندر","Polling_Center_Location":"Sher Khan Bandar ","Verification_Note":"Building","PS_Male":3,"PS_Female":1,"Map_Accuracy":"تعمیر"},"geometry":{"x":7637876.7725465,"y":4465740.7845258936}},{"attributes":{"OBJECTID":5928,"ولایت":"کندز","Province":"KUNDUZ","PC_Code":"1905203","ولسوالي":"حضرت امام صاحب","District":"HAZRAT-E-IMAM SAHIB","د_مرکز_نوم__نام_مرکز":"مسجد قاری خانه","Polling_Center_Name":"Qari Khana Mosque","د_مرکز_ځای__موقعیت_مرکز":"قاری خانه","Polling_Center_Location":"Qari Khana","Verification_Note":"Building","PS_Male":2,"PS_Female":2,"Map_Accuracy":"تعمیر"},"geometry":{"x":7668342.1564532518,"y":4474258.348438777}},{"attributes":{"OBJECTID":5929,"ولایت":"کندز","Province":"KUNDUZ","PC_Code":"1906215","ولسوالي":"دشت ارچی","District":"DASHT-E-ARCHI","د_مرکز_نوم__نام_مرکز":"مسجد هجده نهری","Polling_Center_Name":"Hajda Nehri Mosque","د_مرکز_ځای__موقعیت_مرکز":"قریه هجده نهری","Polling_Center_Location":"Hajda Nehri Village","Verification_Note":"Building","PS_Male":1,"PS_Female":1,"Map_Accuracy":"تعمیر"},"geometry":{"x":7704498.6936670542,"y":4443968.0058036521}},{"attributes":{"OBJECTID":5930,"ولایت":"سمنگان","Province":"SAMANGAN","PC_Code":"2001003","ولسوالي":"ایبک","District":"AYBAK","د_مرکز_نوم__نام_مرکز":"لیسه جوی ژوندون","Polling_Center_Name":"Joy Zhowandoon High School","د_مرکز_ځای__موقعیت_مرکز":"قریه جوی ژوندون","Polling_Center_Location":"Joy Zhowandoon Village","Verification_Note":"Building","PS_Male":2,"PS_Female":1,"Map_Accuracy":"تعمیر"},"geometry":{"x":7568356.2032051831,"y":4340745.3056287616}},{"attributes":{"OBJECTID":5931,"ولایت":"بلخ","Province":"BALKH","PC_Code":"2103055","ولسوالي":"دهدادی ","District":"DEHDADI","د_مرکز_نوم__نام_مرکز":"مکتب عابده بلخی","Polling_Center_Name":"Abeda Balkhi School","د_مرکز_ځای__موقعیت_مرکز":"پل بابو ","Polling_Center_Location":"Pul Baboo","Verification_Note":"Building","PS_Male":1,"PS_Female":1,"Map_Accuracy":"تعمیر"},"geometry":{"x":7459373.9541767091,"y":4392605.7689613178}},{"attributes":{"OBJECTID":5932,"ولایت":"بلخ","Province":"BALKH","PC_Code":"2105072","ولسوالي":"مارمل ","District":"MARMUL","د_مرکز_نوم__نام_مرکز":"لیسه ابو عصمت","Polling_Center_Name":"Abu Esmat High School","د_مرکز_ځای__موقعیت_مرکز":"قریه لب جوی ","Polling_Center_Location":"Lab Joy Village","Verification_Note":"Building","PS_Male":2,"PS_Female":1,"Map_Accuracy":"تعمیر"},"geometry":{"x":7493731.6185130663,"y":4375410.0224795192}},{"attributes":{"OBJECTID":5933,"ولایت":"بلخ","Province":"BALKH","PC_Code":"2105073","ولسوالي":"مارمل ","District":"MARMUL","د_مرکز_نوم__نام_مرکز":"لیسه نسوان مارمل لب سای ","Polling_Center_Name":"Marmal Lab Say Girls High School","د_مرکز_ځای__موقعیت_مرکز":"قریه پسته قلیچ ","Polling_Center_Location":"Pasta Qaleech Village","Verification_Note":"Building","PS_Male":2,"PS_Female":1,"Map_Accuracy":"تعمیر"},"geometry":{"x":7492582.48967351,"y":4375481.3445729315}},{"attributes":{"OBJECTID":5934,"ولایت":"بلخ","Province":"BALKH","PC_Code":"2107249","ولسوالي":"شولگره","District":"SHOLGARA","د_مرکز_نوم__نام_مرکز":"مکتب چر خاب","Polling_Center_Name":"Char Khab School","د_مرکز_ځای__موقعیت_مرکز":"قریه چر خاب","Polling_Center_Location":"Char Khab Village","Verification_Note":"Building","PS_Male":1,"PS_Female":1,"Map_Accuracy":"تعمیر"},"geometry":{"x":7447616.6845557727,"y":4327742.9388212413}},{"attributes":{"OBJECTID":5935,"ولایت":"بلخ","Province":"BALKH","PC_Code":"2107272","ولسوالي":"شولگره","District":"SHOLGARA","د_مرکز_نوم__نام_مرکز":"مسجد طبیاق","Polling_Center_Name":"Tabyaq Mosque","د_مرکز_ځای__موقعیت_مرکز":"قریه کنگوری","Polling_Center_Location":"Kangori Village","Verification_Note":"Building","PS_Male":1,"PS_Female":1,"Map_Accuracy":"تعمیر"},"geometry":{"x":7432975.976296097,"y":4343866.7021114379}},{"attributes":{"OBJECTID":5936,"ولایت":"بلخ","Province":"BALKH","PC_Code":"2108231","ولسوالي":"چمتال","District":"CHIMTAL","د_مرکز_نوم__نام_مرکز":"مکتب جرقلعه","Polling_Center_Name":"Jar Qala School","د_مرکز_ځای__موقعیت_مرکز":"قریه جنگل","Polling_Center_Location":"Jangal Village","Verification_Note":"Village","PS_Male":1,"PS_Female":1,"Map_Accuracy":"قریه"},"geometry":{"x":7427544.6805291772,"y":4396956.6829895452}},{"attributes":{"OBJECTID":5937,"ولایت":"بلخ","Province":"BALKH","PC_Code":"2109132","ولسوالي":"دولت آباد","District":"DAWLAT ABAD","د_مرکز_نوم__نام_مرکز":"مکتب فرو خ آباد","Polling_Center_Name":"Farokh Abad School","د_مرکز_ځای__موقعیت_مرکز":"قریه فروخ آباد","Polling_Center_Location":"Farokh Abad Village","Verification_Note":"Building","PS_Male":3,"PS_Female":1,"Map_Accuracy":"تعمیر"},"geometry":{"x":7427611.9230675921,"y":4445537.1265923381}},{"attributes":{"OBJECTID":5938,"ولایت":"بلخ","Province":"BALKH","PC_Code":"2111183","ولسوالي":"چار بولک","District":"CHAR BOLAK","د_مرکز_نوم__نام_مرکز":"مکتب دلبرجین","Polling_Center_Name":"Dilbar Jeen School","د_مرکز_ځای__موقعیت_مرکز":"قریه دلبرجین","Polling_Center_Location":"Dilbar Jeen Village","Verification_Note":"Building","PS_Male":2,"PS_Female":1,"Map_Accuracy":"تعمیر"},"geometry":{"x":7418413.767201744,"y":4416520.5735324472}},{"attributes":{"OBJECTID":5939,"ولایت":"بلخ","Province":"BALKH","PC_Code":"2111205","ولسوالي":"چار بولک","District":"CHAR BOLAK","د_مرکز_نوم__نام_مرکز":"مکتب حمید بابا","Polling_Center_Name":"Hameed Baba School","د_مرکز_ځای__موقعیت_مرکز":"قریه تیمورک","Polling_Center_Location":"Taimorak Village","Verification_Note":"Building","PS_Male":1,"PS_Female":1,"Map_Accuracy":"تعمیر"},"geometry":{"x":7411409.7452161238,"y":4405917.434657976}},{"attributes":{"OBJECTID":5940,"ولایت":"بلخ","Province":"BALKH","PC_Code":"2113104","ولسوالي":"کلدار","District":"KALDAR","د_مرکز_نوم__نام_مرکز":"مکتب قرن توقی","Polling_Center_Name":"Toqi Qarn School","د_مرکز_ځای__موقعیت_مرکز":"قریه قرن توقی","Polling_Center_Location":"Qarn Toqi Village","Verification_Note":"Building","PS_Male":1,"PS_Female":1,"Map_Accuracy":"تعمیر"},"geometry":{"x":7529112.6006268784,"y":4466524.1924512163}},{"attributes":{"OBJECTID":5941,"ولایت":"سرپل","Province":"SAR-E-PUL","PC_Code":"2201007","ولسوالي":"سرپل","District":"SAR-E-PUL","د_مرکز_نوم__نام_مرکز":"لیسه شاه چنار","Polling_Center_Name":"Shah Chinar High School","د_مرکز_ځای__موقعیت_مرکز":"قریه شاه چنار","Polling_Center_Location":"Shah Chinar Village","Verification_Note":"Building","PS_Male":3,"PS_Female":2,"Map_Accuracy":"تعمیر"},"geometry":{"x":7339596.4062465765,"y":4342682.7415600494}},{"attributes":{"OBJECTID":5942,"ولایت":"سرپل","Province":"SAR-E-PUL","PC_Code":"2201026","ولسوالي":"سرپل","District":"SAR-E-PUL","د_مرکز_نوم__نام_مرکز":"مکتب ابتدائیه حد بخشی","Polling_Center_Name":"Had Badakhshi Primary School","د_مرکز_ځای__موقعیت_مرکز":"قریه حد بخشی","Polling_Center_Location":"Had Bakhshi Village","Verification_Note":"Building","PS_Male":2,"PS_Female":2,"Map_Accuracy":"تعمیر"},"geometry":{"x":7327700.1820712574,"y":4363440.4067902938}},{"attributes":{"OBJECTID":5943,"ولایت":"سرپل","Province":"SAR-E-PUL","PC_Code":"2206123","ولسوالي":"گوسفندی ","District":"GOSFANDI","د_مرکز_نوم__نام_مرکز":"مکتب متوسطهَ قریه کاریز","Polling_Center_Name":"Kaarez Village Secondary School","د_مرکز_ځای__موقعیت_مرکز":"قریه کاریز","Polling_Center_Location":"Karez Village","Verification_Note":"Building","PS_Male":3,"PS_Female":2,"Map_Accuracy":"تعمیر"},"geometry":{"x":7396991.7716727927,"y":4327824.9604088813}},{"attributes":{"OBJECTID":5944,"ولایت":"سرپل","Province":"SAR-E-PUL","PC_Code":"2207093","ولسوالي":"بلخآب","District":"BALKHAB","د_مرکز_نوم__نام_مرکز":"مکتب ابتدائیه سید جمال‌الدین","Polling_Center_Name":"Sayed Jamaluddin Primary School","د_مرکز_ځای__موقعیت_مرکز":"ترخوج","Polling_Center_Location":"Takhoj","Verification_Note":"Building","PS_Male":4,"PS_Female":2,"Map_Accuracy":"تعمیر"},"geometry":{"x":7405018.1607674249,"y":4232480.4864348769}},{"attributes":{"OBJECTID":5945,"ولایت":"غور","Province":"GHOR","PC_Code":"2306085","ولسوالي":"شهرک ","District":"SHAHRAK","د_مرکز_نوم__نام_مرکز":"مکتب ابتدائیه جام","Polling_Center_Name":"Jaam Primary School","د_مرکز_ځای__موقعیت_مرکز":" جام","Polling_Center_Location":"Jaam","Verification_Note":"Village","PS_Male":1,"PS_Female":1,"Map_Accuracy":"قریه"},"geometry":{"x":7179785.4840259664,"y":4077906.1752091497}},{"attributes":{"OBJECTID":5946,"ولایت":"غور","Province":"GHOR","PC_Code":"2307146","ولسوالي":"لعل و سرجنگل ","District":"LAL WA SARJANGAL","د_مرکز_نوم__نام_مرکز":"مکتب سفرک کرمان ","Polling_Center_Name":"Safarak Karman School","د_مرکز_ځای__موقعیت_مرکز":"قریه با رشتو گک","Polling_Center_Location":"Bareshtogak Village","Verification_Note":"Village","PS_Male":2,"PS_Female":1,"Map_Accuracy":"قریه"},"geometry":{"x":7397537.9128869921,"y":4098666.1232297197}},{"attributes":{"OBJECTID":5947,"ولایت":"غور","Province":"GHOR","PC_Code":"2308218","ولسوالي":"تیوره","District":"TAYWARA","د_مرکز_نوم__نام_مرکز":"مکتب اسفور","Polling_Center_Name":"Asfor School","د_مرکز_ځای__موقعیت_مرکز":" اسفور","Polling_Center_Location":"Asfor","Verification_Note":"Building","PS_Male":1,"PS_Female":1,"Map_Accuracy":"تعمیر"},"geometry":{"x":7146457.5416773781,"y":3940113.8344910741}},{"attributes":{"OBJECTID":5948,"ولایت":"غور","Province":"GHOR","PC_Code":"2310207","ولسوالي":"ساغر ","District":"SAGHAR","د_مرکز_نوم__نام_مرکز":"مکتب ابتدائیه مسجدی","Polling_Center_Name":"Masjidi Primary School","د_مرکز_ځای__موقعیت_مرکز":" مسجدی","Polling_Center_Location":"Masjedi","Verification_Note":"Village","PS_Male":2,"PS_Female":1,"Map_Accuracy":"قریه"},"geometry":{"x":7059598.1779557876,"y":3958112.2100747377}},{"attributes":{"OBJECTID":5949,"ولایت":"غور","Province":"GHOR","PC_Code":"2310208","ولسوالي":"ساغر ","District":"SAGHAR","د_مرکز_نوم__نام_مرکز":"منزل محمد امین","Polling_Center_Name":"Mohammad Amin Private House","د_مرکز_ځای__موقعیت_مرکز":" جرمنه","Polling_Center_Location":"Jarmana","Verification_Note":"Village","PS_Male":1,"PS_Female":1,"Map_Accuracy":"قریه"},"geometry":{"x":7106845.1509844139,"y":3986721.2700875923}},{"attributes":{"OBJECTID":5950,"ولایت":"دایکندی","Province":"DAYKUNDI","PC_Code":"2401001","ولسوالي":"نیلی","District":"NILI","د_مرکز_نوم__نام_مرکز":"مسجد کهنه ده","Polling_Center_Name":"Kuhna Deh Mosque","د_مرکز_ځای__موقعیت_مرکز":"کهنه ده، نیلی","Polling_Center_Location":"Kuhna Deh, Nili","Verification_Note":"Building","PS_Male":3,"PS_Female":2,"Map_Accuracy":"تعمیر"},"geometry":{"x":7362725.5050911494,"y":3991534.3725133389}},{"attributes":{"OBJECTID":5951,"ولایت":"دایکندی","Province":"DAYKUNDI","PC_Code":"2404045","ولسوالي":"اشترلی","District":"ISHTERLAI","د_مرکز_نوم__نام_مرکز":"مسجد نگلیج","Polling_Center_Name":"Naglej Mosque","د_مرکز_ځای__موقعیت_مرکز":"نگلیج خوشک","Polling_Center_Location":"Naglej Khushk","Verification_Note":"Building","PS_Male":1,"PS_Female":1,"Map_Accuracy":"تعمیر"},"geometry":{"x":7384823.4893411435,"y":4020053.2733729184}},{"attributes":{"OBJECTID":5952,"ولایت":"ارزگان","Province":"UROZGAN","PC_Code":"2501010","ولسوالي":"ترینکوټ","District":"TIRINKOT","د_مرکز_نوم__نام_مرکز":"ليسه عالی سيدالخان","Polling_Center_Name":"Saidal Khan High School","د_مرکز_ځای__موقعیت_مرکز":"بازار ترینکوټ","Polling_Center_Location":"Bazar Trinkot","Verification_Note":"Building","PS_Male":2,"PS_Female":2,"Map_Accuracy":"تعمیر"},"geometry":{"x":7333046.7703848518,"y":3846351.5700367764}},{"attributes":{"OBJECTID":5953,"ولایت":"کندهار","Province":"کندهار","PC_Code":"2701018","ولسوالي":"کندهار","District":"KANDAHAR","د_مرکز_نوم__نام_مرکز":"دارالمعلمين","Polling_Center_Name":"Dar-ul-Malemeen","د_مرکز_ځای__موقعیت_مرکز":"پنځمه ناحيه","Polling_Center_Location":"D05 - Nahia 5","Verification_Note":"Building","PS_Male":7,"PS_Female":5,"Map_Accuracy":"تعمیر"},"geometry":{"x":7316172.55454107,"y":3712849.6693357006}},{"attributes":{"OBJECTID":5954,"ولایت":"کندهار","Province":"کندهار","PC_Code":"2701060","ولسوالي":"کندهار","District":"KANDAHAR","د_مرکز_نوم__نام_مرکز":"د سيدآباد ښوونځي","Polling_Center_Name":"Sayed Abad School","د_مرکز_ځای__موقعیت_مرکز":"لسمه ناحيه","Polling_Center_Location":"D10 - Nahia 10","Verification_Note":"Building","PS_Male":2,"PS_Female":2,"Map_Accuracy":"تعمیر"},"geometry":{"x":7318932.6456180327,"y":3715653.0248597339}},{"attributes":{"OBJECTID":5955,"ولایت":"کندهار","Province":"کندهار","PC_Code":"2705172","ولسوالي":"ژیړی","District":"ZHIRE","د_مرکز_نوم__نام_مرکز":"د پاشمول کلی مكتب","Polling_Center_Name":"Pashmol Village School","د_مرکز_ځای__موقعیت_مرکز":"پاشمول کلی","Polling_Center_Location":"Pashmol Village","Verification_Note":"Village","PS_Male":1,"PS_Female":1,"Map_Accuracy":"قریه"},"geometry":{"x":7283428.2079625353,"y":3705967.2525606975}},{"attributes":{"OBJECTID":5956,"ولایت":"کندهار","Province":"کندهار","PC_Code":"2708245","ولسوالي":"ارغستان","District":"ARGHISTAN","د_مرکز_نوم__نام_مرکز":"مكتب بالا كرزي","Polling_Center_Name":"Bala Karzai School","د_مرکز_ځای__موقعیت_مرکز":"بالا كرزي","Polling_Center_Location":"Bala Karzai","Verification_Note":"Village","PS_Male":2,"PS_Female":1,"Map_Accuracy":"قریه"},"geometry":{"x":7414272.50069347,"y":3704385.4740070254}},{"attributes":{"OBJECTID":5957,"ولایت":"کندهار","Province":"کندهار","PC_Code":"2711211","ولسوالي":"سپین بولدک","District":"SPIN BOLDAK","د_مرکز_نوم__نام_مرکز":"د يو اين ايچ سي ار دفتر","Polling_Center_Name":"UNHCR Office","د_مرکز_ځای__موقعیت_مرکز":"سپين بولدك","Polling_Center_Location":"Speen Boldak","Verification_Note":"Building","PS_Male":2,"PS_Female":2,"Map_Accuracy":"تعمیر"},"geometry":{"x":7391046.2310653664,"y":3633931.2106240541}},{"attributes":{"OBJECTID":5958,"ولایت":"کندهار","Province":"کندهار","PC_Code":"2712266","ولسوالي":"نيش","District":"NISH","د_مرکز_نوم__نام_مرکز":"د راشد خان كور","Polling_Center_Name":"Rashid Khan Private House","د_مرکز_ځای__موقعیت_مرکز":"باركندي","Polling_Center_Location":"Bar Kandi","Verification_Note":"Village","PS_Male":2,"PS_Female":0,"Map_Accuracy":"قریه"},"geometry":{"x":7308181.4793284982,"y":3817090.5024599209}},{"attributes":{"OBJECTID":5959,"ولایت":"کندهار","Province":"کندهار","PC_Code":"2717001","ولسوالي":"ډند","District":"DAND","د_مرکز_نوم__نام_مرکز":"ده باغ ","Polling_Center_Name":"Deh Bagh","د_مرکز_ځای__موقعیت_مرکز":"ډنډ ولسوالي","Polling_Center_Location":"Dand District ","Verification_Note":"Village","PS_Male":3,"PS_Female":2,"Map_Accuracy":"قریه"},"geometry":{"x":7313342.3099210113,"y":3708690.4157377332}},{"attributes":{"OBJECTID":5960,"ولایت":"جوزجان","Province":"JAWZJAN","PC_Code":"2802111","ولسوالي":"خواجه دوکوه","District":"KHWAJA DUKOH","د_مرکز_نوم__نام_مرکز":"لیسه قزل ایاق ","Polling_Center_Name":"Qazal Ayaq High School","د_مرکز_ځای__موقعیت_مرکز":"قزل ایاق ","Polling_Center_Location":"Qazal Ayaq","Verification_Note":"Building","PS_Male":2,"PS_Female":1,"Map_Accuracy":"تعمیر"},"geometry":{"x":7312032.2297956795,"y":4415053.0262759253}},{"attributes":{"OBJECTID":5961,"ولایت":"جوزجان","Province":"JAWZJAN","PC_Code":"2804078","ولسوالي":"منگجیک","District":"MINGAJIK","د_مرکز_نوم__نام_مرکز":"مکتب قزان نارو","Polling_Center_Name":"Qazan Naro School","د_مرکز_ځای__موقعیت_مرکز":"قزان نارو","Polling_Center_Location":"Qazan Naro","Verification_Note":"Building","PS_Male":2,"PS_Female":1,"Map_Accuracy":"تعمیر"},"geometry":{"x":7349475.9264516607,"y":4436127.0443149284}},{"attributes":{"OBJECTID":5962,"ولایت":"جوزجان","Province":"JAWZJAN","PC_Code":"2807041","ولسوالي":"آقچه","District":"AQCHAH","د_مرکز_نوم__نام_مرکز":"مکتب کمک منصور","Polling_Center_Name":"Komak Mansoor School","د_مرکز_ځای__موقعیت_مرکز":"کمک منصور","Polling_Center_Location":"Komak Mansoor","Verification_Note":"Building","PS_Male":1,"PS_Female":1,"Map_Accuracy":"تعمیر"},"geometry":{"x":7367475.5801209733,"y":4423099.4821122959}},{"attributes":{"OBJECTID":5963,"ولایت":"جوزجان","Province":"JAWZJAN","PC_Code":"2811105","ولسوالي":"درز آب","District":"DARZAB","د_مرکز_نوم__نام_مرکز":"مکتب چکانه","Polling_Center_Name":"Chakana School","د_مرکز_ځای__موقعیت_مرکز":"قریه چکانه","Polling_Center_Location":"Chakana Village","Verification_Note":"Building","PS_Male":1,"PS_Female":1,"Map_Accuracy":"تعمیر"},"geometry":{"x":7258767.2939253077,"y":4312551.1810355633}},{"attributes":{"OBJECTID":5964,"ولایت":"فارياب","Province":"FARYAB","PC_Code":"2902037","ولسوالي":"پشتون کوت","District":"PASHTUN KOT","د_مرکز_نوم__نام_مرکز":"لیسه کته قلعه","Polling_Center_Name":"Kata Qala High School","د_مرکز_ځای__موقعیت_مرکز":"کته قلعه","Polling_Center_Location":"Kata Qala","Verification_Note":"Village","PS_Male":3,"PS_Female":1,"Map_Accuracy":"قریه"},"geometry":{"x":7199570.317162171,"y":4305404.8508153781}},{"attributes":{"OBJECTID":5965,"ولایت":"فارياب","Province":"FARYAB","PC_Code":"2904075","ولسوالي":"المار","District":"ALMAR","د_مرکز_نوم__نام_مرکز":"مکتب ابتدای آخند بابا","Polling_Center_Name":"Akhond Baba Primary School","د_مرکز_ځای__موقعیت_مرکز":"آخند بابا","Polling_Center_Location":"Akhond Baba","Verification_Note":"Building","PS_Male":2,"PS_Female":1,"Map_Accuracy":"تعمیر"},"geometry":{"x":7186217.391733814,"y":4276214.8212438375}},{"attributes":{"OBJECTID":5966,"ولایت":"فارياب","Province":"FARYAB","PC_Code":"2907094","ولسوالي":"قیصار ","District":"QAISAR","د_مرکز_نوم__نام_مرکز":"مکتب ایتی سلیق","Polling_Center_Name":"Aiti Saleeq School","د_مرکز_ځای__موقعیت_مرکز":"ایتی سلیق","Polling_Center_Location":"Aiti Saleeq","Verification_Note":"Building","PS_Male":2,"PS_Female":2,"Map_Accuracy":"تعمیر"},"geometry":{"x":7182811.8168158755,"y":4264450.385230884}},{"attributes":{"OBJECTID":5967,"ولایت":"فارياب","Province":"FARYAB","PC_Code":"2908125","ولسوالي":"گرزیوان","District":"GURZIWAN","د_مرکز_نوم__نام_مرکز":"مکتب متوسطه نسوان غولبیان","Polling_Center_Name":"Gholbiyan Girls Secondary School","د_مرکز_ځای__موقعیت_مرکز":"قریه غولبیان","Polling_Center_Location":"Gholbiyan Village","Verification_Note":"Building","PS_Male":1,"PS_Female":2,"Map_Accuracy":"تعمیر"},"geometry":{"x":7275333.3195324391,"y":4264121.2781904936}},{"attributes":{"OBJECTID":5968,"ولایت":"فارياب","Province":"FARYAB","PC_Code":"2909167","ولسوالي":"دولت آباد","District":"DAWLAT ABAD","د_مرکز_نوم__نام_مرکز":"پته بابا","Polling_Center_Name":"Pata Baba","د_مرکز_ځای__موقعیت_مرکز":"قریه پته بابا","Polling_Center_Location":"Pata Baba Village","Verification_Note":"Village","PS_Male":4,"PS_Female":2,"Map_Accuracy":"قریه"},"geometry":{"x":7224024.2237007059,"y":4378059.080975756}},{"attributes":{"OBJECTID":5969,"ولایت":"فارياب","Province":"FARYAB","PC_Code":"2912191","ولسوالي":"قرغان","District":"QURGHAN","د_مرکز_نوم__نام_مرکز":"مکتب متوسطه یکه توت","Polling_Center_Name":"Yaka Toot Secondary School","د_مرکز_ځای__موقعیت_مرکز":" یکه توت","Polling_Center_Location":"Yaka Toot","Verification_Note":"Building","PS_Male":1,"PS_Female":1,"Map_Accuracy":"تعمیر"},"geometry":{"x":7242091.0030229688,"y":4437210.74026183}},{"attributes":{"OBJECTID":5970,"ولایت":"هلمند","Province":"HELMAND","PC_Code":"3001022","ولسوالي":"لشکرگاه","District":"LASHKARGAH","د_مرکز_نوم__نام_مرکز":"د فارم تعمیر بولان","Polling_Center_Name":"Farm Tameer Bolan","د_مرکز_ځای__موقعیت_مرکز":"د فارم تعمیر- بولان ","Polling_Center_Location":"Farm Building Bolan","Verification_Note":"Building","PS_Male":4,"PS_Female":3,"Map_Accuracy":"تعمیر"},"geometry":{"x":7161084.3105104156,"y":3707661.7281804457}},{"attributes":{"OBJECTID":5971,"ولایت":"هلمند","Province":"HELMAND","PC_Code":"3001024","ولسوالي":"لشکرگاه","District":"LASHKARGAH","د_مرکز_نوم__نام_مرکز":"مکتب بولان کلا","Polling_Center_Name":"Bolan Kala School","د_مرکز_ځای__موقعیت_مرکز":"بولان کلا","Polling_Center_Location":"Bolan Kala","Verification_Note":"Building","PS_Male":2,"PS_Female":2,"Map_Accuracy":"تعمیر"},"geometry":{"x":7160546.0173203126,"y":3710903.8757736012}},{"attributes":{"OBJECTID":5972,"ولایت":"هلمند","Province":"HELMAND","PC_Code":"3002079","ولسوالي":"نادعلی","District":"NAD ALI","د_مرکز_نوم__نام_مرکز":"مکتب سید آباد","Polling_Center_Name":"Sayed Abad School","د_مرکز_ځای__موقعیت_مرکز":"سیدآباد","Polling_Center_Location":"Sayed Abad","Verification_Note":"Village","PS_Male":2,"PS_Female":2,"Map_Accuracy":"قریه"},"geometry":{"x":7149736.9793671034,"y":3716334.3086926341}},{"attributes":{"OBJECTID":5973,"ولایت":"بادغيس","Province":"BADGHIS","PC_Code":"3101005","ولسوالي":"قلعه نو","District":"QALA-E-NOW","د_مرکز_نوم__نام_مرکز":"مکتب چشمه دوزدک ","Polling_Center_Name":"Chashma-e-Dozdak School","د_مرکز_ځای__موقعیت_مرکز":"چشمه دوزدک ","Polling_Center_Location":"Chashma-e-Dozdak ","Verification_Note":"Building","PS_Male":2,"PS_Female":2,"Map_Accuracy":"تعمیر"},"geometry":{"x":7023031.851432465,"y":4176032.0965564921}},{"attributes":{"OBJECTID":5974,"ولایت":"بادغيس","Province":"BADGHIS","PC_Code":"3104067","ولسوالي":"قادس","District":"QADIS","د_مرکز_نوم__نام_مرکز":"کلینیک قرچیغی","Polling_Center_Name":"Qarchighai Clinic","د_مرکز_ځای__موقعیت_مرکز":"کلینیک قر چیغی ","Polling_Center_Location":"Qarchi Ghai Clinic","Verification_Note":"Building","PS_Male":2,"PS_Female":1,"Map_Accuracy":"تعمیر"},"geometry":{"x":7048115.4144067839,"y":4151299.3926789463}},{"attributes":{"OBJECTID":5975,"ولایت":"بادغيس","Province":"BADGHIS","PC_Code":"3106119","ولسوالي":"جوند","District":"JAWAND","د_مرکز_نوم__نام_مرکز":"مسجد قریه چمن بید","Polling_Center_Name":"Chamanbed Village Mosque","د_مرکز_ځای__موقعیت_مرکز":" چمن بید","Polling_Center_Location":"Chaman Bid ","Verification_Note":"Building","PS_Male":1,"PS_Female":1,"Map_Accuracy":"تعمیر"},"geometry":{"x":7137604.2836502753,"y":4197500.7772995085}},{"attributes":{"OBJECTID":5976,"ولایت":"هرات","Province":"HERAT","PC_Code":"3201014","ولسوالي":"هرات","District":"HERAT","د_مرکز_نوم__نام_مرکز":"لیسه پل رنگینه","Polling_Center_Name":"Pul -e- Rageena High School","د_مرکز_ځای__موقعیت_مرکز":" ناحیه ششم","Polling_Center_Location":"D06 - Nahia 6","Verification_Note":"Building","PS_Male":4,"PS_Female":4,"Map_Accuracy":"تعمیر"},"geometry":{"x":6927349.4117373154,"y":4074153.4839839041}},{"attributes":{"OBJECTID":5977,"ولایت":"هرات","Province":"HERAT","PC_Code":"3201428","ولسوالي":"هرات","District":"HERAT","د_مرکز_نوم__نام_مرکز":"لیسه حضرت عمر فاروق","Polling_Center_Name":"Hazrat-e- Umar Faroq School ","د_مرکز_ځای__موقعیت_مرکز":"ناحیه هفتم","Polling_Center_Location":"D07 - Nahia 7","Verification_Note":"Building","PS_Male":4,"PS_Female":5,"Map_Accuracy":"تعمیر"},"geometry":{"x":6920695.1155167446,"y":4073906.33696121}},{"attributes":{"OBJECTID":5978,"ولایت":"هرات","Province":"HERAT","PC_Code":"3201429","ولسوالي":"هرات","District":"HERAT","د_مرکز_نوم__نام_مرکز":"پوهنتون جديد","Polling_Center_Name":"New Univrsity ","د_مرکز_ځای__موقعیت_مرکز":"ناحیه پنجم","Polling_Center_Location":"D05 - Nahia 5","Verification_Note":"Building","PS_Male":3,"PS_Female":3,"Map_Accuracy":"تعمیر"},"geometry":{"x":6925285.5706419088,"y":4078183.3959922791}},{"attributes":{"OBJECTID":5979,"ولایت":"هرات","Province":"HERAT","PC_Code":"3202049","ولسوالي":"انجیل","District":"ENJIL","د_مرکز_نوم__نام_مرکز":"مسجد ننگ آباد","Polling_Center_Name":"Nang Abad Mosque ","د_مرکز_ځای__موقعیت_مرکز":"ننگ آباد","Polling_Center_Location":"Nang Abad  ","Verification_Note":"Building","PS_Male":1,"PS_Female":1,"Map_Accuracy":"تعمیر"},"geometry":{"x":6933187.858541809,"y":4073247.7234250307}},{"attributes":{"OBJECTID":5980,"ولایت":"هرات","Province":"HERAT","PC_Code":"3203108","ولسوالي":"گذره","District":"GUZARA","د_مرکز_نوم__نام_مرکز":"لیسه ذکور مرغاب ","Polling_Center_Name":"Murghaab Boys High School ","د_مرکز_ځای__موقعیت_مرکز":"مرغاب ","Polling_Center_Location":"Murghaab ","Verification_Note":"Building","PS_Male":1,"PS_Female":1,"Map_Accuracy":"تعمیر"},"geometry":{"x":6923337.1878959574,"y":4060703.9616382197}},{"attributes":{"OBJECTID":5981,"ولایت":"کابل","Province":"KABUL","PC_Code":"0101032","ولسوالي":"کابل - ناحیه 03","District":"KABUL-D03","د_مرکز_نوم__نام_مرکز":" مکتب صوفي اسلام","Polling_Center_Name":"Sofi Islam School","د_مرکز_ځای__موقعیت_مرکز":"ايستگاه آخر پوهنتون","Polling_Center_Location":"Kabul University last Bus Station","Verification_Note":"Building","PS_Male":3,"PS_Female":3,"Map_Accuracy":"تعمیر"},"geometry":{"x":7695049.9965892695,"y":4098454.0491707847}},{"attributes":{"OBJECTID":5982,"ولایت":"کابل","Province":"KABUL","PC_Code":"0101033","ولسوالي":"کابل - ناحیه 03","District":"KABUL-D03","د_مرکز_نوم__نام_مرکز":" ليسه محمود هوتکي","Polling_Center_Name":"Mahmood Hotaki High School","د_مرکز_ځای__موقعیت_مرکز":"ده بوري","Polling_Center_Location":"Deh Bori","Verification_Note":"Building","PS_Male":4,"PS_Female":3,"Map_Accuracy":"تعمیر"},"geometry":{"x":7694789.89303305,"y":4097687.1545226127}},{"attributes":{"OBJECTID":5983,"ولایت":"کابل","Province":"KABUL","PC_Code":"0101069","ولسوالي":"کابل - ناحیه 04","District":"KABUL-D04","د_مرکز_نوم__نام_مرکز":" مسجد خواجه عبدالله انصاري","Polling_Center_Name":"Khwaja Abdullah Ansari Mosque","د_مرکز_ځای__موقعیت_مرکز":"تانک تيل شهر نو","Polling_Center_Location":"Shahr-e-Naw Pump Station","Verification_Note":"Building","PS_Male":2,"PS_Female":1,"Map_Accuracy":"تعمیر"},"geometry":{"x":7699777.7899098061,"y":4100422.4518690929}},{"attributes":{"OBJECTID":5984,"ولایت":"کابل","Province":"KABUL","PC_Code":"0101502","ولسوالي":"کابل - ناحیه 14","District":"KABUL-D14","د_مرکز_نوم__نام_مرکز":" مسجد قریه دوده مست","Polling_Center_Name":"Doda Mast Village Mosque","د_مرکز_ځای__موقعیت_مرکز":"قریه دوده مست","Polling_Center_Location":"Doda Mast Village","Verification_Note":"Building","PS_Male":1,"PS_Female":1,"Map_Accuracy":"تعمیر"},"geometry":{"x":7681935.1501558647,"y":4105383.2231186628}},{"attributes":{"OBJECTID":5985,"ولایت":"کابل","Province":"KABUL","PC_Code":"0101289","ولسوالي":"کابل - ناحیه 15","District":"KABUL-D15","د_مرکز_نوم__نام_مرکز":" مسجد امام طهاوی","Polling_Center_Name":"Imam-e-Tahawi Mosque","د_مرکز_ځای__موقعیت_مرکز":"عقب ميدان هوايي","Polling_Center_Location":"Behind Airport","Verification_Note":"Building","PS_Male":4,"PS_Female":3,"Map_Accuracy":"تعمیر"},"geometry":{"x":7700340.242768988,"y":4107025.4086197838}},{"attributes":{"OBJECTID":5986,"ولایت":"باميان","Province":"BAMYAN","PC_Code":"1007134","ولسوالي":"ورس","District":"WARAS","د_مرکز_نوم__نام_مرکز":"مکتب میان ملک دهن سرخ کنگگ","Polling_Center_Name":"Meyan Malik Dahan-e-Surkh Kangag School","د_مرکز_ځای__موقعیت_مرکز":"دهن سرخ کنگگ","Polling_Center_Location":"Dahan-e-Surkh Kangag","Verification_Note":"Building","PS_Male":2,"PS_Female":1,"Map_Accuracy":"تعمیر"},"geometry":{"x":7417333.6731444038,"y":4048697.7765469477}},{"attributes":{"OBJECTID":5987,"ولایت":"پکتيکا","Province":"PAKTIKA","PC_Code":"1202035","ولسوالي":"مټا خان","District":"MATA KHAN","د_مرکز_نوم__نام_مرکز":"کوتی خیل (خیمه)","Polling_Center_Name":"Koti Khel Tent","د_مرکز_ځای__موقعیت_مرکز":"کوتی خیل","Polling_Center_Location":"Koti Khel","Verification_Note":"Building","PS_Male":3,"PS_Female":0,"Map_Accuracy":"تعمیر"},"geometry":{"x":7660285.966017738,"y":3928132.8087785468}},{"attributes":{"OBJECTID":5988,"ولایت":"پکتيکا","Province":"PAKTIKA","PC_Code":"1202036","ولسوالي":"مټا خان","District":"MATA KHAN","د_مرکز_نوم__نام_مرکز":"کوتی خیل (خیمه)","Polling_Center_Name":"Koti Khel Tent","د_مرکز_ځای__موقعیت_مرکز":"کریخیل ","Polling_Center_Location":"Kari Khel","Verification_Note":"Building","PS_Male":0,"PS_Female":3,"Map_Accuracy":"تعمیر"},"geometry":{"x":7661873.173789002,"y":3925835.5932527259}},{"attributes":{"OBJECTID":5989,"ولایت":"پکتيکا","Province":"PAKTIKA","PC_Code":"1202038","ولسوالي":"مټا خان","District":"MATA KHAN","د_مرکز_نوم__نام_مرکز":"مرکز ولسوالی چینه باغ ","Polling_Center_Name":"Chena Bagh, District Center","د_مرکز_ځای__موقعیت_مرکز":"چینا باغ","Polling_Center_Location":"Chena Bagh","Verification_Note":"Building","PS_Male":2,"PS_Female":1,"Map_Accuracy":"تعمیر"},"geometry":{"x":7669108.8583141416,"y":3917678.0251318887}},{"attributes":{"OBJECTID":5990,"ولایت":"پکتيکا","Province":"PAKTIKA","PC_Code":"1204060","ولسوالي":"یحی خیل","District":"YAHYA KHEL","د_مرکز_نوم__نام_مرکز":"مرکز ولسوالی (خیمه) ","Polling_Center_Name":"District Compound (Tent)","د_مرکز_ځای__موقعیت_مرکز":"مرکز ولسوالی ","Polling_Center_Location":"District Center","Verification_Note":"Village","PS_Male":2,"PS_Female":1,"Map_Accuracy":"قریه"},"geometry":{"x":7641722.3177142963,"y":3886830.6583225504}},{"attributes":{"OBJECTID":5991,"ولایت":"پکتيکا","Province":"PAKTIKA","PC_Code":"1204062","ولسوالي":"یحی خیل","District":"YAHYA KHEL","د_مرکز_نوم__نام_مرکز":"جومات مغل خیل","Polling_Center_Name":"Mughol Khel Mosque","د_مرکز_ځای__موقعیت_مرکز":"مغل خیل","Polling_Center_Location":"Mughol Khel","Verification_Note":"Village","PS_Male":1,"PS_Female":1,"Map_Accuracy":"قریه"},"geometry":{"x":7639947.972973451,"y":3884280.4452065229}},{"attributes":{"OBJECTID":5992,"ولایت":"پکتيکا","Province":"PAKTIKA","PC_Code":"1207108","ولسوالي":"زرغون شهر ","District":"ZARGHUN SHAHR","د_مرکز_نوم__نام_مرکز":"شاعلم میلمستون","Polling_Center_Name":"Shah Alam Guest House","د_مرکز_ځای__موقعیت_مرکز":"حاجی خیال گل","Polling_Center_Location":"Haji Kheyal Gul","Verification_Note":"Village","PS_Male":0,"PS_Female":2,"Map_Accuracy":"قریه"},"geometry":{"x":7629871.775718417,"y":3871464.4022725523}},{"attributes":{"OBJECTID":5993,"ولایت":"پکتيکا","Province":"PAKTIKA","PC_Code":"1207287","ولسوالي":"زرغون شهر ","District":"ZARGHUN SHAHR","د_مرکز_نوم__نام_مرکز":"سي ګانه ابتدائيه ښوونځي","Polling_Center_Name":"Segana Primary School","د_مرکز_ځای__موقعیت_مرکز":"سي ګانه","Polling_Center_Location":"Segana","Verification_Note":"Village","PS_Male":2,"PS_Female":0,"Map_Accuracy":"قریه"},"geometry":{"x":7627938.3576516137,"y":3885584.8233549893}},{"attributes":{"OBJECTID":5994,"ولایت":"پکتيا","Province":"PAKTYA","PC_Code":"1309172","ولسوالي":"جانی خیل","District":"JANI KHEL","د_مرکز_نوم__نام_مرکز":"جانی خیلو عالی لیسه","Polling_Center_Name":"Jani Khel High School","د_مرکز_ځای__موقعیت_مرکز":"میدان خوله","Polling_Center_Location":"Maidan Khola","Verification_Note":"Building","PS_Male":3,"PS_Female":0,"Map_Accuracy":"تعمیر"},"geometry":{"x":7767756.3282688148,"y":3982515.5667382777}},{"attributes":{"OBJECTID":5995,"ولایت":"کندز","Province":"KUNDUZ","PC_Code":"1904177","ولسوالي":"خان آباد","District":"KHAN ABAD","د_مرکز_نوم__نام_مرکز":"مکتب ابراهیم خیل کوچی","Polling_Center_Name":"Ibrahim Khel Kochi School","د_مرکز_ځای__موقعیت_مرکز":"قریه ابراهیم خیل کوچی","Polling_Center_Location":"Ibrahim Khel Kochi Village","Verification_Note":"Building","PS_Male":1,"PS_Female":1,"Map_Accuracy":"تعمیر"},"geometry":{"x":7683518.8157409392,"y":4409252.0447985008}},{"attributes":{"OBJECTID":5996,"ولایت":"سمنگان","Province":"SAMANGAN","PC_Code":"2001013","ولسوالي":"ایبک","District":"AYBAK","د_مرکز_نوم__نام_مرکز":"مکتب متوسطه ساره کنده ","Polling_Center_Name":"Sara Kanda Secondary School","د_مرکز_ځای__موقعیت_مرکز":"قریه ساره کنده ","Polling_Center_Location":"Sara Kanda Village","Verification_Note":"Building","PS_Male":2,"PS_Female":1,"Map_Accuracy":"تعمیر"},"geometry":{"x":7577730.5399763286,"y":4325303.3531189263}},{"attributes":{"OBJECTID":5997,"ولایت":"بلخ","Province":"BALKH","PC_Code":"2102067","ولسوالي":"نهر شاهی ","District":"NAHR-E-SHAHI","د_مرکز_نوم__نام_مرکز":"مکتب مولانا جلا ل الدین","Polling_Center_Name":"Maulana Jalaluddin School","د_مرکز_ځای__موقعیت_مرکز":"قریه بابه یاد گار","Polling_Center_Location":"Baba Yadgar Village","Verification_Note":"Building","PS_Male":5,"PS_Female":3,"Map_Accuracy":"تعمیر"},"geometry":{"x":7467244.1275167167,"y":4397736.0855661035}},{"attributes":{"OBJECTID":5998,"ولایت":"غور","Province":"GHOR","PC_Code":"2306077","ولسوالي":"شهرک ","District":"SHAHRAK","د_مرکز_نوم__نام_مرکز":"مسجد کاریز اسحاق","Polling_Center_Name":"Kaarez Ishaq Mosque","د_مرکز_ځای__موقعیت_مرکز":" کاریز اسحاق","Polling_Center_Location":"Kaarez Ishaq","Verification_Note":"Building","PS_Male":1,"PS_Female":1,"Map_Accuracy":"تعمیر"},"geometry":{"x":7151505.5176833123,"y":4028332.7252236605}},{"attributes":{"OBJECTID":5999,"ولایت":"کندهار","Province":"کندهار","PC_Code":"2704182","ولسوالي":"پنجوایې","District":"PANJWAYEE","د_مرکز_نوم__نام_مرکز":"د حاجي نور محمد كمپ","Polling_Center_Name":"Haji Noor Mohammad Camp","د_مرکز_ځای__موقعیت_مرکز":"موشان","Polling_Center_Location":"Moshan","Verification_Note":"Village","PS_Male":2,"PS_Female":0,"Map_Accuracy":"قریه"},"geometry":{"x":7265327.7956825271,"y":3692942.2100147977}}]}