{"objectIdFieldName":"OBJECTID","globalIdFieldName":"","geometryType":"esriGeometryPoint","spatialReference":{"wkid":102100,"latestWkid":3857},"fields":[{"name":"OBJECTID","type":"esriFieldTypeOID","alias":"OBJECTID","sqlType":"sqlTypeOther","domain":null,"defaultValue":null},{"name":"ولایت","type":"esriFieldTypeString","alias":"ولایت","sqlType":"sqlTypeOther","length":255,"domain":null,"defaultValue":null},{"name":"Province","type":"esriFieldTypeString","alias":"Province","sqlType":"sqlTypeOther","length":255,"domain":null,"defaultValue":null},{"name":"PC_Code","type":"esriFieldTypeString","alias":"PC_Code","sqlType":"sqlTypeOther","length":255,"domain":null,"defaultValue":null},{"name":"ولسوالي","type":"esriFieldTypeString","alias":"ولسوالي","sqlType":"sqlTypeOther","length":255,"domain":null,"defaultValue":null},{"name":"District","type":"esriFieldTypeString","alias":"District","sqlType":"sqlTypeOther","length":255,"domain":null,"defaultValue":null},{"name":"د_مرکز_نوم__نام_مرکز","type":"esriFieldTypeString","alias":"د_مرکز_نوم__نام_مرکز","sqlType":"sqlTypeOther","length":255,"domain":null,"defaultValue":null},{"name":"Polling_Center_Name","type":"esriFieldTypeString","alias":"Polling_Center_Name","sqlType":"sqlTypeOther","length":255,"domain":null,"defaultValue":null},{"name":"د_مرکز_ځای__موقعیت_مرکز","type":"esriFieldTypeString","alias":"د_مرکز_ځای__موقعیت_مرکز","sqlType":"sqlTypeOther","length":255,"domain":null,"defaultValue":null},{"name":"Polling_Center_Location","type":"esriFieldTypeString","alias":"Polling_Center_Location","sqlType":"sqlTypeOther","length":255,"domain":null,"defaultValue":null},{"name":"Verification_Note","type":"esriFieldTypeString","alias":"Verification_Note","sqlType":"sqlTypeOther","length":250,"domain":null,"defaultValue":null},{"name":"PS_Male","type":"esriFieldTypeSmallInteger","alias":"PS_Male","sqlType":"sqlTypeOther","domain":null,"defaultValue":null},{"name":"PS_Female","type":"esriFieldTypeSmallInteger","alias":"PS_Female","sqlType":"sqlTypeOther","domain":null,"defaultValue":null},{"name":"Map_Accuracy","type":"esriFieldTypeString","alias":"Map_Accuracy","sqlType":"sqlTypeOther","length":10,"domain":null,"defaultValue":null}],"features":[{"attributes":{"OBJECTID":600,"ولایت":"کابل","Province":"KABUL","PC_Code":"0101492","ولسوالي":"کابل - ناحیه 08","District":"KABUL-D08","د_مرکز_نوم__نام_مرکز":"مسجد اصحاب کرام","Polling_Center_Name":"Ashab-e- Keram Mosque","د_مرکز_ځای__موقعیت_مرکز":"تانک لوگر","Polling_Center_Location":"Tank-e-Logar","Verification_Note":"Building","PS_Male":3,"PS_Female":2,"Map_Accuracy":"تعمیر"},"geometry":{"x":7703096.327346161,"y":4096492.9279470444}},{"attributes":{"OBJECTID":601,"ولایت":"کابل","Province":"KABUL","PC_Code":"0101176","ولسوالي":"کابل - ناحیه 09","District":"KABUL-D09","د_مرکز_نوم__نام_مرکز":" لیسه علی احمد خان پوپل","Polling_Center_Name":"Ali Ahmad Khan Popal High School","د_مرکز_ځای__موقعیت_مرکز":"هوتخیل","Polling_Center_Location":"HodKhel","Verification_Note":"Building","PS_Male":3,"PS_Female":2,"Map_Accuracy":"تعمیر"},"geometry":{"x":7710064.1093828827,"y":4101316.1226880178}},{"attributes":{"OBJECTID":602,"ولایت":"کابل","Province":"KABUL","PC_Code":"0101513","ولسوالي":"کابل - ناحیه 09","District":"KABUL-D09","د_مرکز_نوم__نام_مرکز":" مسجد وزیر ګل","Polling_Center_Name":"Wazir Gul Mosque","د_مرکز_ځای__موقعیت_مرکز":" ګردی خیل","Polling_Center_Location":"Gardi Khel","Verification_Note":"Building","PS_Male":2,"PS_Female":2,"Map_Accuracy":"تعمیر"},"geometry":{"x":7712186.9013844319,"y":4104658.78587573}},{"attributes":{"OBJECTID":603,"ولایت":"کابل","Province":"KABUL","PC_Code":"0101204","ولسوالي":"کابل - ناحیه 10","District":"KABUL-D10","د_مرکز_نوم__نام_مرکز":" مسجد شیبری ها","Polling_Center_Name":"Shebari ha Mosque","د_مرکز_ځای__موقعیت_مرکز":"چهار قلعه","Polling_Center_Location":"Chahar Qala","Verification_Note":"Building","PS_Male":2,"PS_Female":1,"Map_Accuracy":"تعمیر"},"geometry":{"x":7701705.1777997874,"y":4103446.9820711911}},{"attributes":{"OBJECTID":604,"ولایت":"کابل","Province":"KABUL","PC_Code":"0101224","ولسوالي":"کابل - ناحیه 10","District":"KABUL-D10","د_مرکز_نوم__نام_مرکز":" معینیت سواد آموزی ","Polling_Center_Name":"Moenyat Sewad Aamozi","د_مرکز_ځای__موقعیت_مرکز":"شهر نو","Polling_Center_Location":"Shahr-e-Naw","Verification_Note":"Building","PS_Male":2,"PS_Female":2,"Map_Accuracy":"تعمیر"},"geometry":{"x":7700614.552918613,"y":4100540.4306903332}},{"attributes":{"OBJECTID":605,"ولایت":"کابل","Province":"KABUL","PC_Code":"0101225","ولسوالي":"کابل - ناحیه 10","District":"KABUL-D10","د_مرکز_نوم__نام_مرکز":" مسجد جامع الجواد","Polling_Center_Name":"Aljawad Mosque","د_مرکز_ځای__موقعیت_مرکز":"وزير آباد","Polling_Center_Location":"Wazir Abad","Verification_Note":"Building","PS_Male":2,"PS_Female":1,"Map_Accuracy":"تعمیر"},"geometry":{"x":7699567.064340122,"y":4103625.0289967582}},{"attributes":{"OBJECTID":606,"ولایت":"کابل","Province":"KABUL","PC_Code":"0101240","ولسوالي":"کابل - ناحیه 11","District":"KABUL-D11","د_مرکز_نوم__نام_مرکز":" مسجد بابا آدم صفي الله","Polling_Center_Name":"Baba Adam Safiullah Mosque","د_مرکز_ځای__موقعیت_مرکز":"نو آباد پروژه پنج خیرخانه","Polling_Center_Location":"Naw Abad, Proja 5 Khair Khana","Verification_Note":"Building","PS_Male":1,"PS_Female":3,"Map_Accuracy":"تعمیر"},"geometry":{"x":7695798.7170128077,"y":4108880.5214701369}},{"attributes":{"OBJECTID":607,"ولایت":"کابل","Province":"KABUL","PC_Code":"0101254","ولسوالي":"کابل - ناحیه 12","District":"KABUL-D12","د_مرکز_نوم__نام_مرکز":"مرکز تعليمي","Polling_Center_Name":"Educational Center","د_مرکز_ځای__موقعیت_مرکز":"بلاک ٩ ارزان قيمت","Polling_Center_Location":"9th Block, Arzan Qemat","Verification_Note":"Building","PS_Male":3,"PS_Female":3,"Map_Accuracy":"تعمیر"},"geometry":{"x":7717217.2950333916,"y":4097711.3679156825}},{"attributes":{"OBJECTID":608,"ولایت":"کابل","Province":"KABUL","PC_Code":"0101278","ولسوالي":"کابل - ناحیه 13","District":"KABUL-D13","د_مرکز_نوم__نام_مرکز":"لیسه سیدالشهدا ","Polling_Center_Name":"Sayedul Shuhada High School","د_مرکز_ځای__موقعیت_مرکز":"قلعه محب","Polling_Center_Location":"Qala-e-Muhib","Verification_Note":"Building","PS_Male":3,"PS_Female":3,"Map_Accuracy":"تعمیر"},"geometry":{"x":7684892.7008588016,"y":4096603.8390578404}},{"attributes":{"OBJECTID":609,"ولایت":"کابل","Province":"KABUL","PC_Code":"0101279","ولسوالي":"کابل - ناحیه 13","District":"KABUL-D13","د_مرکز_نوم__نام_مرکز":"لیسه قاضی ","Polling_Center_Name":"Qala-e-Qazi High School","د_مرکز_ځای__موقعیت_مرکز":"قلعه قاضي","Polling_Center_Location":"Qala-e-Qazi","Verification_Note":"Building","PS_Male":3,"PS_Female":3,"Map_Accuracy":"تعمیر"},"geometry":{"x":7686424.3490722068,"y":4094026.3615978435}},{"attributes":{"OBJECTID":610,"ولایت":"کابل","Province":"KABUL","PC_Code":"0101282","ولسوالي":"کابل - ناحیه 13","District":"KABUL-D13","د_مرکز_نوم__نام_مرکز":" مکتب خصوصی تلاش","Polling_Center_Name":"Talash Private School","د_مرکز_ځای__موقعیت_مرکز":"سر پل برچي","Polling_Center_Location":"Sari Pul-e-Barchi","Verification_Note":"Building","PS_Male":2,"PS_Female":1,"Map_Accuracy":"تعمیر"},"geometry":{"x":7690250.3676881231,"y":4096641.83345592}},{"attributes":{"OBJECTID":611,"ولایت":"کابل","Province":"KABUL","PC_Code":"0101283","ولسوالي":"کابل - ناحیه 13","District":"KABUL-D13","د_مرکز_نوم__نام_مرکز":" مسجد بقيت الله","Polling_Center_Name":"Baqyatullah Mosque","د_مرکز_ځای__موقعیت_مرکز":"شهرک صفا","Polling_Center_Location":"Shahrak-e-Safa ","Verification_Note":"Building","PS_Male":2,"PS_Female":1,"Map_Accuracy":"تعمیر"},"geometry":{"x":7687531.3713143729,"y":4097707.9806880727}},{"attributes":{"OBJECTID":612,"ولایت":"کابل","Province":"KABUL","PC_Code":"0101326","ولسوالي":"کابل - ناحیه 17","District":"KABUL-D17","د_مرکز_نوم__نام_مرکز":"لیسه آزادی","Polling_Center_Name":"Azadi High School","د_مرکز_ځای__موقعیت_مرکز":"چشمه کوتل","Polling_Center_Location":"Chashma-e-Kotal","Verification_Note":"Building","PS_Male":3,"PS_Female":3,"Map_Accuracy":"تعمیر"},"geometry":{"x":7693137.4620589353,"y":4105480.0551457703}},{"attributes":{"OBJECTID":613,"ولایت":"کابل","Province":"KABUL","PC_Code":"0101511","ولسوالي":"کابل - ناحیه 21","District":"KABUL-D21","د_مرکز_نوم__نام_مرکز":" مکتب متوسطه سپین غر","Polling_Center_Name":"Spen Ghar Secondary School","د_مرکز_ځای__موقعیت_مرکز":"قریه سپین غر","Polling_Center_Location":"Speen Ghar Village","Verification_Note":"Building","PS_Male":4,"PS_Female":4,"Map_Accuracy":"تعمیر"},"geometry":{"x":7724768.167338375,"y":4103249.9802434966}},{"attributes":{"OBJECTID":614,"ولایت":"کابل","Province":"KABUL","PC_Code":"0102399","ولسوالي":"پغمان","District":"PAGHMAN","د_مرکز_نوم__نام_مرکز":"مکتب متوسطه عمرفاروق","Polling_Center_Name":"Hazrat-e-Omer Farooq Secondary School","د_مرکز_ځای__موقعیت_مرکز":"ارغنده پائین ","Polling_Center_Location":"Arghanda-e-Payen","Verification_Note":"Building","PS_Male":3,"PS_Female":2,"Map_Accuracy":"تعمیر"},"geometry":{"x":7675158.8043587878,"y":4097619.2198278904}},{"attributes":{"OBJECTID":615,"ولایت":"کابل","Province":"KABUL","PC_Code":"0102407","ولسوالي":"پغمان","District":"PAGHMAN","د_مرکز_نوم__نام_مرکز":" مکتب متوسطه پغمان قشنگ","Polling_Center_Name":"Paghman-e-Qashang Secondary School","د_مرکز_ځای__موقعیت_مرکز":"ده دست","Polling_Center_Location":"Deh Dast","Verification_Note":"Building","PS_Male":1,"PS_Female":1,"Map_Accuracy":"تعمیر"},"geometry":{"x":7682007.2101565674,"y":4104943.6899056658}},{"attributes":{"OBJECTID":616,"ولایت":"کابل","Province":"KABUL","PC_Code":"0102408","ولسوالي":"پغمان","District":"PAGHMAN","د_مرکز_نوم__نام_مرکز":" مکتب حضرت ابو بکر صديق","Polling_Center_Name":"Hazrat-e-Abubakr-e-Sedeq School","د_مرکز_ځای__موقعیت_مرکز":"قلعه حيدر خان","Polling_Center_Location":"Qala-e-Haider Khan","Verification_Note":"Building","PS_Male":3,"PS_Female":2,"Map_Accuracy":"تعمیر"},"geometry":{"x":7679843.1719459668,"y":4096765.0989887342}},{"attributes":{"OBJECTID":617,"ولایت":"کابل","Province":"KABUL","PC_Code":"0102411","ولسوالي":"پغمان","District":"PAGHMAN","د_مرکز_نوم__نام_مرکز":" ليسه خواجه مسافر","Polling_Center_Name":"Khwaja Musafer High School","د_مرکز_ځای__موقعیت_مرکز":"خواجه مسافر","Polling_Center_Location":"Khwaja Musafer","Verification_Note":"Building","PS_Male":2,"PS_Female":1,"Map_Accuracy":"تعمیر"},"geometry":{"x":7680578.2356943749,"y":4103110.1041747034}},{"attributes":{"OBJECTID":618,"ولایت":"کابل","Province":"KABUL","PC_Code":"0102412","ولسوالي":"پغمان","District":"PAGHMAN","د_مرکز_نوم__نام_مرکز":" مسجد خالداري","Polling_Center_Name":"Khaldari Mosque ","د_مرکز_ځای__موقعیت_مرکز":"خالداري","Polling_Center_Location":"Khaldari","Verification_Note":"Building","PS_Male":1,"PS_Female":1,"Map_Accuracy":"تعمیر"},"geometry":{"x":7677999.7467819154,"y":4103143.0817856789}},{"attributes":{"OBJECTID":619,"ولایت":"کابل","Province":"KABUL","PC_Code":"0103426","ولسوالي":"چهار آسیاب","District":"CHAHAR ASYAB","د_مرکز_نوم__نام_مرکز":"مسجد ملک رضا خان","Polling_Center_Name":"Malik Reza Khan Mosque","د_مرکز_ځای__موقعیت_مرکز":"للندر شترپریده","Polling_Center_Location":"Lalandar Shutor Parida","Verification_Note":"Building","PS_Male":1,"PS_Female":1,"Map_Accuracy":"تعمیر"},"geometry":{"x":7682354.3092269115,"y":4082013.2258490697}},{"attributes":{"OBJECTID":620,"ولایت":"کابل","Province":"KABUL","PC_Code":"0103427","ولسوالي":"چهار آسیاب","District":"CHAHAR ASYAB","د_مرکز_نوم__نام_مرکز":" مسجد چارسوق","Polling_Center_Name":"Charsawq Mosque","د_مرکز_ځای__موقعیت_مرکز":"چارسوق","Polling_Center_Location":"Charsoq","Verification_Note":"Building","PS_Male":1,"PS_Female":1,"Map_Accuracy":"تعمیر"},"geometry":{"x":7698647.6454962045,"y":4083864.3618914634}},{"attributes":{"OBJECTID":621,"ولایت":"کابل","Province":"KABUL","PC_Code":"0104451","ولسوالي":"بگرامی","District":"BAGRAMI","د_مرکز_نوم__نام_مرکز":"لیسه نسوان شینه","Polling_Center_Name":"Sheena Girls High School","د_مرکز_ځای__موقعیت_مرکز":"قريه شينه","Polling_Center_Location":"Sheena Village","Verification_Note":"Village","PS_Male":1,"PS_Female":2,"Map_Accuracy":"قریه"},"geometry":{"x":7713832.9721194357,"y":4099248.6455844268}},{"attributes":{"OBJECTID":622,"ولایت":"کابل","Province":"KABUL","PC_Code":"0104452","ولسوالي":"بگرامی","District":"BAGRAMI","د_مرکز_نوم__نام_مرکز":"لیسه ذکور شیوکی","Polling_Center_Name":"Shewaki Boys High School","د_مرکز_ځای__موقعیت_مرکز":"شيوکي","Polling_Center_Location":"Shewaki","Verification_Note":"Building","PS_Male":3,"PS_Female":1,"Map_Accuracy":"تعمیر"},"geometry":{"x":7706186.9038387127,"y":4091410.7258816063}},{"attributes":{"OBJECTID":623,"ولایت":"کابل","Province":"KABUL","PC_Code":"0104453","ولسوالي":"بگرامی","District":"BAGRAMI","د_مرکز_نوم__نام_مرکز":" لیسه نسوان قلعه احمد خان","Polling_Center_Name":"Qala-e-Ahmad Khan Girls High School","د_مرکز_ځای__موقعیت_مرکز":"قلعه احمد خان","Polling_Center_Location":"Qala-e-Ahmad Khan","Verification_Note":"Building","PS_Male":1,"PS_Female":2,"Map_Accuracy":"تعمیر"},"geometry":{"x":7710056.7122027166,"y":4096756.6090069115}},{"attributes":{"OBJECTID":624,"ولایت":"کابل","Province":"KABUL","PC_Code":"0104454","ولسوالي":"بگرامی","District":"BAGRAMI","د_مرکز_نوم__نام_مرکز":" لیسه ذکور بت خاک","Polling_Center_Name":"But Khak Boys High School","د_مرکز_ځای__موقعیت_مرکز":"بت خاک","Polling_Center_Location":"Bot Khak","Verification_Note":"Building","PS_Male":2,"PS_Female":2,"Map_Accuracy":"تعمیر"},"geometry":{"x":7720158.3982815556,"y":4096101.1841717362}},{"attributes":{"OBJECTID":625,"ولایت":"کابل","Province":"KABUL","PC_Code":"0106389","ولسوالي":"شکردره","District":"SHAKAR DARA","د_مرکز_نوم__نام_مرکز":"لیسه دانشمند","Polling_Center_Name":"Danishmand High School","د_مرکز_ځای__موقعیت_مرکز":"دانشمند","Polling_Center_Location":"Danishmand","Verification_Note":"Building","PS_Male":3,"PS_Female":2,"Map_Accuracy":"تعمیر"},"geometry":{"x":7696299.1838399284,"y":4118188.4753814936}},{"attributes":{"OBJECTID":626,"ولایت":"کابل","Province":"KABUL","PC_Code":"0106390","ولسوالي":"شکردره","District":"SHAKAR DARA","د_مرکز_نوم__نام_مرکز":"مکتب متوسطه وزیرگل شهید","Polling_Center_Name":"Wazir Gul Shaheed Secondary School","د_مرکز_ځای__موقعیت_مرکز":"دولانه","Polling_Center_Location":"Dowlana","Verification_Note":"Building","PS_Male":3,"PS_Female":2,"Map_Accuracy":"تعمیر"},"geometry":{"x":7686489.5255208723,"y":4116826.4516119435}},{"attributes":{"OBJECTID":627,"ولایت":"کابل","Province":"KABUL","PC_Code":"0108340","ولسوالي":"میر بچه کوت","District":"MIR BACHA KOT","د_مرکز_نوم__نام_مرکز":" لیسه نمبر ۲ میربچه خان","Polling_Center_Name":"Mir Bacha Khan No.2 High School","د_مرکز_ځای__موقعیت_مرکز":"سرای خواجه","Polling_Center_Location":"Sarai-e-Khwaja","Verification_Note":"Building","PS_Male":2,"PS_Female":2,"Map_Accuracy":"تعمیر"},"geometry":{"x":7694777.2883271091,"y":4129827.4990009367}},{"attributes":{"OBJECTID":628,"ولایت":"کابل","Province":"KABUL","PC_Code":"0109443","ولسوالي":"خاک جبار","District":"KHAK-E-JABAR","د_مرکز_نوم__نام_مرکز":" منزل محمد نذیر","Polling_Center_Name":"Mohammad Nazir House","د_مرکز_ځای__موقعیت_مرکز":"ملنگ","Polling_Center_Location":"Malang","Verification_Note":"Village","PS_Male":1,"PS_Female":1,"Map_Accuracy":"قریه"},"geometry":{"x":7726646.7215941437,"y":4076121.2206175923}},{"attributes":{"OBJECTID":629,"ولایت":"کابل","Province":"KABUL","PC_Code":"0109444","ولسوالي":"خاک جبار","District":"KHAK-E-JABAR","د_مرکز_نوم__نام_مرکز":"لیسه ذکور چکری","Polling_Center_Name":"Chakari Boys High School","د_مرکز_ځای__موقعیت_مرکز":"چکري","Polling_Center_Location":"Chakari","Verification_Note":"Building","PS_Male":2,"PS_Female":1,"Map_Accuracy":"تعمیر"},"geometry":{"x":7729437.7928853929,"y":4075397.8212440833}},{"attributes":{"OBJECTID":630,"ولایت":"کابل","Province":"KABUL","PC_Code":"0109446","ولسوالي":"خاک جبار","District":"KHAK-E-JABAR","د_مرکز_نوم__نام_مرکز":"مکتب ابتدائیه چنار","Polling_Center_Name":"Chenar Primary School","د_مرکز_ځای__موقعیت_مرکز":"شينوار","Polling_Center_Location":"Shenwar","Verification_Note":"Building","PS_Male":1,"PS_Female":1,"Map_Accuracy":"تعمیر"},"geometry":{"x":7734464.1840420626,"y":4097837.4236816093}},{"attributes":{"OBJECTID":631,"ولایت":"کابل","Province":"KABUL","PC_Code":"0110358","ولسوالي":"کلکان","District":"KALAKAN","د_مرکز_نوم__نام_مرکز":" مسجد کارنده","Polling_Center_Name":"Karenda Mosque","د_مرکز_ځای__موقعیت_مرکز":"کارنده","Polling_Center_Location":"Karenda","Verification_Note":"Building","PS_Male":1,"PS_Female":1,"Map_Accuracy":"تعمیر"},"geometry":{"x":7697260.8317326792,"y":4130821.5431200638}},{"attributes":{"OBJECTID":632,"ولایت":"کابل","Province":"KABUL","PC_Code":"0111381","ولسوالي":"گلدره","District":"GULDARA","د_مرکز_نوم__نام_مرکز":"مسجد دشت ناصری","Polling_Center_Name":"Dasht-e-Naseri Mosque","د_مرکز_ځای__موقعیت_مرکز":"دشت ناصري","Polling_Center_Location":"Dasht-e-Naseri","Verification_Note":"Building","PS_Male":2,"PS_Female":2,"Map_Accuracy":"تعمیر"},"geometry":{"x":7687918.1709226482,"y":4128098.4109675139}},{"attributes":{"OBJECTID":633,"ولایت":"کابل","Province":"KABUL","PC_Code":"0111383","ولسوالي":"گلدره","District":"GULDARA","د_مرکز_نوم__نام_مرکز":" لیسه پیام آزادی","Polling_Center_Name":"Payam-e-Azadi High School","د_مرکز_ځای__موقعیت_مرکز":"ده نو","Polling_Center_Location":"Deh Naw","Verification_Note":"Building","PS_Male":3,"PS_Female":2,"Map_Accuracy":"تعمیر"},"geometry":{"x":7686026.2114624828,"y":4128986.7794695273}},{"attributes":{"OBJECTID":634,"ولایت":"کابل","Province":"KABUL","PC_Code":"0112351","ولسوالي":"فرزه","District":"FARZA","د_مرکز_نوم__نام_مرکز":" مسجد سرجوي","Polling_Center_Name":"Sar-e-Joy Mosque","د_مرکز_ځای__موقعیت_مرکز":"قلعه سلیم خان","Polling_Center_Location":"Qala-e-Saleem Khan","Verification_Note":"Building","PS_Male":2,"PS_Female":1,"Map_Accuracy":"تعمیر"},"geometry":{"x":7683438.3896352239,"y":4135408.8489178196}},{"attributes":{"OBJECTID":635,"ولایت":"کابل","Province":"KABUL","PC_Code":"0113374","ولسوالي":"استالف","District":"ESTALEF","د_مرکز_نوم__نام_مرکز":" مکتب ابتدائيه خواجه حسن","Polling_Center_Name":"Khwaja Hassan Primary School","د_مرکز_ځای__موقعیت_مرکز":"قريه خواجه حسن","Polling_Center_Location":"Khwaja Hassan Village","Verification_Note":"Building","PS_Male":1,"PS_Female":1,"Map_Accuracy":"تعمیر"},"geometry":{"x":7692472.9648489356,"y":4139235.4494980574}},{"attributes":{"OBJECTID":636,"ولایت":"کابل","Province":"KABUL","PC_Code":"0113377","ولسوالي":"استالف","District":"ESTALEF","د_مرکز_نوم__نام_مرکز":" ليسه بدل شاه خيل","Polling_Center_Name":"Badal Shah Khel High School","د_مرکز_ځای__موقعیت_مرکز":"دره بدل شاه خيل","Polling_Center_Location":"Dara-e-Badal Shah Khel ","Verification_Note":"Village","PS_Male":2,"PS_Female":2,"Map_Accuracy":"قریه"},"geometry":{"x":7686596.0950089879,"y":4142500.9278954044}},{"attributes":{"OBJECTID":637,"ولایت":"کابل","Province":"KABUL","PC_Code":"0113378","ولسوالي":"استالف","District":"ESTALEF","د_مرکز_نوم__نام_مرکز":" مسجد نور علم","Polling_Center_Name":"Noor Alam Mosque","د_مرکز_ځای__موقعیت_مرکز":"قريه نور علم","Polling_Center_Location":"Noor Alam Village","Verification_Note":"Building","PS_Male":1,"PS_Female":1,"Map_Accuracy":"تعمیر"},"geometry":{"x":7691595.8073365055,"y":4140123.0123245344}},{"attributes":{"OBJECTID":638,"ولایت":"کابل","Province":"KABUL","PC_Code":"0114368","ولسوالي":"قره باغ","District":"QARA BAGH","د_مرکز_نوم__نام_مرکز":"دارالمعلمین قره باغ","Polling_Center_Name":"Qara Bagh Teacher Training Institute","د_مرکز_ځای__موقعیت_مرکز":"مرکز ولسوالي","Polling_Center_Location":"District Capital","Verification_Note":"Building","PS_Male":2,"PS_Female":1,"Map_Accuracy":"تعمیر"},"geometry":{"x":7698536.0454803,"y":4142537.3270928413}},{"attributes":{"OBJECTID":639,"ولایت":"کابل","Province":"KABUL","PC_Code":"0114369","ولسوالي":"قره باغ","District":"QARA BAGH","د_مرکز_نوم__نام_مرکز":"لیسه استرغچ ","Polling_Center_Name":"Isterghuch High School","د_مرکز_ځای__موقعیت_مرکز":"استر غچ","Polling_Center_Location":"Isterghuch","Verification_Note":"Building","PS_Male":3,"PS_Female":2,"Map_Accuracy":"تعمیر"},"geometry":{"x":7691650.0510979742,"y":4145941.6907955855}},{"attributes":{"OBJECTID":640,"ولایت":"کابل","Province":"KABUL","PC_Code":"0115477","ولسوالي":"سروبی","District":"SURUBI","د_مرکز_نوم__نام_مرکز":"ليسه هوتخیل بالا","Polling_Center_Name":"Hud Khel-e-Bala High School","د_مرکز_ځای__موقعیت_مرکز":"هوتخيل بالا","Polling_Center_Location":"HudKhel Bala","Verification_Note":"Building","PS_Male":3,"PS_Female":2,"Map_Accuracy":"تعمیر"},"geometry":{"x":7763737.7202546559,"y":4108107.8690871373}},{"attributes":{"OBJECTID":641,"ولایت":"کابل","Province":"KABUL","PC_Code":"0101521","ولسوالي":"ناحیه_9","District":"Nahia_09","د_مرکز_نوم__نام_مرکز":"مسجد نور محمد،مرکز کوچی","Polling_Center_Name":"Noor muhammad Mosque","د_مرکز_ځای__موقعیت_مرکز":"ناحیه نهم","Polling_Center_Location":"District_09","Verification_Note":"District","PS_Male":2,"PS_Female":1,"Map_Accuracy":"ولسوالی"},"geometry":{"x":7714295.8686184175,"y":4102831.9992680773}},{"attributes":{"OBJECTID":642,"ولایت":"کابل","Province":"KABUL","PC_Code":"0101522","ولسوالي":"ناحیه_11","District":"Nahia_11","د_مرکز_نوم__نام_مرکز":"مسجد ابو هریره","Polling_Center_Name":"Abo horaira ","د_مرکز_ځای__موقعیت_مرکز":"تپه حصه اول","Polling_Center_Location":"Hesa awal Hell","Verification_Note":"Building","PS_Male":2,"PS_Female":1,"Map_Accuracy":"تعمیر"},"geometry":{"x":7694990.182400465,"y":4107320.6672680527}},{"attributes":{"OBJECTID":643,"ولایت":"کابل","Province":"KABUL","PC_Code":"0103536","ولسوالي":"چهار آسیاب","District":"Charasiab","د_مرکز_نوم__نام_مرکز":"مسجد لیوان خیل","Polling_Center_Name":"Liwan khil Mosque","د_مرکز_ځای__موقعیت_مرکز":"میاخیل","Polling_Center_Location":"Mia khil","Verification_Note":"Building","PS_Male":2,"PS_Female":1,"Map_Accuracy":"تعمیر"},"geometry":{"x":7693380.1190679558,"y":4079379.5184177533}},{"attributes":{"OBJECTID":644,"ولایت":"کابل","Province":"KABUL","PC_Code":"0103537","ولسوالي":"چهار آسیاب","District":"Charasiab","د_مرکز_نوم__نام_مرکز":"مسجد حاجی مرجان","Polling_Center_Name":"Haji marjan Mosque","د_مرکز_ځای__موقعیت_مرکز":"غازی آباد","Polling_Center_Location":"Ghazi abad","Verification_Note":"Building","PS_Male":2,"PS_Female":1,"Map_Accuracy":"تعمیر"},"geometry":{"x":7698810.7298860475,"y":4080901.1005775407}},{"attributes":{"OBJECTID":645,"ولایت":"کابل","Province":"KABUL","PC_Code":"0104538","ولسوالي":"بگرامی","District":"Bagrami","د_مرکز_نوم__نام_مرکز":"لیسه شهید ملک گلرحمن","Polling_Center_Name":"Shaheed malik gul rahman High school","د_مرکز_ځای__موقعیت_مرکز":"مموزی","Polling_Center_Location":"Mamozai","Verification_Note":"Building","PS_Male":2,"PS_Female":1,"Map_Accuracy":"تعمیر"},"geometry":{"x":7709749.3571962044,"y":4090066.4448684677}},{"attributes":{"OBJECTID":646,"ولایت":"کابل","Province":"KABUL","PC_Code":"0101271","ولسوالي":"کابل - ناحیه 13","District":"KABUL-D13","د_مرکز_نوم__نام_مرکز":"مسجد امام خميني","Polling_Center_Name":"Imam Khumaini Mosque","د_مرکز_ځای__موقعیت_مرکز":"نقاش","Polling_Center_Location":"Naqash","Verification_Note":"Building","PS_Male":2,"PS_Female":1,"Map_Accuracy":"تعمیر"},"geometry":{"x":7690028.3476428986,"y":4096652.3401244208}},{"attributes":{"OBJECTID":647,"ولایت":"کابل","Province":"KABUL","PC_Code":"0101133","ولسوالي":"کابل - ناحیه 07","District":"KABUL-D07","د_مرکز_نوم__نام_مرکز":" مسجد ايوب خان","Polling_Center_Name":"Ayub Khan Mosque","د_مرکز_ځای__موقعیت_مرکز":"ايوب خان مينه","Polling_Center_Location":"Ayub Khan Mina","Verification_Note":"Building","PS_Male":2,"PS_Female":1,"Map_Accuracy":"تعمیر"},"geometry":{"x":7697364.6360446587,"y":4095874.7002411559}},{"attributes":{"OBJECTID":648,"ولایت":"کابل","Province":"KABUL","PC_Code":"0101138","ولسوالي":"کابل - ناحیه 07","District":"KABUL-D07","د_مرکز_نوم__نام_مرکز":" ليسه نسوان گذرگاه","Polling_Center_Name":"Guzargah Girls High School","د_مرکز_ځای__موقعیت_مرکز":"گذر گاه","Polling_Center_Location":"Guzargah","Verification_Note":"Village","PS_Male":3,"PS_Female":4,"Map_Accuracy":"قریه"},"geometry":{"x":7698076.74682726,"y":4096827.94801756}},{"attributes":{"OBJECTID":649,"ولایت":"کابل","Province":"KABUL","PC_Code":"0101166","ولسوالي":"کابل - ناحیه 08","District":"KABUL-D08","د_مرکز_نوم__نام_مرکز":" مسجد اتفاق","Polling_Center_Name":"Itifaq Mosque","د_مرکز_ځای__موقعیت_مرکز":"مسجد اتفاق","Polling_Center_Location":"Itifaq Mosque ","Verification_Note":"Building","PS_Male":3,"PS_Female":1,"Map_Accuracy":"تعمیر"},"geometry":{"x":7704299.5063625947,"y":4096976.5414510518}},{"attributes":{"OBJECTID":650,"ولایت":"کابل","Province":"KABUL","PC_Code":"0101169","ولسوالي":"کابل - ناحیه 08","District":"KABUL-D08","د_مرکز_نوم__نام_مرکز":" لیسه عبدالرحیم غفورزی","Polling_Center_Name":"Rahman Mina Kindergarten","د_مرکز_ځای__موقعیت_مرکز":"متصل نقلیه سیاه سنگ ","Polling_Center_Location":"Motasel Naqlia Sia Sang","Verification_Note":"Building","PS_Male":3,"PS_Female":3,"Map_Accuracy":"تعمیر"},"geometry":{"x":7704612.3141317293,"y":4097423.6844306588}},{"attributes":{"OBJECTID":651,"ولایت":"کابل","Province":"KABUL","PC_Code":"0101170","ولسوالي":"کابل - ناحیه 08","District":"KABUL-D08","د_مرکز_نوم__نام_مرکز":" ليسه نسوان رحمن مينه","Polling_Center_Name":"Rahman Mina Girls High School","د_مرکز_ځای__موقعیت_مرکز":"پروژه الف، سرک سوم رحمن مینه ","Polling_Center_Location":"Project A, Road 3 of Rahman Mina","Verification_Note":"Building","PS_Male":1,"PS_Female":3,"Map_Accuracy":"تعمیر"},"geometry":{"x":7706067.2598763965,"y":4097069.7510602549}},{"attributes":{"OBJECTID":652,"ولایت":"کابل","Province":"KABUL","PC_Code":"0101208","ولسوالي":"کابل - ناحیه 10","District":"KABUL-D10","د_مرکز_نوم__نام_مرکز":" پسته خانه مقابل کلینیک ","Polling_Center_Name":"Post Office Infront of Clinic","د_مرکز_ځای__موقعیت_مرکز":"قلعه فتح الله","Polling_Center_Location":"Qala-e-Fathullah","Verification_Note":"Building","PS_Male":2,"PS_Female":1,"Map_Accuracy":"تعمیر"},"geometry":{"x":7699259.4050974473,"y":4103191.8002702445}},{"attributes":{"OBJECTID":653,"ولایت":"کابل","Province":"KABUL","PC_Code":"0101212","ولسوالي":"کابل - ناحیه 10","District":"KABUL-D10","د_مرکز_نوم__نام_مرکز":" مسجد ابراهيم خليل الله","Polling_Center_Name":"Ibrahim Khalilullah Mosque","د_مرکز_ځای__موقعیت_مرکز":"قلعه فتح الله","Polling_Center_Location":"Qala-e-Fathullah","Verification_Note":"Building","PS_Male":2,"PS_Female":1,"Map_Accuracy":"تعمیر"},"geometry":{"x":7702326.7023467608,"y":4101160.2516264692}},{"attributes":{"OBJECTID":654,"ولایت":"کابل","Province":"KABUL","PC_Code":"0101220","ولسوالي":"کابل - ناحیه 10","District":"KABUL-D10","د_مرکز_نوم__نام_مرکز":" انستیتیوت طبی ","Polling_Center_Name":"Medical Institute","د_مرکز_ځای__موقعیت_مرکز":"سرک ۳ قلعه فتح الله","Polling_Center_Location":"3rd Road, Qala-e-Fathullah","Verification_Note":"Village","PS_Male":2,"PS_Female":1,"Map_Accuracy":"قریه"},"geometry":{"x":7699301.5951844528,"y":4103146.7919250205}},{"attributes":{"OBJECTID":655,"ولایت":"کاپيسا","Province":"KAPISA","PC_Code":"0201015","ولسوالي":"محمود راقی ","District":"MAHMUDI RAQI","د_مرکز_نوم__نام_مرکز":"منزل حاجی عجب گل ","Polling_Center_Name":"Haji Ajab Gul House","د_مرکز_ځای__موقعیت_مرکز":"نوآباد","Polling_Center_Location":"Naw Abad ","Verification_Note":"Building","PS_Male":2,"PS_Female":2,"Map_Accuracy":"تعمیر"},"geometry":{"x":7727896.1704456024,"y":4170815.2122307792}},{"attributes":{"OBJECTID":656,"ولایت":"کاپيسا","Province":"KAPISA","PC_Code":"0201016","ولسوالي":"محمود راقی ","District":"MAHMUDI RAQI","د_مرکز_نوم__نام_مرکز":"منزل حاجی ثنا گل ","Polling_Center_Name":"Haji Sana Gul House","د_مرکز_ځای__موقعیت_مرکز":"کره تاز","Polling_Center_Location":"Karataz","Verification_Note":"Village","PS_Male":1,"PS_Female":2,"Map_Accuracy":"قریه"},"geometry":{"x":7721966.241951488,"y":4168652.6251511872}},{"attributes":{"OBJECTID":657,"ولایت":"کاپيسا","Province":"KAPISA","PC_Code":"0202025","ولسوالي":"حصه دوم کوهستان","District":"HISSA-E-DUWUMI KOHISTAN","د_مرکز_نوم__نام_مرکز":"دوکان های بازار مراد خواجه ","Polling_Center_Name":"Dukan Haye Bazar Murad khwaja","د_مرکز_ځای__موقعیت_مرکز":"بازار مراد خواجه ","Polling_Center_Location":"Bazar Murad Khwaja","Verification_Note":"Building","PS_Male":2,"PS_Female":1,"Map_Accuracy":"تعمیر"},"geometry":{"x":7715876.29814589,"y":4171361.9841974825}},{"attributes":{"OBJECTID":658,"ولایت":"کاپيسا","Province":"KAPISA","PC_Code":"0203067","ولسوالي":"کوه بند","District":"KOH BAND","د_مرکز_نوم__نام_مرکز":"لیسه اناث بولغین ","Polling_Center_Name":"Bolaghen Girls High School ","د_مرکز_ځای__موقعیت_مرکز":"عرب خیل ","Polling_Center_Location":"Arab Khel","Verification_Note":"Building","PS_Male":2,"PS_Female":1,"Map_Accuracy":"تعمیر"},"geometry":{"x":7729653.6001898311,"y":4177145.4800598919}},{"attributes":{"OBJECTID":659,"ولایت":"کاپيسا","Province":"KAPISA","PC_Code":"0204035","ولسوالي":"حصه اول کوهستان ","District":"HISSA-E-AWALI KOHISTAN","د_مرکز_نوم__نام_مرکز":"مکتب متوسطه حقبین شهید","Polling_Center_Name":"Haqbin Shaheed Secondry School ","د_مرکز_ځای__موقعیت_مرکز":"باغچه لعلو","Polling_Center_Location":"Baghcha Lalo ","Verification_Note":"Building","PS_Male":2,"PS_Female":1,"Map_Accuracy":"تعمیر"},"geometry":{"x":7719642.9612093121,"y":4179039.041291602}},{"attributes":{"OBJECTID":660,"ولایت":"کاپيسا","Province":"KAPISA","PC_Code":"0204036","ولسوالي":"حصه اول کوهستان ","District":"HISSA-E-AWALI KOHISTAN","د_مرکز_نوم__نام_مرکز":"مکتب ابتدائیه سنجن ","Polling_Center_Name":"Sanjan Primary School ","د_مرکز_ځای__موقعیت_مرکز":"سنجن ","Polling_Center_Location":"Sanjan","Verification_Note":"Building","PS_Male":2,"PS_Female":1,"Map_Accuracy":"تعمیر"},"geometry":{"x":7721572.5086974166,"y":4183273.6638898626}},{"attributes":{"OBJECTID":661,"ولایت":"کاپيسا","Province":"KAPISA","PC_Code":"0205054","ولسوالي":"نجراب ","District":"NIJRAB","د_مرکز_نوم__نام_مرکز":"مسجد جامع ولسوالی","Polling_Center_Name":"District Mosque","د_مرکز_ځای__موقعیت_مرکز":"شیر وانی، مرکزولسوالی","Polling_Center_Location":"Sheerwani, District Compound","Verification_Note":"Building","PS_Male":2,"PS_Female":1,"Map_Accuracy":"تعمیر"},"geometry":{"x":7747422.0532955118,"y":4165940.2393827066}},{"attributes":{"OBJECTID":662,"ولایت":"کاپيسا","Province":"KAPISA","PC_Code":"0205055","ولسوالي":"نجراب ","District":"NIJRAB","د_مرکز_نوم__نام_مرکز":"دو قومی","Polling_Center_Name":"Do Qowmi","د_مرکز_ځای__موقعیت_مرکز":" پجغا ن","Polling_Center_Location":"Puchghan","Verification_Note":"Village","PS_Male":1,"PS_Female":1,"Map_Accuracy":"قریه"},"geometry":{"x":7760716.4914634079,"y":4166989.8831429034}},{"attributes":{"OBJECTID":663,"ولایت":"کاپيسا","Province":"KAPISA","PC_Code":"0206083","ولسوالي":"تگاب ","District":"TAGAB","د_مرکز_نوم__نام_مرکز":"مسجد جالو خیل","Polling_Center_Name":"Jalo Khel Mosque","د_مرکز_ځای__موقعیت_مرکز":"جا لو خیل","Polling_Center_Location":"Jalo Khel","Verification_Note":"Building","PS_Male":2,"PS_Female":1,"Map_Accuracy":"تعمیر"},"geometry":{"x":7751868.4866030738,"y":4148558.450424023}},{"attributes":{"OBJECTID":664,"ولایت":"کاپيسا","Province":"KAPISA","PC_Code":"0206084","ولسوالي":"تگاب ","District":"TAGAB","د_مرکز_نوم__نام_مرکز":"متو سطه آغاشیرین","Polling_Center_Name":"Agha Shareen Secondary School","د_مرکز_ځای__موقعیت_مرکز":" قریه شین کی","Polling_Center_Location":"Sheenki  Village","Verification_Note":"Building","PS_Male":3,"PS_Female":0,"Map_Accuracy":"تعمیر"},"geometry":{"x":7756818.3266855106,"y":4126354.1945400015}},{"attributes":{"OBJECTID":665,"ولایت":"کاپيسا","Province":"KAPISA","PC_Code":"0201005","ولسوالي":"محمود راقی ","District":"MAHMUDI RAQI","د_مرکز_نوم__نام_مرکز":"مسجد قلعه سفید","Polling_Center_Name":"Qala-e-Safid Mosque","د_مرکز_ځای__موقعیت_مرکز":"قلعه سفید","Polling_Center_Location":"Qala-e-Safid ","Verification_Note":"Building","PS_Male":3,"PS_Female":1,"Map_Accuracy":"تعمیر"},"geometry":{"x":7719495.7645598315,"y":4167842.0603183061}},{"attributes":{"OBJECTID":666,"ولایت":"کاپيسا","Province":"KAPISA","PC_Code":"0201006","ولسوالي":"محمود راقی ","District":"MAHMUDI RAQI","د_مرکز_نوم__نام_مرکز":"لیسه خال محمد","Polling_Center_Name":"Khal Mohammad High School ","د_مرکز_ځای__موقعیت_مرکز":"نوآباد","Polling_Center_Location":"Now Abad","Verification_Note":"Building","PS_Male":3,"PS_Female":1,"Map_Accuracy":"تعمیر"},"geometry":{"x":7723962.36339315,"y":4173429.0985446423}},{"attributes":{"OBJECTID":667,"ولایت":"کاپيسا","Province":"KAPISA","PC_Code":"0202019","ولسوالي":"حصه دوم کوهستان","District":"HISSA-E-DUWUMI KOHISTAN","د_مرکز_نوم__نام_مرکز":"مکتب ابتدائیه فیض محمد شهید","Polling_Center_Name":"Faiz Mohammad Shaheed Primary School","د_مرکز_ځای__موقعیت_مرکز":"جمال آغه ","Polling_Center_Location":"Jamal Agha","Verification_Note":"Building","PS_Male":3,"PS_Female":1,"Map_Accuracy":"تعمیر"},"geometry":{"x":7715013.6600346379,"y":4173339.5711721778}},{"attributes":{"OBJECTID":668,"ولایت":"کاپيسا","Province":"KAPISA","PC_Code":"0202020","ولسوالي":"حصه دوم کوهستان","District":"HISSA-E-DUWUMI KOHISTAN","د_مرکز_نوم__نام_مرکز":"مکتب ابتدائیه جلال الدین شهید","Polling_Center_Name":"Jalaluddin Shaheed Primary School","د_مرکز_ځای__موقعیت_مرکز":"کالوته ","Polling_Center_Location":"Kalota","Verification_Note":"Building","PS_Male":3,"PS_Female":1,"Map_Accuracy":"تعمیر"},"geometry":{"x":7713022.6285653822,"y":4169255.5128809214}},{"attributes":{"OBJECTID":669,"ولایت":"کاپيسا","Province":"KAPISA","PC_Code":"0203070","ولسوالي":"کوه بند","District":"KOH BAND","د_مرکز_نوم__نام_مرکز":"مکتب متوسطه کوتلی ","Polling_Center_Name":"Kotali Secondary School ","د_مرکز_ځای__موقعیت_مرکز":"کوتلی ","Polling_Center_Location":"Kutali","Verification_Note":"Building","PS_Male":1,"PS_Female":1,"Map_Accuracy":"تعمیر"},"geometry":{"x":7731144.9819170311,"y":4178552.5220229253}},{"attributes":{"OBJECTID":670,"ولایت":"کاپيسا","Province":"KAPISA","PC_Code":"0203071","ولسوالي":"کوه بند","District":"KOH BAND","د_مرکز_نوم__نام_مرکز":"مسجد لعل بیک خیل ","Polling_Center_Name":"Lalbik Khel Mosque","د_مرکز_ځای__موقعیت_مرکز":"ملکیر","Polling_Center_Location":"Malker","Verification_Note":"Building","PS_Male":2,"PS_Female":1,"Map_Accuracy":"تعمیر"},"geometry":{"x":7733743.3391322047,"y":4175814.4978363812}},{"attributes":{"OBJECTID":671,"ولایت":"کاپيسا","Province":"KAPISA","PC_Code":"0203073","ولسوالي":"کوه بند","District":"KOH BAND","د_مرکز_نوم__نام_مرکز":"مسحد پل میرویس ","Polling_Center_Name":"Pul-e-Mirwis Mosque","د_مرکز_ځای__موقعیت_مرکز":"سرجوی نهر خواجه ","Polling_Center_Location":"Sar Joy Nahr-e-Khwaja","Verification_Note":"Building","PS_Male":2,"PS_Female":1,"Map_Accuracy":"تعمیر"},"geometry":{"x":7721795.3816725723,"y":4177514.7114281133}},{"attributes":{"OBJECTID":672,"ولایت":"کاپيسا","Province":"KAPISA","PC_Code":"0205043","ولسوالي":"نجراب ","District":"NIJRAB","د_مرکز_نوم__نام_مرکز":"مکتب گیاوه ","Polling_Center_Name":"Geyawa School","د_مرکز_ځای__موقعیت_مرکز":"گیاوه ","Polling_Center_Location":"Geyawa","Verification_Note":"Building","PS_Male":2,"PS_Female":2,"Map_Accuracy":"تعمیر"},"geometry":{"x":7738723.0384416617,"y":4167626.7359310761}},{"attributes":{"OBJECTID":673,"ولایت":"کاپيسا","Province":"KAPISA","PC_Code":"0205044","ولسوالي":"نجراب ","District":"NIJRAB","د_مرکز_نوم__نام_مرکز":"مکتب ابراهیم خیل ","Polling_Center_Name":"Ibrahim khel School ","د_مرکز_ځای__موقعیت_مرکز":"دره کلان ","Polling_Center_Location":"Dara-e-Kalan","Verification_Note":"Building","PS_Male":2,"PS_Female":1,"Map_Accuracy":"تعمیر"},"geometry":{"x":7748603.528239511,"y":4173953.5560539067}},{"attributes":{"OBJECTID":674,"ولایت":"کاپيسا","Province":"KAPISA","PC_Code":"0205049","ولسوالي":"نجراب ","District":"NIJRAB","د_مرکز_نوم__نام_مرکز":"لیسه ضیاالحق شهید","Polling_Center_Name":"Ziaulhaq Shaheed High School ","د_مرکز_ځای__موقعیت_مرکز":"ده خوری دره غوث","Polling_Center_Location":"Deh Khuri Dar-e-Ghous","Verification_Note":"Building","PS_Male":1,"PS_Female":1,"Map_Accuracy":"تعمیر"},"geometry":{"x":7752992.5084446855,"y":4174165.2462216392}},{"attributes":{"OBJECTID":675,"ولایت":"کاپيسا","Province":"KAPISA","PC_Code":"0205050","ولسوالي":"نجراب ","District":"NIJRAB","د_مرکز_نوم__نام_مرکز":"ساحه آزاد","Polling_Center_Name":"Open Space ","د_مرکز_ځای__موقعیت_مرکز":"غچولان ","Polling_Center_Location":"Ghachulan","Verification_Note":"Building","PS_Male":1,"PS_Female":1,"Map_Accuracy":"تعمیر"},"geometry":{"x":7749948.2932917848,"y":4179929.7504045889}},{"attributes":{"OBJECTID":676,"ولایت":"کاپيسا","Province":"KAPISA","PC_Code":"0205060","ولسوالي":"نجراب ","District":"NIJRAB","د_مرکز_نوم__نام_مرکز":"مکتب نسوان زرشوی ","Polling_Center_Name":"Zarshoy Girls School ","د_مرکز_ځای__موقعیت_مرکز":"زرشوی ","Polling_Center_Location":"Zarshoy","Verification_Note":"Building","PS_Male":1,"PS_Female":1,"Map_Accuracy":"تعمیر"},"geometry":{"x":7745494.3615033254,"y":4159471.0651263744}},{"attributes":{"OBJECTID":677,"ولایت":"کاپيسا","Province":"KAPISA","PC_Code":"0205061","ولسوالي":"نجراب ","District":"NIJRAB","د_مرکز_نوم__نام_مرکز":"ساحه باز","Polling_Center_Name":"Open Space ","د_مرکز_ځای__موقعیت_مرکز":"شیروانی ","Polling_Center_Location":"Sheerwani","Verification_Note":"Building","PS_Male":1,"PS_Female":1,"Map_Accuracy":"تعمیر"},"geometry":{"x":7747892.1254488751,"y":4165450.6104375646}},{"attributes":{"OBJECTID":678,"ولایت":"کاپيسا","Province":"KAPISA","PC_Code":"0206097","ولسوالي":"تگاب ","District":"TAGAB","د_مرکز_نوم__نام_مرکز":"مسجد تتارخیل","Polling_Center_Name":"Tetar Khel Mosque","د_مرکز_ځای__موقعیت_مرکز":"تتارخیل (کوچیان)","Polling_Center_Location":"Tater Khel (Kuchian)","Verification_Note":"Building","PS_Male":1,"PS_Female":1,"Map_Accuracy":"تعمیر"},"geometry":{"x":7755936.9813338332,"y":4147380.8395405635}},{"attributes":{"OBJECTID":679,"ولایت":"کاپيسا","Province":"KAPISA","PC_Code":"0206098","ولسوالي":"تگاب ","District":"TAGAB","د_مرکز_نوم__نام_مرکز":"مسجد حده انور","Polling_Center_Name":"Hada-e-Anwer Mosque","د_مرکز_ځای__موقعیت_مرکز":"لنداخیل  ","Polling_Center_Location":"Landa Khel","Verification_Note":"Village","PS_Male":1,"PS_Female":1,"Map_Accuracy":"قریه"},"geometry":{"x":7750137.6533115953,"y":4152358.5277793854}},{"attributes":{"OBJECTID":680,"ولایت":"پروان","Province":"PARWAN","PC_Code":"0301021","ولسوالي":"چاریکار","District":"CHARIKAR","د_مرکز_نوم__نام_مرکز":"مسجد جامع سنجد دره","Polling_Center_Name":"Sunjid Dara Mosque","د_مرکز_ځای__موقعیت_مرکز":"سنجد دره","Polling_Center_Location":"Sunjid Dara","Verification_Note":"Building","PS_Male":3,"PS_Female":1,"Map_Accuracy":"تعمیر"},"geometry":{"x":7694626.9639338925,"y":4156685.5528417528}},{"attributes":{"OBJECTID":681,"ولایت":"پروان","Province":"PARWAN","PC_Code":"0301022","ولسوالي":"چاریکار","District":"CHARIKAR","د_مرکز_نوم__نام_مرکز":"مسجد جامع صادقی پادشاه (( رح ))","Polling_Center_Name":"Sadiqi Padshah Mosque","د_مرکز_ځای__موقعیت_مرکز":"گذر دهقانان ","Polling_Center_Location":"Guzar-e-Dehqanan","Verification_Note":"Building","PS_Male":2,"PS_Female":1,"Map_Accuracy":"تعمیر"},"geometry":{"x":7700340.4197669774,"y":4167023.9768050984}},{"attributes":{"OBJECTID":682,"ولایت":"پروان","Province":"PARWAN","PC_Code":"0301030","ولسوالي":"چاریکار","District":"CHARIKAR","د_مرکز_نوم__نام_مرکز":"تعمیر شاروالی","Polling_Center_Name":"Muncipality Building","د_مرکز_ځای__موقعیت_مرکز":"پارچه 6  شهر چهاریکار","Polling_Center_Location":"Parch 6, Charikar City","Verification_Note":"Building","PS_Male":3,"PS_Female":1,"Map_Accuracy":"تعمیر"},"geometry":{"x":7699639.1592951417,"y":4164121.3007197678}},{"attributes":{"OBJECTID":683,"ولایت":"پروان","Province":"PARWAN","PC_Code":"0301031","ولسوالي":"چاریکار","District":"CHARIKAR","د_مرکز_نوم__نام_مرکز":"لیسه حره جلالی ","Polling_Center_Name":"Hura Jalali High School","د_مرکز_ځای__موقعیت_مرکز":"پارچه 7 شهر چهاریکار","Polling_Center_Location":"Parcha 7, Charikar City ","Verification_Note":"Building","PS_Male":2,"PS_Female":1,"Map_Accuracy":"تعمیر"},"geometry":{"x":7699925.1257086471,"y":4165981.3447409794}},{"attributes":{"OBJECTID":684,"ولایت":"پروان","Province":"PARWAN","PC_Code":"0302103","ولسوالي":"بگرام ","District":"BAGRAM","د_مرکز_نوم__نام_مرکز":"مکتب ملا محمد شهید و مسجد تونچی","Polling_Center_Name":"Mula Mohammad Shaheed School and Tonchi Mosque","د_مرکز_ځای__موقعیت_مرکز":"تونچی ","Polling_Center_Location":"Tonchi ","Verification_Note":"Building","PS_Male":2,"PS_Female":2,"Map_Accuracy":"تعمیر"},"geometry":{"x":7705785.9098821692,"y":4160624.78878057}},{"attributes":{"OBJECTID":685,"ولایت":"پروان","Province":"PARWAN","PC_Code":"0302104","ولسوالي":"بگرام ","District":"BAGRAM","د_مرکز_نوم__نام_مرکز":"مکتب طالوت شهید","Polling_Center_Name":"Talot Shaheed School","د_مرکز_ځای__موقعیت_مرکز":"قلندرخیل ","Polling_Center_Location":"Qalandar Khel","Verification_Note":"Building","PS_Male":2,"PS_Female":1,"Map_Accuracy":"تعمیر"},"geometry":{"x":7709276.7544168606,"y":4162468.1165060177}},{"attributes":{"OBJECTID":686,"ولایت":"پروان","Province":"PARWAN","PC_Code":"0302116","ولسوالي":"بگرام ","District":"BAGRAM","د_مرکز_نوم__نام_مرکز":"مکتب جانقدم","Polling_Center_Name":"Janqadam School","د_مرکز_ځای__موقعیت_مرکز":"جانقدم","Polling_Center_Location":"Janqadam","Verification_Note":"Building","PS_Male":3,"PS_Female":2,"Map_Accuracy":"تعمیر"},"geometry":{"x":7709277.9867236316,"y":4156503.6739343107}},{"attributes":{"OBJECTID":687,"ولایت":"پروان","Province":"PARWAN","PC_Code":"0302117","ولسوالي":"بگرام ","District":"BAGRAM","د_مرکز_نوم__نام_مرکز":"مکتب شیرآقا شهید ","Polling_Center_Name":"Sher Aqa Shaheed School","د_مرکز_ځای__موقعیت_مرکز":"جعفرخیل ","Polling_Center_Location":"Jafar Khel ","Verification_Note":"Building","PS_Male":3,"PS_Female":1,"Map_Accuracy":"تعمیر"},"geometry":{"x":7710352.8877267279,"y":4159618.0051839128}},{"attributes":{"OBJECTID":688,"ولایت":"پروان","Province":"PARWAN","PC_Code":"0303074","ولسوالي":"شینواری ","District":"SHINWARI","د_مرکز_نوم__نام_مرکز":"مکتب جان فدا شهید","Polling_Center_Name":"Jan Fida Shaheed School","د_مرکز_ځای__موقعیت_مرکز":"شیوه","Polling_Center_Location":"Shewa","Verification_Note":"Building","PS_Male":1,"PS_Female":1,"Map_Accuracy":"تعمیر"},"geometry":{"x":7678973.334803246,"y":4164631.1182572246}},{"attributes":{"OBJECTID":689,"ولایت":"پروان","Province":"PARWAN","PC_Code":"0303075","ولسوالي":"شینواری ","District":"SHINWARI","د_مرکز_نوم__نام_مرکز":"مکتب متوسطه صوفی خیل","Polling_Center_Name":"Sofi Khel Secondary School","د_مرکز_ځای__موقعیت_مرکز":"صوفی خیل ","Polling_Center_Location":"Sofi Khel ","Verification_Note":"Building","PS_Male":1,"PS_Female":1,"Map_Accuracy":"تعمیر"},"geometry":{"x":7685254.6161080934,"y":4169791.6691620797}},{"attributes":{"OBJECTID":690,"ولایت":"پروان","Province":"PARWAN","PC_Code":"0304040","ولسوالي":"سیدخیل ","District":"SAYID KHIAL","د_مرکز_نوم__نام_مرکز":"لیسه نسوان چینکی علیا","Polling_Center_Name":"Chinki Ulya Girls High School","د_مرکز_ځای__موقعیت_مرکز":"ملک خیل ","Polling_Center_Location":"Malik Khel ","Verification_Note":"Building","PS_Male":2,"PS_Female":1,"Map_Accuracy":"تعمیر"},"geometry":{"x":7712458.9779084772,"y":4177422.2943327203}},{"attributes":{"OBJECTID":691,"ولایت":"پروان","Province":"PARWAN","PC_Code":"0304041","ولسوالي":"سیدخیل ","District":"SAYID KHIAL","د_مرکز_نوم__نام_مرکز":"مکتب سید رحمان شهید","Polling_Center_Name":"Sayed Rahman Shaheed School","د_مرکز_ځای__موقعیت_مرکز":"کما نگر","Polling_Center_Location":"Kumangar","Verification_Note":"Building","PS_Male":1,"PS_Female":1,"Map_Accuracy":"تعمیر"},"geometry":{"x":7708344.5249259472,"y":4172718.4120268077}},{"attributes":{"OBJECTID":692,"ولایت":"پروان","Province":"PARWAN","PC_Code":"0304045","ولسوالي":"سیدخیل ","District":"SAYID KHIAL","د_مرکز_نوم__نام_مرکز":"مسجد خان جان خیل ","Polling_Center_Name":"Khan Jan Khel Mosque","د_مرکز_ځای__موقعیت_مرکز":"ملا سید خیل ","Polling_Center_Location":"Mula Sayed Khel ","Verification_Note":"Building","PS_Male":1,"PS_Female":1,"Map_Accuracy":"تعمیر"},"geometry":{"x":7709036.1506958529,"y":4171648.4265684634}},{"attributes":{"OBJECTID":693,"ولایت":"پروان","Province":"PARWAN","PC_Code":"0304046","ولسوالي":"سیدخیل ","District":"SAYID KHIAL","د_مرکز_نوم__نام_مرکز":"مسجد و الحاقیه چینکی پایان ","Polling_Center_Name":"Chinki Payan Mosque and Elhaqia","د_مرکز_ځای__موقعیت_مرکز":"چینکی پایان ","Polling_Center_Location":"Chinki Payan","Verification_Note":"Building","PS_Male":1,"PS_Female":1,"Map_Accuracy":"تعمیر"},"geometry":{"x":7711380.6593970135,"y":4174253.470352985}},{"attributes":{"OBJECTID":694,"ولایت":"پروان","Province":"PARWAN","PC_Code":"0305055","ولسوالي":"جبل السراج","District":"JABULUSSARAJ","د_مرکز_نوم__نام_مرکز":"مسجد جامی پنجاه خانه","Polling_Center_Name":"Penjah Khana Mosque","د_مرکز_ځای__موقعیت_مرکز":"بازار گلبهار ","Polling_Center_Location":"Gul Bahar Bazar","Verification_Note":"Building","PS_Male":3,"PS_Female":1,"Map_Accuracy":"تعمیر"},"geometry":{"x":7713130.8222048692,"y":4184147.029571183}},{"attributes":{"OBJECTID":695,"ولایت":"پروان","Province":"PARWAN","PC_Code":"0305056","ولسوالي":"جبل السراج","District":"JABULUSSARAJ","د_مرکز_نوم__نام_مرکز":"مسجد جا می ملک جا ن خیل","Polling_Center_Name":"Malik Jan Khel Mosque","د_مرکز_ځای__موقعیت_مرکز":"ملک جان خیل ","Polling_Center_Location":"Malik Jan Khel","Verification_Note":"Building","PS_Male":3,"PS_Female":1,"Map_Accuracy":"تعمیر"},"geometry":{"x":7710205.4940417446,"y":4179530.8770764247}},{"attributes":{"OBJECTID":696,"ولایت":"پروان","Province":"PARWAN","PC_Code":"0308146","ولسوالي":"کوه صافی","District":"KOHI SAFI","د_مرکز_نوم__نام_مرکز":"مکتب مومن خیل","Polling_Center_Name":"Momin Khel School","د_مرکز_ځای__موقعیت_مرکز":"مومن خیل","Polling_Center_Location":"Momin Khail","Verification_Note":"Building","PS_Male":1,"PS_Female":1,"Map_Accuracy":"تعمیر"},"geometry":{"x":7730949.7909822874,"y":4133940.6186521724}},{"attributes":{"OBJECTID":697,"ولایت":"پروان","Province":"PARWAN","PC_Code":"0308147","ولسوالي":"کوه صافی","District":"KOHI SAFI","د_مرکز_نوم__نام_مرکز":"مسجد احمدزی","Polling_Center_Name":"Ahmadzai Mosque","د_مرکز_ځای__موقعیت_مرکز":"احمدزی","Polling_Center_Location":"Ahmadzai","Verification_Note":"Village","PS_Male":1,"PS_Female":1,"Map_Accuracy":"قریه"},"geometry":{"x":7729995.9710761271,"y":4150273.2346901298}},{"attributes":{"OBJECTID":698,"ولایت":"پروان","Province":"PARWAN","PC_Code":"0309134","ولسوالي":"سرخ پارسا ","District":"SURKHI PARSA","د_مرکز_نوم__نام_مرکز":"لیسه شهید زلفقار","Polling_Center_Name":"Shaheed Zulfaqar High School","د_مرکز_ځای__موقعیت_مرکز":"علی خانی ","Polling_Center_Location":"Ali Khani","Verification_Note":"Building","PS_Male":1,"PS_Female":1,"Map_Accuracy":"تعمیر"},"geometry":{"x":7632571.84777873,"y":4134624.7204252556}},{"attributes":{"OBJECTID":699,"ولایت":"پروان","Province":"PARWAN","PC_Code":"0309135","ولسوالي":"سرخ پارسا ","District":"SURKHI PARSA","د_مرکز_نوم__نام_مرکز":"لیسه خدری","Polling_Center_Name":"Khedri High School","د_مرکز_ځای__موقعیت_مرکز":"دهن پرنداز ","Polling_Center_Location":"Dahan-e-Parandaz","Verification_Note":"Building","PS_Male":1,"PS_Female":1,"Map_Accuracy":"تعمیر"},"geometry":{"x":7623753.7667107135,"y":4130650.3710340858}},{"attributes":{"OBJECTID":700,"ولایت":"پروان","Province":"PARWAN","PC_Code":"0310122","ولسوالي":"شیخ علی ","District":"SHAYKH ALI","د_مرکز_نوم__نام_مرکز":"لیسه ذکور امام مهدی","Polling_Center_Name":"Imam-e-Mahdi Boys High School","د_مرکز_ځای__موقعیت_مرکز":"چوچه شیر ","Polling_Center_Location":"Chocha Sheer","Verification_Note":"Building","PS_Male":1,"PS_Female":1,"Map_Accuracy":"تعمیر"},"geometry":{"x":7606349.6255629584,"y":4153141.5667042434}},{"attributes":{"OBJECTID":701,"ولایت":"پروان","Province":"PARWAN","PC_Code":"0310124","ولسوالي":"شیخ علی ","District":"SHAYKH ALI","د_مرکز_نوم__نام_مرکز":"لیسه ابوبکر صدیق رض ","Polling_Center_Name":"Abu Bakr-e-Sediq High School","د_مرکز_ځای__موقعیت_مرکز":"تپه زیارت قرلق بابا","Polling_Center_Location":"Tapa Ziarat-e-Qarlaq Baba","Verification_Note":"Building","PS_Male":1,"PS_Female":1,"Map_Accuracy":"تعمیر"},"geometry":{"x":7634450.0558308773,"y":4159141.6636722758}},{"attributes":{"OBJECTID":702,"ولایت":"پروان","Province":"PARWAN","PC_Code":"0310125","ولسوالي":"شیخ علی ","District":"SHAYKH ALI","د_مرکز_نوم__نام_مرکز":"متوسطه حضر ت علی","Polling_Center_Name":"Hazrat Ali Secondary School","د_مرکز_ځای__موقعیت_مرکز":"بدل دره نرخ","Polling_Center_Location":"Badal Dara Nerkh","Verification_Note":"Building","PS_Male":1,"PS_Female":1,"Map_Accuracy":"تعمیر"},"geometry":{"x":7623077.883743193,"y":4152371.1693303511}},{"attributes":{"OBJECTID":703,"ولایت":"پروان","Province":"PARWAN","PC_Code":"0306066","ولسوالي":"سالنگ ","District":"SALANG","د_مرکز_نوم__نام_مرکز":"لیسه آهنگران","Polling_Center_Name":"Aahangaran Mosque","د_مرکز_ځای__موقعیت_مرکز":"آهنگران","Polling_Center_Location":"Ahangaran Salang","Verification_Note":"Building","PS_Male":2,"PS_Female":1,"Map_Accuracy":"تعمیر"},"geometry":{"x":7697839.64154388,"y":4196437.8471860811}},{"attributes":{"OBJECTID":704,"ولایت":"پروان","Province":"PARWAN","PC_Code":"0306067","ولسوالي":"سالنگ ","District":"SALANG","د_مرکز_نوم__نام_مرکز":"مکتب متوسطه حاجی عبدالحکیم","Polling_Center_Name":"Tatumzar Mosque","د_مرکز_ځای__موقعیت_مرکز":"قریه تتمزار","Polling_Center_Location":"Tutumzar Village","Verification_Note":"Building","PS_Male":1,"PS_Female":1,"Map_Accuracy":"تعمیر"},"geometry":{"x":7703264.1558387466,"y":4185932.5684212819}},{"attributes":{"OBJECTID":705,"ولایت":"پروان","Province":"PARWAN","PC_Code":"0309136","ولسوالي":"سرخ پارسا ","District":"SURKHI PARSA","د_مرکز_نوم__نام_مرکز":"لیسه اظهارالحق شهید ","Polling_Center_Name":"Abdul Parsa Mosque","د_مرکز_ځای__موقعیت_مرکز":"قریه ابدال ","Polling_Center_Location":"Abdal Village ","Verification_Note":"Building","PS_Male":1,"PS_Female":1,"Map_Accuracy":"تعمیر"},"geometry":{"x":7650947.0957476795,"y":4147276.9750091955}},{"attributes":{"OBJECTID":706,"ولایت":"پروان","Province":"PARWAN","PC_Code":"0309139","ولسوالي":"سرخ پارسا ","District":"SURKHI PARSA","د_مرکز_نوم__نام_مرکز":"لیسه ذکور دهن خاکریز","Polling_Center_Name":"Membar-e-Dahane Khakrez ","د_مرکز_ځای__موقعیت_مرکز":"دهن خاکریز","Polling_Center_Location":"Dahan-e-Khakriz","Verification_Note":"Building","PS_Male":1,"PS_Female":1,"Map_Accuracy":"تعمیر"},"geometry":{"x":7612253.958923161,"y":4125033.9348057508}},{"attributes":{"OBJECTID":707,"ولایت":"پروان","Province":"PARWAN","PC_Code":"0309141","ولسوالي":"سرخ پارسا ","District":"SURKHI PARSA","د_مرکز_نوم__نام_مرکز":"لیسه شهید حق بین وند","Polling_Center_Name":"Wand Mosque","د_مرکز_ځای__موقعیت_مرکز":"وند","Polling_Center_Location":"Deyar Wand ","Verification_Note":"Building","PS_Male":1,"PS_Female":1,"Map_Accuracy":"تعمیر"},"geometry":{"x":7659016.75895853,"y":4135603.3631868064}},{"attributes":{"OBJECTID":708,"ولایت":"وردک","Province":"WARDAK","PC_Code":"0401008","ولسوالي":"میدان شهر","District":"MAYDAN SHAHR","د_مرکز_نوم__نام_مرکز":"مکتب اناث کوته اشرو","Polling_Center_Name":"Kute Ashru Girls School","د_مرکز_ځای__موقعیت_مرکز":"قریه طور خیل","Polling_Center_Location":"Tur Khel Village","Verification_Note":"Village","PS_Male":2,"PS_Female":2,"Map_Accuracy":"قریه"},"geometry":{"x":7660190.1600111835,"y":4084328.5318884179}},{"attributes":{"OBJECTID":709,"ولایت":"وردک","Province":"WARDAK","PC_Code":"0402150","ولسوالي":"نرخ","District":"NERKH","د_مرکز_نوم__نام_مرکز":"مکتب و کلینیک","Polling_Center_Name":"School and Clinic","د_مرکز_ځای__موقعیت_مرکز":"عمر خیل یک","Polling_Center_Location":"Omer Khel Yak","Verification_Note":"Building","PS_Male":1,"PS_Female":1,"Map_Accuracy":"تعمیر"},"geometry":{"x":7649225.8580849841,"y":4076569.1004914418}},{"attributes":{"OBJECTID":710,"ولایت":"پروان","Province":"PARWAN","PC_Code":"0301005","ولسوالي":"چاریکار","District":"CHARIKAR","د_مرکز_نوم__نام_مرکز":"لیسه ده قاضی","Polling_Center_Name":"Deh Qazi High School ","د_مرکز_ځای__موقعیت_مرکز":"ده فاضی","Polling_Center_Location":"Deh Qazi ","Verification_Note":"Building","PS_Male":2,"PS_Female":1,"Map_Accuracy":"تعمیر"},"geometry":{"x":7708115.7310897112,"y":4165972.89721182}},{"attributes":{"OBJECTID":711,"ولایت":"پروان","Province":"PARWAN","PC_Code":"0301008","ولسوالي":"چاریکار","District":"CHARIKAR","د_مرکز_نوم__نام_مرکز":"لیسه عمر فاروق","Polling_Center_Name":"Omer Farooq High School ","د_مرکز_ځای__موقعیت_مرکز":"تتمدره سفلی","Polling_Center_Location":"Tatumdara-e-Sufla","Verification_Note":"Building","PS_Male":2,"PS_Female":1,"Map_Accuracy":"تعمیر"},"geometry":{"x":7704106.3971023373,"y":4172613.2663673908}},{"attributes":{"OBJECTID":712,"ولایت":"پروان","Province":"PARWAN","PC_Code":"0301009","ولسوالي":"چاریکار","District":"CHARIKAR","د_مرکز_نوم__نام_مرکز":"مسجد صوفی قلندر ","Polling_Center_Name":"Sofi Qalandar Mosque","د_مرکز_ځای__موقعیت_مرکز":"چاریکار ","Polling_Center_Location":"Charikar","Verification_Note":"Building","PS_Male":2,"PS_Female":1,"Map_Accuracy":"تعمیر"},"geometry":{"x":7700525.0064070262,"y":4166342.809858568}},{"attributes":{"OBJECTID":713,"ولایت":"پروان","Province":"PARWAN","PC_Code":"0301014","ولسوالي":"چاریکار","District":"CHARIKAR","د_مرکز_نوم__نام_مرکز":"مکتب متوسطه قلعچه سوخته ","Polling_Center_Name":"Qalach-e-Sokhta Secondary School","د_مرکز_ځای__موقعیت_مرکز":"قلعچه سوخته","Polling_Center_Location":"Qalacha-e-Sokhta","Verification_Note":"Building","PS_Male":2,"PS_Female":1,"Map_Accuracy":"تعمیر"},"geometry":{"x":7704571.5645189285,"y":4163055.1064130589}},{"attributes":{"OBJECTID":714,"ولایت":"پروان","Province":"PARWAN","PC_Code":"0301015","ولسوالي":"چاریکار","District":"CHARIKAR","د_مرکز_نوم__نام_مرکز":"مسجد جامی عبدی بای","Polling_Center_Name":"Abdi by Mosque","د_مرکز_ځای__موقعیت_مرکز":"عبدی بای","Polling_Center_Location":"Abdi By","Verification_Note":"Building","PS_Male":2,"PS_Female":1,"Map_Accuracy":"تعمیر"},"geometry":{"x":7707190.2765030079,"y":4166517.4151012003}},{"attributes":{"OBJECTID":715,"ولایت":"پروان","Province":"PARWAN","PC_Code":"0301025","ولسوالي":"چاریکار","District":"CHARIKAR","د_مرکز_نوم__نام_مرکز":"مکتب متوسطه بایان بالا","Polling_Center_Name":"Bayan Bala Secondary School","د_مرکز_ځای__موقعیت_مرکز":"بایان بالا ","Polling_Center_Location":"Bayan Bala","Verification_Note":"Building","PS_Male":2,"PS_Female":1,"Map_Accuracy":"تعمیر"},"geometry":{"x":7704333.3730912842,"y":4169064.8567375168}},{"attributes":{"OBJECTID":716,"ولایت":"پروان","Province":"PARWAN","PC_Code":"0301026","ولسوالي":"چاریکار","District":"CHARIKAR","د_مرکز_نوم__نام_مرکز":"مسجد جامع بالاغیل ","Polling_Center_Name":"Bala Ghail Mosque","د_مرکز_ځای__موقعیت_مرکز":" بالاغیل","Polling_Center_Location":"Bala Ghail","Verification_Note":"Building","PS_Male":3,"PS_Female":1,"Map_Accuracy":"تعمیر"},"geometry":{"x":7704397.606107261,"y":4169307.1674468741}},{"attributes":{"OBJECTID":717,"ولایت":"پروان","Province":"PARWAN","PC_Code":"0301028","ولسوالي":"چاریکار","District":"CHARIKAR","د_مرکز_نوم__نام_مرکز":"مسجد جامع قلعه ساحل ","Polling_Center_Name":"Qala-e-Sahil Mosque","د_مرکز_ځای__موقعیت_مرکز":"قلعه سا حل","Polling_Center_Location":"Qala-e-Sahil","Verification_Note":"Building","PS_Male":1,"PS_Female":1,"Map_Accuracy":"تعمیر"},"geometry":{"x":7705527.050543908,"y":4162889.7547346056}},{"attributes":{"OBJECTID":718,"ولایت":"پروان","Province":"PARWAN","PC_Code":"0302109","ولسوالي":"بگرام ","District":"BAGRAM","د_مرکز_نوم__نام_مرکز":"لیسه قلعه بلند","Polling_Center_Name":"Qala-e-Biland High School","د_مرکز_ځای__موقعیت_مرکز":"قلعه بلند","Polling_Center_Location":"Qala-e-Biland","Verification_Note":"Building","PS_Male":2,"PS_Female":2,"Map_Accuracy":"تعمیر"},"geometry":{"x":7713049.7281822227,"y":4162143.1319174394}},{"attributes":{"OBJECTID":719,"ولایت":"پروان","Province":"PARWAN","PC_Code":"0302110","ولسوالي":"بگرام ","District":"BAGRAM","د_مرکز_نوم__نام_مرکز":"مسجد جامع دهن میدان ","Polling_Center_Name":"Dahan-e-Maidan Mosque","د_مرکز_ځای__موقعیت_مرکز":"دهن میدان ","Polling_Center_Location":"Dahan-e-Maidan","Verification_Note":"Building","PS_Male":2,"PS_Female":2,"Map_Accuracy":"تعمیر"},"geometry":{"x":7707012.5504831672,"y":4155015.4883364141}},{"attributes":{"OBJECTID":720,"ولایت":"پروان","Province":"PARWAN","PC_Code":"0302113","ولسوالي":"بگرام ","District":"BAGRAM","د_مرکز_نوم__نام_مرکز":"مسجد ده پایان غلام علی ","Polling_Center_Name":"Ghulam Ali Deh Payan Mosque","د_مرکز_ځای__موقعیت_مرکز":"غلام علی ","Polling_Center_Location":"Ghulam Ali","Verification_Note":"Building","PS_Male":2,"PS_Female":2,"Map_Accuracy":"تعمیر"},"geometry":{"x":7706181.468107976,"y":4157486.9047971591}},{"attributes":{"OBJECTID":721,"ولایت":"پروان","Province":"PARWAN","PC_Code":"0302114","ولسوالي":"بگرام ","District":"BAGRAM","د_مرکز_نوم__نام_مرکز":"مسجد جامع ده مسکین","Polling_Center_Name":"Deh Meskeen Mosque","د_مرکز_ځای__موقعیت_مرکز":"ده مسکین ","Polling_Center_Location":"Deh Meskeen ","Verification_Note":"Building","PS_Male":2,"PS_Female":2,"Map_Accuracy":"تعمیر"},"geometry":{"x":7699737.533442352,"y":4158423.4631489366}},{"attributes":{"OBJECTID":722,"ولایت":"پروان","Province":"PARWAN","PC_Code":"0302121","ولسوالي":"بگرام ","District":"BAGRAM","د_مرکز_نوم__نام_مرکز":"لیسه شهرک مهاجرین بارک آب ","Polling_Center_Name":"Shahrak-e-Muhajerin Barik Aab High School","د_مرکز_ځای__موقعیت_مرکز":"شهرک مهاجرین باریک آب ","Polling_Center_Location":"Shahrak-e-Muhajerin Barik Aab","Verification_Note":"Building","PS_Male":2,"PS_Female":1,"Map_Accuracy":"تعمیر"},"geometry":{"x":7715908.0820869021,"y":4150142.3564355895}},{"attributes":{"OBJECTID":723,"ولایت":"پروان","Province":"PARWAN","PC_Code":"0303072","ولسوالي":"شینواری ","District":"SHINWARI","د_مرکز_نوم__نام_مرکز":"مکتب تفهیم القران","Polling_Center_Name":"Tafhimul Quran School ","د_مرکز_ځای__موقعیت_مرکز":"قاشقال ","Polling_Center_Location":"Qashqal","Verification_Note":"Building","PS_Male":1,"PS_Female":1,"Map_Accuracy":"تعمیر"},"geometry":{"x":7681735.6756471209,"y":4169242.40753714}},{"attributes":{"OBJECTID":724,"ولایت":"پروان","Province":"PARWAN","PC_Code":"0305059","ولسوالي":"جبل السراج","District":"JABULUSSARAJ","د_مرکز_نوم__نام_مرکز":"مسجد عسی خیل","Polling_Center_Name":"Esa Khel Mosque","د_مرکز_ځای__موقعیت_مرکز":"عسی خیل","Polling_Center_Location":"Esa Khel","Verification_Note":"Building","PS_Male":2,"PS_Female":2,"Map_Accuracy":"تعمیر"},"geometry":{"x":7712275.6842443123,"y":4178684.8335338756}},{"attributes":{"OBJECTID":725,"ولایت":"پروان","Province":"PARWAN","PC_Code":"0305060","ولسوالي":"جبل السراج","District":"JABULUSSARAJ","د_مرکز_نوم__نام_مرکز":"مکتب متوسط خلیل زمان, تپه سرخ","Polling_Center_Name":"Khalil Zaman Secondary School, Tape Sorkh","د_مرکز_ځای__موقعیت_مرکز":"میانه گذر ","Polling_Center_Location":"Meyana Guzar ","Verification_Note":"Building","PS_Male":3,"PS_Female":1,"Map_Accuracy":"تعمیر"},"geometry":{"x":7706467.529143054,"y":4179238.75921645}},{"attributes":{"OBJECTID":726,"ولایت":"پروان","Province":"PARWAN","PC_Code":"0307086","ولسوالي":"سیاه گرد غوربند","District":"SYAHGIRDI GHORBAND","د_مرکز_نوم__نام_مرکز":"مکتب فندقستان ","Polling_Center_Name":"Fundaqistan School","د_مرکز_ځای__موقعیت_مرکز":"فنده قستان ","Polling_Center_Location":"Fundaqistan","Verification_Note":"Building","PS_Male":2,"PS_Female":1,"Map_Accuracy":"تعمیر"},"geometry":{"x":7667467.2064063177,"y":4161066.4973912016}},{"attributes":{"OBJECTID":727,"ولایت":"پروان","Province":"PARWAN","PC_Code":"0307087","ولسوالي":"سیاه گرد غوربند","District":"SYAHGIRDI GHORBAND","د_مرکز_نوم__نام_مرکز":"لیسه فرنجل","Polling_Center_Name":"Faranjil High School","د_مرکز_ځای__موقعیت_مرکز":"فرنجل ","Polling_Center_Location":"Faranjil ","Verification_Note":"Building","PS_Male":2,"PS_Female":1,"Map_Accuracy":"تعمیر"},"geometry":{"x":7648372.1043822952,"y":4161734.8955080435}},{"attributes":{"OBJECTID":728,"ولایت":"پروان","Province":"PARWAN","PC_Code":"0309137","ولسوالي":"سرخ پارسا ","District":"SURKHI PARSA","د_مرکز_نوم__نام_مرکز":"مسجد جامع شینه","Polling_Center_Name":"Sheena Mosque","د_مرکز_ځای__موقعیت_مرکز":"قریه شینه","Polling_Center_Location":"Sheena Village","Verification_Note":"Building","PS_Male":1,"PS_Female":1,"Map_Accuracy":"تعمیر"},"geometry":{"x":7643592.0064858161,"y":4132708.4061262086}},{"attributes":{"OBJECTID":729,"ولایت":"پروان","Province":"PARWAN","PC_Code":"0305155","ولسوالي":"جبل السراج","District":"JABULUSSARAJ","د_مرکز_نوم__نام_مرکز":"لیسه ابوحنیفه","Polling_Center_Name":"Abo hanifa high school","د_مرکز_ځای__موقعیت_مرکز":"آشاوه یا آشابه","Polling_Center_Location":"Ashawa","Verification_Note":"Building","PS_Male":2,"PS_Female":1,"Map_Accuracy":"تعمیر"},"geometry":{"x":7693384.7615359947,"y":4180260.2250943929}},{"attributes":{"OBJECTID":730,"ولایت":"پروان","Province":"PARWAN","PC_Code":"0308156","ولسوالي":"کوه صافی","District":"KOHI SAFI","د_مرکز_نوم__نام_مرکز":"مسجد حسن زی","Polling_Center_Name":"Hasan zai Mosque","د_مرکز_ځای__موقعیت_مرکز":"حسن زی","Polling_Center_Location":"Hasan zai","Verification_Note":"Village","PS_Male":2,"PS_Female":1,"Map_Accuracy":"قریه"},"geometry":{"x":7721003.56769304,"y":4141907.3610273674}},{"attributes":{"OBJECTID":731,"ولایت":"پروان","Province":"PARWAN","PC_Code":"0302153","ولسوالي":"بگرام","District":"BAGRAM","د_مرکز_نوم__نام_مرکز":"مسجد جامع یورچی","Polling_Center_Name":"Yor chi Mosque","د_مرکز_ځای__موقعیت_مرکز":"یورچی ","Polling_Center_Location":"Yor chi","Verification_Note":"Building","PS_Male":2,"PS_Female":1,"Map_Accuracy":"تعمیر"},"geometry":{"x":7705082.2588242739,"y":4161640.2173616439}},{"attributes":{"OBJECTID":732,"ولایت":"پروان","Province":"PARWAN","PC_Code":"0302152","ولسوالي":"بگرام","District":"BAGRAM","د_مرکز_نوم__نام_مرکز":"مسجد ده ملا","Polling_Center_Name":"Deh mullah mosque","د_مرکز_ځای__موقعیت_مرکز":"ده ملا","Polling_Center_Location":"Deh mulah","Verification_Note":"Building","PS_Male":2,"PS_Female":1,"Map_Accuracy":"تعمیر"},"geometry":{"x":7704435.1064154468,"y":4158124.9351421818}},{"attributes":{"OBJECTID":733,"ولایت":"پروان","Province":"PARWAN","PC_Code":"0302105","ولسوالي":"بگرام ","District":"BAGRAM","د_مرکز_نوم__نام_مرکز":"لیسه خواجه خسرو ولی ","Polling_Center_Name":"Khwaja Khesraw Wali High School","د_مرکز_ځای__موقعیت_مرکز":"اوگامتی ","Polling_Center_Location":"Awogamti","Verification_Note":"Building","PS_Male":2,"PS_Female":2,"Map_Accuracy":"تعمیر"},"geometry":{"x":7725049.3292026632,"y":4159003.2712953538}},{"attributes":{"OBJECTID":734,"ولایت":"پروان","Province":"PARWAN","PC_Code":"0302106","ولسوالي":"بگرام ","District":"BAGRAM","د_مرکز_نوم__نام_مرکز":"مکتب متوسط قاضی عبدالجمیل خیل ","Polling_Center_Name":"Qazi Abdul Jamil Khel Secondary School","د_مرکز_ځای__موقعیت_مرکز":"چیکل ","Polling_Center_Location":"Chaikal ","Verification_Note":"Building","PS_Male":2,"PS_Female":1,"Map_Accuracy":"تعمیر"},"geometry":{"x":7699002.2570737079,"y":4156716.8437637389}},{"attributes":{"OBJECTID":735,"ولایت":"پروان","Province":"PARWAN","PC_Code":"0304038","ولسوالي":"سیدخیل ","District":"SAYID KHIAL","د_مرکز_نوم__نام_مرکز":"لیسه نسوان قاضی خیل ","Polling_Center_Name":"Qazi Khel Girls High School","د_مرکز_ځای__موقعیت_مرکز":"ابراهیم خیل ","Polling_Center_Location":"Ibrahim Khel","Verification_Note":"Building","PS_Male":1,"PS_Female":1,"Map_Accuracy":"تعمیر"},"geometry":{"x":7709796.32812139,"y":4171461.1888976991}},{"attributes":{"OBJECTID":736,"ولایت":"پروان","Province":"PARWAN","PC_Code":"0304043","ولسوالي":"سیدخیل ","District":"SAYID KHIAL","د_مرکز_نوم__نام_مرکز":"مدرسه انچو","Polling_Center_Name":"Ancho Madrassa ","د_مرکز_ځای__موقعیت_مرکز":"بالا ده انچو ","Polling_Center_Location":"Bala Deh Ancho ","Verification_Note":"Building","PS_Male":2,"PS_Female":1,"Map_Accuracy":"تعمیر"},"geometry":{"x":7712271.9945597909,"y":4166440.1782279387}},{"attributes":{"OBJECTID":737,"ولایت":"پروان","Province":"PARWAN","PC_Code":"0304048","ولسوالي":"سیدخیل ","District":"SAYID KHIAL","د_مرکز_نوم__نام_مرکز":"مسجد سه دوکان انچو","Polling_Center_Name":"3 Dukana Ancho Mosque","د_مرکز_ځای__موقعیت_مرکز":"سه دوکان انچو","Polling_Center_Location":"3 Dukana-e-Ancho","Verification_Note":"Building","PS_Male":1,"PS_Female":1,"Map_Accuracy":"تعمیر"},"geometry":{"x":7711592.020600982,"y":4168758.6695107818}},{"attributes":{"OBJECTID":738,"ولایت":"پروان","Province":"PARWAN","PC_Code":"0305053","ولسوالي":"جبل السراج","District":"JABULUSSARAJ","د_مرکز_نوم__نام_مرکز":"فا بریکی سمنت","Polling_Center_Name":"Cement Factory","د_مرکز_ځای__موقعیت_مرکز":"عشق آباد ","Polling_Center_Location":"Eshq Abad ","Verification_Note":"Building","PS_Male":3,"PS_Female":1,"Map_Accuracy":"تعمیر"},"geometry":{"x":7708169.673175361,"y":4181232.5893619061}},{"attributes":{"OBJECTID":739,"ولایت":"پروان","Province":"PARWAN","PC_Code":"0305061","ولسوالي":"جبل السراج","District":"JABULUSSARAJ","د_مرکز_نوم__نام_مرکز":"لیسه نسوان نمبر ۱ ګلبهار","Polling_Center_Name":"Gul Bahar No.1 Girls High School","د_مرکز_ځای__موقعیت_مرکز":"ګل مرزا خیل","Polling_Center_Location":"Gul Mirza Khel ","Verification_Note":"Building","PS_Male":3,"PS_Female":1,"Map_Accuracy":"تعمیر"},"geometry":{"x":7711740.5953857563,"y":4183266.8327064961}},{"attributes":{"OBJECTID":740,"ولایت":"پروان","Province":"PARWAN","PC_Code":"0305062","ولسوالي":"جبل السراج","District":"JABULUSSARAJ","د_مرکز_نوم__نام_مرکز":"مسجد جامع آهنگران چپ قول","Polling_Center_Name":"Aahangaran Chap Qol Mosque","د_مرکز_ځای__موقعیت_مرکز":"آهنگران ","Polling_Center_Location":"Ahangaran","Verification_Note":"Building","PS_Male":3,"PS_Female":1,"Map_Accuracy":"تعمیر"},"geometry":{"x":7691502.8733728006,"y":4180360.2059340477}},{"attributes":{"OBJECTID":741,"ولایت":"پروان","Province":"PARWAN","PC_Code":"0306071","ولسوالي":"سالنگ ","District":"SALANG","د_مرکز_نوم__نام_مرکز":"مکتب متوسطه للمی سبزک","Polling_Center_Name":"Lalmi Sabzak Secondary School","د_مرکز_ځای__موقعیت_مرکز":"للمی سبزک","Polling_Center_Location":"Lalmi Sabzak","Verification_Note":"Building","PS_Male":1,"PS_Female":1,"Map_Accuracy":"تعمیر"},"geometry":{"x":7700725.6575627923,"y":4179045.7283450663}},{"attributes":{"OBJECTID":742,"ولایت":"پروان","Province":"PARWAN","PC_Code":"0307092","ولسوالي":"سیاه گرد غوربند","District":"SYAHGIRDI GHORBAND","د_مرکز_نوم__نام_مرکز":"مکتب متوسطه حضرت علی رض","Polling_Center_Name":"Hazrat Ali Secondary School","د_مرکز_ځای__موقعیت_مرکز":"قریه سیاگرد","Polling_Center_Location":"Seya Gird Village","Verification_Note":"Building","PS_Male":1,"PS_Female":1,"Map_Accuracy":"تعمیر"},"geometry":{"x":7664069.8791494519,"y":4163963.0584013015}},{"attributes":{"OBJECTID":743,"ولایت":"پروان","Province":"PARWAN","PC_Code":"0306070","ولسوالي":"سالنگ ","District":"SALANG","د_مرکز_نوم__نام_مرکز":"مکتب متوسطه ویوا","Polling_Center_Name":"Viva Mosque","د_مرکز_ځای__موقعیت_مرکز":"ویوا","Polling_Center_Location":"Veva","Verification_Note":"Building","PS_Male":1,"PS_Female":1,"Map_Accuracy":"تعمیر"},"geometry":{"x":7700512.0600615628,"y":4205210.4032811448}},{"attributes":{"OBJECTID":744,"ولایت":"پروان","Province":"PARWAN","PC_Code":"0306068","ولسوالي":"سالنگ ","District":"SALANG","د_مرکز_نوم__نام_مرکز":"مکتب متوسطه انجینر محمد گل شهید","Polling_Center_Name":"Roye Aab Madrassa","د_مرکز_ځای__موقعیت_مرکز":"مدرسه،روی آب","Polling_Center_Location":"Roy Aab","Verification_Note":"Building","PS_Male":1,"PS_Female":1,"Map_Accuracy":"تعمیر"},"geometry":{"x":7697833.6420912445,"y":4176481.2169773877}},{"attributes":{"OBJECTID":745,"ولایت":"وردک","Province":"WARDAK","PC_Code":"0401003","ولسوالي":"میدان شهر","District":"MAYDAN SHAHR","د_مرکز_نوم__نام_مرکز":"مکتب ده افغانان","Polling_Center_Name":"Deh Afghanan School","د_مرکز_ځای__موقعیت_مرکز":"ده افغانان","Polling_Center_Location":"Deh Afghanan","Verification_Note":"Building","PS_Male":2,"PS_Female":1,"Map_Accuracy":"تعمیر"},"geometry":{"x":7663034.8416560031,"y":4080402.675122723}},{"attributes":{"OBJECTID":746,"ولایت":"وردک","Province":"WARDAK","PC_Code":"0401004","ولسوالي":"میدان شهر","District":"MAYDAN SHAHR","د_مرکز_نوم__نام_مرکز":"مکتب چارکه","Polling_Center_Name":"Charka School","د_مرکز_ځای__موقعیت_مرکز":"قریه گردنی","Polling_Center_Location":"Gardani Village","Verification_Note":"District","PS_Male":2,"PS_Female":1,"Map_Accuracy":"ولسوالی"},"geometry":{"x":7661552.8864632919,"y":4086303.830517903}},{"attributes":{"OBJECTID":747,"ولایت":"وردک","Province":"WARDAK","PC_Code":"0402143","ولسوالي":"نرخ","District":"NERKH","د_مرکز_نوم__نام_مرکز":"ده حیات خانه محد ولی ","Polling_Center_Name":"Mohammad Wali House","د_مرکز_ځای__موقعیت_مرکز":"ده حیات","Polling_Center_Location":"Deh Hayat","Verification_Note":"Village","PS_Male":1,"PS_Female":1,"Map_Accuracy":"قریه"},"geometry":{"x":7655657.8359241113,"y":4078517.9248425514}},{"attributes":{"OBJECTID":748,"ولایت":"وردک","Province":"WARDAK","PC_Code":"0402144","ولسوالي":"نرخ","District":"NERKH","د_مرکز_نوم__نام_مرکز":"کلینیک قریه حسن خیل","Polling_Center_Name":"Hassan Khel Village Clinic","د_مرکز_ځای__موقعیت_مرکز":"قریه حسن خیل","Polling_Center_Location":"Hasan Khel","Verification_Note":"Village","PS_Male":2,"PS_Female":1,"Map_Accuracy":"قریه"},"geometry":{"x":7649824.1101792119,"y":4079106.3045960218}},{"attributes":{"OBJECTID":749,"ولایت":"وردک","Province":"WARDAK","PC_Code":"0402149","ولسوالي":"نرخ","District":"NERKH","د_مرکز_نوم__نام_مرکز":"منزل ملک قریه","Polling_Center_Name":"Malik Qarya House","د_مرکز_ځای__موقعیت_مرکز":"قریه بین بادیم","Polling_Center_Location":"Bain Badim Village","Verification_Note":"Village","PS_Male":1,"PS_Female":1,"Map_Accuracy":"قریه"},"geometry":{"x":7657392.8425833024,"y":4061518.0600242019}},{"attributes":{"OBJECTID":750,"ولایت":"وردک","Province":"WARDAK","PC_Code":"0403018","ولسوالي":"جلریز","District":"JALREZ","د_مرکز_نوم__نام_مرکز":"مکتب امام عظم","Polling_Center_Name":"Imam-e-Azam School","د_مرکز_ځای__موقعیت_مرکز":"سیاه پهتاب","Polling_Center_Location":"Sia Pehtab","Verification_Note":"Building","PS_Male":2,"PS_Female":1,"Map_Accuracy":"تعمیر"},"geometry":{"x":7634797.9425979443,"y":4090531.3051601276}},{"attributes":{"OBJECTID":751,"ولایت":"وردک","Province":"WARDAK","PC_Code":"0403019","ولسوالي":"جلریز","District":"JALREZ","د_مرکز_نوم__نام_مرکز":"متوسطه غلام دستگیر شهید","Polling_Center_Name":"Ghulam Dastager-e-Shaheed Secondary School","د_مرکز_ځای__موقعیت_مرکز":"قریه قوم جمیل","Polling_Center_Location":"Qawmi Jamil Village","Verification_Note":"Building","PS_Male":2,"PS_Female":1,"Map_Accuracy":"تعمیر"},"geometry":{"x":7630547.2245399244,"y":4088268.3674328104}},{"attributes":{"OBJECTID":752,"ولایت":"وردک","Province":"WARDAK","PC_Code":"0404089","ولسوالي":"چک وردک","District":"CHAKI WARDAK","د_مرکز_نوم__نام_مرکز":"مکتب اله سنگ","Polling_Center_Name":"Alasang School","د_مرکز_ځای__موقعیت_مرکز":"اله سنگ","Polling_Center_Location":"Alasang","Verification_Note":"Village","PS_Male":1,"PS_Female":1,"Map_Accuracy":"قریه"},"geometry":{"x":7654550.7669277489,"y":4058140.3488454521}},{"attributes":{"OBJECTID":753,"ولایت":"وردک","Province":"WARDAK","PC_Code":"0404090","ولسوالي":"چک وردک","District":"CHAKI WARDAK","د_مرکز_نوم__نام_مرکز":"دوکان در بازار قریه پنه","Polling_Center_Name":"Shop in the Pune Village Bazar","د_مرکز_ځای__موقعیت_مرکز":"قریه پنه","Polling_Center_Location":"Puna Village","Verification_Note":"Village","PS_Male":1,"PS_Female":1,"Map_Accuracy":"قریه"},"geometry":{"x":7635119.74720832,"y":4044847.7122259438}},{"attributes":{"OBJECTID":754,"ولایت":"وردک","Province":"WARDAK","PC_Code":"0404092","ولسوالي":"چک وردک","District":"CHAKI WARDAK","د_مرکز_نوم__نام_مرکز":"مکتب ابتدائیه عربان","Polling_Center_Name":"Araban Primary School","د_مرکز_ځای__موقعیت_مرکز":"شاباز خان","Polling_Center_Location":"Shahbaz Khan","Verification_Note":"Village","PS_Male":2,"PS_Female":1,"Map_Accuracy":"قریه"},"geometry":{"x":7620825.3939595222,"y":4037575.5188670307}},{"attributes":{"OBJECTID":755,"ولایت":"وردک","Province":"WARDAK","PC_Code":"0405118","ولسوالي":"سید آباد","District":"SAYYD ABAD","د_مرکز_نوم__نام_مرکز":"مکتب شش قلعه","Polling_Center_Name":"Shash Qala School","د_مرکز_ځای__موقعیت_مرکز":"شش قلعه","Polling_Center_Location":"Shash Qala","Verification_Note":"Village","PS_Male":1,"PS_Female":1,"Map_Accuracy":"قریه"},"geometry":{"x":7630522.9067971669,"y":3995369.8598635495}},{"attributes":{"OBJECTID":756,"ولایت":"وردک","Province":"WARDAK","PC_Code":"0405119","ولسوالي":"سید آباد","District":"SAYYD ABAD","د_مرکز_نوم__نام_مرکز":"مکتب لوړه","Polling_Center_Name":"Lura School","د_مرکز_ځای__موقعیت_مرکز":"لوړه","Polling_Center_Location":"Lurra","Verification_Note":"Village","PS_Male":1,"PS_Female":1,"Map_Accuracy":"قریه"},"geometry":{"x":7633331.4541352727,"y":3998882.5706217065}},{"attributes":{"OBJECTID":757,"ولایت":"وردک","Province":"WARDAK","PC_Code":"0405130","ولسوالي":"سید آباد","District":"SAYYD ABAD","د_مرکز_نوم__نام_مرکز":"مسجد زنه خان ","Polling_Center_Name":"Zana Khan Mosque","د_مرکز_ځای__موقعیت_مرکز":"زنه خان","Polling_Center_Location":"Zana Khan","Verification_Note":"Village","PS_Male":1,"PS_Female":1,"Map_Accuracy":"قریه"},"geometry":{"x":7639067.2877463549,"y":3993286.619600378}},{"attributes":{"OBJECTID":758,"ولایت":"وردک","Province":"WARDAK","PC_Code":"0405131","ولسوالي":"سید آباد","District":"SAYYD ABAD","د_مرکز_نوم__نام_مرکز":"خانه شخصی","Polling_Center_Name":"Private House","د_مرکز_ځای__موقعیت_مرکز":"قریه چی جان","Polling_Center_Location":"Che Jan Village","Verification_Note":"Village","PS_Male":1,"PS_Female":1,"Map_Accuracy":"قریه"},"geometry":{"x":7645275.7983868755,"y":4039854.8158528879}},{"attributes":{"OBJECTID":759,"ولایت":"وردک","Province":"WARDAK","PC_Code":"0405141","ولسوالي":"سید آباد","District":"SAYYD ABAD","د_مرکز_نوم__نام_مرکز":"خیمه کوه سلار","Polling_Center_Name":"Tent of Koh-e-Salar","د_مرکز_ځای__موقعیت_مرکز":"کوه سلار","Polling_Center_Location":"Koh-e-Salar","Verification_Note":"Village","PS_Male":2,"PS_Female":1,"Map_Accuracy":"قریه"},"geometry":{"x":7640827.929057885,"y":4011343.7120579705}},{"attributes":{"OBJECTID":760,"ولایت":"وردک","Province":"WARDAK","PC_Code":"0408077","ولسوالي":"جغتو","District":"JAGHATU","د_مرکز_نوم__نام_مرکز":"کلینیک لاغری","Polling_Center_Name":"Laghari Clinic","د_مرکز_ځای__موقعیت_مرکز":"لاغری","Polling_Center_Location":"Laghari","Verification_Note":"Village","PS_Male":1,"PS_Female":1,"Map_Accuracy":"قریه"},"geometry":{"x":7611779.8693606928,"y":4001580.1845845878}},{"attributes":{"OBJECTID":761,"ولایت":"وردک","Province":"WARDAK","PC_Code":"0408078","ولسوالي":"جغتو","District":"JAGHATU","د_مرکز_نوم__نام_مرکز":"مکتب نظر خان بند سلطان","Polling_Center_Name":"Nazar Khan School","د_مرکز_ځای__موقعیت_مرکز":"بند سلطان ","Polling_Center_Location":"Band-e-Sultan","Verification_Note":"Building","PS_Male":1,"PS_Female":1,"Map_Accuracy":"تعمیر"},"geometry":{"x":7612405.0652244687,"y":3995903.8224329576}},{"attributes":{"OBJECTID":762,"ولایت":"وردک","Province":"WARDAK","PC_Code":"0409047","ولسوالي":"مرکز بهسود","District":"MARKAZ-E-BEHSUD","د_مرکز_نوم__نام_مرکز":"مهر خانه ","Polling_Center_Name":"Mehar Khana ","د_مرکز_ځای__موقعیت_مرکز":"مهر خانه","Polling_Center_Location":"Mehar Khana","Verification_Note":"Building","PS_Male":1,"PS_Female":1,"Map_Accuracy":"تعمیر"},"geometry":{"x":7511111.1580533572,"y":4077707.5788709596}},{"attributes":{"OBJECTID":763,"ولایت":"وردک","Province":"WARDAK","PC_Code":"0409048","ولسوالي":"مرکز بهسود","District":"MARKAZ-E-BEHSUD","د_مرکز_نوم__نام_مرکز":"مسجد قلعه گردوم","Polling_Center_Name":"Qala-e-Gordoom Mosque","د_مرکز_ځای__موقعیت_مرکز":"قلعه گردوم","Polling_Center_Location":"Qala-e-Gordoom","Verification_Note":"Building","PS_Male":1,"PS_Female":1,"Map_Accuracy":"تعمیر"},"geometry":{"x":7511598.0806380287,"y":4073166.7872071043}},{"attributes":{"OBJECTID":764,"ولایت":"وردک","Province":"WARDAK","PC_Code":"0401009","ولسوالي":"میدان شهر","District":"MAYDAN SHAHR","د_مرکز_نوم__نام_مرکز":"مکتب کهنه خمار","Polling_Center_Name":"Kuhna Khumar School ","د_مرکز_ځای__موقعیت_مرکز":"کهنه خمار","Polling_Center_Location":"Kuhna Khumar","Verification_Note":"Village","PS_Male":2,"PS_Female":1,"Map_Accuracy":"قریه"},"geometry":{"x":7658579.6063163094,"y":4095135.1290306}},{"attributes":{"OBJECTID":765,"ولایت":"وردک","Province":"WARDAK","PC_Code":"0401010","ولسوالي":"میدان شهر","District":"MAYDAN SHAHR","د_مرکز_نوم__نام_مرکز":"مکتب نایبان","Polling_Center_Name":"Naiban School","د_مرکز_ځای__موقعیت_مرکز":"نایبان","Polling_Center_Location":"Naieban","Verification_Note":"Village","PS_Male":1,"PS_Female":2,"Map_Accuracy":"قریه"},"geometry":{"x":7662499.4561310112,"y":4079360.4696027115}},{"attributes":{"OBJECTID":766,"ولایت":"وردک","Province":"WARDAK","PC_Code":"0402146","ولسوالي":"نرخ","District":"NERKH","د_مرکز_نوم__نام_مرکز":"مکتب کرمو خیل یک","Polling_Center_Name":"Karmo Khel School","د_مرکز_ځای__موقعیت_مرکز":"کرمو خیل یک","Polling_Center_Location":"Karmo Khel Yak","Verification_Note":"Village","PS_Male":1,"PS_Female":1,"Map_Accuracy":"قریه"},"geometry":{"x":7648102.2703893967,"y":4081524.4317855164}},{"attributes":{"OBJECTID":767,"ولایت":"وردک","Province":"WARDAK","PC_Code":"0402147","ولسوالي":"نرخ","District":"NERKH","د_مرکز_نوم__نام_مرکز":"مکتب کان عزت","Polling_Center_Name":"Kan-e-Ezat School","د_مرکز_ځای__موقعیت_مرکز":"باشی خیل","Polling_Center_Location":"Bashi Khel","Verification_Note":"Building","PS_Male":1,"PS_Female":1,"Map_Accuracy":"تعمیر"},"geometry":{"x":7658789.66396904,"y":4076756.2986890674}},{"attributes":{"OBJECTID":768,"ولایت":"وردک","Province":"WARDAK","PC_Code":"0402160","ولسوالي":"نرخ","District":"NERKH","د_مرکز_نوم__نام_مرکز":"خیمه چغره","Polling_Center_Name":"Awal Khel Tent","د_مرکز_ځای__موقعیت_مرکز":"اول خیل","Polling_Center_Location":"Awal Khel","Verification_Note":"Village","PS_Male":1,"PS_Female":1,"Map_Accuracy":"قریه"},"geometry":{"x":7665489.123620227,"y":4069833.6632905379}},{"attributes":{"OBJECTID":769,"ولایت":"وردک","Province":"WARDAK","PC_Code":"0403014","ولسوالي":"جلریز","District":"JALREZ","د_مرکز_نوم__نام_مرکز":"لیسه عالی زیولات","Polling_Center_Name":"Zewalat High School","د_مرکز_ځای__موقعیت_مرکز":"زیولات","Polling_Center_Location":"Zewalat","Verification_Note":"Building","PS_Male":2,"PS_Female":1,"Map_Accuracy":"تعمیر"},"geometry":{"x":7650894.1287094466,"y":4090617.19658909}},{"attributes":{"OBJECTID":770,"ولایت":"وردک","Province":"WARDAK","PC_Code":"0404103","ولسوالي":"چک وردک","District":"CHAKI WARDAK","د_مرکز_نوم__نام_مرکز":"مسجد قریه کولک","Polling_Center_Name":"Kolak Village House","د_مرکز_ځای__موقعیت_مرکز":"قریه کولک","Polling_Center_Location":"Qulak Village","Verification_Note":"Village","PS_Male":1,"PS_Female":1,"Map_Accuracy":"قریه"},"geometry":{"x":7629741.8436087631,"y":4040445.8206040636}},{"attributes":{"OBJECTID":771,"ولایت":"وردک","Province":"WARDAK","PC_Code":"0404104","ولسوالي":"چک وردک","District":"CHAKI WARDAK","د_مرکز_نوم__نام_مرکز":"منزل دگروال سردارخان","Polling_Center_Name":"Dagarwal Sardar Khan House","د_مرکز_ځای__موقعیت_مرکز":"قریه خلیلی ","Polling_Center_Location":"Khalili Village","Verification_Note":"Village","PS_Male":1,"PS_Female":1,"Map_Accuracy":"قریه"},"geometry":{"x":7639783.5874813981,"y":4045613.0798619092}},{"attributes":{"OBJECTID":772,"ولایت":"وردک","Province":"WARDAK","PC_Code":"0404107","ولسوالي":"چک وردک","District":"CHAKI WARDAK","د_مرکز_نوم__نام_مرکز":"خیمه گاوکوش","Polling_Center_Name":"Gawgosh Tent","د_مرکز_ځای__موقعیت_مرکز":"گاوکوش","Polling_Center_Location":"Gawgush Tent","Verification_Note":"Village","PS_Male":1,"PS_Female":1,"Map_Accuracy":"قریه"},"geometry":{"x":7645023.0519358069,"y":4049976.962153405}},{"attributes":{"OBJECTID":773,"ولایت":"وردک","Province":"WARDAK","PC_Code":"0405108","ولسوالي":"سید آباد","District":"SAYYD ABAD","د_مرکز_نوم__نام_مرکز":"لیسه عالی سید آباد","Polling_Center_Name":"Sayed Abad High School","د_مرکز_ځای__موقعیت_مرکز":"امان خیل","Polling_Center_Location":"Aman Khel","Verification_Note":"Building","PS_Male":1,"PS_Female":1,"Map_Accuracy":"تعمیر"},"geometry":{"x":7648779.30328726,"y":4028314.0482759327}},{"attributes":{"OBJECTID":774,"ولایت":"وردک","Province":"WARDAK","PC_Code":"0405113","ولسوالي":"سید آباد","District":"SAYYD ABAD","د_مرکز_نوم__نام_مرکز":"لیسه عالی شیخ آباد","Polling_Center_Name":"Shaikh Abad High School","د_مرکز_ځای__موقعیت_مرکز":"هاشم خیل","Polling_Center_Location":"Hashim Khel","Verification_Note":"Building","PS_Male":1,"PS_Female":1,"Map_Accuracy":"تعمیر"},"geometry":{"x":7654429.19268547,"y":4039852.9543314874}},{"attributes":{"OBJECTID":775,"ولایت":"وردک","Province":"WARDAK","PC_Code":"0405114","ولسوالي":"سید آباد","District":"SAYYD ABAD","د_مرکز_نوم__نام_مرکز":"لیسه عالی دشت توپ","Polling_Center_Name":"Dasht-e-Toop High School","د_مرکز_ځای__موقعیت_مرکز":"دشت توپ","Polling_Center_Location":"Dasht-e-Toop","Verification_Note":"Building","PS_Male":2,"PS_Female":1,"Map_Accuracy":"تعمیر"},"geometry":{"x":7658315.554257758,"y":4051461.2705266103}},{"attributes":{"OBJECTID":776,"ولایت":"وردک","Province":"WARDAK","PC_Code":"0405125","ولسوالي":"سید آباد","District":"SAYYD ABAD","د_مرکز_نوم__نام_مرکز":"منزل خزانه دار","Polling_Center_Name":"Khazandar House","د_مرکز_ځای__موقعیت_مرکز":"قریه اکاخیل","Polling_Center_Location":"Aka Khel Village","Verification_Note":"Village","PS_Male":2,"PS_Female":1,"Map_Accuracy":"قریه"},"geometry":{"x":7646202.67452348,"y":4019438.2865426764}},{"attributes":{"OBJECTID":777,"ولایت":"وردک","Province":"WARDAK","PC_Code":"0405126","ولسوالي":"سید آباد","District":"SAYYD ABAD","د_مرکز_نوم__نام_مرکز":"مسجد جامع سالار ","Polling_Center_Name":"Salar Mosque","د_مرکز_ځای__موقعیت_مرکز":"سالار","Polling_Center_Location":"Salar","Verification_Note":"Village","PS_Male":1,"PS_Female":1,"Map_Accuracy":"قریه"},"geometry":{"x":7643940.4420579672,"y":4015810.6333178729}},{"attributes":{"OBJECTID":778,"ولایت":"وردک","Province":"WARDAK","PC_Code":"0405137","ولسوالي":"سید آباد","District":"SAYYD ABAD","د_مرکز_نوم__نام_مرکز":"لیسه کامران خیل","Polling_Center_Name":"Kamran Khel School","د_مرکز_ځای__موقعیت_مرکز":"کامران خیل","Polling_Center_Location":"Kamran Khel","Verification_Note":"Village","PS_Male":1,"PS_Female":1,"Map_Accuracy":"قریه"},"geometry":{"x":7660420.7761474811,"y":4028063.7022516429}},{"attributes":{"OBJECTID":779,"ولایت":"وردک","Province":"WARDAK","PC_Code":"0409036","ولسوالي":"مرکز بهسود","District":"MARKAZ-E-BEHSUD","د_مرکز_نوم__نام_مرکز":"مکتب راشک","Polling_Center_Name":"Rashak School","د_مرکز_ځای__موقعیت_مرکز":"راشک","Polling_Center_Location":"Rashak","Verification_Note":"Village","PS_Male":1,"PS_Female":1,"Map_Accuracy":"قریه"},"geometry":{"x":7560136.9486399665,"y":4096554.2697112858}},{"attributes":{"OBJECTID":780,"ولایت":"وردک","Province":"WARDAK","PC_Code":"0409037","ولسوالي":"مرکز بهسود","District":"MARKAZ-E-BEHSUD","د_مرکز_نوم__نام_مرکز":"مسجد دامن خلیل","Polling_Center_Name":"Daman Khalil Mosque","د_مرکز_ځای__موقعیت_مرکز":"دامن خلیل","Polling_Center_Location":"Daman Khalil","Verification_Note":"Village","PS_Male":1,"PS_Female":1,"Map_Accuracy":"قریه"},"geometry":{"x":7537558.2901683189,"y":4101743.8558785319}},{"attributes":{"OBJECTID":781,"ولایت":"وردک","Province":"WARDAK","PC_Code":"0409044","ولسوالي":"مرکز بهسود","District":"MARKAZ-E-BEHSUD","د_مرکز_نوم__نام_مرکز":"لیسه تگاب راموز","Polling_Center_Name":"Tagab-e-Ramoz High School","د_مرکز_ځای__موقعیت_مرکز":"قریه تگاب راموز","Polling_Center_Location":"Tagab Ramoz Village","Verification_Note":"Building","PS_Male":2,"PS_Female":1,"Map_Accuracy":"تعمیر"},"geometry":{"x":7545297.4593919739,"y":4083605.8655673191}},{"attributes":{"OBJECTID":782,"ولایت":"وردک","Province":"WARDAK","PC_Code":"0409045","ولسوالي":"مرکز بهسود","District":"MARKAZ-E-BEHSUD","د_مرکز_نوم__نام_مرکز":"مکتب کوتل ملا یعقوب","Polling_Center_Name":"Kotal-e-Molla Yaqub School","د_مرکز_ځای__موقعیت_مرکز":"کوتل ملا یعقوب","Polling_Center_Location":"Kutal-e-Molla Yaqub","Verification_Note":"Building","PS_Male":2,"PS_Female":1,"Map_Accuracy":"تعمیر"},"geometry":{"x":7533737.0493849441,"y":4085279.111514248}},{"attributes":{"OBJECTID":783,"ولایت":"وردک","Province":"WARDAK","PC_Code":"0409053","ولسوالي":"مرکز بهسود","District":"MARKAZ-E-BEHSUD","د_مرکز_نوم__نام_مرکز":"بازار مرکز","Polling_Center_Name":"Bazar-e-Markaz","د_مرکز_ځای__موقعیت_مرکز":"بازار مرکز","Polling_Center_Location":"Bazar-e-Markaz","Verification_Note":"Village","PS_Male":2,"PS_Female":1,"Map_Accuracy":"قریه"},"geometry":{"x":7559027.5942544714,"y":4075215.0907390714}},{"attributes":{"OBJECTID":784,"ولایت":"وردک","Province":"WARDAK","PC_Code":"0409054","ولسوالي":"مرکز بهسود","District":"MARKAZ-E-BEHSUD","د_مرکز_نوم__نام_مرکز":"لیسه نسوان راه قل","Polling_Center_Name":"Rahqul Girls High School","د_مرکز_ځای__موقعیت_مرکز":"راه قل","Polling_Center_Location":"Rahqul","Verification_Note":"Building","PS_Male":2,"PS_Female":1,"Map_Accuracy":"تعمیر"},"geometry":{"x":7549771.6969687566,"y":4076488.558499597}},{"attributes":{"OBJECTID":785,"ولایت":"وردک","Province":"WARDAK","PC_Code":"0409057","ولسوالي":"مرکز بهسود","District":"MARKAZ-E-BEHSUD","د_مرکز_نوم__نام_مرکز":"لیسه میر هزار کجاب","Polling_Center_Name":"Mer Hazar-e-Kajab High School","د_مرکز_ځای__موقعیت_مرکز":"قریه میر هزار","Polling_Center_Location":"Mer Hazar Village","Verification_Note":"Building","PS_Male":2,"PS_Female":1,"Map_Accuracy":"تعمیر"},"geometry":{"x":7569985.7669295,"y":4061871.5909117386}},{"attributes":{"OBJECTID":786,"ولایت":"وردک","Province":"WARDAK","PC_Code":"0409058","ولسوالي":"مرکز بهسود","District":"MARKAZ-E-BEHSUD","د_مرکز_نوم__نام_مرکز":"لیسه دهن اوجی","Polling_Center_Name":"Dahan Oji School","د_مرکز_ځای__موقعیت_مرکز":"دهن اوجی","Polling_Center_Location":"Dahan-e-Oji","Verification_Note":"Village","PS_Male":1,"PS_Female":1,"Map_Accuracy":"قریه"},"geometry":{"x":7557350.34682627,"y":4060597.1191756129}},{"attributes":{"OBJECTID":787,"ولایت":"وردک","Province":"WARDAK","PC_Code":"0402153","ولسوالي":"نرخ","District":"NERKH","د_مرکز_نوم__نام_مرکز":"مکتب اسماعیل خیل","Polling_Center_Name":"Ismaiel Khel School","د_مرکز_ځای__موقعیت_مرکز":"اسماعیل خیل","Polling_Center_Location":"Ismaiel Khel","Verification_Note":"Village","PS_Male":2,"PS_Female":1,"Map_Accuracy":"قریه"},"geometry":{"x":7644309.4327741116,"y":4072862.5061257556}},{"attributes":{"OBJECTID":788,"ولایت":"وردک","Province":"WARDAK","PC_Code":"0402154","ولسوالي":"نرخ","District":"NERKH","د_مرکز_نوم__نام_مرکز":"مسجد اخچی","Polling_Center_Name":"Akhchi Mosque","د_مرکز_ځای__موقعیت_مرکز":"اخچی","Polling_Center_Location":"Akhchi","Verification_Note":"Village","PS_Male":1,"PS_Female":1,"Map_Accuracy":"قریه"},"geometry":{"x":7650498.7964622118,"y":4072296.3709069788}},{"attributes":{"OBJECTID":789,"ولایت":"وردک","Province":"WARDAK","PC_Code":"0403024","ولسوالي":"جلریز","District":"JALREZ","د_مرکز_نوم__نام_مرکز":"مدرسه نجم القرآن","Polling_Center_Name":"Kohi Zaiolat Tent","د_مرکز_ځای__موقعیت_مرکز":"قریه احمد زی","Polling_Center_Location":"Ahmad Zai Village","Verification_Note":"Village","PS_Male":2,"PS_Female":1,"Map_Accuracy":"قریه"},"geometry":{"x":7660752.9913566373,"y":4088536.5693647936}},{"attributes":{"OBJECTID":790,"ولایت":"لوگر","Province":"LOGAR","PC_Code":"0501005","ولسوالي":"پل علم","District":"PULI ALAM","د_مرکز_نوم__نام_مرکز":"مکتب پورک","Polling_Center_Name":"Poorak School","د_مرکز_ځای__موقعیت_مرکز":"کنجک","Polling_Center_Location":"Konjak","Verification_Note":"Building","PS_Male":3,"PS_Female":3,"Map_Accuracy":"تعمیر"},"geometry":{"x":7687051.5286493115,"y":4042678.4760509655}},{"attributes":{"OBJECTID":791,"ولایت":"لوگر","Province":"LOGAR","PC_Code":"0501006","ولسوالي":"پل علم","District":"PULI ALAM","د_مرکز_نوم__نام_مرکز":"مکتب قلعه غفار","Polling_Center_Name":"Qala-e-Ghafar School","د_مرکز_ځای__موقعیت_مرکز":"قلعه غفار","Polling_Center_Location":"Qala-e-Ghafar","Verification_Note":"Building","PS_Male":2,"PS_Female":2,"Map_Accuracy":"تعمیر"},"geometry":{"x":7679682.707126379,"y":4034191.3739812076}},{"attributes":{"OBJECTID":792,"ولایت":"لوگر","Province":"LOGAR","PC_Code":"0501008","ولسوالي":"پل علم","District":"PULI ALAM","د_مرکز_نوم__نام_مرکز":"مکتب متوسطه دادو خيل","Polling_Center_Name":"DadoKhel Secondary School","د_مرکز_ځای__موقعیت_مرکز":"دادو خيل","Polling_Center_Location":"Dado Khel","Verification_Note":"Building","PS_Male":3,"PS_Female":1,"Map_Accuracy":"تعمیر"},"geometry":{"x":7691641.4360825829,"y":4039996.6189794987}},{"attributes":{"OBJECTID":793,"ولایت":"لوگر","Province":"LOGAR","PC_Code":"0501009","ولسوالي":"پل علم","District":"PULI ALAM","د_مرکز_نوم__نام_مرکز":"مکتب متوسطه التمور","Polling_Center_Name":"Altamor Secondary School","د_مرکز_ځای__موقعیت_مرکز":"التمور","Polling_Center_Location":"Altamor","Verification_Note":"Building","PS_Male":4,"PS_Female":1,"Map_Accuracy":"تعمیر"},"geometry":{"x":7691682.3025808446,"y":4000926.9504445717}},{"attributes":{"OBJECTID":794,"ولایت":"لوگر","Province":"LOGAR","PC_Code":"0502027","ولسوالي":"برکی برک","District":"BARAKI BARAK","د_مرکز_نوم__نام_مرکز":"مکتب ذکور و اناث قلعه شاکى","Polling_Center_Name":"Qala-e-Shaki Boys and Girls School","د_مرکز_ځای__موقعیت_مرکز":"قلعه شاکى","Polling_Center_Location":"Qala-e-Shaki","Verification_Note":"Building","PS_Male":1,"PS_Female":1,"Map_Accuracy":"تعمیر"},"geometry":{"x":7680739.9083304442,"y":4018477.3546294942}},{"attributes":{"OBJECTID":795,"ولایت":"لوگر","Province":"LOGAR","PC_Code":"0502028","ولسوالي":"برکی برک","District":"BARAKI BARAK","د_مرکز_نوم__نام_مرکز":"مکتب و کلنيک پل غازى","Polling_Center_Name":"Pul-e-Ghazi School and Clinic","د_مرکز_ځای__موقعیت_مرکز":"چلوزایی","Polling_Center_Location":"Chalozaye","Verification_Note":"Building","PS_Male":2,"PS_Female":1,"Map_Accuracy":"تعمیر"},"geometry":{"x":7667669.9503685161,"y":4023703.0492823422}},{"attributes":{"OBJECTID":796,"ولایت":"لوگر","Province":"LOGAR","PC_Code":"0502030","ولسوالي":"برکی برک","District":"BARAKI BARAK","د_مرکز_نوم__نام_مرکز":"مکتب سجاوند ","Polling_Center_Name":"Sujawand School","د_مرکز_ځای__موقعیت_مرکز":"سجاوند","Polling_Center_Location":"Sujawand","Verification_Note":"Village","PS_Male":1,"PS_Female":1,"Map_Accuracy":"قریه"},"geometry":{"x":7659599.419756189,"y":4015974.1155559942}},{"attributes":{"OBJECTID":797,"ولایت":"لوگر","Province":"LOGAR","PC_Code":"0502031","ولسوالي":"برکی برک","District":"BARAKI BARAK","د_مرکز_نوم__نام_مرکز":"مسجد شاه مزار ","Polling_Center_Name":"Shah Mazar Mosque","د_مرکز_ځای__موقعیت_مرکز":"قریه شاه مزار","Polling_Center_Location":"Shah Mazar","Verification_Note":"Building","PS_Male":2,"PS_Female":1,"Map_Accuracy":"تعمیر"},"geometry":{"x":7675173.9081872925,"y":4013568.5662408173}},{"attributes":{"OBJECTID":798,"ولایت":"لوگر","Province":"LOGAR","PC_Code":"0504049","ولسوالي":"خوشی","District":"KHUSHI","د_مرکز_نوم__نام_مرکز":"مکتب دوبندى","Polling_Center_Name":"Dubandi School","د_مرکز_ځای__موقعیت_مرکز":"دوبندى بغل","Polling_Center_Location":"Dubandi Baghal","Verification_Note":"Building","PS_Male":2,"PS_Female":2,"Map_Accuracy":"تعمیر"},"geometry":{"x":7716243.7225967906,"y":4023313.6508815587}},{"attributes":{"OBJECTID":799,"ولایت":"لوگر","Province":"LOGAR","PC_Code":"0505050","ولسوالي":"محمد آغه","District":"MOHAMMAD AGHA","د_مرکز_نوم__نام_مرکز":"مکتب سفيد سنگ","Polling_Center_Name":"Safid Sang School","د_مرکز_ځای__موقعیت_مرکز":"سفيد سنگ","Polling_Center_Location":"Safid Sang","Verification_Note":"Building","PS_Male":3,"PS_Female":1,"Map_Accuracy":"تعمیر"},"geometry":{"x":7697577.3186109811,"y":4068413.1019115672}}]}