{"objectIdFieldName":"OBJECTID","globalIdFieldName":"","geometryType":"esriGeometryPoint","spatialReference":{"wkid":102100,"latestWkid":3857},"fields":[{"name":"OBJECTID","type":"esriFieldTypeOID","alias":"OBJECTID","sqlType":"sqlTypeOther","domain":null,"defaultValue":null},{"name":"ولایت","type":"esriFieldTypeString","alias":"ولایت","sqlType":"sqlTypeOther","length":255,"domain":null,"defaultValue":null},{"name":"Province","type":"esriFieldTypeString","alias":"Province","sqlType":"sqlTypeOther","length":255,"domain":null,"defaultValue":null},{"name":"PC_Code","type":"esriFieldTypeString","alias":"PC_Code","sqlType":"sqlTypeOther","length":255,"domain":null,"defaultValue":null},{"name":"ولسوالي","type":"esriFieldTypeString","alias":"ولسوالي","sqlType":"sqlTypeOther","length":255,"domain":null,"defaultValue":null},{"name":"District","type":"esriFieldTypeString","alias":"District","sqlType":"sqlTypeOther","length":255,"domain":null,"defaultValue":null},{"name":"د_مرکز_نوم__نام_مرکز","type":"esriFieldTypeString","alias":"د_مرکز_نوم__نام_مرکز","sqlType":"sqlTypeOther","length":255,"domain":null,"defaultValue":null},{"name":"Polling_Center_Name","type":"esriFieldTypeString","alias":"Polling_Center_Name","sqlType":"sqlTypeOther","length":255,"domain":null,"defaultValue":null},{"name":"د_مرکز_ځای__موقعیت_مرکز","type":"esriFieldTypeString","alias":"د_مرکز_ځای__موقعیت_مرکز","sqlType":"sqlTypeOther","length":255,"domain":null,"defaultValue":null},{"name":"Polling_Center_Location","type":"esriFieldTypeString","alias":"Polling_Center_Location","sqlType":"sqlTypeOther","length":255,"domain":null,"defaultValue":null},{"name":"Verification_Note","type":"esriFieldTypeString","alias":"Verification_Note","sqlType":"sqlTypeOther","length":250,"domain":null,"defaultValue":null},{"name":"PS_Male","type":"esriFieldTypeSmallInteger","alias":"PS_Male","sqlType":"sqlTypeOther","domain":null,"defaultValue":null},{"name":"PS_Female","type":"esriFieldTypeSmallInteger","alias":"PS_Female","sqlType":"sqlTypeOther","domain":null,"defaultValue":null},{"name":"Map_Accuracy","type":"esriFieldTypeString","alias":"Map_Accuracy","sqlType":"sqlTypeOther","length":10,"domain":null,"defaultValue":null}],"features":[{"attributes":{"OBJECTID":6200,"ولایت":"خوست","Province":"KHOST","PC_Code":"1409057","ولسوالي":"باک","District":"BAAK","د_مرکز_نوم__نام_مرکز":"منزي جومات ","Polling_Center_Name":"Manzai Mosque ","د_مرکز_ځای__موقعیت_مرکز":"شمل خيلو کلی","Polling_Center_Location":"Shamal Khel Village ","Verification_Note":"Village","PS_Male":4,"PS_Female":3,"Map_Accuracy":"قریه"},"geometry":{"x":7793075.3664751947,"y":3967056.6250940487}},{"attributes":{"OBJECTID":6201,"ولایت":"خوست","Province":"KHOST","PC_Code":"1411170","ولسوالي":"سپیره","District":"SPERA","د_مرکز_نوم__نام_مرکز":"غلام جان دوکان تروې کلى","Polling_Center_Name":"Ghulam Jan Shop","د_مرکز_ځای__موقعیت_مرکز":"تروې کلى","Polling_Center_Location":"Tarwai Village","Verification_Note":"Village","PS_Male":1,"PS_Female":1,"Map_Accuracy":"قریه"},"geometry":{"x":7739083.5889140032,"y":3927440.0653770864}},{"attributes":{"OBJECTID":6202,"ولایت":"خوست","Province":"KHOST","PC_Code":"1413098","ولسوالي":"ځاځي میدان","District":"JAJI MAIDAN","د_مرکز_نوم__نام_مرکز":"سټي ون ښوونځی","Polling_Center_Name":"City One School ","د_مرکز_ځای__موقعیت_مرکز":"سټي ون","Polling_Center_Location":"City One","Verification_Note":"Village","PS_Male":3,"PS_Female":2,"Map_Accuracy":"قریه"},"geometry":{"x":7804943.8832292594,"y":3984829.86108575}},{"attributes":{"OBJECTID":6203,"ولایت":"خوست","Province":"KHOST","PC_Code":"1413099","ولسوالي":"ځاځي میدان","District":"JAJI MAIDAN","د_مرکز_نوم__نام_مرکز":"مدرسه زنخيل","Polling_Center_Name":"Zana Khel Madrassa ","د_مرکز_ځای__موقعیت_مرکز":" زنخيل ","Polling_Center_Location":"Zana Khel Village","Verification_Note":"Building","PS_Male":3,"PS_Female":2,"Map_Accuracy":"تعمیر"},"geometry":{"x":7807417.4089938514,"y":3979048.637970455}},{"attributes":{"OBJECTID":6204,"ولایت":"کنړ ","Province":"KUNAR","PC_Code":"1501005","ولسوالي":"اسعد آباد","District":"ASAD ABAD","د_مرکز_نوم__نام_مرکز":"مدرسه قریه نوآباد","Polling_Center_Name":"Naw Abad Madrassa","د_مرکز_ځای__موقعیت_مرکز":"نوآباد","Polling_Center_Location":"Naw abad","Verification_Note":"Village","PS_Male":4,"PS_Female":2,"Map_Accuracy":"قریه"},"geometry":{"x":7916924.1064073481,"y":4139302.946592316}},{"attributes":{"OBJECTID":6205,"ولایت":"کنړ ","Province":"KUNAR","PC_Code":"1503011","ولسوالي":"واټه پور","District":"WATAPOOR","د_مرکز_نوم__نام_مرکز":"مدرسه دینی قریه وټه پور","Polling_Center_Name":"Watapoor Village Religious Madrassa","د_مرکز_ځای__موقعیت_مرکز":"وټه پور","Polling_Center_Location":"Watapoor","Verification_Note":"Village","PS_Male":2,"PS_Female":1,"Map_Accuracy":"قریه"},"geometry":{"x":7914276.7040509135,"y":4153189.0438086241}},{"attributes":{"OBJECTID":6206,"ولایت":"کنړ ","Province":"KUNAR","PC_Code":"1503012","ولسوالي":"واټه پور","District":"WATAPOOR","د_مرکز_نوم__نام_مرکز":"مکتب ابتدائیه","Polling_Center_Name":"Shenigam Primary School","د_مرکز_ځای__موقعیت_مرکز":"شینی گام","Polling_Center_Location":"Shenigam","Verification_Note":"Building","PS_Male":3,"PS_Female":1,"Map_Accuracy":"تعمیر"},"geometry":{"x":7913295.1377616785,"y":4154960.3083887473}},{"attributes":{"OBJECTID":6207,"ولایت":"کنړ ","Province":"KUNAR","PC_Code":"1506066","ولسوالي":"شیګل و شیلتن","District":"SHIGAL WA SHILTAN","د_مرکز_نوم__نام_مرکز":"لیسه شیګل","Polling_Center_Name":"Shegal Washilton High School","د_مرکز_ځای__موقعیت_مرکز":"شنګرشاه","Polling_Center_Location":"Shangar Shah","Verification_Note":"Building","PS_Male":3,"PS_Female":2,"Map_Accuracy":"تعمیر"},"geometry":{"x":7932231.5193425268,"y":4158275.90862108}},{"attributes":{"OBJECTID":6208,"ولایت":"کنړ ","Province":"KUNAR","PC_Code":"1507025","ولسوالي":"دره پیچ","District":"DARA-E-PECH","د_مرکز_نوم__نام_مرکز":"مسجد قریه","Polling_Center_Name":"Waradesh Village Mosque","د_مرکز_ځای__موقعیت_مرکز":"وره دیش","Polling_Center_Location":"Waradesh","Verification_Note":"Village","PS_Male":2,"PS_Female":1,"Map_Accuracy":"قریه"},"geometry":{"x":7903456.4851680435,"y":4146700.5272131935}},{"attributes":{"OBJECTID":6209,"ولایت":"کنړ ","Province":"KUNAR","PC_Code":"1508062","ولسوالي":"بر کنړ ","District":"BAR KUNAR","د_مرکز_نوم__نام_مرکز":"پلوڅوناو مکتب","Polling_Center_Name":"Palosonaw School","د_مرکز_ځای__موقعیت_مرکز":"پلوڅوناو","Polling_Center_Location":"Palasonaw","Verification_Note":"Building","PS_Male":2,"PS_Female":2,"Map_Accuracy":"تعمیر"},"geometry":{"x":7937888.3617561348,"y":4162463.0278483406}},{"attributes":{"OBJECTID":6210,"ولایت":"کنړ ","Province":"KUNAR","PC_Code":"1510099","ولسوالي":"خاص کنړ","District":"KHAS KUNAR","د_مرکز_نوم__نام_مرکز":"مسجد قریه","Polling_Center_Name":"Hakim Abad Village Mosque","د_مرکز_ځای__موقعیت_مرکز":"حکیم آباد","Polling_Center_Location":"Hakim Abad","Verification_Note":"Building","PS_Male":2,"PS_Female":1,"Map_Accuracy":"تعمیر"},"geometry":{"x":7895031.7459547818,"y":4118901.3462821841}},{"attributes":{"OBJECTID":6211,"ولایت":"کنړ ","Province":"KUNAR","PC_Code":"1512050","ولسوالي":"دانګام","District":"DANGAM","د_مرکز_نوم__نام_مرکز":"لردانګام کلی مسجد","Polling_Center_Name":"Lar Dangam Village Mosque","د_مرکز_ځای__موقعیت_مرکز":"لردانګام کلی ","Polling_Center_Location":"Lar Dangam Village","Verification_Note":"Village","PS_Male":3,"PS_Female":2,"Map_Accuracy":"قریه"},"geometry":{"x":7950355.204075288,"y":4162790.1184533015}},{"attributes":{"OBJECTID":6212,"ولایت":"نورستان","Province":"NOORISTAN","PC_Code":"1601003","ولسوالي":"پارون","District":"PAROON","د_مرکز_نوم__نام_مرکز":"مسجد جامع قریه کانتوا سفلی","Polling_Center_Name":"Kantwa Sufla Village Mosque","د_مرکز_ځای__موقعیت_مرکز":"قریه کانتوا سفلی","Polling_Center_Location":"Kantwa Sufla Village","Verification_Note":"Village","PS_Male":2,"PS_Female":1,"Map_Accuracy":"قریه"},"geometry":{"x":7878466.8602592312,"y":4204922.357784465}},{"attributes":{"OBJECTID":6213,"ولایت":"نورستان","Province":"NOORISTAN","PC_Code":"1602032","ولسوالي":"وایګل","District":"WAYGAL","د_مرکز_نوم__نام_مرکز":"مکتب نشی ګرام","Polling_Center_Name":"Nashi Gram School","د_مرکز_ځای__موقعیت_مرکز":"نشی ګرام","Polling_Center_Location":"Nashi Gram","Verification_Note":"Building","PS_Male":3,"PS_Female":2,"Map_Accuracy":"تعمیر"},"geometry":{"x":7886847.5125013664,"y":4176456.4649738893}},{"attributes":{"OBJECTID":6214,"ولایت":"نورستان","Province":"NOORISTAN","PC_Code":"1603043","ولسوالي":"واما","District":"WAMA","د_مرکز_نوم__نام_مرکز":"مسجد جامع کامګل","Polling_Center_Name":"Kam Gul Mosque","د_مرکز_ځای__موقعیت_مرکز":"کامګل","Polling_Center_Location":"Kam Gul ","Verification_Note":"Village","PS_Male":2,"PS_Female":2,"Map_Accuracy":"قریه"},"geometry":{"x":7879261.9096284546,"y":4182707.3311563358}},{"attributes":{"OBJECTID":6215,"ولایت":"نورستان","Province":"NOORISTAN","PC_Code":"1605020","ولسوالي":"دو آب","District":"DUAB","د_مرکز_نوم__نام_مرکز":"لیسه عالی دوآب","Polling_Center_Name":"Du Aab High School","د_مرکز_ځای__موقعیت_مرکز":"مرکز ولسوالی","Polling_Center_Location":"District Center","Verification_Note":"Village","PS_Male":1,"PS_Female":1,"Map_Accuracy":"قریه"},"geometry":{"x":7827902.5842160881,"y":4178970.6945020035}},{"attributes":{"OBJECTID":6216,"ولایت":"بدخشان","Province":"BADAKHSHAN","PC_Code":"1701007","ولسوالي":"فیض آباد","District":"FAIZ ABAD","د_مرکز_نوم__نام_مرکز":"مکتب گزان","Polling_Center_Name":"Gezan School","د_مرکز_ځای__موقعیت_مرکز":"گزان یفتل علیا","Polling_Center_Location":"Gezan Yaftal Ulya","Verification_Note":"Building","PS_Male":1,"PS_Female":1,"Map_Accuracy":"تعمیر"},"geometry":{"x":7862811.7587056793,"y":4460420.724136956}},{"attributes":{"OBJECTID":6217,"ولایت":"بدخشان","Province":"BADAKHSHAN","PC_Code":"1702042","ولسوالي":"ارگو","District":"ARGO","د_مرکز_نوم__نام_مرکز":"لیسه ایتارچی ","Polling_Center_Name":"Etarchi High School","د_مرکز_ځای__موقعیت_مرکز":"کلینیک قره قوزی","Polling_Center_Location":"Qaraqozi Clinic","Verification_Note":"Building","PS_Male":2,"PS_Female":2,"Map_Accuracy":"تعمیر"},"geometry":{"x":7847419.6561282948,"y":4464380.3318400458}},{"attributes":{"OBJECTID":6218,"ولایت":"بدخشان","Province":"BADAKHSHAN","PC_Code":"1704030","ولسوالي":"یفتل سفلا","District":"YAFTAL-E-SUFLA","د_مرکز_نوم__نام_مرکز":"مسجد والک","Polling_Center_Name":"Waalak Mosque","د_مرکز_ځای__موقعیت_مرکز":"والک","Polling_Center_Location":"Waalak","Verification_Note":"Building","PS_Male":1,"PS_Female":1,"Map_Accuracy":"تعمیر"},"geometry":{"x":7835994.2989275046,"y":4489634.4709224328}},{"attributes":{"OBJECTID":6219,"ولایت":"بدخشان","Province":"BADAKHSHAN","PC_Code":"1705076","ولسوالي":"خاش","District":"KHASH","د_مرکز_نوم__نام_مرکز":"مکتب نسوان شاهان شهران","Polling_Center_Name":"Shahaan Shahraan Girls School","د_مرکز_ځای__موقعیت_مرکز":"شهران خاش","Polling_Center_Location":"Shahran Khash","Verification_Note":"Building","PS_Male":3,"PS_Female":2,"Map_Accuracy":"تعمیر"},"geometry":{"x":7874418.2527555041,"y":4436670.9597104639}},{"attributes":{"OBJECTID":6220,"ولایت":"بدخشان","Province":"BADAKHSHAN","PC_Code":"1706110","ولسوالي":"بهارک","District":"BAHARAK","د_مرکز_نوم__نام_مرکز":"مکتب آریان ","Polling_Center_Name":"Aaryaan School","د_مرکز_ځای__موقعیت_مرکز":"آریان ","Polling_Center_Location":"Aaryaan","Verification_Note":"Building","PS_Male":1,"PS_Female":1,"Map_Accuracy":"تعمیر"},"geometry":{"x":7881845.7051410489,"y":4457340.6262262538}},{"attributes":{"OBJECTID":6221,"ولایت":"بدخشان","Province":"BADAKHSHAN","PC_Code":"1706111","ولسوالي":"بهارک","District":"BAHARAK","د_مرکز_نوم__نام_مرکز":"مسجد دو آب ","Polling_Center_Name":"Do-Aab Mosque","د_مرکز_ځای__موقعیت_مرکز":"دو آب","Polling_Center_Location":"Do-Aab","Verification_Note":"Building","PS_Male":1,"PS_Female":1,"Map_Accuracy":"تعمیر"},"geometry":{"x":7892174.29151158,"y":4438975.3279066235}},{"attributes":{"OBJECTID":6222,"ولایت":"بدخشان","Province":"BADAKHSHAN","PC_Code":"1707070","ولسوالي":"درایم","District":"DARAYIM","د_مرکز_نوم__نام_مرکز":"مکتب یمچیان","Polling_Center_Name":"Yamchiyan School","د_مرکز_ځای__موقعیت_مرکز":"یمچیان","Polling_Center_Location":"Yamchiyan","Verification_Note":"Building","PS_Male":3,"PS_Female":1,"Map_Accuracy":"تعمیر"},"geometry":{"x":7842528.9712232724,"y":4416332.6341460273}},{"attributes":{"OBJECTID":6223,"ولایت":"بدخشان","Province":"BADAKHSHAN","PC_Code":"1709129","ولسوالي":"یاوان","District":"YAWAN","د_مرکز_نوم__نام_مرکز":"مکتب منزل دشت ","Polling_Center_Name":"Manzal Dasht School","د_مرکز_ځای__موقعیت_مرکز":"منزل دشت","Polling_Center_Location":"Manzal Dasht","Verification_Note":"Building","PS_Male":2,"PS_Female":1,"Map_Accuracy":"تعمیر"},"geometry":{"x":7829708.7462937906,"y":4508151.989361912}},{"attributes":{"OBJECTID":6224,"ولایت":"بدخشان","Province":"BADAKHSHAN","PC_Code":"1709130","ولسوالي":"یاوان","District":"YAWAN","د_مرکز_نوم__نام_مرکز":"مکتب شینگان پایان ","Polling_Center_Name":"Shingan Payan School","د_مرکز_ځای__موقعیت_مرکز":"شینگان پایان","Polling_Center_Location":"Shingan Payan","Verification_Note":"Building","PS_Male":2,"PS_Female":1,"Map_Accuracy":"تعمیر"},"geometry":{"x":7828177.861732088,"y":4517911.3682632968}},{"attributes":{"OBJECTID":6225,"ولایت":"بدخشان","Province":"BADAKHSHAN","PC_Code":"1710082","ولسوالي":"جرم","District":"JURM","د_مرکز_نوم__نام_مرکز":"لیسه نو جرم و چنگ ها ","Polling_Center_Name":"Naw Jaram o Chang-ha High School","د_مرکز_ځای__موقعیت_مرکز":"نو جرم","Polling_Center_Location":"Naw Jaram","Verification_Note":"Building","PS_Male":2,"PS_Female":1,"Map_Accuracy":"تعمیر"},"geometry":{"x":7885056.2316131927,"y":4424690.505841054}},{"attributes":{"OBJECTID":6226,"ولایت":"بدخشان","Province":"BADAKHSHAN","PC_Code":"1712115","ولسوالي":"شهدا","District":"SHUHADA","د_مرکز_نوم__نام_مرکز":"مکتب شمس الحق","Polling_Center_Name":"Shams-ul-Haq School","د_مرکز_ځای__موقعیت_مرکز":"اباب","Polling_Center_Location":"Abaab","Verification_Note":"Building","PS_Male":1,"PS_Female":1,"Map_Accuracy":"تعمیر"},"geometry":{"x":7913940.3021157123,"y":4446788.7307699025}},{"attributes":{"OBJECTID":6227,"ولایت":"بدخشان","Province":"BADAKHSHAN","PC_Code":"1713142","ولسوالي":"شهر بزرگ","District":"SHAHR-E-BUZURG","د_مرکز_نوم__نام_مرکز":"لیسه کول ","Polling_Center_Name":"Koal High School","د_مرکز_ځای__موقعیت_مرکز":"کول","Polling_Center_Location":"Koal","Verification_Note":"Building","PS_Male":2,"PS_Female":1,"Map_Accuracy":"تعمیر"},"geometry":{"x":7802450.5080862567,"y":4464592.8034574315}},{"attributes":{"OBJECTID":6228,"ولایت":"بدخشان","Province":"BADAKHSHAN","PC_Code":"1714233","ولسوالي":"راغستان ","District":"RAGHISTAN","د_مرکز_نوم__نام_مرکز":"سیاب شار","Polling_Center_Name":"Siyaab Shahr","د_مرکز_ځای__موقعیت_مرکز":"سیاب شهر","Polling_Center_Location":"Siyaab Shahr","Verification_Note":"Building","PS_Male":3,"PS_Female":1,"Map_Accuracy":"تعمیر"},"geometry":{"x":7864471.6614440195,"y":4521646.007725656}},{"attributes":{"OBJECTID":6229,"ولایت":"بدخشان","Province":"BADAKHSHAN","PC_Code":"1716094","ولسوالي":"وردوج","District":"WARDOOJ","د_مرکز_نوم__نام_مرکز":"مکتب شاه گان","Polling_Center_Name":"Shahgaan School","د_مرکز_ځای__موقعیت_مرکز":"شاه گان","Polling_Center_Location":"Shahgaan ","Verification_Note":"Building","PS_Male":2,"PS_Female":1,"Map_Accuracy":"تعمیر"},"geometry":{"x":7911028.28887688,"y":4426120.32273782}},{"attributes":{"OBJECTID":6230,"ولایت":"بدخشان","Province":"BADAKHSHAN","PC_Code":"1718257","ولسوالي":"یمگان","District":"YAMGAN","د_مرکز_نوم__نام_مرکز":"لیسه ناصر خسرو","Polling_Center_Name":"Naser Khisraw High School","د_مرکز_ځای__موقعیت_مرکز":"حضرت سعید ","Polling_Center_Location":"Hazrat Sayeed","Verification_Note":"Building","PS_Male":2,"PS_Female":1,"Map_Accuracy":"تعمیر"},"geometry":{"x":7879179.7369199321,"y":4366669.6941129193}},{"attributes":{"OBJECTID":6231,"ولایت":"بدخشان","Province":"BADAKHSHAN","PC_Code":"1719220","ولسوالي":"شغنان","District":"SHIGHNAN","د_مرکز_نوم__نام_مرکز":"مکتب پستیو غار جوین ","Polling_Center_Name":"Pastyo Ghaar Jaween School","د_مرکز_ځای__موقعیت_مرکز":"پستیو","Polling_Center_Location":"Pastyo","Verification_Note":"Building","PS_Male":2,"PS_Female":1,"Map_Accuracy":"تعمیر"},"geometry":{"x":7953907.5470626689,"y":4507383.1803444475}},{"attributes":{"OBJECTID":6232,"ولایت":"بدخشان","Province":"BADAKHSHAN","PC_Code":"1721248","ولسوالي":"کوف آب","District":"KUFAB","د_مرکز_نوم__نام_مرکز":"مکتب کرنیو","Polling_Center_Name":"Karniyo School","د_مرکز_ځای__موقعیت_مرکز":"کرنیو","Polling_Center_Location":"Karniyo","Verification_Note":"Building","PS_Male":2,"PS_Female":1,"Map_Accuracy":"تعمیر"},"geometry":{"x":7856432.4283065349,"y":4574798.2944624647}},{"attributes":{"OBJECTID":6233,"ولایت":"بدخشان","Province":"BADAKHSHAN","PC_Code":"1722266","ولسوالي":"درواز پائین (مایمی)","District":"DARWAZ-E-PAYIN","د_مرکز_نوم__نام_مرکز":"مکتب وروه","Polling_Center_Name":"Warwah School","د_مرکز_ځای__موقعیت_مرکز":"قریه وروه","Polling_Center_Location":"Warwah Village","Verification_Note":"Village","PS_Male":1,"PS_Female":1,"Map_Accuracy":"قریه"},"geometry":{"x":7907923.5604487881,"y":4636393.3539020047}},{"attributes":{"OBJECTID":6234,"ولایت":"بدخشان","Province":"BADAKHSHAN","PC_Code":"1724279","ولسوالي":"شکی","District":"SHIKI","د_مرکز_نوم__نام_مرکز":"لیسه ژرف","Polling_Center_Name":"Zharaf High School","د_مرکز_ځای__موقعیت_مرکز":"ژرف","Polling_Center_Location":"Zharaf","Verification_Note":"Village","PS_Male":1,"PS_Female":1,"Map_Accuracy":"قریه"},"geometry":{"x":7853255.7073373534,"y":4613782.4089285284}},{"attributes":{"OBJECTID":6235,"ولایت":"بدخشان","Province":"BADAKHSHAN","PC_Code":"1726190","ولسوالي":"کران و منجان ","District":"KIRAN WA MENJAN","د_مرکز_نوم__نام_مرکز":"مکتب شاهی پری ","Polling_Center_Name":"Shah Pari School","د_مرکز_ځای__موقعیت_مرکز":"شاه پری","Polling_Center_Location":"Shah Pari","Verification_Note":"Building","PS_Male":1,"PS_Female":1,"Map_Accuracy":"تعمیر"},"geometry":{"x":7891700.30425173,"y":4287783.893852517}},{"attributes":{"OBJECTID":6236,"ولایت":"بدخشان","Province":"BADAKHSHAN","PC_Code":"1728205","ولسوالي":"واخان","District":"WAKHAN","د_مرکز_نوم__نام_مرکز":"مکتب خندود","Polling_Center_Name":"Khandod School","د_مرکز_ځای__موقعیت_مرکز":"خندود","Polling_Center_Location":"Khandod","Verification_Note":"Building","PS_Male":2,"PS_Female":1,"Map_Accuracy":"تعمیر"},"geometry":{"x":8049938.6817043908,"y":4431968.6291266754}},{"attributes":{"OBJECTID":6237,"ولایت":"تخار","Province":"TAKHAR","PC_Code":"1801015","ولسوالي":"تالقان","District":"TALUQAN","د_مرکز_نوم__نام_مرکز":"ریاست امور زنان","Polling_Center_Name":"Women Affairs Department","د_مرکز_ځای__موقعیت_مرکز":"ناحیه اول","Polling_Center_Location":"D01 - Nahia 1","Verification_Note":"Building","PS_Male":2,"PS_Female":2,"Map_Accuracy":"تعمیر"},"geometry":{"x":7741165.344655063,"y":4401584.4875131547}},{"attributes":{"OBJECTID":6238,"ولایت":"تخار","Province":"TAKHAR","PC_Code":"1801016","ولسوالي":"تالقان","District":"TALUQAN","د_مرکز_نوم__نام_مرکز":"ریاست اطلاعات وفرهنگ","Polling_Center_Name":"Culture & Information Department","د_مرکز_ځای__موقعیت_مرکز":"ناحیه 04","Polling_Center_Location":"D02 - Nahia 2","Verification_Note":"Building","PS_Male":2,"PS_Female":2,"Map_Accuracy":"تعمیر"},"geometry":{"x":7740878.792701032,"y":4401549.0079728812}},{"attributes":{"OBJECTID":6239,"ولایت":"تخار","Province":"TAKHAR","PC_Code":"1801026","ولسوالي":"تالقان","District":"TALUQAN","د_مرکز_نوم__نام_مرکز":"مکتب شورچه 1","Polling_Center_Name":"Shorcha 1 School","د_مرکز_ځای__موقعیت_مرکز":"شورجه 1","Polling_Center_Location":"Shorja 1","Verification_Note":"Building","PS_Male":1,"PS_Female":1,"Map_Accuracy":"تعمیر"},"geometry":{"x":7760320.2063213289,"y":4407666.2020416409}},{"attributes":{"OBJECTID":6240,"ولایت":"تخار","Province":"TAKHAR","PC_Code":"1801185","ولسوالي":"تالقان","District":"TALUQAN","د_مرکز_نوم__نام_مرکز":"ليسه عبدالطيف شهيد ","Polling_Center_Name":"Abdul Lateef Shaheed High School","د_مرکز_ځای__موقعیت_مرکز":"خواجه سبز پوش","Polling_Center_Location":"Khwaja Sabz Posh","Verification_Note":"Building","PS_Male":1,"PS_Female":1,"Map_Accuracy":"تعمیر"},"geometry":{"x":7719355.7558098733,"y":4405311.3411631063}},{"attributes":{"OBJECTID":6241,"ولایت":"تخار","Province":"TAKHAR","PC_Code":"1803042","ولسوالي":"بهارک","District":"BAHARAK","د_مرکز_نوم__نام_مرکز":"مکتب ابتدائیه غلام سرور شهید","Polling_Center_Name":"Ghulam Sarwar Shaheed Primary School","د_مرکز_ځای__موقعیت_مرکز":"زرد کمر","Polling_Center_Location":"Zard Kamar","Verification_Note":"Building","PS_Male":3,"PS_Female":2,"Map_Accuracy":"تعمیر"},"geometry":{"x":7725685.3954147138,"y":4417382.6703619137}},{"attributes":{"OBJECTID":6242,"ولایت":"تخار","Province":"TAKHAR","PC_Code":"1805077","ولسوالي":"چال","District":"CHAL","د_مرکز_نوم__نام_مرکز":"لیسه سید نعمت الله","Polling_Center_Name":"Sayed Nimatullah High School","د_مرکز_ځای__موقعیت_مرکز":"خانقا مرکز چال","Polling_Center_Location":"Khanqa Markaz Chal","Verification_Note":"Building","PS_Male":4,"PS_Female":2,"Map_Accuracy":"تعمیر"},"geometry":{"x":7742330.7984979488,"y":4373874.8995583281}},{"attributes":{"OBJECTID":6243,"ولایت":"تخار","Province":"TAKHAR","PC_Code":"1809051","ولسوالي":"خواجه غار","District":"KHWAJA GHAR","د_مرکز_نوم__نام_مرکز":"مکتب ابتدائیه قروق","Polling_Center_Name":"Qarooq Primary School","د_مرکز_ځای__موقعیت_مرکز":"قروق","Polling_Center_Location":"Qarooq","Verification_Note":"Building","PS_Male":4,"PS_Female":2,"Map_Accuracy":"تعمیر"},"geometry":{"x":7722671.8365363888,"y":4459158.9824856743}},{"attributes":{"OBJECTID":6244,"ولایت":"تخار","Province":"TAKHAR","PC_Code":"1810103","ولسوالي":"رستاق","District":"RUSTAQ","د_مرکز_نوم__نام_مرکز":"مدیریت معارف رستاق","Polling_Center_Name":"Rostaq Education Department","د_مرکز_ځای__موقعیت_مرکز":"شهرجدید رستاق","Polling_Center_Location":"Shahr Jadid Rostaq","Verification_Note":"Building","PS_Male":4,"PS_Female":2,"Map_Accuracy":"تعمیر"},"geometry":{"x":7769645.8630791493,"y":4458943.60572876}},{"attributes":{"OBJECTID":6245,"ولایت":"تخار","Province":"TAKHAR","PC_Code":"1811065","ولسوالي":"اشکمش","District":"ESHKAMESH","د_مرکز_نوم__نام_مرکز":"مکتب دین محمد شهید","Polling_Center_Name":"Deen Mohammad Shaheed School","د_مرکز_ځای__موقعیت_مرکز":"پنچیري","Polling_Center_Location":"Panchiri","Verification_Note":"Building","PS_Male":2,"PS_Female":2,"Map_Accuracy":"تعمیر"},"geometry":{"x":7717526.6062573157,"y":4348400.6979258358}},{"attributes":{"OBJECTID":6246,"ولایت":"تخار","Province":"TAKHAR","PC_Code":"1811192","ولسوالي":"اشکمش","District":"ESHKAMESH","د_مرکز_نوم__نام_مرکز":"مکتب ابتدائیه آبرو ","Polling_Center_Name":"Aabro Primary School","د_مرکز_ځای__موقعیت_مرکز":"آبرو ","Polling_Center_Location":"Aabro","Verification_Note":"Building","PS_Male":1,"PS_Female":1,"Map_Accuracy":"تعمیر"},"geometry":{"x":7719671.694996275,"y":4354856.9505854249}},{"attributes":{"OBJECTID":6247,"ولایت":"تخار","Province":"TAKHAR","PC_Code":"1813177","ولسوالي":"ورسج","District":"WARSAJ","د_مرکز_نوم__نام_مرکز":"مسجد سردشت","Polling_Center_Name":"Sardasht Mosque","د_مرکز_ځای__موقعیت_مرکز":"سردشت","Polling_Center_Location":"Sardasht","Verification_Note":"Building","PS_Male":2,"PS_Female":1,"Map_Accuracy":"تعمیر"},"geometry":{"x":7793707.3506015241,"y":4310611.94797264}},{"attributes":{"OBJECTID":6248,"ولایت":"تخار","Province":"TAKHAR","PC_Code":"1814158","ولسوالي":"خواجه بهاوالدین","District":"KHWAJA BAHAWUDIN","د_مرکز_نوم__نام_مرکز":"لیسه عبدالشکور شهید","Polling_Center_Name":"Abdul Shakoor Shaheed High School","د_مرکز_ځای__موقعیت_مرکز":"کهنه شاخ","Polling_Center_Location":"Kuhna Shakh","Verification_Note":"Building","PS_Male":2,"PS_Female":1,"Map_Accuracy":"تعمیر"},"geometry":{"x":7741669.3525551856,"y":4495644.7219251692}},{"attributes":{"OBJECTID":6249,"ولایت":"تخار","Province":"TAKHAR","PC_Code":"1815167","ولسوالي":"درقد","District":"DARQAD","د_مرکز_نوم__نام_مرکز":"مکتب متوسطۀ دروازه پته","Polling_Center_Name":"Darwaza Pata Secondary School","د_مرکز_ځای__موقعیت_مرکز":"دروازه پته","Polling_Center_Location":"Darwaza Pata","Verification_Note":"Building","PS_Male":1,"PS_Female":1,"Map_Accuracy":"تعمیر"},"geometry":{"x":7735679.5424126685,"y":4490121.4962201193}},{"attributes":{"OBJECTID":6250,"ولایت":"تخار","Province":"TAKHAR","PC_Code":"1816142","ولسوالي":"چا آب","District":"CHAH AB","د_مرکز_نوم__نام_مرکز":"مکتب متوسطۀ انجیر","Polling_Center_Name":"Anjeer Secondary School","د_مرکز_ځای__موقعیت_مرکز":"انجیر","Polling_Center_Location":"Anjeer","Verification_Note":"Building","PS_Male":2,"PS_Female":2,"Map_Accuracy":"تعمیر"},"geometry":{"x":7780792.0209782757,"y":4506373.8090284243}},{"attributes":{"OBJECTID":6251,"ولایت":"تخار","Province":"TAKHAR","PC_Code":"1817151","ولسوالي":"ینگی قلعه","District":"YANGI QALA","د_مرکز_نوم__نام_مرکز":"مکتب رحیم آباد","Polling_Center_Name":"Raheem Abad School","د_مرکز_ځای__موقعیت_مرکز":"رحیم آباد","Polling_Center_Location":"Raheem Abad","Verification_Note":"Building","PS_Male":2,"PS_Female":2,"Map_Accuracy":"تعمیر"},"geometry":{"x":7752113.1557118855,"y":4505134.001748465}},{"attributes":{"OBJECTID":6252,"ولایت":"کندز","Province":"KUNDUZ","PC_Code":"1901009","ولسوالي":"کندز","District":"KUNDUZ","د_مرکز_نوم__نام_مرکز":"شفاخانه سپین زر","Polling_Center_Name":"Speen Zar Hospital","د_مرکز_ځای__موقعیت_مرکز":"ناحیه دوم","Polling_Center_Location":"D02 - Nahia 2","Verification_Note":"Building","PS_Male":2,"PS_Female":3,"Map_Accuracy":"تعمیر"},"geometry":{"x":7665709.6586634405,"y":4399824.0438043848}},{"attributes":{"OBJECTID":6253,"ولایت":"کندز","Province":"KUNDUZ","PC_Code":"1901019","ولسوالي":"کندز","District":"KUNDUZ","د_مرکز_نوم__نام_مرکز":"ریاست مهاجرین وعودت کنند گان","Polling_Center_Name":"Immigrants & Returnees Department","د_مرکز_ځای__موقعیت_مرکز":"ناحیه سوم","Polling_Center_Location":"D03 - Nahia 3","Verification_Note":"Building","PS_Male":2,"PS_Female":2,"Map_Accuracy":"تعمیر"},"geometry":{"x":7666767.4966149852,"y":4402398.7562349215}},{"attributes":{"OBJECTID":6254,"ولایت":"کندز","Province":"KUNDUZ","PC_Code":"1901031","ولسوالي":"کندز","District":"KUNDUZ","د_مرکز_نوم__نام_مرکز":"مکتب نسوان تلوکه","Polling_Center_Name":"Taloka Girls School","د_مرکز_ځای__موقعیت_مرکز":"تلوکه","Polling_Center_Location":"Taloka","Verification_Note":"Building","PS_Male":2,"PS_Female":2,"Map_Accuracy":"تعمیر"},"geometry":{"x":7659896.4702514075,"y":4411385.2406946421}},{"attributes":{"OBJECTID":6255,"ولایت":"کندز","Province":"KUNDUZ","PC_Code":"1901042","ولسوالي":"کندز","District":"KUNDUZ","د_مرکز_نوم__نام_مرکز":"مکتب متوسطه شینواری","Polling_Center_Name":"Shinwari Secondary School","د_مرکز_ځای__موقعیت_مرکز":"قریه شینواری","Polling_Center_Location":"Shinwari Village","Verification_Note":"Building","PS_Male":1,"PS_Female":2,"Map_Accuracy":"تعمیر"},"geometry":{"x":7654711.6692329422,"y":4408328.0826879665}},{"attributes":{"OBJECTID":6256,"ولایت":"کندز","Province":"KUNDUZ","PC_Code":"1901053","ولسوالي":"کندز","District":"KUNDUZ","د_مرکز_نوم__نام_مرکز":"مکتب ارباب محمدعلی","Polling_Center_Name":"Arbab Mohammad Ali School","د_مرکز_ځای__موقعیت_مرکز":"قریه الوشاه","Polling_Center_Location":"Alu Shah Village","Verification_Note":"Building","PS_Male":2,"PS_Female":2,"Map_Accuracy":"تعمیر"},"geometry":{"x":7664500.692258,"y":4413947.6399829015}},{"attributes":{"OBJECTID":6257,"ولایت":"کندز","Province":"KUNDUZ","PC_Code":"1902128","ولسوالي":"چاردره","District":"CHAR DARA","د_مرکز_نوم__نام_مرکز":"مکتب متوسطه قنغرات","Polling_Center_Name":"Qunghurat Secondary School","د_مرکز_ځای__موقعیت_مرکز":"قنغرات","Polling_Center_Location":"Qunghurat","Verification_Note":"Building","PS_Male":1,"PS_Female":1,"Map_Accuracy":"تعمیر"},"geometry":{"x":7648734.8701125085,"y":4404746.6103177369}},{"attributes":{"OBJECTID":6258,"ولایت":"کندز","Province":"KUNDUZ","PC_Code":"1903136","ولسوالي":"علی آباد","District":"ALI ABAD","د_مرکز_نوم__نام_مرکز":"مکتب متوسطه نسوان حاجی حسین","Polling_Center_Name":"Haji Hussain Girls Secondary School","د_مرکز_ځای__موقعیت_مرکز":"حاجی حسین","Polling_Center_Location":"Haji Hussain","Verification_Note":"Building","PS_Male":1,"PS_Female":1,"Map_Accuracy":"تعمیر"},"geometry":{"x":7669942.7080918774,"y":4375234.075434424}},{"attributes":{"OBJECTID":6259,"ولایت":"کندز","Province":"KUNDUZ","PC_Code":"1904144","ولسوالي":"خان آباد","District":"KHAN ABAD","د_مرکز_نوم__نام_مرکز":"لیسه حاجی یوسف بوهین","Polling_Center_Name":"Haji Yusuf Bohin High School","د_مرکز_ځای__موقعیت_مرکز":"قریه بوهین سفلا","Polling_Center_Location":"Boheen Sufla","Verification_Note":"Building","PS_Male":2,"PS_Female":1,"Map_Accuracy":"تعمیر"},"geometry":{"x":7685027.0623709895,"y":4400441.3414736763}},{"attributes":{"OBJECTID":6260,"ولایت":"کندز","Province":"KUNDUZ","PC_Code":"1905059","ولسوالي":"حضرت امام صاحب","District":"HAZRAT-E-IMAM SAHIB","د_مرکز_نوم__نام_مرکز":"مکتب مجر","Polling_Center_Name":"Majar School","د_مرکز_ځای__موقعیت_مرکز":"قریه مجر","Polling_Center_Location":"Majar Village","Verification_Note":"Building","PS_Male":3,"PS_Female":2,"Map_Accuracy":"تعمیر"},"geometry":{"x":7666814.6137026586,"y":4458379.0338020548}},{"attributes":{"OBJECTID":6261,"ولایت":"کندز","Province":"KUNDUZ","PC_Code":"1905080","ولسوالي":"حضرت امام صاحب","District":"HAZRAT-E-IMAM SAHIB","د_مرکز_نوم__نام_مرکز":"مکتب تاش گذر","Polling_Center_Name":"Tash Guzar School","د_مرکز_ځای__موقعیت_مرکز":"قریه تاش گذر","Polling_Center_Location":"Tash Guzar Village","Verification_Note":"Village","PS_Male":1,"PS_Female":1,"Map_Accuracy":"قریه"},"geometry":{"x":7696632.8050142527,"y":4452077.1626278907}},{"attributes":{"OBJECTID":6262,"ولایت":"کندز","Province":"KUNDUZ","PC_Code":"1905081","ولسوالي":"حضرت امام صاحب","District":"HAZRAT-E-IMAM SAHIB","د_مرکز_نوم__نام_مرکز":"مکتب غرو","Polling_Center_Name":"Gharo School","د_مرکز_ځای__موقعیت_مرکز":"قریه غرو","Polling_Center_Location":"Gharo Village","Verification_Note":"Building","PS_Male":2,"PS_Female":2,"Map_Accuracy":"تعمیر"},"geometry":{"x":7694231.5322783589,"y":4454292.8413708284}},{"attributes":{"OBJECTID":6263,"ولایت":"کندز","Province":"KUNDUZ","PC_Code":"1905088","ولسوالي":"حضرت امام صاحب","District":"HAZRAT-E-IMAM SAHIB","د_مرکز_نوم__نام_مرکز":"مکتب قنجوغه","Polling_Center_Name":"Qanjogha School","د_مرکز_ځای__موقعیت_مرکز":"قنجوغه","Polling_Center_Location":"Qanjogha ","Verification_Note":"Building","PS_Male":2,"PS_Female":1,"Map_Accuracy":"تعمیر"},"geometry":{"x":7665283.033394143,"y":4466273.5612108633}},{"attributes":{"OBJECTID":6264,"ولایت":"کندز","Province":"KUNDUZ","PC_Code":"1906183","ولسوالي":"دشت ارچی","District":"DASHT-E-ARCHI","د_مرکز_نوم__نام_مرکز":"مکتب متوسطه دوران کلی","Polling_Center_Name":"Dawran Kalay Secondary School","د_مرکز_ځای__موقعیت_مرکز":"قریه دوران کلی","Polling_Center_Location":"Dawran Kalay Village","Verification_Note":"Building","PS_Male":2,"PS_Female":1,"Map_Accuracy":"تعمیر"},"geometry":{"x":7698623.0271908119,"y":4444544.3825610355}},{"attributes":{"OBJECTID":6265,"ولایت":"کندز","Province":"KUNDUZ","PC_Code":"1907103","ولسوالي":"قلعه ذال","District":"QALA-E-ZAL","د_مرکز_نوم__نام_مرکز":"لیسه تربوز گذر","Polling_Center_Name":"Tarbooz Guzar High School","د_مرکز_ځای__موقعیت_مرکز":"تربوز گذر","Polling_Center_Location":"Tarbooz Guzar","Verification_Note":"Building","PS_Male":3,"PS_Female":1,"Map_Accuracy":"تعمیر"},"geometry":{"x":7628028.5843252949,"y":4433650.57872057}},{"attributes":{"OBJECTID":6266,"ولایت":"کندز","Province":"KUNDUZ","PC_Code":"1907205","ولسوالي":"قلعه ذال","District":"QALA-E-ZAL","د_مرکز_نوم__نام_مرکز":"مکتب سه کپرک","Polling_Center_Name":"Se Kaparak School","د_مرکز_ځای__موقعیت_مرکز":"سه کپرک","Polling_Center_Location":"Se Kaparak","Verification_Note":"Building","PS_Male":1,"PS_Female":1,"Map_Accuracy":"تعمیر"},"geometry":{"x":7623170.355731003,"y":4436579.3285684139}},{"attributes":{"OBJECTID":6267,"ولایت":"سمنگان","Province":"SAMANGAN","PC_Code":"2001009","ولسوالي":"ایبک","District":"AYBAK","د_مرکز_نوم__نام_مرکز":"مکتب متوسطه سرقد","Polling_Center_Name":"Sarqad Secondary School","د_مرکز_ځای__موقعیت_مرکز":"شهر ایبک","Polling_Center_Location":"Aibak City","Verification_Note":"Building","PS_Male":3,"PS_Female":2,"Map_Accuracy":"تعمیر"},"geometry":{"x":7571212.723677855,"y":4337018.7193415686}},{"attributes":{"OBJECTID":6268,"ولایت":"سمنگان","Province":"SAMANGAN","PC_Code":"2005094","ولسوالي":"روی دوآب","District":"ROI-DO-AB","د_مرکز_نوم__نام_مرکز":"مدرسه مسجد جامع ","Polling_Center_Name":"Jaame Mosque Madrassa","د_مرکز_ځای__موقعیت_مرکز":"قریه پایتنگی","Polling_Center_Location":"Paytangi Village","Verification_Note":"Building","PS_Male":2,"PS_Female":1,"Map_Accuracy":"تعمیر"},"geometry":{"x":7555839.1858519465,"y":4238360.8459610119}},{"attributes":{"OBJECTID":6269,"ولایت":"بلخ","Province":"BALKH","PC_Code":"2101022","ولسوالي":"مزار شریف","District":"MAZAR-E-SHARIF","د_مرکز_نوم__نام_مرکز":"نسوان یلمرب","Polling_Center_Name":"Yolmarab Girls School","د_مرکز_ځای__موقعیت_مرکز":"ناحیه 5","Polling_Center_Location":"D05 - Nahia 5","Verification_Note":"Building","PS_Male":4,"PS_Female":4,"Map_Accuracy":"تعمیر"},"geometry":{"x":7468615.080479186,"y":4394923.3447497636}},{"attributes":{"OBJECTID":6270,"ولایت":"بلخ","Province":"BALKH","PC_Code":"2103051","ولسوالي":"دهدادی ","District":"DEHDADI","د_مرکز_نوم__نام_مرکز":"مکتب شیخ ثمر الدین شهاب","Polling_Center_Name":"Shaikh Samaruddin Shahab School","د_مرکز_ځای__موقعیت_مرکز":"دهدادی شیرآباد","Polling_Center_Location":"Dehdadi Sher Abad","Verification_Note":"Building","PS_Male":1,"PS_Female":1,"Map_Accuracy":"تعمیر"},"geometry":{"x":7461577.8786061369,"y":4396043.4866373837}},{"attributes":{"OBJECTID":6271,"ولایت":"بلخ","Province":"BALKH","PC_Code":"2103061","ولسوالي":"دهدادی ","District":"DEHDADI","د_مرکز_نوم__نام_مرکز":"لیسه نسوان قلعه جنگی ","Polling_Center_Name":"Qala Jangi Girls High School","د_مرکز_ځای__موقعیت_مرکز":"قریه قلعه جنگی","Polling_Center_Location":"Qala Jangi Village","Verification_Note":"Building","PS_Male":2,"PS_Female":1,"Map_Accuracy":"تعمیر"},"geometry":{"x":7457075.72878024,"y":4391532.62372046}},{"attributes":{"OBJECTID":6272,"ولایت":"بلخ","Province":"BALKH","PC_Code":"2104284","ولسوالي":"چارکنت","District":"CHAR KENT","د_مرکز_نوم__نام_مرکز":"مکتب میر حاجی","Polling_Center_Name":"Mir Haji School","د_مرکز_ځای__موقعیت_مرکز":"قریه قلیم قاق میرحاجی","Polling_Center_Location":"Qaleem Qaaq Mir Haji Village","Verification_Note":"Building","PS_Male":2,"PS_Female":1,"Map_Accuracy":"تعمیر"},"geometry":{"x":7497120.2071899064,"y":4336616.0200177878}},{"attributes":{"OBJECTID":6273,"ولایت":"بلخ","Province":"BALKH","PC_Code":"2104285","ولسوالي":"چارکنت","District":"CHAR KENT","د_مرکز_نوم__نام_مرکز":"مکتب سفید چشمه","Polling_Center_Name":"Safid Chashma School","د_مرکز_ځای__موقعیت_مرکز":"قریه سفید چشمه","Polling_Center_Location":"Safid Chashma Village","Verification_Note":"Building","PS_Male":2,"PS_Female":1,"Map_Accuracy":"تعمیر"},"geometry":{"x":7480661.1952356733,"y":4361952.4297946021}},{"attributes":{"OBJECTID":6274,"ولایت":"بلخ","Province":"BALKH","PC_Code":"2106148","ولسوالي":"بلخ","District":"BALKH","د_مرکز_نوم__نام_مرکز":"کلینیک حیوانات","Polling_Center_Name":"Veterinary Clinic","د_مرکز_ځای__موقعیت_مرکز":"مرکز ولسوالی","Polling_Center_Location":"District Compound","Verification_Note":"Building","PS_Male":2,"PS_Female":1,"Map_Accuracy":"تعمیر"},"geometry":{"x":7445985.6714516915,"y":4405580.7803421393}},{"attributes":{"OBJECTID":6275,"ولایت":"بلخ","Province":"BALKH","PC_Code":"2106161","ولسوالي":"بلخ","District":"BALKH","د_مرکز_نوم__نام_مرکز":"مکتب بر مزیت","Polling_Center_Name":"Bar Mazet School","د_مرکز_ځای__موقعیت_مرکز":"قریه برمزیت","Polling_Center_Location":"Bar Mazet Village","Verification_Note":"Building","PS_Male":2,"PS_Female":2,"Map_Accuracy":"تعمیر"},"geometry":{"x":7456368.6485254206,"y":4424680.2233003452}},{"attributes":{"OBJECTID":6276,"ولایت":"بلخ","Province":"BALKH","PC_Code":"2106172","ولسوالي":"بلخ","District":"BALKH","د_مرکز_نوم__نام_مرکز":"مکتب ارغون","Polling_Center_Name":"Arghoon School","د_مرکز_ځای__موقعیت_مرکز":"قریه ارغون","Polling_Center_Location":"Arghoon Village","Verification_Note":"Building","PS_Male":1,"PS_Female":1,"Map_Accuracy":"تعمیر"},"geometry":{"x":7454963.8221550882,"y":4411288.4805517346}},{"attributes":{"OBJECTID":6277,"ولایت":"بلخ","Province":"BALKH","PC_Code":"2107243","ولسوالي":"شولگره","District":"SHOLGARA","د_مرکز_نوم__نام_مرکز":"مکتب قاق لوسای","Polling_Center_Name":"Qaq Losai School","د_مرکز_ځای__موقعیت_مرکز":"قریه قاق لوسای","Polling_Center_Location":"Qaq Losai Village","Verification_Note":"Building","PS_Male":1,"PS_Female":1,"Map_Accuracy":"تعمیر"},"geometry":{"x":7462623.0049850345,"y":4345763.9850950837}},{"attributes":{"OBJECTID":6278,"ولایت":"بلخ","Province":"BALKH","PC_Code":"2107255","ولسوالي":"شولگره","District":"SHOLGARA","د_مرکز_نوم__نام_مرکز":"مکتب رحمت آباد","Polling_Center_Name":"Rahmat Abad School","د_مرکز_ځای__موقعیت_مرکز":"قریه رحمت آباد","Polling_Center_Location":"Rahmat Abad Village","Verification_Note":"Building","PS_Male":1,"PS_Female":1,"Map_Accuracy":"تعمیر"},"geometry":{"x":7457019.5502860136,"y":4361857.26038976}},{"attributes":{"OBJECTID":6279,"ولایت":"بلخ","Province":"BALKH","PC_Code":"2107268","ولسوالي":"شولگره","District":"SHOLGARA","د_مرکز_نوم__نام_مرکز":"مکتب جنیتو","Polling_Center_Name":"Janyato School","د_مرکز_ځای__موقعیت_مرکز":"قریه جنیتو","Polling_Center_Location":"Janyato Village","Verification_Note":"Building","PS_Male":1,"PS_Female":1,"Map_Accuracy":"تعمیر"},"geometry":{"x":7426489.4757288657,"y":4318084.6561122462}},{"attributes":{"OBJECTID":6280,"ولایت":"بلخ","Province":"BALKH","PC_Code":"2107269","ولسوالي":"شولگره","District":"SHOLGARA","د_مرکز_نوم__نام_مرکز":"مکتب تاجک","Polling_Center_Name":"Tajik School","د_مرکز_ځای__موقعیت_مرکز":"قریه تاجک","Polling_Center_Location":"Tajik Village","Verification_Note":"Building","PS_Male":1,"PS_Female":1,"Map_Accuracy":"تعمیر"},"geometry":{"x":7448501.0388732851,"y":4343277.2681102678}},{"attributes":{"OBJECTID":6281,"ولایت":"بلخ","Province":"BALKH","PC_Code":"2108227","ولسوالي":"چمتال","District":"CHIMTAL","د_مرکز_نوم__نام_مرکز":"کلینیک چقناق","Polling_Center_Name":"Chaqnaq Clinic","د_مرکز_ځای__موقعیت_مرکز":"قریه چقناق","Polling_Center_Location":"Chaqnaq Village","Verification_Note":"Building","PS_Male":5,"PS_Female":3,"Map_Accuracy":"تعمیر"},"geometry":{"x":7407801.6634465009,"y":4368650.5144388527}},{"attributes":{"OBJECTID":6282,"ولایت":"بلخ","Province":"BALKH","PC_Code":"2108228","ولسوالي":"چمتال","District":"CHIMTAL","د_مرکز_نوم__نام_مرکز":"مسجد مچلدی","Polling_Center_Name":"Machaldi Mosque","د_مرکز_ځای__موقعیت_مرکز":"قریه مچلدی","Polling_Center_Location":"Machaldi Village","Verification_Note":"Building","PS_Male":3,"PS_Female":2,"Map_Accuracy":"تعمیر"},"geometry":{"x":7403531.7238520086,"y":4350605.9817069247}},{"attributes":{"OBJECTID":6283,"ولایت":"بلخ","Province":"BALKH","PC_Code":"2108229","ولسوالي":"چمتال","District":"CHIMTAL","د_مرکز_نوم__نام_مرکز":"مسجد جنگل","Polling_Center_Name":"Jangal Mosque","د_مرکز_ځای__موقعیت_مرکز":"قریه جنگل","Polling_Center_Location":"Jangal Village","Verification_Note":"Village","PS_Male":2,"PS_Female":1,"Map_Accuracy":"قریه"},"geometry":{"x":7432294.3058282509,"y":4397271.1562297419}},{"attributes":{"OBJECTID":6284,"ولایت":"بلخ","Province":"BALKH","PC_Code":"2109128","ولسوالي":"دولت آباد","District":"DAWLAT ABAD","د_مرکز_نوم__نام_مرکز":"مکتب متوسطه مراد بخش ولی ","Polling_Center_Name":"Murad Bakhsh Wali Secondary School","د_مرکز_ځای__موقعیت_مرکز":"قریه غشی ( ده دراز)","Polling_Center_Location":"Ghashi (Deh Daraz) Village","Verification_Note":"Building","PS_Male":2,"PS_Female":1,"Map_Accuracy":"تعمیر"},"geometry":{"x":7422667.5732624419,"y":4429581.0886203572}},{"attributes":{"OBJECTID":6285,"ولایت":"بلخ","Province":"BALKH","PC_Code":"2109138","ولسوالي":"دولت آباد","District":"DAWLAT ABAD","د_مرکز_نوم__نام_مرکز":"مکتب خیر آباد","Polling_Center_Name":"Khair Abad School","د_مرکز_ځای__موقعیت_مرکز":"قریه خیر ا باد","Polling_Center_Location":"Khair Abad Village","Verification_Note":"Building","PS_Male":1,"PS_Female":1,"Map_Accuracy":"تعمیر"},"geometry":{"x":7465141.450390555,"y":4435515.13365379}},{"attributes":{"OBJECTID":6286,"ولایت":"بلخ","Province":"BALKH","PC_Code":"2110078","ولسوالي":"خلم","District":"KHULM","د_مرکز_نوم__نام_مرکز":"مکتب ذکور خواجه برهان","Polling_Center_Name":"Khwaja Burhan Boys School","د_مرکز_ځای__موقعیت_مرکز":"قریه سرهنگ","Polling_Center_Location":"Sarhang Village","Verification_Note":"Building","PS_Male":2,"PS_Female":1,"Map_Accuracy":"تعمیر"},"geometry":{"x":7539346.495298963,"y":4397981.2833438814}},{"attributes":{"OBJECTID":6287,"ولایت":"بلخ","Province":"BALKH","PC_Code":"2110088","ولسوالي":"خلم","District":"KHULM","د_مرکز_نوم__نام_مرکز":"مکتب تنگی","Polling_Center_Name":"Tangi School","د_مرکز_ځای__موقعیت_مرکز":"قریه حاجی کریم","Polling_Center_Location":"Haji karim Village","Verification_Note":"Building","PS_Male":2,"PS_Female":1,"Map_Accuracy":"تعمیر"},"geometry":{"x":7536057.61771642,"y":4394123.7884521186}},{"attributes":{"OBJECTID":6288,"ولایت":"بلخ","Province":"BALKH","PC_Code":"2110089","ولسوالي":"خلم","District":"KHULM","د_مرکز_نوم__نام_مرکز":"مکتب ذکور صیاد ","Polling_Center_Name":"Siyad Boys School","د_مرکز_ځای__موقعیت_مرکز":"قریه صیاد","Polling_Center_Location":"Siyad Village","Verification_Note":"Building","PS_Male":2,"PS_Female":1,"Map_Accuracy":"تعمیر"},"geometry":{"x":7543900.7348541915,"y":4382082.1788878068}},{"attributes":{"OBJECTID":6289,"ولایت":"بلخ","Province":"BALKH","PC_Code":"2110090","ولسوالي":"خلم","District":"KHULM","د_مرکز_نوم__نام_مرکز":"مکتب متوسطه اولجتو ","Polling_Center_Name":"Oljato Secondary School","د_مرکز_ځای__موقعیت_مرکز":"قریه اولجتو","Polling_Center_Location":"Oljato Village","Verification_Note":"Building","PS_Male":2,"PS_Female":1,"Map_Accuracy":"تعمیر"},"geometry":{"x":7528030.5239694081,"y":4400049.2566841245}},{"attributes":{"OBJECTID":6290,"ولایت":"بلخ","Province":"BALKH","PC_Code":"2111179","ولسوالي":"چار بولک","District":"CHAR BOLAK","د_مرکز_نوم__نام_مرکز":"مکتب علی آباد","Polling_Center_Name":"Ali Abad School","د_مرکز_ځای__موقعیت_مرکز":"قریه علی آباد","Polling_Center_Location":"Ali Abad Village","Verification_Note":"Building","PS_Male":1,"PS_Female":1,"Map_Accuracy":"تعمیر"},"geometry":{"x":7431368.9247124046,"y":4401231.2960616648}},{"attributes":{"OBJECTID":6291,"ولایت":"بلخ","Province":"BALKH","PC_Code":"2111189","ولسوالي":"چار بولک","District":"CHAR BOLAK","د_مرکز_نوم__نام_مرکز":"مکتب دهنو","Polling_Center_Name":"Dahno School","د_مرکز_ځای__موقعیت_مرکز":"قریه دهنو","Polling_Center_Location":"Dahno Village","Verification_Note":"Building","PS_Male":1,"PS_Female":1,"Map_Accuracy":"تعمیر"},"geometry":{"x":7408875.3132185265,"y":4432383.9151847735}},{"attributes":{"OBJECTID":6292,"ولایت":"بلخ","Province":"BALKH","PC_Code":"2111200","ولسوالي":"چار بولک","District":"CHAR BOLAK","د_مرکز_نوم__نام_مرکز":"مکتب رحمت آباد","Polling_Center_Name":"Rahmat Abad School","د_مرکز_ځای__موقعیت_مرکز":"قریه رحمت آباد","Polling_Center_Location":"Rahmat Abad Village","Verification_Note":"Building","PS_Male":2,"PS_Female":1,"Map_Accuracy":"تعمیر"},"geometry":{"x":7413561.80478159,"y":4416200.5050963387}},{"attributes":{"OBJECTID":6293,"ولایت":"بلخ","Province":"BALKH","PC_Code":"2112108","ولسوالي":"شور تیپه","District":"SHORTEPA","د_مرکز_نوم__نام_مرکز":"مکتب بز اریق","Polling_Center_Name":"Baz Areeq School","د_مرکز_ځای__موقعیت_مرکز":"قریه بز اریق","Polling_Center_Location":"Baz Areeq Village","Verification_Note":"Building","PS_Male":2,"PS_Female":1,"Map_Accuracy":"تعمیر"},"geometry":{"x":7438854.9589799754,"y":4485116.9374037832}},{"attributes":{"OBJECTID":6294,"ولایت":"بلخ","Province":"BALKH","PC_Code":"2113100","ولسوالي":"کلدار","District":"KALDAR","د_مرکز_نوم__نام_مرکز":"مکنب متوسطه جوی جدید","Polling_Center_Name":"Joy Jadid Secondary School","د_مرکز_ځای__موقعیت_مرکز":"قریه جوی جدید","Polling_Center_Location":"Joy Jadeed Village","Verification_Note":"Building","PS_Male":2,"PS_Female":1,"Map_Accuracy":"تعمیر"},"geometry":{"x":7525644.7001524344,"y":4467245.599986814}},{"attributes":{"OBJECTID":6295,"ولایت":"بلخ","Province":"BALKH","PC_Code":"2114289","ولسوالي":"کشنده","District":"KISHINDEH","د_مرکز_نوم__نام_مرکز":"مکتب چکانه پایان","Polling_Center_Name":"Chakana Payana School","د_مرکز_ځای__موقعیت_مرکز":"قریه چکانه پایین","Polling_Center_Location":"Chakana Payeen Village","Verification_Note":"Building","PS_Male":1,"PS_Female":1,"Map_Accuracy":"تعمیر"},"geometry":{"x":7457455.1601514183,"y":4315624.6277107894}},{"attributes":{"OBJECTID":6296,"ولایت":"بلخ","Province":"BALKH","PC_Code":"2114301","ولسوالي":"کشنده","District":"KISHINDEH","د_مرکز_نوم__نام_مرکز":"مسجد کلان قریه شیخ سر دره","Polling_Center_Name":"Qarya Shekh Sar Dara Mosque","د_مرکز_ځای__موقعیت_مرکز":"قریه شیخ سر دره","Polling_Center_Location":"Shekh Sar Dara Village","Verification_Note":"Building","PS_Male":2,"PS_Female":1,"Map_Accuracy":"تعمیر"},"geometry":{"x":7441883.9189098552,"y":4268583.361469835}},{"attributes":{"OBJECTID":6297,"ولایت":"بلخ","Province":"BALKH","PC_Code":"2114302","ولسوالي":"کشنده","District":"KISHINDEH","د_مرکز_نوم__نام_مرکز":"مسجد قوشمسای ","Polling_Center_Name":"Qoshmsay Mosque","د_مرکز_ځای__موقعیت_مرکز":"قریه قوشمسای بالا","Polling_Center_Location":"Qoshmasai Bala Village","Verification_Note":"Building","PS_Male":1,"PS_Female":1,"Map_Accuracy":"تعمیر"},"geometry":{"x":7456787.89999165,"y":4295030.0803677365}},{"attributes":{"OBJECTID":6298,"ولایت":"بلخ","Province":"BALKH","PC_Code":"2115311","ولسوالي":"زاری","District":"ZARI","د_مرکز_نوم__نام_مرکز":"مکتب چقورک","Polling_Center_Name":"Chaqorak School","د_مرکز_ځای__موقعیت_مرکز":"قریه چقورک","Polling_Center_Location":"Chaqorak Village","Verification_Note":"Building","PS_Male":2,"PS_Female":1,"Map_Accuracy":"تعمیر"},"geometry":{"x":7436761.4067124724,"y":4287706.1177521423}},{"attributes":{"OBJECTID":6299,"ولایت":"بلخ","Province":"BALKH","PC_Code":"2115312","ولسوالي":"زاری","District":"ZARI","د_مرکز_نوم__نام_مرکز":"مسجد دشت قدوق","Polling_Center_Name":"Dasht Qadoq Mosque","د_مرکز_ځای__موقعیت_مرکز":"قریه دشت قدوق","Polling_Center_Location":"Dasht Qadoq Village","Verification_Note":"Building","PS_Male":1,"PS_Female":2,"Map_Accuracy":"تعمیر"},"geometry":{"x":7429262.7220979743,"y":4273990.2518693358}},{"attributes":{"OBJECTID":6300,"ولایت":"سرپل","Province":"SAR-E-PUL","PC_Code":"2201002","ولسوالي":"سرپل","District":"SAR-E-PUL","د_مرکز_نوم__نام_مرکز":"لیسه منهاج السراج","Polling_Center_Name":"Minhaj-u-Siraj High School","د_مرکز_ځای__موقعیت_مرکز":"القانی خورد ","Polling_Center_Location":"Alqani Khord","Verification_Note":"Building","PS_Male":7,"PS_Female":5,"Map_Accuracy":"تعمیر"},"geometry":{"x":7340259.4039830305,"y":4329313.632192418}},{"attributes":{"OBJECTID":6301,"ولایت":"سرپل","Province":"SAR-E-PUL","PC_Code":"2201032","ولسوالي":"سرپل","District":"SAR-E-PUL","د_مرکز_نوم__نام_مرکز":"لیسه بغاوی سفلی","Polling_Center_Name":"Baghawi Sufla High School","د_مرکز_ځای__موقعیت_مرکز":"بغاوی سفلی","Polling_Center_Location":"Baghawi Sufla ","Verification_Note":"Building","PS_Male":3,"PS_Female":2,"Map_Accuracy":"تعمیر"},"geometry":{"x":7353996.7490089424,"y":4323813.99281127}},{"attributes":{"OBJECTID":6302,"ولایت":"سرپل","Province":"SAR-E-PUL","PC_Code":"2202056","ولسوالي":"صیاد","District":"SAYAD","د_مرکز_نوم__نام_مرکز":"مکتب ابتدائیه خواجه الماتو","Polling_Center_Name":"Khwaja Almato Primary School","د_مرکز_ځای__موقعیت_مرکز":"خوجه الماتو","Polling_Center_Location":"Khwaja Almato ","Verification_Note":"Village","PS_Male":2,"PS_Female":1,"Map_Accuracy":"قریه"},"geometry":{"x":7338900.51360058,"y":4299952.1674437448}},{"attributes":{"OBJECTID":6303,"ولایت":"سرپل","Province":"SAR-E-PUL","PC_Code":"2204035","ولسوالي":"سوزمه قلعه","District":"SOZMA QALA","د_مرکز_نوم__نام_مرکز":"لیسه محمد امین شهید","Polling_Center_Name":"Mohammad Amin Shaheed High School","د_مرکز_ځای__موقعیت_مرکز":"مرکز ولسوالی","Polling_Center_Location":"District Compound","Verification_Note":"Building","PS_Male":2,"PS_Female":2,"Map_Accuracy":"تعمیر"},"geometry":{"x":7372137.2641355172,"y":4313829.1367963105}},{"attributes":{"OBJECTID":6304,"ولایت":"سرپل","Province":"SAR-E-PUL","PC_Code":"2206128","ولسوالي":"گوسفندی ","District":"GOSFANDI","د_مرکز_نوم__نام_مرکز":"مدرسه قریه  ملیکان","Polling_Center_Name":"Maleekan Village Madrassa","د_مرکز_ځای__موقعیت_مرکز":" قریه ملیکان","Polling_Center_Location":"Maleekan Village","Verification_Note":"Building","PS_Male":2,"PS_Female":1,"Map_Accuracy":"تعمیر"},"geometry":{"x":7403310.652248852,"y":4289004.4306879491}},{"attributes":{"OBJECTID":6305,"ولایت":"سرپل","Province":"SAR-E-PUL","PC_Code":"2207089","ولسوالي":"بلخآب","District":"BALKHAB","د_مرکز_نوم__نام_مرکز":"لیسه شهید عارفی ","Polling_Center_Name":"Shaheed Arefi High School","د_مرکز_ځای__موقعیت_مرکز":"قریه زو","Polling_Center_Location":"Zo Village","Verification_Note":"Building","PS_Male":3,"PS_Female":2,"Map_Accuracy":"تعمیر"},"geometry":{"x":7430162.896028325,"y":4241868.0850922614}},{"attributes":{"OBJECTID":6306,"ولایت":"غور","Province":"GHOR","PC_Code":"2301011","ولسوالي":"چغچران","District":"CHIGHCHERAN","د_مرکز_نوم__نام_مرکز":"مکتب متوسطه سرتگاب ","Polling_Center_Name":"Sar Tagab Secondary School","د_مرکز_ځای__موقعیت_مرکز":"شهر نو ","Polling_Center_Location":"Shahr-e-Naw","Verification_Note":"Building","PS_Male":3,"PS_Female":2,"Map_Accuracy":"تعمیر"},"geometry":{"x":7201094.9878698923,"y":4110408.3845932558}},{"attributes":{"OBJECTID":6307,"ولایت":"غور","Province":"GHOR","PC_Code":"2301033","ولسوالي":"چغچران","District":"CHIGHCHERAN","د_مرکز_نوم__نام_مرکز":"بازار لخشک","Polling_Center_Name":"Lakhshak Bazar","د_مرکز_ځای__موقعیت_مرکز":" لخشک","Polling_Center_Location":"Lakhshak","Verification_Note":"Building","PS_Male":2,"PS_Female":1,"Map_Accuracy":"تعمیر"},"geometry":{"x":7233735.9520373233,"y":4126051.7224060073}},{"attributes":{"OBJECTID":6308,"ولایت":"غور","Province":"GHOR","PC_Code":"2304062","ولسوالي":"چار صده","District":"CHAR SADA","د_مرکز_نوم__نام_مرکز":"مسجد قریه شمرق","Polling_Center_Name":"Shamaroq Village Mosque","د_مرکز_ځای__موقعیت_مرکز":" شمرق","Polling_Center_Location":"Shamaroq","Verification_Note":"Village","PS_Male":1,"PS_Female":1,"Map_Accuracy":"قریه"},"geometry":{"x":7258087.4635686539,"y":4186068.6778303012}},{"attributes":{"OBJECTID":6309,"ولایت":"غور","Province":"GHOR","PC_Code":"2305133","ولسوالي":"پسابند ","District":"PASABAND","د_مرکز_نوم__نام_مرکز":"مسجد دهن کله گی","Polling_Center_Name":"Dahan Kalagi Mosque","د_مرکز_ځای__موقعیت_مرکز":" دهن کله گی","Polling_Center_Location":"Dahan Kalagi","Verification_Note":"Building","PS_Male":1,"PS_Female":1,"Map_Accuracy":"تعمیر"},"geometry":{"x":7246682.9631876424,"y":3982184.504472591}},{"attributes":{"OBJECTID":6310,"ولایت":"غور","Province":"GHOR","PC_Code":"2307142","ولسوالي":"لعل و سرجنگل ","District":"LAL WA SARJANGAL","د_مرکز_نوم__نام_مرکز":"مکتب دهن چکه","Polling_Center_Name":"Dahn Chaka School","د_مرکز_ځای__موقعیت_مرکز":" دهنه چکه","Polling_Center_Location":"Dahna Chaka","Verification_Note":"Building","PS_Male":2,"PS_Female":1,"Map_Accuracy":"تعمیر"},"geometry":{"x":7369856.7207269631,"y":4092603.2560897991}},{"attributes":{"OBJECTID":6311,"ولایت":"غور","Province":"GHOR","PC_Code":"2307152","ولسوالي":"لعل و سرجنگل ","District":"LAL WA SARJANGAL","د_مرکز_نوم__نام_مرکز":"مسجد سفید چشمه","Polling_Center_Name":"Safid Chashma Mosque","د_مرکز_ځای__موقعیت_مرکز":"سفید چشمه پتاب","Polling_Center_Location":"Safid Chashma Pitab","Verification_Note":"Village","PS_Male":2,"PS_Female":1,"Map_Accuracy":"قریه"},"geometry":{"x":7384895.3260349482,"y":4119359.420933269}},{"attributes":{"OBJECTID":6312,"ولایت":"غور","Province":"GHOR","PC_Code":"2307171","ولسوالي":"لعل و سرجنگل ","District":"LAL WA SARJANGAL","د_مرکز_نوم__نام_مرکز":"مکتب چار آسیاب","Polling_Center_Name":"Chahar Asyab School","د_مرکز_ځای__موقعیت_مرکز":"قریه دهن غلامک ","Polling_Center_Location":"Dahan Ghulamak Village","Verification_Note":"Building","PS_Male":2,"PS_Female":1,"Map_Accuracy":"تعمیر"},"geometry":{"x":7365875.7353611141,"y":4114824.350562185}},{"attributes":{"OBJECTID":6313,"ولایت":"غور","Province":"GHOR","PC_Code":"2308225","ولسوالي":"تیوره","District":"TAYWARA","د_مرکز_نوم__نام_مرکز":"بازار زلرگک","Polling_Center_Name":"Zalragak Bazar","د_مرکز_ځای__موقعیت_مرکز":"زلر گک","Polling_Center_Location":"Zalargak","Verification_Note":"Building","PS_Male":2,"PS_Female":1,"Map_Accuracy":"تعمیر"},"geometry":{"x":7164643.6944555826,"y":3926197.4111105055}},{"attributes":{"OBJECTID":6314,"ولایت":"غور","Province":"GHOR","PC_Code":"2309180","ولسوالي":"تولک ","District":"TULAK","د_مرکز_نوم__نام_مرکز":"مسجید دهن پالون","Polling_Center_Name":"Dahan Paloon Mosque","د_مرکز_ځای__موقعیت_مرکز":"پا لون","Polling_Center_Location":"Paloon","Verification_Note":"Village","PS_Male":2,"PS_Female":1,"Map_Accuracy":"قریه"},"geometry":{"x":7092361.7505235709,"y":4049165.3794382364}},{"attributes":{"OBJECTID":6315,"ولایت":"غور","Province":"GHOR","PC_Code":"2310203","ولسوالي":"ساغر ","District":"SAGHAR","د_مرکز_نوم__نام_مرکز":"مسجد جامع شولیچ","Polling_Center_Name":"Sholich Mosque","د_مرکز_ځای__موقعیت_مرکز":" شولیچ","Polling_Center_Location":"Sholich","Verification_Note":"Village","PS_Male":1,"PS_Female":1,"Map_Accuracy":"قریه"},"geometry":{"x":7058331.4311686419,"y":3976892.5264702141}},{"attributes":{"OBJECTID":6316,"ولایت":"دایکندی","Province":"DAYKUNDI","PC_Code":"2402018","ولسوالي":"شهرستان","District":"SHAHRISTAN","د_مرکز_نوم__نام_مرکز":"مسجد دهن ده اوشو","Polling_Center_Name":"Dahn Deh Osho Mosque","د_مرکز_ځای__موقعیت_مرکز":"دهن ده اوشو","Polling_Center_Location":"Dahn Deh Osho","Verification_Note":"Building","PS_Male":1,"PS_Female":1,"Map_Accuracy":"تعمیر"},"geometry":{"x":7395869.4285291061,"y":4001505.6006253287}},{"attributes":{"OBJECTID":6317,"ولایت":"دایکندی","Province":"DAYKUNDI","PC_Code":"2402029","ولسوالي":"شهرستان","District":"SHAHRISTAN","د_مرکز_نوم__نام_مرکز":"مسجد پلالیچ","Polling_Center_Name":"Plalech Mosque","د_مرکز_ځای__موقعیت_مرکز":"پلالیچ لرگر","Polling_Center_Location":"Plalech Largar","Verification_Note":"Building","PS_Male":2,"PS_Female":2,"Map_Accuracy":"تعمیر"},"geometry":{"x":7397125.1836297326,"y":4013928.72592064}},{"attributes":{"OBJECTID":6318,"ولایت":"دایکندی","Province":"DAYKUNDI","PC_Code":"2403108","ولسوالي":"گیزاب","District":"GIZAB","د_مرکز_نوم__نام_مرکز":"مکتب متوسطه سرتگاب ","Polling_Center_Name":"Sartagab Secondary School","د_مرکز_ځای__موقعیت_مرکز":"چهل مردان","Polling_Center_Location":"Chehl Mardan","Verification_Note":"Building","PS_Male":2,"PS_Female":1,"Map_Accuracy":"تعمیر"},"geometry":{"x":7352093.2447157055,"y":3963735.8726704046}},{"attributes":{"OBJECTID":6319,"ولایت":"دایکندی","Province":"DAYKUNDI","PC_Code":"2404041","ولسوالي":"اشترلی","District":"ISHTERLAI","د_مرکز_نوم__نام_مرکز":"مسجد کدال","Polling_Center_Name":"Kadaal Mosque","د_مرکز_ځای__موقعیت_مرکز":"کدال، دهن گردیش","Polling_Center_Location":"Kadaal, Dahan Gardish","Verification_Note":"Building","PS_Male":2,"PS_Female":1,"Map_Accuracy":"تعمیر"},"geometry":{"x":7385055.076183401,"y":4048267.6915831789}},{"attributes":{"OBJECTID":6320,"ولایت":"دایکندی","Province":"DAYKUNDI","PC_Code":"2404051","ولسوالي":"اشترلی","District":"ISHTERLAI","د_مرکز_نوم__نام_مرکز":"مسجد کورگه سفلا","Polling_Center_Name":"Korga Sufla Mosque","د_مرکز_ځای__موقعیت_مرکز":"کورگه سفلا","Polling_Center_Location":"Korga Sufla","Verification_Note":"Building","PS_Male":2,"PS_Female":1,"Map_Accuracy":"تعمیر"},"geometry":{"x":7362654.2639566325,"y":4016647.7008744106}},{"attributes":{"OBJECTID":6321,"ولایت":"دایکندی","Province":"DAYKUNDI","PC_Code":"2405094","ولسوالي":"خدیر","District":"KHEDIR","د_مرکز_نوم__نام_مرکز":"مکتب سیاه بند پشتروق ","Polling_Center_Name":"Siyah Band Pashtaroq School","د_مرکز_ځای__موقعیت_مرکز":"پشتروق","Polling_Center_Location":"Pashtaroq","Verification_Note":"Building","PS_Male":1,"PS_Female":1,"Map_Accuracy":"تعمیر"},"geometry":{"x":7340124.8142658807,"y":4004886.0790391043}},{"attributes":{"OBJECTID":6322,"ولایت":"دایکندی","Province":"DAYKUNDI","PC_Code":"2406125","ولسوالي":"کیتی","District":"KITI","د_مرکز_نوم__نام_مرکز":"مسجد سر تمران","Polling_Center_Name":"Sar Tamran Mosque","د_مرکز_ځای__موقعیت_مرکز":"سر تمران","Polling_Center_Location":"Sar Tamran","Verification_Note":"Building","PS_Male":1,"PS_Female":2,"Map_Accuracy":"تعمیر"},"geometry":{"x":7331140.3205778934,"y":3984784.31284713}},{"attributes":{"OBJECTID":6323,"ولایت":"دایکندی","Province":"DAYKUNDI","PC_Code":"2407160","ولسوالي":"میرامور","District":"MIRAMOR","د_مرکز_نوم__نام_مرکز":"مسجد تقمان دره","Polling_Center_Name":"Tuqman Dara Mosque","د_مرکز_ځای__موقعیت_مرکز":"تقمان دره","Polling_Center_Location":"Tuqman Dara","Verification_Note":"Building","PS_Male":1,"PS_Female":1,"Map_Accuracy":"تعمیر"},"geometry":{"x":7434942.7022677362,"y":3983056.6051590964}},{"attributes":{"OBJECTID":6324,"ولایت":"دایکندی","Province":"DAYKUNDI","PC_Code":"2408084","ولسوالي":"سنگ تخت","District":"SANG-E-TAKHT","د_مرکز_نوم__نام_مرکز":"مسجد عمومی اسب دوان","Polling_Center_Name":"Asb Dawan Mosque","د_مرکز_ځای__موقعیت_مرکز":"میراسی","Polling_Center_Location":"Mirasi","Verification_Note":"Building","PS_Male":2,"PS_Female":1,"Map_Accuracy":"تعمیر"},"geometry":{"x":7335244.1737185083,"y":4048227.3777108938}},{"attributes":{"OBJECTID":6325,"ولایت":"دایکندی","Province":"DAYKUNDI","PC_Code":"2409064","ولسوالي":"کجران","District":"KEJRAN","د_مرکز_نوم__نام_مرکز":"مسجد قلعه لاش","Polling_Center_Name":"Qala-e-Lash Mosque","د_مرکز_ځای__موقعیت_مرکز":"قلعه لاش","Polling_Center_Location":"Qala-e-Lash","Verification_Note":"Building","PS_Male":2,"PS_Female":1,"Map_Accuracy":"تعمیر"},"geometry":{"x":7286435.9134394079,"y":3927672.9946381971}},{"attributes":{"OBJECTID":6326,"ولایت":"دایکندی","Province":"DAYKUNDI","PC_Code":"2409065","ولسوالي":"کجران","District":"KEJRAN","د_مرکز_نوم__نام_مرکز":"مسجد دهن تاخه","Polling_Center_Name":"Dahan Takha Mosque","د_مرکز_ځای__موقعیت_مرکز":"تاخه","Polling_Center_Location":"Takha","Verification_Note":"Building","PS_Male":1,"PS_Female":1,"Map_Accuracy":"تعمیر"},"geometry":{"x":7284816.2150710113,"y":3924584.4609463513}},{"attributes":{"OBJECTID":6327,"ولایت":"ارزگان","Province":"UROZGAN","PC_Code":"2501005","ولسوالي":"ترینکوټ","District":"TIRINKOT","د_مرکز_نوم__نام_مرکز":"لیسه ملالۍ","Polling_Center_Name":"Malalai High School","د_مرکز_ځای__موقعیت_مرکز":"مرکز ترینکوټ","Polling_Center_Location":"Markaz Trinkot","Verification_Note":"Building","PS_Male":2,"PS_Female":2,"Map_Accuracy":"تعمیر"},"geometry":{"x":7333781.1450656168,"y":3846572.5941882133}},{"attributes":{"OBJECTID":6328,"ولایت":"ارزگان","Province":"UROZGAN","PC_Code":"2503016","ولسوالي":"چوره","District":"CHORA","د_مرکز_نوم__نام_مرکز":"لیسه مرکزی بازار","Polling_Center_Name":"Markazi Bazar High School","د_مرکز_ځای__موقعیت_مرکز":"بازار ولسوالی","Polling_Center_Location":"District Bazar","Verification_Note":"Building","PS_Male":4,"PS_Female":0,"Map_Accuracy":"تعمیر"},"geometry":{"x":7352096.5175087415,"y":3877166.7020957917}},{"attributes":{"OBJECTID":6329,"ولایت":"ارزگان","Province":"UROZGAN","PC_Code":"2506045","ولسوالي":"چنارتو","District":"CHENARTO","د_مرکز_نوم__نام_مرکز":"لیسه معلم فیض محمد","Polling_Center_Name":"Maalem Faiz Mohammad High School","د_مرکز_ځای__موقعیت_مرکز":"بازار","Polling_Center_Location":"Bazar","Verification_Note":"Building","PS_Male":5,"PS_Female":0,"Map_Accuracy":"تعمیر"},"geometry":{"x":7378329.2070962265,"y":3860674.36047785}},{"attributes":{"OBJECTID":6330,"ولایت":"زابل","Province":"ZABUL","PC_Code":"2604044","ولسوالي":"میزان","District":"MIZAN","د_مرکز_نوم__نام_مرکز":"مسجد ارغستو","Polling_Center_Name":"Arghasto Mosque","د_مرکز_ځای__موقعیت_مرکز":"ارغستو","Polling_Center_Location":"Arghasto","Verification_Note":"Building","PS_Male":4,"PS_Female":0,"Map_Accuracy":"تعمیر"},"geometry":{"x":7389736.6429721937,"y":3776476.2373457029}},{"attributes":{"OBJECTID":6331,"ولایت":"زابل","Province":"ZABUL","PC_Code":"2610037","ولسوالي":"شملزایي","District":"SHEMEL ZAYI","د_مرکز_نوم__نام_مرکز":"د نسوزو کلی مسجد","Polling_Center_Name":"Nasozo Village Mosque","د_مرکز_ځای__موقعیت_مرکز":"ګړدی مرغه ","Polling_Center_Location":"Gardai Margha","Verification_Note":"Building","PS_Male":2,"PS_Female":0,"Map_Accuracy":"تعمیر"},"geometry":{"x":7551076.6975857094,"y":3764050.5412279069}},{"attributes":{"OBJECTID":6332,"ولایت":"کندهار","Province":"کندهار","PC_Code":"2701009","ولسوالي":"کندهار","District":"KANDAHAR","د_مرکز_نوم__نام_مرکز":"زرغونه انا ليسه","Polling_Center_Name":"Zarghona Ana High School","د_مرکز_ځای__موقعیت_مرکز":"شپږمه ناحيه","Polling_Center_Location":"D06 - Nahia 6","Verification_Note":"Building","PS_Male":1,"PS_Female":5,"Map_Accuracy":"تعمیر"},"geometry":{"x":7313482.182861194,"y":3712209.7314654142}},{"attributes":{"OBJECTID":6333,"ولایت":"کندهار","Province":"کندهار","PC_Code":"2701034","ولسوالي":"کندهار","District":"KANDAHAR","د_مرکز_نوم__نام_مرکز":"د صوفي صاحب اناث مكتب","Polling_Center_Name":"Sofi Sahib Girls School","د_مرکز_ځای__موقعیت_مرکز":"شپږمه ناحيه","Polling_Center_Location":"D06 - Nahia 6","Verification_Note":"Building","PS_Male":1,"PS_Female":5,"Map_Accuracy":"تعمیر"},"geometry":{"x":7311705.1608865894,"y":3715487.7756829932}},{"attributes":{"OBJECTID":6334,"ولایت":"کندهار","Province":"کندهار","PC_Code":"2701035","ولسوالي":"کندهار","District":"KANDAHAR","د_مرکز_نوم__نام_مرکز":"د صوفي صاحب ذکور مكتب","Polling_Center_Name":"Sofi Sahib Boys School","د_مرکز_ځای__موقعیت_مرکز":"شپږمه ناحيه","Polling_Center_Location":"D06 - Nahia 6","Verification_Note":"Building","PS_Male":6,"PS_Female":0,"Map_Accuracy":"تعمیر"},"geometry":{"x":7312077.9576161057,"y":3715200.7879403681}},{"attributes":{"OBJECTID":6335,"ولایت":"کندهار","Province":"کندهار","PC_Code":"2701056","ولسوالي":"کندهار","District":"KANDAHAR","د_مرکز_نوم__نام_مرکز":"شين غزي اصحابی","Polling_Center_Name":"Sheen Ghazai Ashabi","د_مرکز_ځای__موقعیت_مرکز":"دريمه ناحيه","Polling_Center_Location":"D03 - Nahia 3","Verification_Note":"Building","PS_Male":2,"PS_Female":8,"Map_Accuracy":"تعمیر"},"geometry":{"x":7316509.6833925545,"y":3710616.2132690921}},{"attributes":{"OBJECTID":6336,"ولایت":"کندهار","Province":"کندهار","PC_Code":"2702101","ولسوالي":"ارغنداب","District":"ARGHANDAB","د_مرکز_نوم__نام_مرکز":"مكتب خواجه ملك","Polling_Center_Name":"Khwaja Malik School","د_مرکز_ځای__موقعیت_مرکز":"خواجه ملك","Polling_Center_Location":"Khwaja Malik","Verification_Note":"Building","PS_Male":1,"PS_Female":2,"Map_Accuracy":"تعمیر"},"geometry":{"x":7319193.17775429,"y":3731491.1761897579}},{"attributes":{"OBJECTID":6337,"ولایت":"کندهار","Province":"کندهار","PC_Code":"2702112","ولسوالي":"ارغنداب","District":"ARGHANDAB","د_مرکز_نوم__نام_مرکز":"د مولوی عبدالواسع مكتب","Polling_Center_Name":"Mawlawi Abdul Wasi School","د_مرکز_ځای__موقعیت_مرکز":"ګل قلعچه","Polling_Center_Location":"Gul Qalacha","Verification_Note":"Building","PS_Male":2,"PS_Female":1,"Map_Accuracy":"تعمیر"},"geometry":{"x":7313161.7074055336,"y":3724829.1425532177}},{"attributes":{"OBJECTID":6338,"ولایت":"کندهار","Province":"کندهار","PC_Code":"2704173","ولسوالي":"پنجوایې","District":"PANJWAYEE","د_مرکز_نوم__نام_مرکز":"د ملا حسن ليسه","Polling_Center_Name":"Mula Hassan High School","د_مرکز_ځای__موقعیت_مرکز":"ټالكان","Polling_Center_Location":"Talgan","Verification_Note":"Village","PS_Male":2,"PS_Female":1,"Map_Accuracy":"قریه"},"geometry":{"x":7270893.4919234626,"y":3690327.2302880287}},{"attributes":{"OBJECTID":6339,"ولایت":"کندهار","Province":"کندهار","PC_Code":"2704174","ولسوالي":"پنجوایې","District":"PANJWAYEE","د_مرکز_نوم__نام_مرکز":"مكتب ريګوا","Polling_Center_Name":"Regwa School","د_مرکز_ځای__موقعیت_مرکز":"ريګوا","Polling_Center_Location":"Regwa","Verification_Note":"Village","PS_Male":2,"PS_Female":0,"Map_Accuracy":"قریه"},"geometry":{"x":7285143.5711843856,"y":3696166.5844093114}},{"attributes":{"OBJECTID":6340,"ولایت":"کندهار","Province":"کندهار","PC_Code":"2704179","ولسوالي":"پنجوایې","District":"PANJWAYEE","د_مرکز_نوم__نام_مرکز":"مكتب سلوات","Polling_Center_Name":"Salawat School","د_مرکز_ځای__موقعیت_مرکز":"پنجوایې","Polling_Center_Location":"Panjwayee","Verification_Note":"Building","PS_Male":2,"PS_Female":0,"Map_Accuracy":"تعمیر"},"geometry":{"x":7296529.3615419716,"y":3700118.8596694618}},{"attributes":{"OBJECTID":6341,"ولایت":"کندهار","Province":"کندهار","PC_Code":"2705154","ولسوالي":"ژیړی","District":"ZHIRE","د_مرکز_نوم__نام_مرکز":"اتم كمپ ښوونځي","Polling_Center_Name":"8th Camp School","د_مرکز_ځای__موقعیت_مرکز":"د ژړي دښت","Polling_Center_Location":"Zharee Dasht","Verification_Note":"Building","PS_Male":2,"PS_Female":1,"Map_Accuracy":"تعمیر"},"geometry":{"x":7277402.0074784793,"y":3722429.5038710088}},{"attributes":{"OBJECTID":6342,"ولایت":"کندهار","Province":"کندهار","PC_Code":"2705167","ولسوالي":"ژیړی","District":"ZHIRE","د_مرکز_نوم__نام_مرکز":"د محمد شاه سراچه","Polling_Center_Name":"Mohammad Shah Saracha","د_مرکز_ځای__موقعیت_مرکز":"لاكوخيل","Polling_Center_Location":"Lako Khel","Verification_Note":"Village","PS_Male":1,"PS_Female":1,"Map_Accuracy":"قریه"},"geometry":{"x":7270064.9654437751,"y":3701735.4248682037}},{"attributes":{"OBJECTID":6343,"ولایت":"کندهار","Province":"کندهار","PC_Code":"2705168","ولسوالي":"ژیړی","District":"ZHIRE","د_مرکز_نوم__نام_مرکز":"د پوليسو قومانداني ته نژدي","Polling_Center_Name":"Near Police Station ","د_مرکز_ځای__موقعیت_مرکز":"د كوچيانو كمپ","Polling_Center_Location":"Kochiano Camp","Verification_Note":"Village","PS_Male":5,"PS_Female":3,"Map_Accuracy":"قریه"},"geometry":{"x":7275508.2781497389,"y":3711860.5617230833}},{"attributes":{"OBJECTID":6344,"ولایت":"کندهار","Province":"کندهار","PC_Code":"2706094","ولسوالي":"شاه ولي كوټ","District":"SHAH WALI KOT","د_مرکز_نوم__نام_مرکز":"مكتب سيد حليم","Polling_Center_Name":"Sayed Haleem School","د_مرکز_ځای__موقعیت_مرکز":"سيد حليم","Polling_Center_Location":"Sayed Haleem","Verification_Note":"Village","PS_Male":2,"PS_Female":2,"Map_Accuracy":"قریه"},"geometry":{"x":7322528.0525504313,"y":3734572.1883701533}},{"attributes":{"OBJECTID":6345,"ولایت":"کندهار","Province":"کندهار","PC_Code":"2707123","ولسوالي":"خاک ریز","District":"KHAKREZ","د_مرکز_نوم__نام_مرکز":"د ولسوالي اداري تعمير","Polling_Center_Name":"District Building Office","د_مرکز_ځای__موقعیت_مرکز":"خاک ریز","Polling_Center_Location":"Khak Rez","Verification_Note":"Building","PS_Male":1,"PS_Female":1,"Map_Accuracy":"تعمیر"},"geometry":{"x":7288609.984430436,"y":3761036.4354780838}},{"attributes":{"OBJECTID":6346,"ولایت":"کندهار","Province":"کندهار","PC_Code":"2708251","ولسوالي":"ارغستان","District":"ARGHISTAN","د_مرکز_نوم__نام_مرکز":"مكتب امين قلعه","Polling_Center_Name":"Ameen Qala School","د_مرکز_ځای__موقعیت_مرکز":"امين قلعه","Polling_Center_Location":"Ameen Qala","Verification_Note":"Village","PS_Male":2,"PS_Female":1,"Map_Accuracy":"قریه"},"geometry":{"x":7386334.8785204254,"y":3706595.3663365841}},{"attributes":{"OBJECTID":6347,"ولایت":"کندهار","Province":"کندهار","PC_Code":"2710136","ولسوالي":"میوند","District":"MAIWAND","د_مرکز_نوم__نام_مرکز":"مكتب مسلم آباد","Polling_Center_Name":"Muslim Abad School","د_مرکز_ځای__موقعیت_مرکز":"مسلم آباد","Polling_Center_Location":"Muslim Abad","Verification_Note":"Village","PS_Male":2,"PS_Female":1,"Map_Accuracy":"قریه"},"geometry":{"x":7212778.8523054048,"y":3724559.6766673252}},{"attributes":{"OBJECTID":6348,"ولایت":"کندهار","Province":"کندهار","PC_Code":"2710143","ولسوالي":"میوند","District":"MAIWAND","د_مرکز_نوم__نام_مرکز":"د ډاكټر اسمٰعيل تیلو پمپ","Polling_Center_Name":"Doctar Ismail Oil Station","د_مرکز_ځای__موقعیت_مرکز":"سنګبر","Polling_Center_Location":"Sangbar","Verification_Note":"Building","PS_Male":1,"PS_Female":1,"Map_Accuracy":"تعمیر"},"geometry":{"x":7222237.0293510333,"y":3733855.7737189829}},{"attributes":{"OBJECTID":6349,"ولایت":"کندهار","Province":"کندهار","PC_Code":"2711207","ولسوالي":"سپین بولدک","District":"SPIN BOLDAK","د_مرکز_نوم__نام_مرکز":"د لوي كاريز كلينيك","Polling_Center_Name":"Loy Karez Clinic","د_مرکز_ځای__موقعیت_مرکز":"لوي كاريز","Polling_Center_Location":"Loy Karez","Verification_Note":"Building","PS_Male":5,"PS_Female":1,"Map_Accuracy":"تعمیر"},"geometry":{"x":7400681.4272520691,"y":3655805.1913991421}},{"attributes":{"OBJECTID":6350,"ولایت":"کندهار","Province":"کندهار","PC_Code":"2711218","ولسوالي":"سپین بولدک","District":"SPIN BOLDAK","د_مرکز_نوم__نام_مرکز":"د محمد داود باركزي كور","Polling_Center_Name":"Mohamamd Dawood Barakzai Private House","د_مرکز_ځای__موقعیت_مرکز":"نوي كلي","Polling_Center_Location":"Nawai Village","Verification_Note":"Village","PS_Male":5,"PS_Female":1,"Map_Accuracy":"قریه"},"geometry":{"x":7389902.8941789158,"y":3632796.2651550025}},{"attributes":{"OBJECTID":6351,"ولایت":"کندهار","Province":"کندهار","PC_Code":"2711219","ولسوالي":"سپین بولدک","District":"SPIN BOLDAK","د_مرکز_نوم__نام_مرکز":"د عالي نیکه مكتب","Polling_Center_Name":"Aali Neeka School","د_مرکز_ځای__موقعیت_مرکز":"ويش","Polling_Center_Location":"Wesh","Verification_Note":"Building","PS_Male":5,"PS_Female":1,"Map_Accuracy":"تعمیر"},"geometry":{"x":7394453.6761507578,"y":3626832.7347067446}},{"attributes":{"OBJECTID":6352,"ولایت":"کندهار","Province":"کندهار","PC_Code":"2713262","ولسوالي":"ميانشين","District":"MIYANISHIN","د_مرکز_نوم__نام_مرکز":"د اسحق زوي لوي كلي مسجد","Polling_Center_Name":"Ishaqzoy Loy Village Mosque","د_مرکز_ځای__موقعیت_مرکز":"د اسحق زوي لوي كلي","Polling_Center_Location":"Ishaaqzo Loy Village","Verification_Note":"Village","PS_Male":2,"PS_Female":0,"Map_Accuracy":"قریه"},"geometry":{"x":7388510.6981180124,"y":3812446.758691363}},{"attributes":{"OBJECTID":6353,"ولایت":"کندهار","Province":"کندهار","PC_Code":"2715271","ولسوالي":"معروف","District":"MARUF","د_مرکز_نوم__نام_مرکز":"د خوګياڼو د كلي مسجد","Polling_Center_Name":"Khogyano Village Mosque","د_مرکز_ځای__موقعیت_مرکز":"د خوګياڼو كلي","Polling_Center_Location":"Khogyano Village","Verification_Note":"Village","PS_Male":3,"PS_Female":2,"Map_Accuracy":"قریه"},"geometry":{"x":7478264.1626591682,"y":3717188.1346186325}},{"attributes":{"OBJECTID":6354,"ولایت":"کندهار","Province":"کندهار","PC_Code":"2717017","ولسوالي":"ډند","District":"DAND","د_مرکز_نوم__نام_مرکز":"مكتب سالو كاريز","Polling_Center_Name":"Salo Karez School","د_مرکز_ځای__موقعیت_مرکز":"سالو كاريز","Polling_Center_Location":"Salo Karez","Verification_Note":"Village","PS_Male":4,"PS_Female":2,"Map_Accuracy":"قریه"},"geometry":{"x":7316199.3858779408,"y":3707914.6576815173}},{"attributes":{"OBJECTID":6355,"ولایت":"جوزجان","Province":"JAWZJAN","PC_Code":"2801010","ولسوالي":"شبرغان","District":"SHEBERGHAN","د_مرکز_نوم__نام_مرکز":"لیسه قزانچی بابا","Polling_Center_Name":"Qazanchi Baba High School","د_مرکز_ځای__موقعیت_مرکز":"ناحیه چهارم","Polling_Center_Location":"D04 - Nahia 4","Verification_Note":"Building","PS_Male":4,"PS_Female":2,"Map_Accuracy":"تعمیر"},"geometry":{"x":7324957.7596238628,"y":4396498.9553849772}},{"attributes":{"OBJECTID":6356,"ولایت":"جوزجان","Province":"JAWZJAN","PC_Code":"2801019","ولسوالي":"شبرغان","District":"SHEBERGHAN","د_مرکز_نوم__نام_مرکز":"مکتب متوسطه جلال آباد","Polling_Center_Name":"Jalal Abad Secondary School","د_مرکز_ځای__موقعیت_مرکز":"ناحیه چهارم","Polling_Center_Location":"D04 - Nahia 4","Verification_Note":"Building","PS_Male":4,"PS_Female":2,"Map_Accuracy":"تعمیر"},"geometry":{"x":7333299.068218369,"y":4405960.7434557751}},{"attributes":{"OBJECTID":6357,"ولایت":"جوزجان","Province":"JAWZJAN","PC_Code":"2801030","ولسوالي":"شبرغان","District":"SHEBERGHAN","د_مرکز_نوم__نام_مرکز":"لیسه ذکور منگوتی","Polling_Center_Name":"Mangotai Boys High School","د_مرکز_ځای__موقعیت_مرکز":"ناحیه چهارم","Polling_Center_Location":"D04 - Nahia 4","Verification_Note":"Building","PS_Male":2,"PS_Female":1,"Map_Accuracy":"تعمیر"},"geometry":{"x":7321906.4676682949,"y":4393524.8790371045}},{"attributes":{"OBJECTID":6358,"ولایت":"جوزجان","Province":"JAWZJAN","PC_Code":"2803117","ولسوالي":"خانقاه","District":"KHANAQA","د_مرکز_نوم__نام_مرکز":"مکتب نسوان ینگی قلعه عربیه","Polling_Center_Name":"Yangee Qala Arabia Girls School","د_مرکز_ځای__موقعیت_مرکز":"ینگی قلعه","Polling_Center_Location":"Yangee Qala","Verification_Note":"Building","PS_Male":1,"PS_Female":1,"Map_Accuracy":"تعمیر"},"geometry":{"x":7355606.51122224,"y":4422580.99775213}},{"attributes":{"OBJECTID":6359,"ولایت":"جوزجان","Province":"JAWZJAN","PC_Code":"2804074","ولسوالي":"منگجیک","District":"MINGAJIK","د_مرکز_نوم__نام_مرکز":"مکتب دالی مهاجر","Polling_Center_Name":"Daali Muhajir School","د_مرکز_ځای__موقعیت_مرکز":"دالی مهاجر","Polling_Center_Location":"Daali Muhajir","Verification_Note":"Building","PS_Male":2,"PS_Female":1,"Map_Accuracy":"تعمیر"},"geometry":{"x":7367768.97933688,"y":4440058.8899355456}},{"attributes":{"OBJECTID":6360,"ولایت":"جوزجان","Province":"JAWZJAN","PC_Code":"2807037","ولسوالي":"آقچه","District":"AQCHAH","د_مرکز_نوم__نام_مرکز":"مکتب کول بقال اولمیه","Polling_Center_Name":"Kol Baqal Ulemya School","د_مرکز_ځای__موقعیت_مرکز":"کول بقال اولیه","Polling_Center_Location":"Kol Baqal Awalia","Verification_Note":"Building","PS_Male":2,"PS_Female":1,"Map_Accuracy":"تعمیر"},"geometry":{"x":7370211.2775352821,"y":4426305.9687148109}},{"attributes":{"OBJECTID":6361,"ولایت":"جوزجان","Province":"JAWZJAN","PC_Code":"2807048","ولسوالي":"آقچه","District":"AQCHAH","د_مرکز_نوم__نام_مرکز":"لیسه ذکور نمبر اول ","Polling_Center_Name":"Number 1 Boys High School","د_مرکز_ځای__موقعیت_مرکز":"ناحیه دوم","Polling_Center_Location":"D02 - Nahia 2","Verification_Note":"Building","PS_Male":1,"PS_Female":1,"Map_Accuracy":"تعمیر"},"geometry":{"x":7368602.0888400078,"y":4424266.1097962558}},{"attributes":{"OBJECTID":6362,"ولایت":"جوزجان","Province":"JAWZJAN","PC_Code":"2808058","ولسوالي":"فیض آباد","District":"FAIZABAD","د_مرکز_نوم__نام_مرکز":"مسجد قریه خلمی","Polling_Center_Name":"Khulmi Village Mosque","د_مرکز_ځای__موقعیت_مرکز":"قریه خلمی","Polling_Center_Location":"Khulmi Village","Verification_Note":"Village","PS_Male":1,"PS_Female":1,"Map_Accuracy":"قریه"},"geometry":{"x":7376355.1507361121,"y":4371234.9098326489}},{"attributes":{"OBJECTID":6363,"ولایت":"جوزجان","Province":"JAWZJAN","PC_Code":"2811101","ولسوالي":"درز آب","District":"DARZAB","د_مرکز_نوم__نام_مرکز":"لیسه قزل قشلاق","Polling_Center_Name":"Qazl Qashlaq High School","د_مرکز_ځای__موقعیت_مرکز":"اونچی قریه درزاب ","Polling_Center_Location":"Onchi Village Darzab","Verification_Note":"Building","PS_Male":2,"PS_Female":1,"Map_Accuracy":"تعمیر"},"geometry":{"x":7276904.8891416416,"y":4298703.9803359732}},{"attributes":{"OBJECTID":6364,"ولایت":"فارياب","Province":"FARYAB","PC_Code":"2901002","ولسوالي":"میمنه ","District":"MAIMANA","د_مرکز_نوم__نام_مرکز":"لیسه خراسان","Polling_Center_Name":"Khurasan High School","د_مرکز_ځای__موقعیت_مرکز":"ناحیه چهارم","Polling_Center_Location":"D04 - Nahia 4","Verification_Note":"Building","PS_Male":4,"PS_Female":1,"Map_Accuracy":"تعمیر"},"geometry":{"x":7210957.1311024725,"y":4290474.6962758154}},{"attributes":{"OBJECTID":6365,"ولایت":"فارياب","Province":"FARYAB","PC_Code":"2902033","ولسوالي":"پشتون کوت","District":"PASHTUN KOT","د_مرکز_نوم__نام_مرکز":"مسجد هزاره قلعه","Polling_Center_Name":"Hazara Qala Mosque","د_مرکز_ځای__موقعیت_مرکز":"هزاره قلعه","Polling_Center_Location":"Hazara Qala","Verification_Note":"Village","PS_Male":1,"PS_Female":1,"Map_Accuracy":"قریه"},"geometry":{"x":7234188.342202764,"y":4289392.8202345744}},{"attributes":{"OBJECTID":6366,"ولایت":"فارياب","Province":"FARYAB","PC_Code":"2902043","ولسوالي":"پشتون کوت","District":"PASHTUN KOT","د_مرکز_نوم__نام_مرکز":"مسجد گردی مریشکار","Polling_Center_Name":"Gardai Mareshkar Mosque","د_مرکز_ځای__موقعیت_مرکز":"گردی مریشکار","Polling_Center_Location":"Gardai Mareshkar","Verification_Note":"Village","PS_Male":1,"PS_Female":1,"Map_Accuracy":"قریه"},"geometry":{"x":7194375.1745630167,"y":4276583.5293215513}},{"attributes":{"OBJECTID":6367,"ولایت":"فارياب","Province":"FARYAB","PC_Code":"2903060","ولسوالي":"خواجه سبز پوش ولی","District":"KHWAJA SABZ POSH-E-WALI","د_مرکز_نوم__نام_مرکز":"لیسه نسوان قره شیخی ","Polling_Center_Name":"Qara-e-Shekhi Girls High School","د_مرکز_ځای__موقعیت_مرکز":"قره شیخی ","Polling_Center_Location":"Qara-e-Shekhi","Verification_Note":"Building","PS_Male":3,"PS_Female":1,"Map_Accuracy":"تعمیر"},"geometry":{"x":7221810.7391534112,"y":4320757.493748866}},{"attributes":{"OBJECTID":6368,"ولایت":"فارياب","Province":"FARYAB","PC_Code":"2904071","ولسوالي":"المار","District":"ALMAR","د_مرکز_نوم__نام_مرکز":"غلبله","Polling_Center_Name":"Ghalbala","د_مرکز_ځای__موقعیت_مرکز":"قریه غلبله","Polling_Center_Location":"Ghalbala Village","Verification_Note":"Village","PS_Male":2,"PS_Female":1,"Map_Accuracy":"قریه"},"geometry":{"x":7173985.0661859214,"y":4299864.1762611121}},{"attributes":{"OBJECTID":6369,"ولایت":"فارياب","Province":"FARYAB","PC_Code":"2905137","ولسوالي":"بل چراغ","District":"BIL CHIRAGH","د_مرکز_نوم__نام_مرکز":"مکتب ابتدای نیشر","Polling_Center_Name":"Neshar Primary School","د_مرکز_ځای__موقعیت_مرکز":"نیشر","Polling_Center_Location":"Neshar","Verification_Note":"Village","PS_Male":2,"PS_Female":1,"Map_Accuracy":"قریه"},"geometry":{"x":7254633.4168048389,"y":4286813.7437664121}},{"attributes":{"OBJECTID":6370,"ولایت":"فارياب","Province":"FARYAB","PC_Code":"2906148","ولسوالي":"شیرین تگاب","District":"SHIRIN TAGAB","د_مرکز_نوم__نام_مرکز":"مسجد جامع تاش قلعه","Polling_Center_Name":"Tash Qala Mosque","د_مرکز_ځای__موقعیت_مرکز":"تاش قلعه","Polling_Center_Location":"Tash Qala","Verification_Note":"Building","PS_Male":2,"PS_Female":1,"Map_Accuracy":"تعمیر"},"geometry":{"x":7221241.0605460815,"y":4334920.3139618337}},{"attributes":{"OBJECTID":6371,"ولایت":"فارياب","Province":"FARYAB","PC_Code":"2906157","ولسوالي":"شیرین تگاب","District":"SHIRIN TAGAB","د_مرکز_نوم__نام_مرکز":"مسجد قرغقول","Polling_Center_Name":"Qarghaqol Mosque","د_مرکز_ځای__موقعیت_مرکز":"قریه قرغقول","Polling_Center_Location":"Qarghaqol Village","Verification_Note":"Village","PS_Male":1,"PS_Female":1,"Map_Accuracy":"قریه"},"geometry":{"x":7237130.8747931868,"y":4326931.34078493}},{"attributes":{"OBJECTID":6372,"ولایت":"فارياب","Province":"FARYAB","PC_Code":"2907090","ولسوالي":"قیصار ","District":"QAISAR","د_مرکز_نوم__نام_مرکز":"مسجد جامع بیرکه","Polling_Center_Name":"Beraka Mosque","د_مرکز_ځای__موقعیت_مرکز":"بیرکه","Polling_Center_Location":"Beraka","Verification_Note":"Building","PS_Male":2,"PS_Female":2,"Map_Accuracy":"تعمیر"},"geometry":{"x":7150790.1062778048,"y":4264708.0177449286}},{"attributes":{"OBJECTID":6373,"ولایت":"فارياب","Province":"FARYAB","PC_Code":"2907203","ولسوالي":"قیصار","District":"QAISAR","د_مرکز_نوم__نام_مرکز":"مسجد یکه پسته افغانیه","Polling_Center_Name":"Yaka Pasta Afghania Mosque","د_مرکز_ځای__موقعیت_مرکز":"یکه پسته افغانیه","Polling_Center_Location":"Yaka Pasta Afghania","Verification_Note":"Building","PS_Male":1,"PS_Female":1,"Map_Accuracy":"تعمیر"},"geometry":{"x":7151293.7657479234,"y":4263125.1404412687}},{"attributes":{"OBJECTID":6374,"ولایت":"فارياب","Province":"FARYAB","PC_Code":"2908131","ولسوالي":"گرزیوان","District":"GURZIWAN","د_مرکز_نوم__نام_مرکز":"مدرسه گاو کی","Polling_Center_Name":"Gawaki Madrassa","د_مرکز_ځای__موقعیت_مرکز":"قریه گاوکی","Polling_Center_Location":"Gawaki Village","Verification_Note":"Building","PS_Male":2,"PS_Female":1,"Map_Accuracy":"تعمیر"},"geometry":{"x":7251517.3282226957,"y":4256971.8356487006}},{"attributes":{"OBJECTID":6375,"ولایت":"فارياب","Province":"FARYAB","PC_Code":"2909163","ولسوالي":"دولت آباد","District":"DAWLAT ABAD","د_مرکز_نوم__نام_مرکز":"مکتب متوسطه نسوان قریش","Polling_Center_Name":"Quraish Girls Secondary School","د_مرکز_ځای__موقعیت_مرکز":"قریش","Polling_Center_Location":"Quraish","Verification_Note":"Building","PS_Male":3,"PS_Female":1,"Map_Accuracy":"تعمیر"},"geometry":{"x":7226820.7207039408,"y":4360735.7342376038}},{"attributes":{"OBJECTID":6376,"ولایت":"فارياب","Province":"FARYAB","PC_Code":"2910115","ولسوالي":"کوهستان","District":"KOHISTAN","د_مرکز_نوم__نام_مرکز":"مسجد تندورک","Polling_Center_Name":"Tandorak Mosque","د_مرکز_ځای__موقعیت_مرکز":"تندورک","Polling_Center_Location":"Tandorak","Verification_Note":"Building","PS_Male":1,"PS_Female":2,"Map_Accuracy":"تعمیر"},"geometry":{"x":7195230.0559321456,"y":4186936.769112803}},{"attributes":{"OBJECTID":6377,"ولایت":"فارياب","Province":"FARYAB","PC_Code":"2912197","ولسوالي":"قرغان","District":"QURGHAN","د_مرکز_نوم__نام_مرکز":"آق مسجد","Polling_Center_Name":"Aaq Mosque","د_مرکز_ځای__موقعیت_مرکز":"باغبوستان ","Polling_Center_Location":"Bagh Bostan","Verification_Note":"Village","PS_Male":2,"PS_Female":2,"Map_Accuracy":"قریه"},"geometry":{"x":7245856.3491768166,"y":4429858.1831858829}},{"attributes":{"OBJECTID":6378,"ولایت":"هلمند","Province":"HELMAND","PC_Code":"3001018","ولسوالي":"لشکرگاه","District":"LASHKARGAH","د_مرکز_نوم__نام_مرکز":"د میراجان کور","Polling_Center_Name":"Mira Jaan Private House","د_مرکز_ځای__موقعیت_مرکز":"کاریز","Polling_Center_Location":"Karez","Verification_Note":"Building","PS_Male":0,"PS_Female":4,"Map_Accuracy":"تعمیر"},"geometry":{"x":7164408.0366595462,"y":3703717.4229305163}},{"attributes":{"OBJECTID":6379,"ولایت":"هلمند","Province":"HELMAND","PC_Code":"3002069","ولسوالي":"نادعلی","District":"NAD ALI","د_مرکز_نوم__نام_مرکز":"مکتب مرکز ولسوالی","Polling_Center_Name":"District Center School","د_مرکز_ځای__موقعیت_مرکز":"مرکز ولسوالی","Polling_Center_Location":"District Compound","Verification_Note":"Village","PS_Male":3,"PS_Female":1,"Map_Accuracy":"قریه"},"geometry":{"x":7150942.3323418759,"y":3716772.713973105}},{"attributes":{"OBJECTID":6380,"ولایت":"هلمند","Province":"HELMAND","PC_Code":"3003091","ولسوالي":"ناوه بارکزایی","District":"NAWA-E-BARAKZAYI","د_مرکز_نوم__نام_مرکز":"مكتب سرخ دوز","Polling_Center_Name":"Surkh Doz School","د_مرکز_ځای__موقعیت_مرکز":"سرخ دوز","Polling_Center_Location":"Surkh Doz","Verification_Note":"Building","PS_Male":3,"PS_Female":1,"Map_Accuracy":"تعمیر"},"geometry":{"x":7157877.5121280141,"y":3678302.0965156034}},{"attributes":{"OBJECTID":6381,"ولایت":"هلمند","Province":"HELMAND","PC_Code":"3003102","ولسوالي":"ناوه بارکزایی","District":"NAWA-E-BARAKZAYI","د_مرکز_نوم__نام_مرکز":"مكتب دوپله","Polling_Center_Name":"Dopala School","د_مرکز_ځای__موقعیت_مرکز":"دوپله","Polling_Center_Location":"Dopala","Verification_Note":"Building","PS_Male":2,"PS_Female":1,"Map_Accuracy":"تعمیر"},"geometry":{"x":7147660.6203949563,"y":3676325.1817041039}},{"attributes":{"OBJECTID":6382,"ولایت":"هلمند","Province":"HELMAND","PC_Code":"3004043","ولسوالي":"نهرسراج","District":"NAHR-E-SARAJ","د_مرکز_نوم__نام_مرکز":"مکتب چهار کوچه","Polling_Center_Name":"Chahar Kocha School","د_مرکز_ځای__موقعیت_مرکز":"چهار کوچه","Polling_Center_Location":"Chahar Kocha","Verification_Note":"Village","PS_Male":3,"PS_Female":1,"Map_Accuracy":"قریه"},"geometry":{"x":7180527.793560043,"y":3734565.1810531542}},{"attributes":{"OBJECTID":6383,"ولایت":"هلمند","Province":"HELMAND","PC_Code":"3005211","ولسوالي":"واشیر","District":"WASHER","د_مرکز_نوم__نام_مرکز":"د ولسوالي کلینیک ","Polling_Center_Name":"District Clinic","د_مرکز_ځای__موقعیت_مرکز":"نا کونبیره ( کوچی مرکز )","Polling_Center_Location":"Na Konbira (Kochi Center)","Verification_Note":"Building","PS_Male":3,"PS_Female":2,"Map_Accuracy":"تعمیر"},"geometry":{"x":7109547.4995283075,"y":3795534.5968255252}},{"attributes":{"OBJECTID":6384,"ولایت":"هلمند","Province":"HELMAND","PC_Code":"3006109","ولسوالي":"گرم سیر","District":"GARM SER","د_مرکز_نوم__نام_مرکز":"مكتب بنادر سفلا","Polling_Center_Name":"Banadar Sufla School","د_مرکز_ځای__موقعیت_مرکز":"بنادر سفلا","Polling_Center_Location":"Banadar Sufla","Verification_Note":"Village","PS_Male":2,"PS_Female":0,"Map_Accuracy":"قریه"},"geometry":{"x":7125913.1622971594,"y":3581952.5838957578}},{"attributes":{"OBJECTID":6385,"ولایت":"هلمند","Province":"HELMAND","PC_Code":"3009178","ولسوالي":"موسی قلعه","District":"MUSA QALA","د_مرکز_نوم__نام_مرکز":"مدرسه یتمچی","Polling_Center_Name":"Yatamchi Madrassa","د_مرکز_ځای__موقعیت_مرکز":"یتمچی","Polling_Center_Location":"Yatamchi","Verification_Note":"Village","PS_Male":4,"PS_Female":1,"Map_Accuracy":"قریه"},"geometry":{"x":7212730.8992083594,"y":3802735.0664235279}},{"attributes":{"OBJECTID":6386,"ولایت":"هلمند","Province":"HELMAND","PC_Code":"3010149","ولسوالي":"کجکی","District":"KAJAKI","د_مرکز_نوم__نام_مرکز":"مرکز ولسوالی عقب دوکان های بازار","Polling_Center_Name":"District Building Office","د_مرکز_ځای__موقعیت_مرکز":"مرکز ولسوالی","Polling_Center_Location":"District Compound","Verification_Note":"Village","PS_Male":4,"PS_Female":0,"Map_Accuracy":"قریه"},"geometry":{"x":7244241.5842656009,"y":3800372.4653286934}},{"attributes":{"OBJECTID":6387,"ولایت":"هلمند","Province":"HELMAND","PC_Code":"3014073","ولسوالي":"مارجه","District":"MARJA","د_مرکز_نوم__نام_مرکز":"مکتب مارجه بلاک ۱۰ ـ د","Polling_Center_Name":"Marja Block 10 - D School","د_مرکز_ځای__موقعیت_مرکز":"مارجه بلاک ۱۰ ـ د","Polling_Center_Location":"Marja Block 10 - D","Verification_Note":"Village","PS_Male":2,"PS_Female":1,"Map_Accuracy":"قریه"},"geometry":{"x":7138865.5256885961,"y":3696333.8066610694}},{"attributes":{"OBJECTID":6388,"ولایت":"بادغيس","Province":"BADGHIS","PC_Code":"3101001","ولسوالي":"قلعه نو","District":"QALA-E-NOW","د_مرکز_نوم__نام_مرکز":"قلعه نو مکتب حنظله ","Polling_Center_Name":"Hanzala School Qala- e- Naw","د_مرکز_ځای__موقعیت_مرکز":"حنظله ","Polling_Center_Location":"Hanzala","Verification_Note":"Building","PS_Male":4,"PS_Female":4,"Map_Accuracy":"تعمیر"},"geometry":{"x":7027582.29276666,"y":4161979.2165194973}},{"attributes":{"OBJECTID":6389,"ولایت":"بادغيس","Province":"BADGHIS","PC_Code":"3101011","ولسوالي":"قلعه نو","District":"QALA-E-NOW","د_مرکز_نوم__نام_مرکز":"مسجد جامع  چشمه سنجد","Polling_Center_Name":"Chushma-e- Senjid Bazar","د_مرکز_ځای__موقعیت_مرکز":"بازار چشمه سنجد","Polling_Center_Location":"Chashma-e- Sanjid Bazar","Verification_Note":"Building","PS_Male":3,"PS_Female":2,"Map_Accuracy":"تعمیر"},"geometry":{"x":7032612.5099742413,"y":4137801.3133146614}},{"attributes":{"OBJECTID":6390,"ولایت":"بادغيس","Province":"BADGHIS","PC_Code":"3102042","ولسوالي":"آبکمری","District":"AB KAMARI","د_مرکز_نوم__نام_مرکز":"لیسه تا شبولاق","Polling_Center_Name":"Tashbolaq High School","د_مرکز_ځای__موقعیت_مرکز":"تا شبولاق","Polling_Center_Location":"Tashbolaq ","Verification_Note":"Building","PS_Male":1,"PS_Female":1,"Map_Accuracy":"تعمیر"},"geometry":{"x":6999736.1807810292,"y":4141386.5182968974}},{"attributes":{"OBJECTID":6391,"ولایت":"بادغيس","Province":"BADGHIS","PC_Code":"3103027","ولسوالي":"مقر","District":"MUQUR","د_مرکز_نوم__نام_مرکز":"مکتب قریه سنجیتک","Polling_Center_Name":"Sanjitak Village School","د_مرکز_ځای__موقعیت_مرکز":"سنجیتک ","Polling_Center_Location":"Sanjitak ","Verification_Note":"Building","PS_Male":1,"PS_Female":1,"Map_Accuracy":"تعمیر"},"geometry":{"x":7040355.5208335221,"y":4161334.8585778922}},{"attributes":{"OBJECTID":6392,"ولایت":"بادغيس","Province":"BADGHIS","PC_Code":"3104063","ولسوالي":"قادس","District":"QADIS","د_مرکز_نوم__نام_مرکز":"مکتب قریه  قادس خوردک","Polling_Center_Name":"Qades Khordak School","د_مرکز_ځای__موقعیت_مرکز":"قریه قادس خوردک","Polling_Center_Location":"Qades Khordak Village","Verification_Note":"Building","PS_Male":2,"PS_Female":1,"Map_Accuracy":"تعمیر"},"geometry":{"x":7071605.6359058879,"y":4130577.6826629341}},{"attributes":{"OBJECTID":6393,"ولایت":"بادغيس","Province":"BADGHIS","PC_Code":"3104073","ولسوالي":"قادس","District":"QADIS","د_مرکز_نوم__نام_مرکز":"مکتب  میر غیاث","Polling_Center_Name":"Mir Gheyas School ","د_مرکز_ځای__موقعیت_مرکز":"میر غیاث ","Polling_Center_Location":"Mir Gheyas ","Verification_Note":"Building","PS_Male":2,"PS_Female":1,"Map_Accuracy":"تعمیر"},"geometry":{"x":7076258.9242044389,"y":4148335.9262960106}},{"attributes":{"OBJECTID":6394,"ولایت":"بادغيس","Province":"BADGHIS","PC_Code":"3106103","ولسوالي":"جوند","District":"JAWAND","د_مرکز_نوم__نام_مرکز":"مسجد قریه کادیان","Polling_Center_Name":"Kadian Village Mosque","د_مرکز_ځای__موقعیت_مرکز":"قریه کادیان","Polling_Center_Location":"Kadian Village","Verification_Note":"Village","PS_Male":1,"PS_Female":1,"Map_Accuracy":"قریه"},"geometry":{"x":7180476.1290711723,"y":4153585.9328911826}},{"attributes":{"OBJECTID":6395,"ولایت":"بادغيس","Province":"BADGHIS","PC_Code":"3106115","ولسوالي":"جوند","District":"JAWAND","د_مرکز_نوم__نام_مرکز":"مسجد یک میراوک","Polling_Center_Name":"Yak Mirawk Mosque ","د_مرکز_ځای__موقعیت_مرکز":" یک میراوک","Polling_Center_Location":"Yak Mirawk ","Verification_Note":"Village","PS_Male":1,"PS_Female":1,"Map_Accuracy":"قریه"},"geometry":{"x":7140228.3957428448,"y":4187240.7254047394}},{"attributes":{"OBJECTID":6396,"ولایت":"بادغيس","Province":"BADGHIS","PC_Code":"3106180","ولسوالي":"جوند","District":"JAWAND","د_مرکز_نوم__نام_مرکز":"مسجد سمبه کیچ","Polling_Center_Name":"Samba keech Mosque ","د_مرکز_ځای__موقعیت_مرکز":"سمبه کیچ ","Polling_Center_Location":"Samba Keech ","Verification_Note":"Village","PS_Male":1,"PS_Female":1,"Map_Accuracy":"قریه"},"geometry":{"x":7171826.6948053166,"y":4176521.3256175518}},{"attributes":{"OBJECTID":6397,"ولایت":"بادغيس","Province":"BADGHIS","PC_Code":"3107135","ولسوالي":"غورماچ","District":"GHORMACH","د_مرکز_نوم__نام_مرکز":"حاجی غیاث الدین","Polling_Center_Name":"Haji Gheyasudeen ","د_مرکز_ځای__موقعیت_مرکز":"حاجی غیاث الدین","Polling_Center_Location":"Haji Gheyasudeen ","Verification_Note":"Village","PS_Male":1,"PS_Female":1,"Map_Accuracy":"قریه"},"geometry":{"x":7092774.018918138,"y":4271225.520645}},{"attributes":{"OBJECTID":6398,"ولایت":"بادغيس","Province":"BADGHIS","PC_Code":"3107136","ولسوالي":"غورماچ","District":"GHORMACH","د_مرکز_نوم__نام_مرکز":"مکتب ابتدای قلعه ولی","Polling_Center_Name":"Qala-e- Wali Primary School","د_مرکز_ځای__موقعیت_مرکز":" قلعه ولی","Polling_Center_Location":"Qala-e- Wali ","Verification_Note":"Village","PS_Male":2,"PS_Female":1,"Map_Accuracy":"قریه"},"geometry":{"x":7097439.9152622148,"y":4269060.068663016}},{"attributes":{"OBJECTID":6399,"ولایت":"بادغيس","Province":"BADGHIS","PC_Code":"3107145","ولسوالي":"غورماچ","District":"GHORMACH","د_مرکز_نوم__نام_مرکز":"شر شر تا چمیر","Polling_Center_Name":"Shar Shar Tajmir ","د_مرکز_ځای__موقعیت_مرکز":"شر شر تا چمیر","Polling_Center_Location":"Shar Shar Tajmir ","Verification_Note":"Village","PS_Male":1,"PS_Female":1,"Map_Accuracy":"قریه"},"geometry":{"x":7092491.8752159439,"y":4241295.6218547672}}]}