{"objectIdFieldName":"OBJECTID","globalIdFieldName":"","geometryType":"esriGeometryPoint","spatialReference":{"wkid":102100,"latestWkid":3857},"fields":[{"name":"OBJECTID","type":"esriFieldTypeOID","alias":"OBJECTID","sqlType":"sqlTypeOther","domain":null,"defaultValue":null},{"name":"ولایت","type":"esriFieldTypeString","alias":"ولایت","sqlType":"sqlTypeOther","length":255,"domain":null,"defaultValue":null},{"name":"Province","type":"esriFieldTypeString","alias":"Province","sqlType":"sqlTypeOther","length":255,"domain":null,"defaultValue":null},{"name":"PC_Code","type":"esriFieldTypeString","alias":"PC_Code","sqlType":"sqlTypeOther","length":255,"domain":null,"defaultValue":null},{"name":"ولسوالي","type":"esriFieldTypeString","alias":"ولسوالي","sqlType":"sqlTypeOther","length":255,"domain":null,"defaultValue":null},{"name":"District","type":"esriFieldTypeString","alias":"District","sqlType":"sqlTypeOther","length":255,"domain":null,"defaultValue":null},{"name":"د_مرکز_نوم__نام_مرکز","type":"esriFieldTypeString","alias":"د_مرکز_نوم__نام_مرکز","sqlType":"sqlTypeOther","length":255,"domain":null,"defaultValue":null},{"name":"Polling_Center_Name","type":"esriFieldTypeString","alias":"Polling_Center_Name","sqlType":"sqlTypeOther","length":255,"domain":null,"defaultValue":null},{"name":"د_مرکز_ځای__موقعیت_مرکز","type":"esriFieldTypeString","alias":"د_مرکز_ځای__موقعیت_مرکز","sqlType":"sqlTypeOther","length":255,"domain":null,"defaultValue":null},{"name":"Polling_Center_Location","type":"esriFieldTypeString","alias":"Polling_Center_Location","sqlType":"sqlTypeOther","length":255,"domain":null,"defaultValue":null},{"name":"Verification_Note","type":"esriFieldTypeString","alias":"Verification_Note","sqlType":"sqlTypeOther","length":250,"domain":null,"defaultValue":null},{"name":"PS_Male","type":"esriFieldTypeSmallInteger","alias":"PS_Male","sqlType":"sqlTypeOther","domain":null,"defaultValue":null},{"name":"PS_Female","type":"esriFieldTypeSmallInteger","alias":"PS_Female","sqlType":"sqlTypeOther","domain":null,"defaultValue":null},{"name":"Map_Accuracy","type":"esriFieldTypeString","alias":"Map_Accuracy","sqlType":"sqlTypeOther","length":10,"domain":null,"defaultValue":null}],"features":[{"attributes":{"OBJECTID":6400,"ولایت":"بادغيس","Province":"BADGHIS","PC_Code":"3107146","ولسوالي":"غورماچ","District":"GHORMACH","د_مرکز_نوم__نام_مرکز":"ترناوی","Polling_Center_Name":"Tarnawe ","د_مرکز_ځای__موقعیت_مرکز":"ترناوی","Polling_Center_Location":"Tarnawe ","Verification_Note":"Village","PS_Male":1,"PS_Female":1,"Map_Accuracy":"قریه"},"geometry":{"x":7120417.8600494154,"y":4242707.2875584289}},{"attributes":{"OBJECTID":6401,"ولایت":"هرات","Province":"HERAT","PC_Code":"3201001","ولسوالي":"هرات","District":"HERAT","د_مرکز_نوم__نام_مرکز":"لیسه سلطان","Polling_Center_Name":"Sultan High School","د_مرکز_ځای__موقعیت_مرکز":" ناحیه اول","Polling_Center_Location":"D01 - Nahia 1","Verification_Note":"Building","PS_Male":4,"PS_Female":5,"Map_Accuracy":"تعمیر"},"geometry":{"x":6925685.924511373,"y":4075886.0860350654}},{"attributes":{"OBJECTID":6402,"ولایت":"هرات","Province":"HERAT","PC_Code":"3201424","ولسوالي":"هرات","District":"HERAT","د_مرکز_نوم__نام_مرکز":"مسجد الرضا","Polling_Center_Name":"Alreza Mosque","د_مرکز_ځای__موقعیت_مرکز":"ناحیه سوم","Polling_Center_Location":"D03 - Nahia 3","Verification_Note":"Village","PS_Male":4,"PS_Female":4,"Map_Accuracy":"قریه"},"geometry":{"x":6924500.4621032141,"y":4074300.8259650916}},{"attributes":{"OBJECTID":6403,"ولایت":"هرات","Province":"HERAT","PC_Code":"3202032","ولسوالي":"انجیل","District":"ENJIL","د_مرکز_نوم__نام_مرکز":"مسجد شیخ محمد عمر","Polling_Center_Name":"Shaikh Mohammad Umar Mosque","د_مرکز_ځای__موقعیت_مرکز":" جغاره اول","Polling_Center_Location":"First Cheghara ","Verification_Note":"Building","PS_Male":2,"PS_Female":0,"Map_Accuracy":"تعمیر"},"geometry":{"x":6924605.990754094,"y":4069584.7401784137}},{"attributes":{"OBJECTID":6404,"ولایت":"هرات","Province":"HERAT","PC_Code":"3202045","ولسوالي":"انجیل","District":"ENJIL","د_مرکز_نوم__نام_مرکز":"مسجد جامع بلند آب","Polling_Center_Name":"Baland Aab Mosque ","د_مرکز_ځای__موقعیت_مرکز":"قریه بلند آب","Polling_Center_Location":"Baland Aab Village","Verification_Note":"Building","PS_Male":1,"PS_Female":1,"Map_Accuracy":"تعمیر"},"geometry":{"x":6929943.1124581955,"y":4068345.9899286032}},{"attributes":{"OBJECTID":6405,"ولایت":"هرات","Province":"HERAT","PC_Code":"3202056","ولسوالي":"انجیل","District":"ENJIL","د_مرکز_نوم__نام_مرکز":"مکتب و مسجد چا هک","Polling_Center_Name":"Chahak School and Mosque ","د_مرکز_ځای__موقعیت_مرکز":"قریه چا هک","Polling_Center_Location":"Chahak Village ","Verification_Note":"Village","PS_Male":2,"PS_Female":1,"Map_Accuracy":"قریه"},"geometry":{"x":6910790.9770062678,"y":4100363.475759387}},{"attributes":{"OBJECTID":6406,"ولایت":"هرات","Province":"HERAT","PC_Code":"3203093","ولسوالي":"گذره","District":"GUZARA","د_مرکز_نوم__نام_مرکز":"لیسه نشین بالا","Polling_Center_Name":"Neshin Bala School ","د_مرکز_ځای__موقعیت_مرکز":"قریه نشین","Polling_Center_Location":"Neshin Bala Village ","Verification_Note":"Building","PS_Male":1,"PS_Female":1,"Map_Accuracy":"تعمیر"},"geometry":{"x":6943758.9388383105,"y":4060116.04769928}},{"attributes":{"OBJECTID":6407,"ولایت":"هرات","Province":"HERAT","PC_Code":"3203104","ولسوالي":"گذره","District":"GUZARA","د_مرکز_نوم__نام_مرکز":"لیسه کلاته خلیل","Polling_Center_Name":"Kalata Khalil High School ","د_مرکز_ځای__موقعیت_مرکز":"قریه کلاته خلیل","Polling_Center_Location":"Kalata Khalil Village ","Verification_Note":"Building","PS_Male":1,"PS_Female":1,"Map_Accuracy":"تعمیر"},"geometry":{"x":6911548.8846273758,"y":4053833.8817690611}},{"attributes":{"OBJECTID":6408,"ولایت":"هرات","Province":"HERAT","PC_Code":"3204154","ولسوالي":"کرخ ","District":"KARRUKH","د_مرکز_نوم__نام_مرکز":"مکتب سنجور ","Polling_Center_Name":"Sanjoor School ","د_مرکز_ځای__موقعیت_مرکز":"قریه سنجور ","Polling_Center_Location":"Sanjoor Village ","Verification_Note":"Building","PS_Male":1,"PS_Female":1,"Map_Accuracy":"تعمیر"},"geometry":{"x":6978838.2796411254,"y":4087019.9469717667}},{"attributes":{"OBJECTID":6409,"ولایت":"هرات","Province":"HERAT","PC_Code":"3205268","ولسوالي":"زنده جان ","District":"ZENDAJAN","د_مرکز_نوم__نام_مرکز":"تعمیر پهلوی کلینیک ده کرنیل","Polling_Center_Name":"Next to Clinic Building","د_مرکز_ځای__موقعیت_مرکز":" ده کرنیل","Polling_Center_Location":"Deh Karnail ","Verification_Note":"Village","PS_Male":2,"PS_Female":2,"Map_Accuracy":"قریه"},"geometry":{"x":6904131.6881065331,"y":4104557.2147258595}},{"attributes":{"OBJECTID":6410,"ولایت":"هرات","Province":"HERAT","PC_Code":"3206121","ولسوالي":"پشتون زرغون","District":"PASHTUN ZARGHUN","د_مرکز_نوم__نام_مرکز":" مکتب متوسطه بند آباد","Polling_Center_Name":"Band Abad Secodary School ","د_مرکز_ځای__موقعیت_مرکز":"قریه بند آباد","Polling_Center_Location":"Band Abad Village ","Verification_Note":"Village","PS_Male":2,"PS_Female":1,"Map_Accuracy":"قریه"},"geometry":{"x":6982399.9467490576,"y":4060943.5074806064}},{"attributes":{"OBJECTID":6411,"ولایت":"هرات","Province":"HERAT","PC_Code":"3206142","ولسوالي":"پشتون زرغون","District":"PASHTUN ZARGHUN","د_مرکز_نوم__نام_مرکز":"مکتب تاقجه ","Polling_Center_Name":"Taqcha School ","د_مرکز_ځای__موقعیت_مرکز":"قریه تاقجه ","Polling_Center_Location":"Taqcha Village ","Verification_Note":"Village","PS_Male":1,"PS_Female":1,"Map_Accuracy":"قریه"},"geometry":{"x":7007345.82866396,"y":4040651.1569286287}},{"attributes":{"OBJECTID":6412,"ولایت":"هرات","Province":"HERAT","PC_Code":"3207167","ولسوالي":"کشک (رباط سنگی)","District":"KUSHK (RUBAT-E-SANGI)","د_مرکز_نوم__نام_مرکز":"مكتب خواجه ملال","Polling_Center_Name":"Khwaja Malal School ","د_مرکز_ځای__موقعیت_مرکز":"قریه  خواجه ملال","Polling_Center_Location":"Khwaja Malal Village ","Verification_Note":"Building","PS_Male":1,"PS_Female":1,"Map_Accuracy":"تعمیر"},"geometry":{"x":6923274.5161358342,"y":4132909.6610294282}},{"attributes":{"OBJECTID":6413,"ولایت":"هرات","Province":"HERAT","PC_Code":"3208200","ولسوالي":"گلران ","District":"GULRAN","د_مرکز_نوم__نام_مرکز":"مکتب ابتدایی قشاوری","Polling_Center_Name":"Qashawari Primari School ","د_مرکز_ځای__موقعیت_مرکز":"قشاوری علیا ","Polling_Center_Location":"Qashawari Ulya","Verification_Note":"Building","PS_Male":2,"PS_Female":1,"Map_Accuracy":"تعمیر"},"geometry":{"x":6898511.6134075373,"y":4142928.219038941}},{"attributes":{"OBJECTID":6414,"ولایت":"هرات","Province":"HERAT","PC_Code":"3208211","ولسوالي":"گلران ","District":"GULRAN","د_مرکز_نوم__نام_مرکز":"مسجد بزان علیا","Polling_Center_Name":"Buzan Ulya Mosque ","د_مرکز_ځای__موقعیت_مرکز":"بزان ","Polling_Center_Location":"Bazan","Verification_Note":"Building","PS_Male":1,"PS_Female":1,"Map_Accuracy":"تعمیر"},"geometry":{"x":6881117.9240467735,"y":4146404.5716683343}},{"attributes":{"OBJECTID":6415,"ولایت":"هرات","Province":"HERAT","PC_Code":"3208223","ولسوالي":"گلران ","District":"GULRAN","د_مرکز_نوم__نام_مرکز":"مسجد خواجه محمد شورآب","Polling_Center_Name":"Khwaja Mohammad Shorab Mosque","د_مرکز_ځای__موقعیت_مرکز":"خواجه محمد شورآب","Polling_Center_Location":"Khwaja Mohammad Shorab","Verification_Note":"Village","PS_Male":2,"PS_Female":1,"Map_Accuracy":"قریه"},"geometry":{"x":6884032.224901136,"y":4126411.8297157362}},{"attributes":{"OBJECTID":6416,"ولایت":"هرات","Province":"HERAT","PC_Code":"3209290","ولسوالي":"ادرسکن ","District":"ADRASKAN","د_مرکز_نوم__نام_مرکز":"مکتب متوسطه تزربید","Polling_Center_Name":"Tazrbed Secondary School ","د_مرکز_ځای__موقعیت_مرکز":"قریه تزربید ","Polling_Center_Location":"Tazrbed Villag ","Verification_Note":"Building","PS_Male":1,"PS_Female":1,"Map_Accuracy":"تعمیر"},"geometry":{"x":6974316.42737855,"y":3986869.1896562278}},{"attributes":{"OBJECTID":6417,"ولایت":"هرات","Province":"HERAT","PC_Code":"3209461","ولسوالي":"ادرسکن ","District":"ADRASKAN","د_مرکز_نوم__نام_مرکز":"مسجدقلعه ملا عطا","Polling_Center_Name":"Qala-e- Mullah Ata Mosque ","د_مرکز_ځای__موقعیت_مرکز":"قلعه ملا عطا ","Polling_Center_Location":"Qala-e- Mullah Ata","Verification_Note":"Building","PS_Male":1,"PS_Female":1,"Map_Accuracy":"تعمیر"},"geometry":{"x":7009731.9218740948,"y":3978201.743458651}},{"attributes":{"OBJECTID":6418,"ولایت":"هرات","Province":"HERAT","PC_Code":"3211253","ولسوالي":"غوریان ","District":"GHORYAN","د_مرکز_نوم__نام_مرکز":"مسجد جامع روشنان","Polling_Center_Name":"Roshnan  Mosque ","د_مرکز_ځای__موقعیت_مرکز":"قریه روشنان","Polling_Center_Location":"Roshnan Village ","Verification_Note":"Building","PS_Male":2,"PS_Female":1,"Map_Accuracy":"تعمیر"},"geometry":{"x":6841379.7924229875,"y":4085403.632006824}},{"attributes":{"OBJECTID":6419,"ولایت":"هرات","Province":"HERAT","PC_Code":"3213231","ولسوالي":"کهسان ","District":"KOHSAN","د_مرکز_نوم__نام_مرکز":"مسجد قدوس آباد","Polling_Center_Name":"Qodoos Abad Mosque","د_مرکز_ځای__موقعیت_مرکز":"قدوس آباد اول","Polling_Center_Location":"Qodoos Abad-e- Awal","Verification_Note":"Building","PS_Male":2,"PS_Female":2,"Map_Accuracy":"تعمیر"},"geometry":{"x":6803142.1484607458,"y":4118030.7351071909}},{"attributes":{"OBJECTID":6420,"ولایت":"هرات","Province":"HERAT","PC_Code":"3214303","ولسوالي":"شیندند","District":"SHINDAND","د_مرکز_نوم__نام_مرکز":"مسجد خطیب نصرآبادی","Polling_Center_Name":"Khatib Naseer Abadi Mosque ","د_مرکز_ځای__موقعیت_مرکز":"نصرآباد ","Polling_Center_Location":"Naseer Abad ","Verification_Note":"Building","PS_Male":2,"PS_Female":2,"Map_Accuracy":"تعمیر"},"geometry":{"x":6917646.6357141472,"y":3935168.5237309337}},{"attributes":{"OBJECTID":6421,"ولایت":"هرات","Province":"HERAT","PC_Code":"3214313","ولسوالي":"شیندند","District":"SHINDAND","د_مرکز_نوم__نام_مرکز":"مسجد جامع منه های كاه","Polling_Center_Name":"Manaha-e-Kah Mosque ","د_مرکز_ځای__موقعیت_مرکز":"منه های کاه ","Polling_Center_Location":"Manaha-e- Kah ","Verification_Note":"Building","PS_Male":1,"PS_Female":1,"Map_Accuracy":"تعمیر"},"geometry":{"x":6897459.2412429862,"y":3934901.7851127759}},{"attributes":{"OBJECTID":6422,"ولایت":"هرات","Province":"HERAT","PC_Code":"3214325","ولسوالي":"شیندند","District":"SHINDAND","د_مرکز_نوم__نام_مرکز":"مسجد بازار قنادی","Polling_Center_Name":"Bazar Qanadi Mosque ","د_مرکز_ځای__موقعیت_مرکز":"بازار قنادی ","Polling_Center_Location":"Bazar Qanadi ","Verification_Note":"Building","PS_Male":1,"PS_Female":1,"Map_Accuracy":"تعمیر"},"geometry":{"x":6928482.62745567,"y":3944885.9914992154}},{"attributes":{"OBJECTID":6423,"ولایت":"هرات","Province":"HERAT","PC_Code":"3214335","ولسوالي":"شیندند","District":"SHINDAND","د_مرکز_نوم__نام_مرکز":"مكتب چهار قلعه اول","Polling_Center_Name":"Chahar Qala-e-Awal School ","د_مرکز_ځای__موقعیت_مرکز":"چهار قلعه اول ","Polling_Center_Location":"Chahar Qala-e-Awal ","Verification_Note":"Village","PS_Male":1,"PS_Female":1,"Map_Accuracy":"قریه"},"geometry":{"x":6924174.4128806554,"y":3925379.9506367519}},{"attributes":{"OBJECTID":6424,"ولایت":"هرات","Province":"HERAT","PC_Code":"3214347","ولسوالي":"شیندند","District":"SHINDAND","د_مرکز_نوم__نام_مرکز":"مسجد کاریزک","Polling_Center_Name":"Karizk  Mosque ","د_مرکز_ځای__موقعیت_مرکز":"کاریزک اول ","Polling_Center_Location":"Karizk Awal ","Verification_Note":"Building","PS_Male":1,"PS_Female":1,"Map_Accuracy":"تعمیر"},"geometry":{"x":6762589.1414664313,"y":3910908.8672868386}},{"attributes":{"OBJECTID":6425,"ولایت":"هرات","Province":"HERAT","PC_Code":"3215354","ولسوالي":"فرسی ","District":"FERSI","د_مرکز_نوم__نام_مرکز":"مکتب دخترانه","Polling_Center_Name":"Girls School ","د_مرکز_ځای__موقعیت_مرکز":"مرکز ولسوالی ","Polling_Center_Location":"District Center ","Verification_Note":"Village","PS_Male":2,"PS_Female":2,"Map_Accuracy":"قریه"},"geometry":{"x":7043569.0298887864,"y":4000324.7106997818}},{"attributes":{"OBJECTID":6426,"ولایت":" فراه","Province":"FARAH","PC_Code":"3301029","ولسوالي":"فراه","District":"FARAH","د_مرکز_نوم__نام_مرکز":"لیسه نسوان ملالی میوند","Polling_Center_Name":"Malalai Maiwand Girls High School","د_مرکز_ځای__موقعیت_مرکز":"ناحیه اول ","Polling_Center_Location":"Nahia 1","Verification_Note":"Building","PS_Male":2,"PS_Female":2,"Map_Accuracy":"تعمیر"},"geometry":{"x":6915883.8960302211,"y":3813166.0960828736}},{"attributes":{"OBJECTID":6427,"ولایت":" فراه","Province":"FARAH","PC_Code":"3302039","ولسوالي":"پشت رود","District":"PUSHTRUD","د_مرکز_نوم__نام_مرکز":"مدرسه قلعه مساو","Polling_Center_Name":"Qala Masaw Madrassa ","د_مرکز_ځای__موقعیت_مرکز":"قلعه مساو","Polling_Center_Location":"Qala-e-Masaw ","Verification_Note":"Building","PS_Male":2,"PS_Female":1,"Map_Accuracy":"تعمیر"},"geometry":{"x":6905656.6660560481,"y":3825577.2066213489}},{"attributes":{"OBJECTID":6428,"ولایت":" فراه","Province":"FARAH","PC_Code":"3302233","ولسوالي":"پشت رود","District":"PUSHTRUD","د_مرکز_نوم__نام_مرکز":"مکتب ده عشق ","Polling_Center_Name":"Deh Eshq School","د_مرکز_ځای__موقعیت_مرکز":"ده عشق","Polling_Center_Location":"Deh Eshq ","Verification_Note":"Village","PS_Male":1,"PS_Female":1,"Map_Accuracy":"قریه"},"geometry":{"x":6931848.265393097,"y":3832797.9505205378}},{"attributes":{"OBJECTID":6429,"ولایت":" فراه","Province":"FARAH","PC_Code":"3303059","ولسوالي":"خاک سفید ","District":"KHAK-E-SAFED","د_مرکز_نوم__نام_مرکز":"دفتر شورا","Polling_Center_Name":"Shura Office ","د_مرکز_ځای__موقعیت_مرکز":"ننگ آباد","Polling_Center_Location":"Nang Abad ","Verification_Note":"Village","PS_Male":1,"PS_Female":1,"Map_Accuracy":"قریه"},"geometry":{"x":6913231.4564668238,"y":3840229.0275297165}},{"attributes":{"OBJECTID":6430,"ولایت":" فراه","Province":"FARAH","PC_Code":"3304076","ولسوالي":"قلعه کاه ","District":"QALA-E-KAH","د_مرکز_نوم__نام_مرکز":"مسجد دزد باد","Polling_Center_Name":"Duzd Bad  Mosque ","د_مرکز_ځای__موقعیت_مرکز":" دزد باد","Polling_Center_Location":"Duzd Bad","Verification_Note":"Building","PS_Male":2,"PS_Female":1,"Map_Accuracy":"تعمیر"},"geometry":{"x":6845146.2384134009,"y":3804605.7185928449}},{"attributes":{"OBJECTID":6431,"ولایت":" فراه","Province":"FARAH","PC_Code":"3305087","ولسوالي":"شیب کوه ","District":"SHIB KOH","د_مرکز_نوم__نام_مرکز":"مکتب ابتدائیه شوشک","Polling_Center_Name":"Shoshak Primary School ","د_مرکز_ځای__موقعیت_مرکز":" شوشک","Polling_Center_Location":"Shoshak ","Verification_Note":"Building","PS_Male":1,"PS_Female":1,"Map_Accuracy":"تعمیر"},"geometry":{"x":6846237.4699857943,"y":3783123.168093726}},{"attributes":{"OBJECTID":6432,"ولایت":" فراه","Province":"FARAH","PC_Code":"3306129","ولسوالي":"بالا بلوک ","District":"BALA BULUK","د_مرکز_نوم__نام_مرکز":"مکتب ابتدائیه کنسک","Polling_Center_Name":"Kanisak Primary School ","د_مرکز_ځای__موقعیت_مرکز":" کنسک","Polling_Center_Location":"Kanisak ","Verification_Note":"Building","PS_Male":1,"PS_Female":1,"Map_Accuracy":"تعمیر"},"geometry":{"x":6939003.2399478219,"y":3835485.4855255485}},{"attributes":{"OBJECTID":6433,"ولایت":" فراه","Province":"FARAH","PC_Code":"3307066","ولسوالي":"انار دره ","District":"ANAR DARA","د_مرکز_نوم__نام_مرکز":" مسجد  کلاته سادات","Polling_Center_Name":"Kalata Sadat Mosque  ","د_مرکز_ځای__موقعیت_مرکز":"کلاته سادات","Polling_Center_Location":"Kalata Sadat ","Verification_Note":"Village","PS_Male":2,"PS_Female":1,"Map_Accuracy":"قریه"},"geometry":{"x":6878545.1792200357,"y":3863680.5513726845}},{"attributes":{"OBJECTID":6434,"ولایت":" فراه","Province":"FARAH","PC_Code":"3309102","ولسوالي":"لاش جوین ","District":"LASH-E-JUWAYN","د_مرکز_نوم__نام_مرکز":"  مسجد کندوکروغ","Polling_Center_Name":"Kando Karogh Mosque ","د_مرکز_ځای__موقعیت_مرکز":"کندوکروغ ","Polling_Center_Location":"Kando Karogh ","Verification_Note":"Building","PS_Male":1,"PS_Female":1,"Map_Accuracy":"تعمیر"},"geometry":{"x":6856613.7968331613,"y":3697722.738373138}},{"attributes":{"OBJECTID":6435,"ولایت":" فراه","Province":"FARAH","PC_Code":"3311194","ولسوالي":"پرچمن","District":"PUR CHAMAN","د_مرکز_نوم__نام_مرکز":"لیسه تحت پرچمن","Polling_Center_Name":"Takht-e-Parcham High School ","د_مرکز_ځای__موقعیت_مرکز":" پرچمن","Polling_Center_Location":"Purchaman  ","Verification_Note":"Building","PS_Male":1,"PS_Female":1,"Map_Accuracy":"تعمیر"},"geometry":{"x":7109542.96771184,"y":3914159.9051983207}},{"attributes":{"OBJECTID":6436,"ولایت":" فراه","Province":"FARAH","PC_Code":"3311217","ولسوالي":"پرچمن","District":"PUR CHAMAN","د_مرکز_نوم__نام_مرکز":"مسجد کاوان مغل","Polling_Center_Name":"Kawan Mughol Mosque","د_مرکز_ځای__موقعیت_مرکز":" کاوان مغل","Polling_Center_Location":"Kawan Mughol ","Verification_Note":"Building","PS_Male":1,"PS_Female":1,"Map_Accuracy":"تعمیر"},"geometry":{"x":7153774.2500938922,"y":3922697.8046692908}},{"attributes":{"OBJECTID":6437,"ولایت":"نيمروز","Province":"NIMROZ","PC_Code":"3402012","ولسوالي":"کنگ","District":"KANG","د_مرکز_نوم__نام_مرکز":"مکتب دشت","Polling_Center_Name":"Dasht School ","د_مرکز_ځای__موقعیت_مرکز":"دشت ","Polling_Center_Location":"Dasht ","Verification_Note":"Building","PS_Male":1,"PS_Female":1,"Map_Accuracy":"تعمیر"},"geometry":{"x":6890804.2592943385,"y":3656179.0417381525}},{"attributes":{"OBJECTID":6438,"ولایت":"نيمروز","Province":"NIMROZ","PC_Code":"3405044","ولسوالي":"خاشرود","District":"KHASHROD","د_مرکز_نوم__نام_مرکز":"مسجد قریه","Polling_Center_Name":"Dehmazang Village Mosque","د_مرکز_ځای__موقعیت_مرکز":"دهمزنگ","Polling_Center_Location":"Dehmazang Village","Verification_Note":"Village","PS_Male":2,"PS_Female":1,"Map_Accuracy":"قریه"},"geometry":{"x":7028320.08272941,"y":3759836.133316718}},{"attributes":{"OBJECTID":6439,"ولایت":"کابل","Province":"KABUL","PC_Code":"0101073","ولسوالي":"کابل - ناحیه 05","District":"KABUL-D05","د_مرکز_نوم__نام_مرکز":" ليسه قلعه کاشف","Polling_Center_Name":"Qala- e- Kashif High School","د_مرکز_ځای__موقعیت_مرکز":"بازار کمپني","Polling_Center_Location":"Bazar Company ","Verification_Note":"Building","PS_Male":3,"PS_Female":3,"Map_Accuracy":"تعمیر"},"geometry":{"x":7687069.0915253721,"y":4099498.8399958909}},{"attributes":{"OBJECTID":6440,"ولایت":"کابل","Province":"KABUL","PC_Code":"0101074","ولسوالي":"کابل - ناحیه 05","District":"KABUL-D05","د_مرکز_نوم__نام_مرکز":" ليسه ابوذر غفاري","Polling_Center_Name":"Abu Zar Ghafari High School","د_مرکز_ځای__موقعیت_مرکز":"چهار راهي قمبر","Polling_Center_Location":"Chahar Rahi-e-Qambar","Verification_Note":"Building","PS_Male":4,"PS_Female":3,"Map_Accuracy":"تعمیر"},"geometry":{"x":7690207.9894711711,"y":4100849.5186637938}},{"attributes":{"OBJECTID":6441,"ولایت":"کابل","Province":"KABUL","PC_Code":"0101112","ولسوالي":"کابل - ناحیه 06","District":"KABUL-D06","د_مرکز_نوم__نام_مرکز":" انستيتوت توبرکلوز","Polling_Center_Name":"Tubercloses Institute","د_مرکز_ځای__موقعیت_مرکز":"دارالامان","Polling_Center_Location":"Darul Aman","Verification_Note":"Building","PS_Male":3,"PS_Female":3,"Map_Accuracy":"تعمیر"},"geometry":{"x":7694176.4870165437,"y":4092911.8116142154}},{"attributes":{"OBJECTID":6442,"ولایت":"کابل","Province":"KABUL","PC_Code":"0101113","ولسوالي":"کابل - ناحیه 06","District":"KABUL-D06","د_مرکز_نوم__نام_مرکز":" مدرسه باقرالعلوم","Polling_Center_Name":"Baqerul Ulum Madrassa","د_مرکز_ځای__موقعیت_مرکز":"قلعه عين الله","Polling_Center_Location":"Qala-e-Ainullah","Verification_Note":"Building","PS_Male":3,"PS_Female":3,"Map_Accuracy":"تعمیر"},"geometry":{"x":7693734.7067117691,"y":4094229.9654945061}},{"attributes":{"OBJECTID":6443,"ولایت":"کابل","Province":"KABUL","PC_Code":"0101207","ولسوالي":"کابل - ناحیه 10","District":"KABUL-D10","د_مرکز_نوم__نام_مرکز":" مسجد استانه","Polling_Center_Name":"Astana Mosque","د_مرکز_ځای__موقعیت_مرکز":"نو آباد چهار قلعه","Polling_Center_Location":"Naw Abad Chahar Qala","Verification_Note":"Building","PS_Male":1,"PS_Female":1,"Map_Accuracy":"تعمیر"},"geometry":{"x":7700188.7046593651,"y":4102815.7995996922}},{"attributes":{"OBJECTID":6444,"ولایت":"کابل","Province":"KABUL","PC_Code":"0101246","ولسوالي":"کابل - ناحیه 11","District":"KABUL-D11","د_مرکز_نوم__نام_مرکز":" ليسه آزاد خان","Polling_Center_Name":"Azad Khan High School","د_مرکز_ځای__موقعیت_مرکز":"سرک اول خيرخانه","Polling_Center_Location":"Sarak-e-Awal Khair Khana","Verification_Note":"Building","PS_Male":3,"PS_Female":2,"Map_Accuracy":"تعمیر"},"geometry":{"x":7694994.7420468181,"y":4105226.9293237776}},{"attributes":{"OBJECTID":6445,"ولایت":"کابل","Province":"KABUL","PC_Code":"0101247","ولسوالي":"کابل - ناحیه 11","District":"KABUL-D11","د_مرکز_نوم__نام_مرکز":" ليسه بي بي سروري سنگري","Polling_Center_Name":"Bi Bi Sarwari Sangari High School","د_مرکز_ځای__موقعیت_مرکز":"سرک اول خيرخانه","Polling_Center_Location":"Sarak-e-Awal Khair Khana","Verification_Note":"Building","PS_Male":3,"PS_Female":3,"Map_Accuracy":"تعمیر"},"geometry":{"x":7694466.6301373467,"y":4105736.35960152}},{"attributes":{"OBJECTID":6446,"ولایت":"کابل","Province":"KABUL","PC_Code":"0101292","ولسوالي":"کابل - ناحیه 15","District":"KABUL-D15","د_مرکز_نوم__نام_مرکز":" مسجد حضرت خدر","Polling_Center_Name":"Hazrat-e-Kheder Mosque","د_مرکز_ځای__موقعیت_مرکز":"حصه سوم خير خانه","Polling_Center_Location":"Hesa Sewom-e-Khair Khana","Verification_Note":"Building","PS_Male":3,"PS_Female":2,"Map_Accuracy":"تعمیر"},"geometry":{"x":7697526.3331709988,"y":4104922.3928873539}},{"attributes":{"OBJECTID":6447,"ولایت":"کابل","Province":"KABUL","PC_Code":"0101310","ولسوالي":"کابل - ناحیه 15","District":"KABUL-D15","د_مرکز_نوم__نام_مرکز":" مسجد شهدا پنجصد فاميلي","Polling_Center_Name":"Panjsad Family Shuhada Mosque","د_مرکز_ځای__موقعیت_مرکز":"تپه پنجصد فاميلي","Polling_Center_Location":"Tapa-e- 500 Families ","Verification_Note":"Building","PS_Male":2,"PS_Female":2,"Map_Accuracy":"تعمیر"},"geometry":{"x":7697643.8987984248,"y":4108496.4685172662}},{"attributes":{"OBJECTID":6448,"ولایت":"کاپيسا","Province":"KAPISA","PC_Code":"0205065","ولسوالي":"نجراب ","District":"NIJRAB","د_مرکز_نوم__نام_مرکز":"مکتب نسوان زرشوی (کوچی)","Polling_Center_Name":"Zarshoy Girls School( Kuchi)","د_مرکز_ځای__موقعیت_مرکز":"زرشوی ","Polling_Center_Location":"Zarshoy","Verification_Note":"Building","PS_Male":1,"PS_Female":1,"Map_Accuracy":"تعمیر"},"geometry":{"x":7745485.0518543124,"y":4159454.4068168849}},{"attributes":{"OBJECTID":6449,"ولایت":"کاپيسا","Province":"KAPISA","PC_Code":"0205066","ولسوالي":"نجراب ","District":"NIJRAB","د_مرکز_نوم__نام_مرکز":"منزل سید اکبر","Polling_Center_Name":"Sayed Akbar House ","د_مرکز_ځای__موقعیت_مرکز":"سابات ","Polling_Center_Location":"Sabat ","Verification_Note":"Building","PS_Male":1,"PS_Female":1,"Map_Accuracy":"تعمیر"},"geometry":{"x":7747700.7260559872,"y":4160979.0340990946}},{"attributes":{"OBJECTID":6450,"ولایت":"وردک","Province":"WARDAK","PC_Code":"0405121","ولسوالي":"سید آباد","District":"SAYYD ABAD","د_مرکز_نوم__نام_مرکز":"مکتب قریه موسی خیل ","Polling_Center_Name":"Musa Khel Village School","د_مرکز_ځای__موقعیت_مرکز":"موسی خیل","Polling_Center_Location":"Musa Khel","Verification_Note":"Village","PS_Male":1,"PS_Female":1,"Map_Accuracy":"قریه"},"geometry":{"x":7638829.5404834747,"y":4027413.8274556622}},{"attributes":{"OBJECTID":6451,"ولایت":"وردک","Province":"WARDAK","PC_Code":"0405122","ولسوالي":"سید آباد","District":"SAYYD ABAD","د_مرکز_نوم__نام_مرکز":"خیمه دراخر قریه هوسی خیل ","Polling_Center_Name":"Hosai Khel Village Tent","د_مرکز_ځای__موقعیت_مرکز":"هوسی خیل","Polling_Center_Location":"Husai Khel","Verification_Note":"Village","PS_Male":1,"PS_Female":1,"Map_Accuracy":"قریه"},"geometry":{"x":7634329.0949589834,"y":4025994.4707865566}},{"attributes":{"OBJECTID":6452,"ولایت":"ننگرهار","Province":"NANGARHAR","PC_Code":"0614488","ولسوالي":"ګوشته","District":"GOSHTA","د_مرکز_نوم__نام_مرکز":"ګوشتی انجونو متوسطه","Polling_Center_Name":"Goshta Girls Secondary School","د_مرکز_ځای__موقعیت_مرکز":"ګوشته","Polling_Center_Location":"Goshta","Verification_Note":"Village","PS_Male":0,"PS_Female":2,"Map_Accuracy":"قریه"},"geometry":{"x":7879380.7721279413,"y":4076204.9381072596}},{"attributes":{"OBJECTID":6453,"ولایت":"ننگرهار","Province":"NANGARHAR","PC_Code":"0614489","ولسوالي":"ګوشته","District":"GOSHTA","د_مرکز_نوم__نام_مرکز":"ملا رحمت بابا د انجونو لیسه","Polling_Center_Name":"Mula Rahmat Baba Girls High School","د_مرکز_ځای__موقعیت_مرکز":"خونیرو کلی","Polling_Center_Location":"Khonero Village","Verification_Note":"Village","PS_Male":0,"PS_Female":2,"Map_Accuracy":"قریه"},"geometry":{"x":7881088.4019847587,"y":4075633.559149228}},{"attributes":{"OBJECTID":6454,"ولایت":"ننگرهار","Province":"NANGARHAR","PC_Code":"0615365","ولسوالي":"اچین","District":"ACHIN","د_مرکز_نوم__نام_مرکز":"بندر خرکاني ميدان","Polling_Center_Name":"Bandar Kharkaani Maidan","د_مرکز_ځای__موقعیت_مرکز":"بندر خرکاني کلی","Polling_Center_Location":"Bandar Kharkaani Village","Verification_Note":"Village","PS_Male":0,"PS_Female":2,"Map_Accuracy":"قریه"},"geometry":{"x":7876348.7887606882,"y":4033800.724031046}},{"attributes":{"OBJECTID":6455,"ولایت":"ننگرهار","Province":"NANGARHAR","PC_Code":"0615366","ولسوالي":"اچین","District":"ACHIN","د_مرکز_نوم__نام_مرکز":"چهل ګزي لیسه","Polling_Center_Name":"Chehl Gaze High School","د_مرکز_ځای__موقعیت_مرکز":"چهل ګزي","Polling_Center_Location":"Chehl Gaze","Verification_Note":"Village","PS_Male":2,"PS_Female":1,"Map_Accuracy":"قریه"},"geometry":{"x":7869379.41162698,"y":4051614.41935803}},{"attributes":{"OBJECTID":6456,"ولایت":"ننگرهار","Province":"NANGARHAR","PC_Code":"0621267","ولسوالي":"حصارک","District":"HESARAK","د_مرکز_نوم__نام_مرکز":"بولي جومات","Polling_Center_Name":"Baawlay Mosque","د_مرکز_ځای__موقعیت_مرکز":"باولۍ","Polling_Center_Location":"Baawlay","Verification_Note":"Village","PS_Male":1,"PS_Female":0,"Map_Accuracy":"قریه"},"geometry":{"x":7776244.1444451474,"y":4078214.2009690404}},{"attributes":{"OBJECTID":6457,"ولایت":"لغمان","Province":"LAGHMAN","PC_Code":"0701013","ولسوالي":"مهترلام","District":"MEHTARLAM","د_مرکز_نوم__نام_مرکز":"د چلمټيو ښوونځی","Polling_Center_Name":"Chalmatayo School","د_مرکز_ځای__موقعیت_مرکز":"چلمټیو کلی","Polling_Center_Location":"Chalmatayo Village","Verification_Note":"Village","PS_Male":3,"PS_Female":1,"Map_Accuracy":"قریه"},"geometry":{"x":7817037.856461212,"y":4119996.2609439492}},{"attributes":{"OBJECTID":6458,"ولایت":"لغمان","Province":"LAGHMAN","PC_Code":"0701014","ولسوالي":"مهترلام","District":"MEHTARLAM","د_مرکز_نوم__نام_مرکز":"دسه صدې دهلکانواونجونو ښوونځي","Polling_Center_Name":"Se Sadi Boys & Girls School","د_مرکز_ځای__موقعیت_مرکز":"پهلوان بابا سه صده ","Polling_Center_Location":"Palawan BaBa se Sadda","Verification_Note":"Building","PS_Male":3,"PS_Female":1,"Map_Accuracy":"تعمیر"},"geometry":{"x":7817345.3119892254,"y":4121240.3976442143}},{"attributes":{"OBJECTID":6459,"ولایت":"غزنى","Province":"GHAZNI","PC_Code":"1104128","ولسوالي":"واغظ","District":"WAGHAZ","د_مرکز_نوم__نام_مرکز":"مکتب مولانا عبد الحی","Polling_Center_Name":"Mawlana Abdul Hai School","د_مرکز_ځای__موقعیت_مرکز":"قریه زیارت","Polling_Center_Location":"Ziarat Village","Verification_Note":"Village","PS_Male":2,"PS_Female":1,"Map_Accuracy":"قریه"},"geometry":{"x":7602952.1380060241,"y":3950023.14788948}},{"attributes":{"OBJECTID":6460,"ولایت":"غزنى","Province":"GHAZNI","PC_Code":"1104129","ولسوالي":"واغظ","District":"WAGHAZ","د_مرکز_نوم__نام_مرکز":"مکتب قلعه فتح محمد","Polling_Center_Name":"Qala-e-Fatih Mohammad School ","د_مرکز_ځای__موقعیت_مرکز":"قریه فتح محمد","Polling_Center_Location":"Qala-e-Fatih Mohammad","Verification_Note":"Village","PS_Male":2,"PS_Female":2,"Map_Accuracy":"قریه"},"geometry":{"x":7587123.0518807285,"y":3944098.2808962613}},{"attributes":{"OBJECTID":6461,"ولایت":"غزنى","Province":"GHAZNI","PC_Code":"1110273","ولسوالي":"ناور","District":"NAWUR","د_مرکز_نوم__نام_مرکز":"مسجد قریه ساه زمین","Polling_Center_Name":"Sia Zameen Village Mosque","د_مرکز_ځای__موقعیت_مرکز":"قریه سیاه زمین ","Polling_Center_Location":"Sia Zameen Village","Verification_Note":"Building","PS_Male":3,"PS_Female":1,"Map_Accuracy":"تعمیر"},"geometry":{"x":7530427.3695291579,"y":4041504.8322428092}},{"attributes":{"OBJECTID":6462,"ولایت":"غزنى","Province":"GHAZNI","PC_Code":"1110274","ولسوالي":"ناور","District":"NAWUR","د_مرکز_نوم__نام_مرکز":"لیسه سید جمالدین شخل کار","Polling_Center_Name":"Sayed Jamaluddin Shakhal Kar High School","د_مرکز_ځای__موقعیت_مرکز":"قریه دامن ","Polling_Center_Location":"Daaman Village","Verification_Note":"Building","PS_Male":2,"PS_Female":1,"Map_Accuracy":"تعمیر"},"geometry":{"x":7520888.3979103044,"y":4043373.969002679}},{"attributes":{"OBJECTID":6463,"ولایت":"غزنى","Province":"GHAZNI","PC_Code":"1114325","ولسوالي":"جاغوری","District":"JAGHURI","د_مرکز_نوم__نام_مرکز":"لیسه عالی پشت چوب","Polling_Center_Name":"Pusht-e-Choob High School","د_مرکز_ځای__موقعیت_مرکز":"قریه چاکه سیازمین ","Polling_Center_Location":"Chakah Sya Zameen Village","Verification_Note":"Building","PS_Male":2,"PS_Female":1,"Map_Accuracy":"تعمیر"},"geometry":{"x":7495572.1872189865,"y":3913556.6738362014}},{"attributes":{"OBJECTID":6464,"ولایت":"غزنى","Province":"GHAZNI","PC_Code":"1114326","ولسوالي":"جاغوری","District":"JAGHURI","د_مرکز_نوم__نام_مرکز":"مکتب متوسطه چهل باغتو اوقی","Polling_Center_Name":"Chalbaghto Ooqi Secondary School","د_مرکز_ځای__موقعیت_مرکز":"قریه چهل باغتو اوقی ","Polling_Center_Location":"Chahel Baghto Ooqi Village","Verification_Note":"Building","PS_Male":1,"PS_Female":1,"Map_Accuracy":"تعمیر"},"geometry":{"x":7489957.6684757769,"y":3915073.8492113054}},{"attributes":{"OBJECTID":6465,"ولایت":"غزنى","Province":"GHAZNI","PC_Code":"1114345","ولسوالي":"جاغوری","District":"JAGHURI","د_مرکز_نوم__نام_مرکز":"مکتب قریه شار زایده","Polling_Center_Name":"Sharzayeda Village Mosque","د_مرکز_ځای__موقعیت_مرکز":"قریه شار زایده","Polling_Center_Location":"Sharzayeda Village","Verification_Note":"Building","PS_Male":1,"PS_Female":1,"Map_Accuracy":"تعمیر"},"geometry":{"x":7533909.33188168,"y":3921872.2764600068}},{"attributes":{"OBJECTID":6466,"ولایت":"غزنى","Province":"GHAZNI","PC_Code":"1114346","ولسوالي":"جاغوری","District":"JAGHURI","د_مرکز_نوم__نام_مرکز":"مکتب ابتدائیه ششپر","Polling_Center_Name":"Shahshpar Primary School","د_مرکز_ځای__موقعیت_مرکز":"قریه ششپر","Polling_Center_Location":"Shashpar Village","Verification_Note":"Building","PS_Male":1,"PS_Female":1,"Map_Accuracy":"تعمیر"},"geometry":{"x":7532125.8979044147,"y":3944490.1327539533}},{"attributes":{"OBJECTID":6467,"ولایت":"غزنى","Province":"GHAZNI","PC_Code":"1116310","ولسوالي":"مالستان","District":"MALISTAN","د_مرکز_نوم__نام_مرکز":"لیسه عالی مرادینه","Polling_Center_Name":"Meradeena High School","د_مرکز_ځای__موقعیت_مرکز":"بازار مرادینه ","Polling_Center_Location":"Muradeena Bazar","Verification_Note":"Building","PS_Male":3,"PS_Female":2,"Map_Accuracy":"تعمیر"},"geometry":{"x":7479173.6506913193,"y":3934212.4098568261}},{"attributes":{"OBJECTID":6468,"ولایت":"پکتيکا","Province":"PAKTIKA","PC_Code":"1201020","ولسوالي":"شرن","District":"SHARAN","د_مرکز_نوم__نام_مرکز":"زوړ ښوونځی کوتوال ","Polling_Center_Name":"Old School","د_مرکز_ځای__موقعیت_مرکز":"کوتوال","Polling_Center_Location":"Kotwal","Verification_Note":"Village","PS_Male":0,"PS_Female":2,"Map_Accuracy":"قریه"},"geometry":{"x":7653799.5407024734,"y":3914759.2229956239}},{"attributes":{"OBJECTID":6469,"ولایت":"پکتيکا","Province":"PAKTIKA","PC_Code":"1201021","ولسوالي":"شرن","District":"SHARAN","د_مرکز_نوم__نام_مرکز":"جینۍ  ښوونځی ","Polling_Center_Name":"Jeni School","د_مرکز_ځای__موقعیت_مرکز":"شاه بدین","Polling_Center_Location":"Shah Baddin","Verification_Note":"Village","PS_Male":2,"PS_Female":0,"Map_Accuracy":"قریه"},"geometry":{"x":7656757.2272151895,"y":3920955.000458844}},{"attributes":{"OBJECTID":6470,"ولایت":"پکتيکا","Province":"PAKTIKA","PC_Code":"1210155","ولسوالي":"سروبی","District":"SURUBI","د_مرکز_نوم__نام_مرکز":"مرکزی لیسه","Polling_Center_Name":"Central High School","د_مرکز_ځای__موقعیت_مرکز":"سوډان خیل ","Polling_Center_Location":"Sodan Khel","Verification_Note":"District","PS_Male":1,"PS_Female":1,"Map_Accuracy":"ولسوالی"},"geometry":{"x":7686451.3919161037,"y":3868238.9684152603}},{"attributes":{"OBJECTID":6471,"ولایت":"پکتيکا","Province":"PAKTIKA","PC_Code":"1210156","ولسوالي":"سروبی","District":"SURUBI","د_مرکز_نوم__نام_مرکز":"مرکزی کلینیک","Polling_Center_Name":"Central Clinic","د_مرکز_ځای__موقعیت_مرکز":"نوی لانجه خیل ","Polling_Center_Location":"New Lanja Khel","Verification_Note":"Village","PS_Male":3,"PS_Female":0,"Map_Accuracy":"قریه"},"geometry":{"x":7691470.3191009164,"y":3869515.5930319503}},{"attributes":{"OBJECTID":6472,"ولایت":"پکتيا","Province":"PAKTYA","PC_Code":"1303100","ولسوالي":"زرمت","District":"ZURMAT","د_مرکز_نوم__نام_مرکز":"د دولت زای هجره","Polling_Center_Name":"Dawlat Zai Hojra","د_مرکز_ځای__موقعیت_مرکز":"مکاوه دولت زای","Polling_Center_Location":"Makawa Dawlat Zai","Verification_Note":"Village","PS_Male":1,"PS_Female":1,"Map_Accuracy":"قریه"},"geometry":{"x":7676218.5469868183,"y":3957211.0798272118}},{"attributes":{"OBJECTID":6473,"ولایت":"پکتيا","Province":"PAKTYA","PC_Code":"1303101","ولسوالي":"زرمت","District":"ZURMAT","د_مرکز_نوم__نام_مرکز":"شاهی کوت مکتب","Polling_Center_Name":"Shahi Kot School","د_مرکز_ځای__موقعیت_مرکز":"ارمه شاهی کوت","Polling_Center_Location":"Arma Shahi Kot","Verification_Note":"Village","PS_Male":1,"PS_Female":1,"Map_Accuracy":"قریه"},"geometry":{"x":7691397.8979797922,"y":3929963.4806302264}},{"attributes":{"OBJECTID":6474,"ولایت":"پکتيا","Province":"PAKTYA","PC_Code":"1305120","ولسوالي":"وزه ځدراڼ","District":"WUZA ZADRAN","د_مرکز_نوم__نام_مرکز":"د حمیدالله هجره","Polling_Center_Name":"Hamidullah Hojra","د_مرکز_ځای__موقعیت_مرکز":"موتی","Polling_Center_Location":"Moti","Verification_Note":"Village","PS_Male":0,"PS_Female":2,"Map_Accuracy":"قریه"},"geometry":{"x":7728529.5594239011,"y":3937931.5929275528}},{"attributes":{"OBJECTID":6475,"ولایت":"پکتيا","Province":"PAKTYA","PC_Code":"1305121","ولسوالي":"وزه ځدراڼ","District":"WUZA ZADRAN","د_مرکز_نوم__نام_مرکز":"مسجد شلم","Polling_Center_Name":"Shelm Mosque","د_مرکز_ځای__موقعیت_مرکز":"شلم","Polling_Center_Location":"Shelm","Verification_Note":"Village","PS_Male":2,"PS_Female":0,"Map_Accuracy":"قریه"},"geometry":{"x":7735911.8060774319,"y":3956638.437713474}},{"attributes":{"OBJECTID":6476,"ولایت":"پکتيا","Province":"PAKTYA","PC_Code":"1306019","ولسوالي":"سید کرم","District":"SAYYID KARAM","د_مرکز_نوم__نام_مرکز":"سید کرم ولوسوالی مرکز","Polling_Center_Name":"Sayed Karam District Compound ","د_مرکز_ځای__موقعیت_مرکز":" ولسوالی مرکز","Polling_Center_Location":"District Center","Verification_Note":"Building","PS_Male":4,"PS_Female":0,"Map_Accuracy":"تعمیر"},"geometry":{"x":7723529.7970026322,"y":3987861.99612353}},{"attributes":{"OBJECTID":6477,"ولایت":"پکتيا","Province":"PAKTYA","PC_Code":"1306028","ولسوالي":"سید کرم","District":"SAYYID KARAM","د_مرکز_نوم__نام_مرکز":"د خوشحال خیلو کلینیک","Polling_Center_Name":"Khushal Khel Clinic ","د_مرکز_ځای__موقعیت_مرکز":"خوشحال خیل","Polling_Center_Location":"Khushal Khel","Verification_Note":"Village","PS_Male":0,"PS_Female":2,"Map_Accuracy":"قریه"},"geometry":{"x":7731952.4345039092,"y":3985201.3122861981}},{"attributes":{"OBJECTID":6478,"ولایت":"پکتيا","Province":"PAKTYA","PC_Code":"1306029","ولسوالي":"سید کرم","District":"SAYYID KARAM","د_مرکز_نوم__نام_مرکز":"د سمین خیلو مدرسه","Polling_Center_Name":"Samin Khel Madrassa","د_مرکز_ځای__موقعیت_مرکز":"سمین خیل","Polling_Center_Location":"Samin Khel","Verification_Note":"Village","PS_Male":2,"PS_Female":0,"Map_Accuracy":"قریه"},"geometry":{"x":7735218.3947428949,"y":3992553.5263900757}},{"attributes":{"OBJECTID":6479,"ولایت":"کندز","Province":"KUNDUZ","PC_Code":"1903131","ولسوالي":"علی آباد","District":"ALI ABAD","د_مرکز_نوم__نام_مرکز":"مکتب متوسطه لاله میدان","Polling_Center_Name":"Lala Maidan Secondary School","د_مرکز_ځای__موقعیت_مرکز":"قریه لاله میدان","Polling_Center_Location":"Lala Maidan Village","Verification_Note":"Building","PS_Male":1,"PS_Female":1,"Map_Accuracy":"تعمیر"},"geometry":{"x":7667055.5101939328,"y":4372423.9033038169}},{"attributes":{"OBJECTID":6480,"ولایت":"کندز","Province":"KUNDUZ","PC_Code":"1903132","ولسوالي":"علی آباد","District":"ALI ABAD","د_مرکز_نوم__نام_مرکز":"متوسطه سمع الله شهید","Polling_Center_Name":"Samiullah  Shaheed Secondary School","د_مرکز_ځای__موقعیت_مرکز":"قریه مدرسه","Polling_Center_Location":"Madrassa Village","Verification_Note":"Building","PS_Male":2,"PS_Female":1,"Map_Accuracy":"تعمیر"},"geometry":{"x":7670089.8991753869,"y":4383715.1232606992}},{"attributes":{"OBJECTID":6481,"ولایت":"کندز","Province":"KUNDUZ","PC_Code":"1905083","ولسوالي":"حضرت امام صاحب","District":"HAZRAT-E-IMAM SAHIB","د_مرکز_نوم__نام_مرکز":"مکتب خاتون قلعه","Polling_Center_Name":"Khatoon Qala School","د_مرکز_ځای__موقعیت_مرکز":"قریه خاتون قلعه","Polling_Center_Location":"Khatoon Qala Village","Verification_Note":"Building","PS_Male":2,"PS_Female":1,"Map_Accuracy":"تعمیر"},"geometry":{"x":7690992.373319976,"y":4461045.3402114809}},{"attributes":{"OBJECTID":6482,"ولایت":"کندز","Province":"KUNDUZ","PC_Code":"1905084","ولسوالي":"حضرت امام صاحب","District":"HAZRAT-E-IMAM SAHIB","د_مرکز_نوم__نام_مرکز":"لیسه آفتاب لق","Polling_Center_Name":"Aftab Laq High School","د_مرکز_ځای__موقعیت_مرکز":"قریه افتاب لق","Polling_Center_Location":"Aftab Laq Village","Verification_Note":"Building","PS_Male":2,"PS_Female":1,"Map_Accuracy":"تعمیر"},"geometry":{"x":7688262.8071605861,"y":4459330.0276552364}},{"attributes":{"OBJECTID":6483,"ولایت":"غور","Province":"GHOR","PC_Code":"2307166","ولسوالي":"لعل و سرجنگل ","District":"LAL WA SARJANGAL","د_مرکز_نوم__نام_مرکز":"مسجد قلعه سر آسیا گک","Polling_Center_Name":"Qala-e-Sar Asyagak Mosque","د_مرکز_ځای__موقعیت_مرکز":"قریه قلعه سر آسیا گک ","Polling_Center_Location":"Qala Sar Asyagak Village","Verification_Note":"Village","PS_Male":1,"PS_Female":1,"Map_Accuracy":"قریه"},"geometry":{"x":7386304.2311514132,"y":4128028.8344305679}},{"attributes":{"OBJECTID":6484,"ولایت":"غور","Province":"GHOR","PC_Code":"2307167","ولسوالي":"لعل و سرجنگل ","District":"LAL WA SARJANGAL","د_مرکز_نوم__نام_مرکز":"مکتب قلعه دنگک","Polling_Center_Name":"Qala Dangak School","د_مرکز_ځای__موقعیت_مرکز":"قریه قلعه دنگک","Polling_Center_Location":"Qala Dangak Village","Verification_Note":"Village","PS_Male":1,"PS_Female":1,"Map_Accuracy":"قریه"},"geometry":{"x":7375814.5020255931,"y":4137701.2745129466}},{"attributes":{"OBJECTID":6485,"ولایت":"دایکندی","Province":"DAYKUNDI","PC_Code":"2406142","ولسوالي":"کیتی","District":"KITI","د_مرکز_نوم__نام_مرکز":"مسجد پنور علیا","Polling_Center_Name":"Panor Ulya Mosque","د_مرکز_ځای__موقعیت_مرکز":"پنورعلیا","Polling_Center_Location":"Panor Ulya","Verification_Note":"Building","PS_Male":2,"PS_Female":1,"Map_Accuracy":"تعمیر"},"geometry":{"x":7313140.609022446,"y":3984648.8810697272}},{"attributes":{"OBJECTID":6486,"ولایت":"زابل","Province":"ZABUL","PC_Code":"2607023","ولسوالي":"دایچوپان","District":"DAICHOPAN","د_مرکز_نوم__نام_مرکز":"مكتب دايچوپان","Polling_Center_Name":"Daichopan School","د_مرکز_ځای__موقعیت_مرکز":"دايچوپان","Polling_Center_Location":"Daichopan","Verification_Note":"Village","PS_Male":1,"PS_Female":1,"Map_Accuracy":"قریه"},"geometry":{"x":7431930.0762467422,"y":3846276.1391046196}},{"attributes":{"OBJECTID":6487,"ولایت":"زابل","Province":"ZABUL","PC_Code":"2607024","ولسوالي":"دایچوپان","District":"DAICHOPAN","د_مرکز_نوم__نام_مرکز":"كلينیك ولسوالي","Polling_Center_Name":"District Clinic","د_مرکز_ځای__موقعیت_مرکز":"دايچوپان","Polling_Center_Location":"Daichopan","Verification_Note":"Village","PS_Male":2,"PS_Female":0,"Map_Accuracy":"قریه"},"geometry":{"x":7432053.1713359095,"y":3846558.237472795}},{"attributes":{"OBJECTID":6488,"ولایت":"کندهار","Province":"کندهار","PC_Code":"2703066","ولسوالي":"دامان","District":"DAMAN","د_مرکز_نوم__نام_مرکز":"د سیمیلزی اخند صاحب کور","Polling_Center_Name":"Semelzai Akhond Sahib Private House","د_مرکز_ځای__موقعیت_مرکز":"د سیمیلزی کلی","Polling_Center_Location":"Semelzai Village","Verification_Note":"Building","PS_Male":0,"PS_Female":2,"Map_Accuracy":"تعمیر"},"geometry":{"x":7370717.0433928035,"y":3725896.2647685036}},{"attributes":{"OBJECTID":6489,"ولایت":"کندهار","Province":"کندهار","PC_Code":"2703068","ولسوالي":"دامان","District":"DAMAN","د_مرکز_نوم__نام_مرکز":"د محمد اشرف كور","Polling_Center_Name":"Mohammad Ashraf Private House","د_مرکز_ځای__موقعیت_مرکز":"مانجه","Polling_Center_Location":"Manja","Verification_Note":"Building","PS_Male":3,"PS_Female":1,"Map_Accuracy":"تعمیر"},"geometry":{"x":7357183.2115467675,"y":3721845.1356602684}},{"attributes":{"OBJECTID":6490,"ولایت":"کندهار","Province":"کندهار","PC_Code":"2710140","ولسوالي":"میوند","District":"MAIWAND","د_مرکز_نوم__نام_مرکز":"د قلع خان كور","Polling_Center_Name":"Qala Khan Private House","د_مرکز_ځای__موقعیت_مرکز":"چشمه محمد خان","Polling_Center_Location":"Chashma Mohammad Khan","Verification_Note":"Building","PS_Male":0,"PS_Female":2,"Map_Accuracy":"تعمیر"},"geometry":{"x":7238519.7813631408,"y":3701765.5452076718}},{"attributes":{"OBJECTID":6491,"ولایت":"کندهار","Province":"کندهار","PC_Code":"2710141","ولسوالي":"میوند","District":"MAIWAND","د_مرکز_نوم__نام_مرکز":"د عبدالكريم كور","Polling_Center_Name":"Abdul Kareem Private House","د_مرکز_ځای__موقعیت_مرکز":"صوفي كريم سراچه","Polling_Center_Location":"Sufi Kareem Saracha","Verification_Note":"Building","PS_Male":2,"PS_Female":0,"Map_Accuracy":"تعمیر"},"geometry":{"x":7224023.4956712388,"y":3703924.33541131}},{"attributes":{"OBJECTID":6492,"ولایت":"کندهار","Province":"کندهار","PC_Code":"2711221","ولسوالي":"سپین بولدک","District":"SPIN BOLDAK","د_مرکز_نوم__نام_مرکز":"ګیبا نيكه مكتب","Polling_Center_Name":"Geeba Neeka School","د_مرکز_ځای__موقعیت_مرکز":"خير آباد","Polling_Center_Location":"Khair Abad","Verification_Note":"Building","PS_Male":5,"PS_Female":2,"Map_Accuracy":"تعمیر"},"geometry":{"x":7391919.1996253654,"y":3632652.9978144467}},{"attributes":{"OBJECTID":6493,"ولایت":"کندهار","Province":"کندهار","PC_Code":"2711222","ولسوالي":"سپین بولدک","District":"SPIN BOLDAK","د_مرکز_نوم__نام_مرکز":"با ګل تعمير","Polling_Center_Name":"Baagul Building","د_مرکز_ځای__موقعیت_مرکز":"نوي كلي","Polling_Center_Location":"Nawai Village","Verification_Note":"Building","PS_Male":4,"PS_Female":1,"Map_Accuracy":"تعمیر"},"geometry":{"x":7397988.481865555,"y":3628741.0425410867}},{"attributes":{"OBJECTID":6494,"ولایت":"جوزجان","Province":"JAWZJAN","PC_Code":"2801014","ولسوالي":"شبرغان","District":"SHEBERGHAN","د_مرکز_نوم__نام_مرکز":"لیسه مولانا اذنب","Polling_Center_Name":"Mawlana Aznab High School","د_مرکز_ځای__موقعیت_مرکز":"ناحیه دوم","Polling_Center_Location":"D02 - Nahia 2","Verification_Note":"Building","PS_Male":3,"PS_Female":2,"Map_Accuracy":"تعمیر"},"geometry":{"x":7318445.259944275,"y":4393228.9780130535}},{"attributes":{"OBJECTID":6495,"ولایت":"جوزجان","Province":"JAWZJAN","PC_Code":"2801015","ولسوالي":"شبرغان","District":"SHEBERGHAN","د_مرکز_نوم__نام_مرکز":"انستیتوت تخنیکی نفت و گاز","Polling_Center_Name":"Petrolium and Gas Technical Institute","د_مرکز_ځای__موقعیت_مرکز":"ناحیه سوم","Polling_Center_Location":"D03 - Nahia 3","Verification_Note":"Building","PS_Male":5,"PS_Female":4,"Map_Accuracy":"تعمیر"},"geometry":{"x":7319125.7259352319,"y":4392390.0721462518}},{"attributes":{"OBJECTID":6496,"ولایت":"فارياب","Province":"FARYAB","PC_Code":"2903055","ولسوالي":"خواجه سبز پوش ولی","District":"KHWAJA SABZ POSH-E-WALI","د_مرکز_نوم__نام_مرکز":"خواجه قشوری","Polling_Center_Name":"Khwaja Qashori","د_مرکز_ځای__موقعیت_مرکز":"خواجه قشوری","Polling_Center_Location":"Khwaja Qashori","Verification_Note":"Building","PS_Male":2,"PS_Female":1,"Map_Accuracy":"تعمیر"},"geometry":{"x":7224046.4965044223,"y":4300450.7526739165}},{"attributes":{"OBJECTID":6497,"ولایت":"فارياب","Province":"FARYAB","PC_Code":"2906152","ولسوالي":"شیرین تگاب","District":"SHIRIN TAGAB","د_مرکز_نوم__نام_مرکز":"لیسه نسوان بلوچ","Polling_Center_Name":"Baloch Girls High School","د_مرکز_ځای__موقعیت_مرکز":"قریه تورکول بلوچ","Polling_Center_Location":"Torkol Baloch Village","Verification_Note":"Village","PS_Male":2,"PS_Female":2,"Map_Accuracy":"قریه"},"geometry":{"x":7222729.2919316888,"y":4339389.932583712}},{"attributes":{"OBJECTID":6498,"ولایت":"فارياب","Province":"FARYAB","PC_Code":"2906153","ولسوالي":"شیرین تگاب","District":"SHIRIN TAGAB","د_مرکز_نوم__نام_مرکز":"لیسه نسوان کوه صیاد","Polling_Center_Name":"Koh Sayad Girls High School","د_مرکز_ځای__موقعیت_مرکز":"قریه کوه صیاد","Polling_Center_Location":"Koh Sayad Village","Verification_Note":"Village","PS_Male":2,"PS_Female":2,"Map_Accuracy":"قریه"},"geometry":{"x":7220018.4552766234,"y":4337135.1271471679}},{"attributes":{"OBJECTID":6499,"ولایت":"هلمند","Province":"HELMAND","PC_Code":"3006112","ولسوالي":"گرم سیر","District":"GARM SER","د_مرکز_نوم__نام_مرکز":"د مصطفی مسجد","Polling_Center_Name":"Mustafa Mosque","د_مرکز_ځای__موقعیت_مرکز":"بيرتاكه","Polling_Center_Location":"Bir Taka","Verification_Note":"Village","PS_Male":2,"PS_Female":1,"Map_Accuracy":"قریه"},"geometry":{"x":7138455.6283991784,"y":3625422.9753164127}},{"attributes":{"OBJECTID":6500,"ولایت":"هلمند","Province":"HELMAND","PC_Code":"3006113","ولسوالي":"گرم سیر","District":"GARM SER","د_مرکز_نوم__نام_مرکز":"مكتب ده ذكر يا","Polling_Center_Name":"Deh Zekriya School","د_مرکز_ځای__موقعیت_مرکز":"ده ذكر يا","Polling_Center_Location":"Deh Zekria","Verification_Note":"Village","PS_Male":5,"PS_Female":0,"Map_Accuracy":"قریه"},"geometry":{"x":7150258.2740709521,"y":3644873.8984437436}},{"attributes":{"OBJECTID":6501,"ولایت":"هرات","Province":"HERAT","PC_Code":"3207170","ولسوالي":"کشک (رباط سنگی)","District":"KUSHK (RUBAT-E-SANGI)","د_مرکز_نوم__نام_مرکز":"مکتب باغچه","Polling_Center_Name":"Baghcha School ","د_مرکز_ځای__موقعیت_مرکز":"قریه باغچه","Polling_Center_Location":"Baghcha Village ","Verification_Note":"Village","PS_Male":1,"PS_Female":1,"Map_Accuracy":"قریه"},"geometry":{"x":6927490.6216245815,"y":4133636.4275336564}},{"attributes":{"OBJECTID":6502,"ولایت":"هرات","Province":"HERAT","PC_Code":"3207171","ولسوالي":"کشک (رباط سنگی)","District":"KUSHK (RUBAT-E-SANGI)","د_مرکز_نوم__نام_مرکز":"مکتب و کلینیک یکه درخت","Polling_Center_Name":"Yaka Darakht School and Mosque","د_مرکز_ځای__موقعیت_مرکز":"قریه یکه درخت","Polling_Center_Location":"Yaka Darakht Village ","Verification_Note":"Building","PS_Male":2,"PS_Female":1,"Map_Accuracy":"تعمیر"},"geometry":{"x":6928254.0996730216,"y":4146537.005783692}},{"attributes":{"OBJECTID":6503,"ولایت":"هرات","Province":"HERAT","PC_Code":"3214330","ولسوالي":"شیندند","District":"SHINDAND","د_مرکز_نوم__نام_مرکز":"مکتب نایسک","Polling_Center_Name":"Nanisik School ","د_مرکز_ځای__موقعیت_مرکز":"قریه نایسک","Polling_Center_Location":"Nanisik Village","Verification_Note":"Building","PS_Male":1,"PS_Female":1,"Map_Accuracy":"تعمیر"},"geometry":{"x":6930745.3597457,"y":3936508.7357490361}},{"attributes":{"OBJECTID":6504,"ولایت":"هرات","Province":"HERAT","PC_Code":"3214331","ولسوالي":"شیندند","District":"SHINDAND","د_مرکز_نوم__نام_مرکز":"مسجد چلوسک","Polling_Center_Name":"Chalosak Mosque ","د_مرکز_ځای__موقعیت_مرکز":"چلوسک ","Polling_Center_Location":"Chalosak ","Verification_Note":"Building","PS_Male":1,"PS_Female":1,"Map_Accuracy":"تعمیر"},"geometry":{"x":6929633.6253494807,"y":3934819.2575380504}},{"attributes":{"OBJECTID":6505,"ولایت":"باميان","Province":"BAMYAN","PC_Code":"1007138","ولسوالي":"ورس","District":"WARAS","د_مرکز_نوم__نام_مرکز":"مسجد سیب باریک","Polling_Center_Name":"Seab Barik Mosque","د_مرکز_ځای__موقعیت_مرکز":"سیب باریک","Polling_Center_Location":"Seab Barik ","Verification_Note":"Building","PS_Male":1,"PS_Female":1,"Map_Accuracy":"تعمیر"},"geometry":{"x":7487443.6480200142,"y":4066174.151715003}},{"attributes":{"OBJECTID":6506,"ولایت":"باميان","Province":"BAMYAN","PC_Code":"1007139","ولسوالي":"ورس","District":"WARAS","د_مرکز_نوم__نام_مرکز":"مسجد گرد بید تگاب گالقول","Polling_Center_Name":"Girdbed Tagab Galeqol Mosque","د_مرکز_ځای__موقعیت_مرکز":"تگاب گالقول","Polling_Center_Location":"Tagab Galeqol ","Verification_Note":"Building","PS_Male":1,"PS_Female":1,"Map_Accuracy":"تعمیر"},"geometry":{"x":7501725.8641047329,"y":4067454.8990287334}},{"attributes":{"OBJECTID":6507,"ولایت":"غزنى","Province":"GHAZNI","PC_Code":"1110286","ولسوالي":"ناور","District":"NAWUR","د_مرکز_نوم__نام_مرکز":"مکتب غلام سخی شهید","Polling_Center_Name":"Ghulam Sakhi Shaheed School","د_مرکز_ځای__موقعیت_مرکز":"قریه یخشی ","Polling_Center_Location":"Yakhshi Village","Verification_Note":"Building","PS_Male":2,"PS_Female":1,"Map_Accuracy":"تعمیر"},"geometry":{"x":7568792.956321761,"y":4025644.9099365771}},{"attributes":{"OBJECTID":6508,"ولایت":"غزنى","Province":"GHAZNI","PC_Code":"1111132","ولسوالي":"قره باغ","District":"QARA BAGH","د_مرکز_نوم__نام_مرکز":"کلینیک مرکزی ولسوالی قره باغ","Polling_Center_Name":"Qara Bagh District Central Clinic","د_مرکز_ځای__موقعیت_مرکز":"بازار ولسوالی","Polling_Center_Location":"District Bazar","Verification_Note":"Building","PS_Male":4,"PS_Female":0,"Map_Accuracy":"تعمیر"},"geometry":{"x":7583435.9900455922,"y":3918923.4122860059}},{"attributes":{"OBJECTID":6509,"ولایت":"پکتيکا","Province":"PAKTIKA","PC_Code":"1206070","ولسوالي":"اومنه","District":"OMNA","د_مرکز_نوم__نام_مرکز":"مکت سپینه ","Polling_Center_Name":"Speena School","د_مرکز_ځای__موقعیت_مرکز":"سپینه","Polling_Center_Location":"Speena","Verification_Note":"Village","PS_Male":2,"PS_Female":1,"Map_Accuracy":"قریه"},"geometry":{"x":7667106.1126948707,"y":3883576.7154924124}},{"attributes":{"OBJECTID":6510,"ولایت":"پکتيکا","Province":"PAKTIKA","PC_Code":"1206071","ولسوالي":"اومنه","District":"OMNA","د_مرکز_نوم__نام_مرکز":"د وکیل غمی کلی میلمستون ","Polling_Center_Name":"Wakil Ghami Village Guest House","د_مرکز_ځای__موقعیت_مرکز":" د وکیل غمی کلی","Polling_Center_Location":"Wakil Ghami Village","Verification_Note":"District","PS_Male":1,"PS_Female":1,"Map_Accuracy":"ولسوالی"},"geometry":{"x":7659227.6805618294,"y":3885513.6552722007}},{"attributes":{"OBJECTID":6511,"ولایت":"پکتيکا","Province":"PAKTIKA","PC_Code":"1208146","ولسوالي":"گومل ","District":"GOMAL","د_مرکز_نوم__نام_مرکز":"عیسی جی ښوونځی","Polling_Center_Name":"Esa Jee School","د_مرکز_ځای__موقعیت_مرکز":"مینزی","Polling_Center_Location":"Menzi","Verification_Note":"District","PS_Male":4,"PS_Female":2,"Map_Accuracy":"ولسوالی"},"geometry":{"x":7657379.41856591,"y":3845863.886747025}},{"attributes":{"OBJECTID":6512,"ولایت":"پکتيکا","Province":"PAKTIKA","PC_Code":"1208291","ولسوالي":"گومل","District":"GOMAL","د_مرکز_نوم__نام_مرکز":"ابتدائيه ښوونځي شكين","Polling_Center_Name":"Shekin Primary School","د_مرکز_ځای__موقعیت_مرکز":"شكين","Polling_Center_Location":"Shekin","Verification_Note":"Village","PS_Male":2,"PS_Female":0,"Map_Accuracy":"قریه"},"geometry":{"x":7703134.1026134826,"y":3827448.7343086153}},{"attributes":{"OBJECTID":6513,"ولایت":"پکتيکا","Province":"PAKTIKA","PC_Code":"1209290","ولسوالي":"جانی خیل","District":"JANI KHEL","د_مرکز_نوم__نام_مرکز":"بازار جومات","Polling_Center_Name":"Bazaar Mosque","د_مرکز_ځای__موقعیت_مرکز":"بازار جانی خیل ","Polling_Center_Location":"Jani Khel Bazar","Verification_Note":"Building","PS_Male":0,"PS_Female":2,"Map_Accuracy":"تعمیر"},"geometry":{"x":7614324.94127522,"y":3864043.9886465818}},{"attributes":{"OBJECTID":6514,"ولایت":"پکتيکا","Province":"PAKTIKA","PC_Code":"1210147","ولسوالي":"سروبی","District":"SURUBI","د_مرکز_نوم__نام_مرکز":"نوی حالی جومات ","Polling_Center_Name":"Nawi Hali Mosque","د_مرکز_ځای__موقعیت_مرکز":"زاړه لانجه خیل ","Polling_Center_Location":"Old Lanja Khel","Verification_Note":"Village","PS_Male":3,"PS_Female":0,"Map_Accuracy":"قریه"},"geometry":{"x":7691833.5879952237,"y":3868217.4065559283}},{"attributes":{"OBJECTID":6515,"ولایت":"پکتيکا","Province":"PAKTIKA","PC_Code":"1214253","ولسوالي":"برمل","District":"BARMAL","د_مرکز_نوم__نام_مرکز":"مرغه مدرسه","Polling_Center_Name":"Morgha Madrassa","د_مرکز_ځای__موقعیت_مرکز":"مرغه","Polling_Center_Location":"Margha Village","Verification_Note":"Village","PS_Male":4,"PS_Female":0,"Map_Accuracy":"قریه"},"geometry":{"x":7716988.0492400266,"y":3866942.7605594769}},{"attributes":{"OBJECTID":6516,"ولایت":"پکتيکا","Province":"PAKTIKA","PC_Code":"1214256","ولسوالي":"برمل","District":"BARMAL","د_مرکز_نوم__نام_مرکز":"مرغه کلینیک","Polling_Center_Name":"Margha Clinic","د_مرکز_ځای__موقعیت_مرکز":"مرغه کلی ","Polling_Center_Location":"Margha Village","Verification_Note":"Village","PS_Male":3,"PS_Female":2,"Map_Accuracy":"قریه"},"geometry":{"x":7717676.8129858337,"y":3866017.6951904669}},{"attributes":{"OBJECTID":6517,"ولایت":"پکتيکا","Province":"PAKTIKA","PC_Code":"1214266","ولسوالي":"برمل","District":"BARMAL","د_مرکز_نوم__نام_مرکز":"مسجد باډر احمدزی","Polling_Center_Name":"Bador Ahmadzai Mosque","د_مرکز_ځای__موقعیت_مرکز":"احمد زی مدرسه","Polling_Center_Location":"Ahmadzai Madrassa","Verification_Note":"District","PS_Male":2,"PS_Female":2,"Map_Accuracy":"ولسوالی"},"geometry":{"x":7718186.7898370512,"y":3866558.3039827049}},{"attributes":{"OBJECTID":6518,"ولایت":"پکتيکا","Province":"PAKTIKA","PC_Code":"1214303","ولسوالي":"برمل","District":"BARMAL","د_مرکز_نوم__نام_مرکز":"دکلی جومات زنګی اډه","Polling_Center_Name":"Makhfirollah Guest House","د_مرکز_ځای__موقعیت_مرکز":"زنګی اډه","Polling_Center_Location":"Zangi Ada","Verification_Note":"District","PS_Male":2,"PS_Female":0,"Map_Accuracy":"ولسوالی"},"geometry":{"x":7716227.9998319075,"y":3867627.986667484}},{"attributes":{"OBJECTID":6519,"ولایت":"پکتيکا","Province":"PAKTIKA","PC_Code":"1218240","ولسوالي":"وړممی","District":"WOR MAMY","د_مرکز_نوم__نام_مرکز":"عید گل میلمستون","Polling_Center_Name":"Eid Gul Guest House","د_مرکز_ځای__موقعیت_مرکز":"مامی","Polling_Center_Location":"Mami","Verification_Note":"Building","PS_Male":1,"PS_Female":3,"Map_Accuracy":"تعمیر"},"geometry":{"x":7663697.3083984964,"y":3766727.4304400161}},{"attributes":{"OBJECTID":6520,"ولایت":"پکتيکا","Province":"PAKTIKA","PC_Code":"1218241","ولسوالي":"وړممی","District":"WOR MAMY","د_مرکز_نوم__نام_مرکز":"د دو چینې د کلي دوکان","Polling_Center_Name":"2 Cheena Village Shop","د_مرکز_ځای__موقعیت_مرکز":"دوچینه کلی","Polling_Center_Location":"Do Cheena Village ","Verification_Note":"Building","PS_Male":4,"PS_Female":0,"Map_Accuracy":"تعمیر"},"geometry":{"x":7668100.2402754463,"y":3736780.067057915}},{"attributes":{"OBJECTID":6521,"ولایت":"پکتيا","Province":"PAKTYA","PC_Code":"1301001","ولسوالي":"گردیز","District":"GARDEZ","د_مرکز_نوم__نام_مرکز":"عبدالحئ عالی لیسه","Polling_Center_Name":"Abdul Hai High School","د_مرکز_ځای__موقعیت_مرکز":"گردیز ښار","Polling_Center_Location":"Gardez City ","Verification_Note":"Building","PS_Male":8,"PS_Female":0,"Map_Accuracy":"تعمیر"},"geometry":{"x":7705678.6914014183,"y":3975428.8165630549}},{"attributes":{"OBJECTID":6522,"ولایت":"پکتيا","Province":"PAKTYA","PC_Code":"1301002","ولسوالي":"گردیز","District":"GARDEZ","د_مرکز_نوم__نام_مرکز":"نسوان شهری لیسه","Polling_Center_Name":"City Girls High School","د_مرکز_ځای__موقعیت_مرکز":"گردیز ښار","Polling_Center_Location":"Gardez City ","Verification_Note":"Building","PS_Male":0,"PS_Female":5,"Map_Accuracy":"تعمیر"},"geometry":{"x":7705769.09841267,"y":3975745.8820648715}},{"attributes":{"OBJECTID":6523,"ولایت":"پکتيا","Province":"PAKTYA","PC_Code":"1304113","ولسوالي":"شواک","District":"SHWAK","د_مرکز_نوم__نام_مرکز":"د شبک ابتدائیه مکتب","Polling_Center_Name":"Shabak Primary School","د_مرکز_ځای__موقعیت_مرکز":" شبک","Polling_Center_Location":"Shabak","Verification_Note":"Building","PS_Male":2,"PS_Female":2,"Map_Accuracy":"تعمیر"},"geometry":{"x":7723879.1754508726,"y":3947721.4403839484}},{"attributes":{"OBJECTID":6524,"ولایت":"پکتيا","Province":"PAKTYA","PC_Code":"1305114","ولسوالي":"وزه ځدراڼ","District":"WUZA ZADRAN","د_مرکز_نوم__نام_مرکز":"وزی ابتدائیه مکتب","Polling_Center_Name":"Waza Primary School","د_مرکز_ځای__موقعیت_مرکز":"وزی کلی ","Polling_Center_Location":"Waza Village","Verification_Note":"Building","PS_Male":2,"PS_Female":0,"Map_Accuracy":"تعمیر"},"geometry":{"x":7729887.1451419219,"y":3944127.33553344}},{"attributes":{"OBJECTID":6525,"ولایت":"بدخشان","Province":"BADAKHSHAN","PC_Code":"1723202","ولسوالي":"اشکاشم","District":"ESHKASHIM","د_مرکز_نوم__نام_مرکز":"مکتب خوش پاک ","Polling_Center_Name":"Khosh Paak Schook","د_مرکز_ځای__موقعیت_مرکز":"خوش پاک ","Polling_Center_Location":"Khosh Paak","Verification_Note":"Building","PS_Male":1,"PS_Female":1,"Map_Accuracy":"تعمیر"},"geometry":{"x":7957464.78476806,"y":4392363.4493111894}},{"attributes":{"OBJECTID":6526,"ولایت":"کندز","Province":"KUNDUZ","PC_Code":"1904213","ولسوالي":"خان آباد","District":"KHAN ABAD","د_مرکز_نوم__نام_مرکز":"مسجد نایمان","Polling_Center_Name":"Nayman Mosque","د_مرکز_ځای__موقعیت_مرکز":"قریه نایمان","Polling_Center_Location":"Nayman Village","Verification_Note":"Building","PS_Male":1,"PS_Female":1,"Map_Accuracy":"تعمیر"},"geometry":{"x":7695206.1934195794,"y":4349350.3310024738}},{"attributes":{"OBJECTID":6527,"ولایت":"کندز","Province":"KUNDUZ","PC_Code":"1905057","ولسوالي":"حضرت امام صاحب","District":"HAZRAT-E-IMAM SAHIB","د_مرکز_نوم__نام_مرکز":"مکتب کلباد","Polling_Center_Name":"Kulbad School","د_مرکز_ځای__موقعیت_مرکز":"قریه کلباد","Polling_Center_Location":"Kulbad Village","Verification_Note":"Building","PS_Male":3,"PS_Female":2,"Map_Accuracy":"تعمیر"},"geometry":{"x":7701878.6469622925,"y":4454271.23049856}},{"attributes":{"OBJECTID":6528,"ولایت":"کندز","Province":"KUNDUZ","PC_Code":"1905076","ولسوالي":"حضرت امام صاحب","District":"HAZRAT-E-IMAM SAHIB","د_مرکز_نوم__نام_مرکز":"مکتب ایسکی","Polling_Center_Name":"Aiskee School","د_مرکز_ځای__موقعیت_مرکز":"قاری کمال","Polling_Center_Location":"Qari Kamal","Verification_Note":"Building","PS_Male":2,"PS_Female":2,"Map_Accuracy":"تعمیر"},"geometry":{"x":7675308.8340893015,"y":4476032.8712304533}},{"attributes":{"OBJECTID":6529,"ولایت":"کندز","Province":"KUNDUZ","PC_Code":"1905077","ولسوالي":"حضرت امام صاحب","District":"HAZRAT-E-IMAM SAHIB","د_مرکز_نوم__نام_مرکز":"مکتب جوی بیگم","Polling_Center_Name":"Joy Begum School","د_مرکز_ځای__موقعیت_مرکز":"قریه جوی بیگم","Polling_Center_Location":"Joy Begum Village","Verification_Note":"Village","PS_Male":1,"PS_Female":1,"Map_Accuracy":"قریه"},"geometry":{"x":7675566.1346207447,"y":4459044.0764437914}},{"attributes":{"OBJECTID":6530,"ولایت":"سمنگان","Province":"SAMANGAN","PC_Code":"2001017","ولسوالي":"ایبک","District":"AYBAK","د_مرکز_نوم__نام_مرکز":"مکتب ابتدائیهء بابه لر","Polling_Center_Name":"Baba Lar Primary School","د_مرکز_ځای__موقعیت_مرکز":"قریه بابه لر","Polling_Center_Location":"Baba Lar Village","Verification_Note":"Building","PS_Male":1,"PS_Female":1,"Map_Accuracy":"تعمیر"},"geometry":{"x":7616362.7809205651,"y":4336853.9611274451}},{"attributes":{"OBJECTID":6531,"ولایت":"سمنگان","Province":"SAMANGAN","PC_Code":"2001018","ولسوالي":"ایبک","District":"AYBAK","د_مرکز_نوم__نام_مرکز":"مکتب متوسطه تیخونک","Polling_Center_Name":"Tekhonak Secondary School","د_مرکز_ځای__موقعیت_مرکز":"قریه تیخونک","Polling_Center_Location":"Tekhonak Village","Verification_Note":"Building","PS_Male":2,"PS_Female":2,"Map_Accuracy":"تعمیر"},"geometry":{"x":7623135.2830782682,"y":4332906.71051088}},{"attributes":{"OBJECTID":6532,"ولایت":"بلخ","Province":"BALKH","PC_Code":"2101019","ولسوالي":"مزار شریف","District":"MAZAR-E-SHARIF","د_مرکز_نوم__نام_مرکز":"مکتب روشانه بلخی","Polling_Center_Name":"Roshana Balkhi School","د_مرکز_ځای__موقعیت_مرکز":"ناحیه پنجم مزار شاروالی ","Polling_Center_Location":"D05 - Nahia 5","Verification_Note":"Building","PS_Male":2,"PS_Female":2,"Map_Accuracy":"تعمیر"},"geometry":{"x":7470036.5168307424,"y":4396568.7661941424}},{"attributes":{"OBJECTID":6533,"ولایت":"بلخ","Province":"BALKH","PC_Code":"2101020","ولسوالي":"مزار شریف","District":"MAZAR-E-SHARIF","د_مرکز_نوم__نام_مرکز":"مکتب نهر توپ","Polling_Center_Name":"Nahr Top School","د_مرکز_ځای__موقعیت_مرکز":"ناحیه 5 شهرداری مزار","Polling_Center_Location":"D05 - Nahia 5","Verification_Note":"Building","PS_Male":4,"PS_Female":2,"Map_Accuracy":"تعمیر"},"geometry":{"x":7470472.8491596319,"y":4396240.7586218417}},{"attributes":{"OBJECTID":6534,"ولایت":"بلخ","Province":"BALKH","PC_Code":"2107264","ولسوالي":"شولگره","District":"SHOLGARA","د_مرکز_نوم__نام_مرکز":"مسجد اغر سای","Polling_Center_Name":"Aghar Say Mosque","د_مرکز_ځای__موقعیت_مرکز":"قریه آغر سای","Polling_Center_Location":"Aghar Say Village","Verification_Note":"Building","PS_Male":1,"PS_Female":1,"Map_Accuracy":"تعمیر"},"geometry":{"x":7455989.9897115193,"y":4350026.1573268324}},{"attributes":{"OBJECTID":6535,"ولایت":"بلخ","Province":"BALKH","PC_Code":"2107265","ولسوالي":"شولگره","District":"SHOLGARA","د_مرکز_نوم__نام_مرکز":"مکتب متوسطه دالان","Polling_Center_Name":"Dalan Secondary School","د_مرکز_ځای__موقعیت_مرکز":"قریه دالان","Polling_Center_Location":"Dalan Village","Verification_Note":"Building","PS_Male":2,"PS_Female":1,"Map_Accuracy":"تعمیر"},"geometry":{"x":7477758.8033404239,"y":4329380.1984961033}},{"attributes":{"OBJECTID":6536,"ولایت":"بلخ","Province":"BALKH","PC_Code":"2108224","ولسوالي":"چمتال","District":"CHIMTAL","د_مرکز_نوم__نام_مرکز":"مکتب بارگاه","Polling_Center_Name":"Bargah School","د_مرکز_ځای__موقعیت_مرکز":"قریه بارگای ترکمنیه","Polling_Center_Location":"Bargaay Turkmania","Verification_Note":"Village","PS_Male":3,"PS_Female":2,"Map_Accuracy":"قریه"},"geometry":{"x":7395784.9559599124,"y":4391054.8239159286}},{"attributes":{"OBJECTID":6537,"ولایت":"بلخ","Province":"BALKH","PC_Code":"2108225","ولسوالي":"چمتال","District":"CHIMTAL","د_مرکز_نوم__نام_مرکز":"مکتب ملا جمعه خان","Polling_Center_Name":"Mula Juma Khan School","د_مرکز_ځای__موقعیت_مرکز":"قریه ملا جمعه خان","Polling_Center_Location":"Mula Juma khan Village","Verification_Note":"Building","PS_Male":4,"PS_Female":3,"Map_Accuracy":"تعمیر"},"geometry":{"x":7410412.9660052657,"y":4379304.1970661059}},{"attributes":{"OBJECTID":6538,"ولایت":"ارزگان","Province":"UROZGAN","PC_Code":"2501002","ولسوالي":"ترینکوټ","District":"TIRINKOT","د_مرکز_نوم__نام_مرکز":"مکتب متوسطه نچین","Polling_Center_Name":"Nachin Secondary School","د_مرکز_ځای__موقعیت_مرکز":"نچین","Polling_Center_Location":"Nachin","Verification_Note":"Building","PS_Male":2,"PS_Female":1,"Map_Accuracy":"تعمیر"},"geometry":{"x":7338735.7696597688,"y":3846517.8116434738}},{"attributes":{"OBJECTID":6539,"ولایت":"ارزگان","Province":"UROZGAN","PC_Code":"2501003","ولسوالي":"ترینکوټ","District":"TIRINKOT","د_مرکز_نوم__نام_مرکز":"مسجد حاجی ظاهر","Polling_Center_Name":"Haji Zahir Mosque","د_مرکز_ځای__موقعیت_مرکز":"مکتب ده جوز بارکزایی","Polling_Center_Location":"Maktab Deh Joz Barakzai","Verification_Note":"Building","PS_Male":3,"PS_Female":2,"Map_Accuracy":"تعمیر"},"geometry":{"x":7335164.1049483642,"y":3852784.0761720985}},{"attributes":{"OBJECTID":6540,"ولایت":"کندهار","Province":"کندهار","PC_Code":"2711224","ولسوالي":"سپین بولدک","District":"SPIN BOLDAK","د_مرکز_نوم__نام_مرکز":"د غازي عبدالله خان لیسه","Polling_Center_Name":"Ghazi Abdullah Khan High School","د_مرکز_ځای__موقعیت_مرکز":"سپين بولدك","Polling_Center_Location":"Speen Boldak","Verification_Note":"Building","PS_Male":3,"PS_Female":1,"Map_Accuracy":"تعمیر"},"geometry":{"x":7393173.9339262582,"y":3633330.8430551663}},{"attributes":{"OBJECTID":6541,"ولایت":"کندهار","Province":"کندهار","PC_Code":"2711225","ولسوالي":"سپین بولدک","District":"SPIN BOLDAK","د_مرکز_نوم__نام_مرکز":"اختر زي لوي كلي","Polling_Center_Name":"Akhtarzai Loy Village","د_مرکز_ځای__موقعیت_مرکز":"لوي كاريز","Polling_Center_Location":"Loy Karez","Verification_Note":"Village","PS_Male":4,"PS_Female":1,"Map_Accuracy":"قریه"},"geometry":{"x":7400696.0980477668,"y":3655812.4295136631}},{"attributes":{"OBJECTID":6542,"ولایت":"جوزجان","Province":"JAWZJAN","PC_Code":"2801007","ولسوالي":"شبرغان","District":"SHEBERGHAN","د_مرکز_نوم__نام_مرکز":"لیسه عید محله","Polling_Center_Name":"Eid Mahalla High School","د_مرکز_ځای__موقعیت_مرکز":"ناحیه دوم","Polling_Center_Location":"D02 - Nahia 2","Verification_Note":"Building","PS_Male":4,"PS_Female":2,"Map_Accuracy":"تعمیر"},"geometry":{"x":7315892.4123633206,"y":4393382.7110577449}},{"attributes":{"OBJECTID":6543,"ولایت":"جوزجان","Province":"JAWZJAN","PC_Code":"2801008","ولسوالي":"شبرغان","District":"SHEBERGHAN","د_مرکز_نوم__نام_مرکز":"لیسه غلام سرور شهید","Polling_Center_Name":"Ghulam Sarwar Shaheed High School","د_مرکز_ځای__موقعیت_مرکز":"ناحیه سوم","Polling_Center_Location":"D03 - Nahia 3","Verification_Note":"Building","PS_Male":4,"PS_Female":2,"Map_Accuracy":"تعمیر"},"geometry":{"x":7317911.3382705823,"y":4391412.9948422164}},{"attributes":{"OBJECTID":6544,"ولایت":"جوزجان","Province":"JAWZJAN","PC_Code":"2807034","ولسوالي":"آقچه","District":"AQCHAH","د_مرکز_نوم__نام_مرکز":"لیسه نسوان حیدر آباد","Polling_Center_Name":"Haidar Abad Girls High School","د_مرکز_ځای__موقعیت_مرکز":"قریه حدرآباد","Polling_Center_Location":"Haidar Abad Village","Verification_Note":"Building","PS_Male":2,"PS_Female":1,"Map_Accuracy":"تعمیر"},"geometry":{"x":7374799.82041423,"y":4428597.25252033}},{"attributes":{"OBJECTID":6545,"ولایت":"جوزجان","Province":"JAWZJAN","PC_Code":"2807035","ولسوالي":"آقچه","District":"AQCHAH","د_مرکز_نوم__نام_مرکز":"مسجد بیش اریغ","Polling_Center_Name":"Besh Areegh Mosque","د_مرکز_ځای__موقعیت_مرکز":"قریه بیش اریغ","Polling_Center_Location":"Besh Areegh Village","Verification_Note":"Building","PS_Male":2,"PS_Female":1,"Map_Accuracy":"تعمیر"},"geometry":{"x":7368648.5769725591,"y":4429851.5583227575}},{"attributes":{"OBJECTID":6546,"ولایت":"هلمند","Province":"HELMAND","PC_Code":"3004051","ولسوالي":"نهرسراج","District":"NAHR-E-SARAJ","د_مرکز_نوم__نام_مرکز":"مكتب يخچال ","Polling_Center_Name":"Yakhchal School","د_مرکز_ځای__موقعیت_مرکز":"یخچال","Polling_Center_Location":"Yakhchal","Verification_Note":"Village","PS_Male":2,"PS_Female":2,"Map_Accuracy":"قریه"},"geometry":{"x":7200634.8509810939,"y":3736270.0298094451}},{"attributes":{"OBJECTID":6547,"ولایت":"هلمند","Province":"HELMAND","PC_Code":"3006124","ولسوالي":"گرم سیر","District":"GARM SER","د_مرکز_نوم__نام_مرکز":"مکتب عباس آباد","Polling_Center_Name":"Abbas Abad School","د_مرکز_ځای__موقعیت_مرکز":"عباس آباد","Polling_Center_Location":"Abbas Abad ","Verification_Note":"District","PS_Male":2,"PS_Female":2,"Map_Accuracy":"ولسوالی"},"geometry":{"x":7164209.0786732435,"y":3580351.3131226078}},{"attributes":{"OBJECTID":6548,"ولایت":"هرات","Province":"HERAT","PC_Code":"3202042","ولسوالي":"انجیل","District":"ENJIL","د_مرکز_نوم__نام_مرکز":"مکتب تریاک","Polling_Center_Name":"Taryak School","د_مرکز_ځای__موقعیت_مرکز":"قریه تریاک","Polling_Center_Location":"Taryak Village ","Verification_Note":"Village","PS_Male":2,"PS_Female":1,"Map_Accuracy":"قریه"},"geometry":{"x":6933149.9653871544,"y":4064494.0620270818}},{"attributes":{"OBJECTID":6549,"ولایت":"هرات","Province":"HERAT","PC_Code":"3202043","ولسوالي":"انجیل","District":"ENJIL","د_مرکز_نوم__نام_مرکز":"مکتب اما م شش نور","Polling_Center_Name":"Emam Shash Noor School","د_مرکز_ځای__موقعیت_مرکز":"قریه خشت پاشان","Polling_Center_Location":"Khesht Pashan Village ","Verification_Note":"Building","PS_Male":2,"PS_Female":2,"Map_Accuracy":"تعمیر"},"geometry":{"x":6938114.6399049312,"y":4066046.3456263468}},{"attributes":{"OBJECTID":6550,"ولایت":"هرات","Province":"HERAT","PC_Code":"3206441","ولسوالي":"پشتون زرغون","District":"PASHTUN ZARGHUN","د_مرکز_نوم__نام_مرکز":"مسجد جامع ده شیخ","Polling_Center_Name":"Deh Shaikh Mosque","د_مرکز_ځای__موقعیت_مرکز":"ده شیخ ","Polling_Center_Location":"Deh Shaikh ","Verification_Note":"Village","PS_Male":1,"PS_Female":1,"Map_Accuracy":"قریه"},"geometry":{"x":6962809.120108217,"y":4058615.4855734706}},{"attributes":{"OBJECTID":6551,"ولایت":"هرات","Province":"HERAT","PC_Code":"3207165","ولسوالي":"کشک (رباط سنگی)","District":"KUSHK (RUBAT-E-SANGI)","د_مرکز_نوم__نام_مرکز":"مسجد جامع مرکز کشک رباط سنگی اول","Polling_Center_Name":"Kashak Rubat Sangi Awal  Center Mosque","د_مرکز_ځای__موقعیت_مرکز":"مرکز کشک رباط سنگی اول","Polling_Center_Location":"Markaz-e-Kashak Rubat Sang Awal ","Verification_Note":"Building","PS_Male":2,"PS_Female":1,"Map_Accuracy":"تعمیر"},"geometry":{"x":6917018.0946996734,"y":4136553.66831737}},{"attributes":{"OBJECTID":6552,"ولایت":"هرات","Province":"HERAT","PC_Code":"3207182","ولسوالي":"کشک (رباط سنگی)","District":"KUSHK (RUBAT-E-SANGI)","د_مرکز_نوم__نام_مرکز":"مکتب چپقل","Polling_Center_Name":"Chapqal School ","د_مرکز_ځای__موقعیت_مرکز":" چپقل","Polling_Center_Location":"Chapqal ","Verification_Note":"Village","PS_Male":2,"PS_Female":2,"Map_Accuracy":"قریه"},"geometry":{"x":6923841.2859648727,"y":4177303.7728948444}},{"attributes":{"OBJECTID":6553,"ولایت":"هرات","Province":"HERAT","PC_Code":"3207183","ولسوالي":"کشک (رباط سنگی)","District":"KUSHK (RUBAT-E-SANGI)","د_مرکز_نوم__نام_مرکز":"مکتب جعفر بیک کاودانی","Polling_Center_Name":"Jafar Big Kawdani School ","د_مرکز_ځای__موقعیت_مرکز":"قریه جعفر بیک کاودانی","Polling_Center_Location":"Jafar Big Kawdani  Village","Verification_Note":"Building","PS_Male":2,"PS_Female":1,"Map_Accuracy":"تعمیر"},"geometry":{"x":6938342.6756554283,"y":4127263.1431564689}},{"attributes":{"OBJECTID":6554,"ولایت":"هرات","Province":"HERAT","PC_Code":"3214344","ولسوالي":"شیندند","District":"SHINDAND","د_مرکز_نوم__نام_مرکز":"مسجد فجر","Polling_Center_Name":"Fajer Mosque ","د_مرکز_ځای__موقعیت_مرکز":"قریه فجر علیا","Polling_Center_Location":"Fajer Ulya Village","Verification_Note":"Building","PS_Male":1,"PS_Female":1,"Map_Accuracy":"تعمیر"},"geometry":{"x":6907416.4145852663,"y":3942509.5197239146}},{"attributes":{"OBJECTID":6555,"ولایت":"هرات","Province":"HERAT","PC_Code":"3214345","ولسوالي":"شیندند","District":"SHINDAND","د_مرکز_نوم__نام_مرکز":"مسجد جامع کلاته نظر خان","Polling_Center_Name":"Kalata Nazar Khan Mosque","د_مرکز_ځای__موقعیت_مرکز":"کلاته نظر خان ","Polling_Center_Location":"Kalata Nazar Khan ","Verification_Note":"Building","PS_Male":2,"PS_Female":1,"Map_Accuracy":"تعمیر"},"geometry":{"x":6897466.7118940093,"y":3934900.3413912728}},{"attributes":{"OBJECTID":6556,"ولایت":" فراه","Province":"FARAH","PC_Code":"3310179","ولسوالي":"گلستان","District":"GULISTAN","د_مرکز_نوم__نام_مرکز":" مسجد توت","Polling_Center_Name":"Toot Mosque ","د_مرکز_ځای__موقعیت_مرکز":"توت","Polling_Center_Location":"Toot","Verification_Note":"Village","PS_Male":1,"PS_Female":1,"Map_Accuracy":"قریه"},"geometry":{"x":7067585.4193250947,"y":3870273.7250987738}},{"attributes":{"OBJECTID":6557,"ولایت":"کابل","Province":"KABUL","PC_Code":"0101087","ولسوالي":"کابل - ناحیه 05","District":"KABUL-D05","د_مرکز_نوم__نام_مرکز":"  لیسه نسوان سپین کلی","Polling_Center_Name":"Spin Kalai Girls High School","د_مرکز_ځای__موقعیت_مرکز":"قسمت الف خوشحال مينه","Polling_Center_Location":"Phase A of Khush-hal Mina","Verification_Note":"Building","PS_Male":3,"PS_Female":6,"Map_Accuracy":"تعمیر"},"geometry":{"x":7694045.38605224,"y":4098655.9375848845}},{"attributes":{"OBJECTID":6558,"ولایت":"کابل","Province":"KABUL","PC_Code":"0101105","ولسوالي":"کابل - ناحیه 06","District":"KABUL-D06","د_مرکز_نوم__نام_مرکز":" مسجد شاه ولايت ماب","Polling_Center_Name":"Shah Wolayat Maab Mosque","د_مرکز_ځای__موقعیت_مرکز":" افشار دارالامان","Polling_Center_Location":"Afshar-e-Darul Aman","Verification_Note":"Building","PS_Male":2,"PS_Female":1,"Map_Accuracy":"تعمیر"},"geometry":{"x":7693370.696429655,"y":4091500.6530136615}},{"attributes":{"OBJECTID":6559,"ولایت":"کابل","Province":"KABUL","PC_Code":"0101106","ولسوالي":"کابل - ناحیه 06","District":"KABUL-D06","د_مرکز_نوم__نام_مرکز":" مسجد قايم آل محمد","Polling_Center_Name":"Qaeem Al-e- Mohammad Mosque","د_مرکز_ځای__موقعیت_مرکز":"نو آباد قلعه جبار خان","Polling_Center_Location":"Naw Abad Qala-e-Jabar Khan","Verification_Note":"Building","PS_Male":3,"PS_Female":2,"Map_Accuracy":"تعمیر"},"geometry":{"x":7690535.9678604975,"y":4093581.7356764004}},{"attributes":{"OBJECTID":6560,"ولایت":"کابل","Province":"KABUL","PC_Code":"0101126","ولسوالي":"کابل - ناحیه 07","District":"KABUL-D07","د_مرکز_نوم__نام_مرکز":" لیسه محراب الدین","Polling_Center_Name":"Mehrabuddin High School","د_مرکز_ځای__موقعیت_مرکز":"سرک چهلستون - ده دانا","Polling_Center_Location":"Chehel Seton Road-Deh Dana","Verification_Note":"Building","PS_Male":4,"PS_Female":4,"Map_Accuracy":"تعمیر"},"geometry":{"x":7696670.0758929625,"y":4092199.3257922158}},{"attributes":{"OBJECTID":6561,"ولایت":"کابل","Province":"KABUL","PC_Code":"0101127","ولسوالي":"کابل - ناحیه 07","District":"KABUL-D07","د_مرکز_نوم__نام_مرکز":"انستیتوت تخنيکي","Polling_Center_Name":"Technical Institute","د_مرکز_ځای__موقعیت_مرکز":"تني کوت","Polling_Center_Location":"Tani Kot","Verification_Note":"Building","PS_Male":4,"PS_Female":3,"Map_Accuracy":"تعمیر"},"geometry":{"x":7699369.9754080661,"y":4093182.3387140632}},{"attributes":{"OBJECTID":6562,"ولایت":"کابل","Province":"KABUL","PC_Code":"0101172","ولسوالي":"کابل - ناحیه 08","District":"KABUL-D08","د_مرکز_نوم__نام_مرکز":" مسجد حکيم سنايي","Polling_Center_Name":"Hakim Sanie Mosque","د_مرکز_ځای__موقعیت_مرکز":"سرک سه کارته نو","Polling_Center_Location":"3rd Road of Kart-e-Naw","Verification_Note":"Building","PS_Male":3,"PS_Female":1,"Map_Accuracy":"تعمیر"},"geometry":{"x":7706166.8373872973,"y":4097679.07453198}},{"attributes":{"OBJECTID":6563,"ولایت":"کابل","Province":"KABUL","PC_Code":"0101173","ولسوالي":"کابل - ناحیه 08","District":"KABUL-D08","د_مرکز_نوم__نام_مرکز":" مسجد رنگه","Polling_Center_Name":"Ranga Mosque","د_مرکز_ځای__موقعیت_مرکز":"قلعچه","Polling_Center_Location":"Qalacha","Verification_Note":"Building","PS_Male":2,"PS_Female":1,"Map_Accuracy":"تعمیر"},"geometry":{"x":7704607.7188631445,"y":4095261.5102347583}},{"attributes":{"OBJECTID":6564,"ولایت":"کابل","Province":"KABUL","PC_Code":"0101178","ولسوالي":"کابل - ناحیه 09","District":"KABUL-D09","د_مرکز_نوم__نام_مرکز":" مسجد حضرت محمد مصطفي","Polling_Center_Name":"Hazrat Mohammad Mustafa Mosque","د_مرکز_ځای__موقعیت_مرکز":"مکروريان","Polling_Center_Location":"Makrorian","Verification_Note":"Building","PS_Male":3,"PS_Female":1,"Map_Accuracy":"تعمیر"},"geometry":{"x":7703988.165784359,"y":4101039.8811793774}},{"attributes":{"OBJECTID":6565,"ولایت":"کابل","Province":"KABUL","PC_Code":"0101179","ولسوالي":"کابل - ناحیه 09","District":"KABUL-D09","د_مرکز_نوم__نام_مرکز":" ریاست بنائی ","Polling_Center_Name":"Reyasat Banaye","د_مرکز_ځای__موقعیت_مرکز":"جوار مرکز تریننگ مخابرات","Polling_Center_Location":"Near to Radio Training Center","Verification_Note":"Building","PS_Male":3,"PS_Female":1,"Map_Accuracy":"تعمیر"},"geometry":{"x":7704301.2897008434,"y":4101275.23407916}},{"attributes":{"OBJECTID":6566,"ولایت":"کابل","Province":"KABUL","PC_Code":"0101193","ولسوالي":"کابل - ناحیه 10","District":"KABUL-D10","د_مرکز_نوم__نام_مرکز":" مسجد امام ابو حنيفه","Polling_Center_Name":"Imam-e- Abu Hanifa Mosque","د_مرکز_ځای__موقعیت_مرکز":"اخير تايمني","Polling_Center_Location":"End of Taimani","Verification_Note":"Building","PS_Male":1,"PS_Female":1,"Map_Accuracy":"تعمیر"},"geometry":{"x":7699889.26858747,"y":4104037.0526064262}},{"attributes":{"OBJECTID":6567,"ولایت":"کابل","Province":"KABUL","PC_Code":"0101194","ولسوالي":"کابل - ناحیه 10","District":"KABUL-D10","د_مرکز_نوم__نام_مرکز":" مکتب متوسطه عزيزه افغان","Polling_Center_Name":"Aziza Afghan Secondary School","د_مرکز_ځای__موقعیت_مرکز":"بلاک هاي شاروالي","Polling_Center_Location":"Bolak Haie Sharwali","Verification_Note":"Building","PS_Male":3,"PS_Female":2,"Map_Accuracy":"تعمیر"},"geometry":{"x":7703291.432676211,"y":4103146.99196171}},{"attributes":{"OBJECTID":6568,"ولایت":"کابل","Province":"KABUL","PC_Code":"0101233","ولسوالي":"کابل - ناحیه 11","District":"KABUL-D11","د_مرکز_نوم__نام_مرکز":" لیسه مخفی بدخشی","Polling_Center_Name":"Makhfi Badakhshi High School","د_مرکز_ځای__موقعیت_مرکز":"گولايي پارک","Polling_Center_Location":"Hesa-e-Awal, Khair Khana","Verification_Note":"Building","PS_Male":3,"PS_Female":3,"Map_Accuracy":"تعمیر"},"geometry":{"x":7696767.6897280514,"y":4106855.2078272551}},{"attributes":{"OBJECTID":6569,"ولایت":"کابل","Province":"KABUL","PC_Code":"0101234","ولسوالي":"کابل - ناحیه 11","District":"KABUL-D11","د_مرکز_نوم__نام_مرکز":" ليسه خليل الله خليلي","Polling_Center_Name":"Khalilullah Khalili High School","د_مرکز_ځای__موقعیت_مرکز":"حصه اول خير خانه","Polling_Center_Location":"Hesa-e-Awal, Khair Khana","Verification_Note":"Building","PS_Male":3,"PS_Female":2,"Map_Accuracy":"تعمیر"},"geometry":{"x":7694762.2089888826,"y":4107018.2724194974}},{"attributes":{"OBJECTID":6570,"ولایت":"کابل","Province":"KABUL","PC_Code":"0101294","ولسوالي":"کابل - ناحیه 15","District":"KABUL-D15","د_مرکز_نوم__نام_مرکز":"لیسه بی بی ساره","Polling_Center_Name":"Bi Bi Sara High School","د_مرکز_ځای__موقعیت_مرکز":"حصه سوم خير خانه","Polling_Center_Location":"Hesa Sewom-e-Khair Khana","Verification_Note":"Building","PS_Male":4,"PS_Female":4,"Map_Accuracy":"تعمیر"},"geometry":{"x":7698083.5284106322,"y":4106131.7517360896}},{"attributes":{"OBJECTID":6571,"ولایت":"کابل","Province":"KABUL","PC_Code":"0101295","ولسوالي":"کابل - ناحیه 15","District":"KABUL-D15","د_مرکز_نوم__نام_مرکز":" مسجد سرور کاينات","Polling_Center_Name":"Sarwar-e-Kaienat Mosque","د_مرکز_ځای__موقعیت_مرکز":"حصه سوم خير خانه","Polling_Center_Location":"Hesa Sewom-e-Khair Khana","Verification_Note":"Building","PS_Male":3,"PS_Female":3,"Map_Accuracy":"تعمیر"},"geometry":{"x":7694897.9564287364,"y":4106124.0672085732}},{"attributes":{"OBJECTID":6572,"ولایت":"کابل","Province":"KABUL","PC_Code":"0101303","ولسوالي":"کابل - ناحیه 15","District":"KABUL-D15","د_مرکز_نوم__نام_مرکز":" لیسه محمد انور بسمل ","Polling_Center_Name":"Mohammad Anwer Bismel High School","د_مرکز_ځای__موقعیت_مرکز":"پنجصد فاميلي","Polling_Center_Location":"500 Family","Verification_Note":"Building","PS_Male":4,"PS_Female":4,"Map_Accuracy":"تعمیر"},"geometry":{"x":7698173.8382399715,"y":4108075.4482085779}},{"attributes":{"OBJECTID":6573,"ولایت":"کابل","Province":"KABUL","PC_Code":"0101504","ولسوالي":"کابل - ناحیه 15","District":"KABUL-D15","د_مرکز_نوم__نام_مرکز":"مسجدم جامع ام زفر","Polling_Center_Name":"Im-e-Zafra Mosque","د_مرکز_ځای__موقعیت_مرکز":"۵۰۰ فامیلی، سر تپه شهدا","Polling_Center_Location":"Family, Sar-e-Tapa-e-Shohada 500","Verification_Note":"Building","PS_Male":3,"PS_Female":2,"Map_Accuracy":"تعمیر"},"geometry":{"x":7697289.3462202512,"y":4108780.1279897466}},{"attributes":{"OBJECTID":6574,"ولایت":"کابل","Province":"KABUL","PC_Code":"0101312","ولسوالي":"کابل - ناحیه 16","District":"KABUL-D16","د_مرکز_نوم__نام_مرکز":" مکتب متوسطه قلعه زمان خان","Polling_Center_Name":"Qala Zaman Khan Secondary School","د_مرکز_ځای__موقعیت_مرکز":"قلعه زمان خان","Polling_Center_Location":"Qala-e-Zaman Khan","Verification_Note":"Building","PS_Male":3,"PS_Female":3,"Map_Accuracy":"تعمیر"},"geometry":{"x":7704707.8051041253,"y":4099864.2268969789}},{"attributes":{"OBJECTID":6575,"ولایت":"کابل","Province":"KABUL","PC_Code":"0101320","ولسوالي":"کابل - ناحیه 16","District":"KABUL-D16","د_مرکز_نوم__نام_مرکز":"مسجد ابو ايوب انصاري","Polling_Center_Name":"Abu Ayub Ansari Mosque","د_مرکز_ځای__موقعیت_مرکز":"قلعه زمان خان","Polling_Center_Location":"Qala-e-Zaman Khan","Verification_Note":"Building","PS_Male":1,"PS_Female":1,"Map_Accuracy":"تعمیر"},"geometry":{"x":7704859.6203992851,"y":4100868.1669399962}},{"attributes":{"OBJECTID":6576,"ولایت":"کابل","Province":"KABUL","PC_Code":"0101321","ولسوالي":"کابل - ناحیه 16","District":"KABUL-D16","د_مرکز_نوم__نام_مرکز":"مسجد حضرت بلال","Polling_Center_Name":"Hazrat-e-Bilal Mosque","د_مرکز_ځای__موقعیت_مرکز":"قلعه زمان خان","Polling_Center_Location":"Qala-e-Zaman Khan","Verification_Note":"Village","PS_Male":2,"PS_Female":1,"Map_Accuracy":"قریه"},"geometry":{"x":7705485.0021666065,"y":4100133.7887502462}},{"attributes":{"OBJECTID":6577,"ولایت":"کابل","Province":"KABUL","PC_Code":"0101510","ولسوالي":"کابل - ناحیه 21","District":"KABUL-D21","د_مرکز_نوم__نام_مرکز":" مسجد شریف قول باهو","Polling_Center_Name":"Sharif Qul Bahu Mosque","د_مرکز_ځای__موقعیت_مرکز":"بت خاک","Polling_Center_Location":"Bot Khak","Verification_Note":"Building","PS_Male":2,"PS_Female":3,"Map_Accuracy":"تعمیر"},"geometry":{"x":7720479.6242532171,"y":4096752.7352268621}},{"attributes":{"OBJECTID":6578,"ولایت":"پروان","Province":"PARWAN","PC_Code":"0302119","ولسوالي":"بگرام ","District":"BAGRAM","د_مرکز_نوم__نام_مرکز":"مسجد باریک آب ","Polling_Center_Name":"Barik Aab Mosque","د_مرکز_ځای__موقعیت_مرکز":"باریک آب ","Polling_Center_Location":"Barik Aab","Verification_Note":"Building","PS_Male":3,"PS_Female":2,"Map_Accuracy":"تعمیر"},"geometry":{"x":7712678.1526275054,"y":4151985.5039489269}},{"attributes":{"OBJECTID":6579,"ولایت":"پروان","Province":"PARWAN","PC_Code":"0302120","ولسوالي":"بگرام ","District":"BAGRAM","د_مرکز_نوم__نام_مرکز":"لیسه قلعه ملک ","Polling_Center_Name":"Qala-e-Malik High School","د_مرکز_ځای__موقعیت_مرکز":"قلعه ملک ","Polling_Center_Location":"Qala-e-Malak","Verification_Note":"Building","PS_Male":2,"PS_Female":1,"Map_Accuracy":"تعمیر"},"geometry":{"x":7704413.9851005413,"y":4159762.2248335257}},{"attributes":{"OBJECTID":6580,"ولایت":"پروان","Province":"PARWAN","PC_Code":"0308149","ولسوالي":"کوه صافی","District":"KOHI SAFI","د_مرکز_نوم__نام_مرکز":"مسجد شمال خیل ","Polling_Center_Name":"Shamal Khel Mosque","د_مرکز_ځای__موقعیت_مرکز":"شمال خیل ","Polling_Center_Location":"Shamal Khel ","Verification_Note":"Building","PS_Male":1,"PS_Female":1,"Map_Accuracy":"تعمیر"},"geometry":{"x":7731567.0909545906,"y":4139990.87125358}},{"attributes":{"OBJECTID":6581,"ولایت":"وردک","Province":"WARDAK","PC_Code":"0407031","ولسوالي":"حصه اول بهسود","District":"HISSA-E-AWALI BIHSUD","د_مرکز_نوم__نام_مرکز":"مسجد گردی","Polling_Center_Name":"Girdi Mosque","د_مرکز_ځای__موقعیت_مرکز":"سیاه سنگ","Polling_Center_Location":"Sia Sang","Verification_Note":"Village","PS_Male":1,"PS_Female":1,"Map_Accuracy":"قریه"},"geometry":{"x":7584653.8542179316,"y":4110971.4886184111}},{"attributes":{"OBJECTID":6582,"ولایت":"وردک","Province":"WARDAK","PC_Code":"0407032","ولسوالي":"حصه اول بهسود","District":"HISSA-E-AWALI BIHSUD","د_مرکز_نوم__نام_مرکز":"دوکان حاجی میرزا","Polling_Center_Name":"Haji Merza Shop","د_مرکز_ځای__موقعیت_مرکز":"قریه دهن سیاه سنگ","Polling_Center_Location":"Dahan-e-Sia Sang Village ","Verification_Note":"Building","PS_Male":3,"PS_Female":2,"Map_Accuracy":"تعمیر"},"geometry":{"x":7596789.4787505716,"y":4096913.432229422}},{"attributes":{"OBJECTID":6583,"ولایت":"لوگر","Province":"LOGAR","PC_Code":"0503043","ولسوالي":"چرخ","District":"CHARKH","د_مرکز_نوم__نام_مرکز":"مکتب مولانا یعقوب چرخی","Polling_Center_Name":"Mawlana Yaqoub Charkhi School","د_مرکز_ځای__موقعیت_مرکز":"گرم آبه","Polling_Center_Location":"Garm Aaba","Verification_Note":"Building","PS_Male":6,"PS_Female":3,"Map_Accuracy":"تعمیر"},"geometry":{"x":7674768.70858039,"y":4002062.6679055095}},{"attributes":{"OBJECTID":6584,"ولایت":"لوگر","Province":"LOGAR","PC_Code":"0505066","ولسوالي":"محمد آغه","District":"MOHAMMAD AGHA","د_مرکز_نوم__نام_مرکز":"متوسطه اناث سرخ آباد","Polling_Center_Name":"Surkh Abad Girls Secondary School","د_مرکز_ځای__موقعیت_مرکز":"سرخ آباد","Polling_Center_Location":"Surkh Abad","Verification_Note":"Building","PS_Male":2,"PS_Female":1,"Map_Accuracy":"تعمیر"},"geometry":{"x":7689097.7779255845,"y":4052754.5071817338}},{"attributes":{"OBJECTID":6585,"ولایت":"لوگر","Province":"LOGAR","PC_Code":"0505067","ولسوالي":"محمد آغه","District":"MOHAMMAD AGHA","د_مرکز_نوم__نام_مرکز":"لیسه عالی محمد آغه","Polling_Center_Name":"Mohammad Agha High School","د_مرکز_ځای__موقعیت_مرکز":"پل قندهاری","Polling_Center_Location":"Pul-e-Qandahari","Verification_Note":"Building","PS_Male":3,"PS_Female":1,"Map_Accuracy":"تعمیر"},"geometry":{"x":7692707.9836710915,"y":4059099.6438180283}},{"attributes":{"OBJECTID":6586,"ولایت":"ننگرهار","Province":"NANGARHAR","PC_Code":"0602064","ولسوالي":"بهسود","District":"BEHSUD","د_مرکز_نوم__نام_مرکز":"محمدی صاحبزاده لیسه","Polling_Center_Name":"Mohammady Sahebzada High School","د_مرکز_ځای__موقعیت_مرکز":"بلندغر","Polling_Center_Location":"Baland Ghar","Verification_Note":"Building","PS_Male":4,"PS_Female":3,"Map_Accuracy":"تعمیر"},"geometry":{"x":7850101.1255884953,"y":4089451.6474296078}},{"attributes":{"OBJECTID":6587,"ولایت":"ننگرهار","Province":"NANGARHAR","PC_Code":"0602066","ولسوالي":"بهسود","District":"BEHSUD","د_مرکز_نوم__نام_مرکز":"حاجی مزدور تحویلدار دیره","Polling_Center_Name":"Haji Mazdoor Khan Tahwildar Dera","د_مرکز_ځای__موقعیت_مرکز":"ولايتي کلی","Polling_Center_Location":"Walayaty Kelae","Verification_Note":"Village","PS_Male":4,"PS_Female":2,"Map_Accuracy":"قریه"},"geometry":{"x":7847660.0828513168,"y":4088543.1620187685}},{"attributes":{"OBJECTID":6588,"ولایت":"ننگرهار","Province":"NANGARHAR","PC_Code":"0613343","ولسوالي":"کوټ","District":"KOT","د_مرکز_نوم__نام_مرکز":"متوسطه مکتب سيد احمدخيل","Polling_Center_Name":"Sayed Ahmad Khel Secondary School","د_مرکز_ځای__موقعیت_مرکز":"سيد احمدخيل","Polling_Center_Location":"Sayed Ahmad Khel","Verification_Note":"Building","PS_Male":2,"PS_Female":1,"Map_Accuracy":"تعمیر"},"geometry":{"x":7859163.9503493831,"y":4048357.183725819}},{"attributes":{"OBJECTID":6589,"ولایت":"ننگرهار","Province":"NANGARHAR","PC_Code":"0613344","ولسوالي":"کوټ","District":"KOT","د_مرکز_نوم__نام_مرکز":"دواني کلې لوي جومات ","Polling_Center_Name":"Dwani Village Big Mosque","د_مرکز_ځای__موقعیت_مرکز":"دواني کلې","Polling_Center_Location":"Dwanai Village","Verification_Note":"Village","PS_Male":3,"PS_Female":0,"Map_Accuracy":"قریه"},"geometry":{"x":7860521.50601114,"y":4049812.6228481159}},{"attributes":{"OBJECTID":6590,"ولایت":"ننگرهار","Province":"NANGARHAR","PC_Code":"0614497","ولسوالي":"ګوشته","District":"GOSHTA","د_مرکز_نوم__نام_مرکز":"معلم غني کور","Polling_Center_Name":"Malem Ghani House","د_مرکز_ځای__موقعیت_مرکز":"خوګاخيل","Polling_Center_Location":"KhogaKhel","Verification_Note":"Village","PS_Male":0,"PS_Female":2,"Map_Accuracy":"قریه"},"geometry":{"x":7894098.4444571622,"y":4095364.9585421532}},{"attributes":{"OBJECTID":6591,"ولایت":"ننگرهار","Province":"NANGARHAR","PC_Code":"0614498","ولسوالي":"ګوشته","District":"GOSHTA","د_مرکز_نوم__نام_مرکز":"تش ميدان","Polling_Center_Name":"Open Space","د_مرکز_ځای__موقعیت_مرکز":"علي خيل کلی","Polling_Center_Location":"Ali Khel Village","Verification_Note":"Village","PS_Male":2,"PS_Female":0,"Map_Accuracy":"قریه"},"geometry":{"x":7894788.3180582821,"y":4093373.6519761607}},{"attributes":{"OBJECTID":6592,"ولایت":"پنجشیر","Province":"PANJSHIR","PC_Code":"0806087","ولسوالي":"شتل","District":"SHUTUL","د_مرکز_نوم__نام_مرکز":"مسجد روی دره ","Polling_Center_Name":"Roye Dara Mosque","د_مرکز_ځای__موقعیت_مرکز":"روی دره","Polling_Center_Location":"Roye Dara","Verification_Note":"Village","PS_Male":2,"PS_Female":1,"Map_Accuracy":"قریه"},"geometry":{"x":7714265.3470404334,"y":4197104.8006342724}},{"attributes":{"OBJECTID":6593,"ولایت":"پنجشیر","Province":"PANJSHIR","PC_Code":"0806088","ولسوالي":"شتل","District":"SHUTUL","د_مرکز_نوم__نام_مرکز":"مسجد جانان جوی ","Polling_Center_Name":"Janan Joy Mosque","د_مرکز_ځای__موقعیت_مرکز":"جانان جوی","Polling_Center_Location":"Janan Joy","Verification_Note":"Village","PS_Male":2,"PS_Female":1,"Map_Accuracy":"قریه"},"geometry":{"x":7710206.8610450961,"y":4189534.0769605339}},{"attributes":{"OBJECTID":6594,"ولایت":"بغلان","Province":"BAGHLAN","PC_Code":"0901027","ولسوالي":"پلخمری","District":"PUL-E-KHUMRI","د_مرکز_نوم__نام_مرکز":"لوگری نزدیک نهر جوی نو","Polling_Center_Name":"Loogari near to Joy-e-Naw River","د_مرکز_ځای__موقعیت_مرکز":"لوگری","Polling_Center_Location":"Logari","Verification_Note":"Building","PS_Male":2,"PS_Female":1,"Map_Accuracy":"تعمیر"},"geometry":{"x":7639208.5109919533,"y":4294055.4301661849}},{"attributes":{"OBJECTID":6595,"ولایت":"بغلان","Province":"BAGHLAN","PC_Code":"0901028","ولسوالي":"پلخمری","District":"PUL-E-KHUMRI","د_مرکز_نوم__نام_مرکز":"نزدیک قریه شهر نو خروتی گورگان","Polling_Center_Name":"Near to Shahr-e-Naw Kharoti Gorgan ","د_مرکز_ځای__موقعیت_مرکز":"شهر نو خروتی گورگان","Polling_Center_Location":"Shahr-e-Naw Kharoti Gorgan ","Verification_Note":"Building","PS_Male":2,"PS_Female":1,"Map_Accuracy":"تعمیر"},"geometry":{"x":7633986.5982816592,"y":4293145.8707320392}},{"attributes":{"OBJECTID":6596,"ولایت":"بغلان","Province":"BAGHLAN","PC_Code":"0905060","ولسوالي":"بغلان جدید","District":"BAGLAN-E-JADEED","د_مرکز_نوم__نام_مرکز":"مکتب زرینه","Polling_Center_Name":"Zeerina School","د_مرکز_ځای__موقعیت_مرکز":"باغ زراعت","Polling_Center_Location":"Bagh-e-Zaraut","Verification_Note":"Building","PS_Male":1,"PS_Female":1,"Map_Accuracy":"تعمیر"},"geometry":{"x":7646163.9353406914,"y":4316157.8377695829}},{"attributes":{"OBJECTID":6597,"ولایت":"بغلان","Province":"BAGHLAN","PC_Code":"0905061","ولسوالي":"بغلان جدید","District":"BAGLAN-E-JADEED","د_مرکز_نوم__نام_مرکز":"مکتب خواجه خان بابا","Polling_Center_Name":"Khwaja Khan Baba School","د_مرکز_ځای__موقعیت_مرکز":"سرک دوازده خواجه خان","Polling_Center_Location":"Khawaja Khan Street 12","Verification_Note":"Building","PS_Male":1,"PS_Female":1,"Map_Accuracy":"تعمیر"},"geometry":{"x":7649800.7765007541,"y":4322307.662713021}},{"attributes":{"OBJECTID":6598,"ولایت":"بغلان","Province":"BAGHLAN","PC_Code":"0905237","ولسوالي":"بغلان جدید","District":"BAGLAN-E-JADEED","د_مرکز_نوم__نام_مرکز":"مسجد تورانی ها","Polling_Center_Name":"Torani Ha Mosque","د_مرکز_ځای__موقعیت_مرکز":"قشلاق تورانی ها","Polling_Center_Location":"Torani Ha Village","Verification_Note":"Building","PS_Male":1,"PS_Female":1,"Map_Accuracy":"تعمیر"},"geometry":{"x":7653705.2575465515,"y":4321796.46328412}},{"attributes":{"OBJECTID":6599,"ولایت":"بغلان","Province":"BAGHLAN","PC_Code":"0906112","ولسوالي":"خنجان","District":"KHINJAN","د_مرکز_نوم__نام_مرکز":"لیسه زکور خنجان ","Polling_Center_Name":"Khenjan Boys High School","د_مرکز_ځای__موقعیت_مرکز":"مرکز شهر خنجان","Polling_Center_Location":"Khenjan City Capital  ","Verification_Note":"Building","PS_Male":3,"PS_Female":2,"Map_Accuracy":"تعمیر"},"geometry":{"x":7670063.2459497005,"y":4245616.935798049}}]}