{"objectIdFieldName":"OBJECTID","globalIdFieldName":"","geometryType":"esriGeometryPoint","spatialReference":{"wkid":102100,"latestWkid":3857},"fields":[{"name":"OBJECTID","type":"esriFieldTypeOID","alias":"OBJECTID","sqlType":"sqlTypeOther","domain":null,"defaultValue":null},{"name":"ولایت","type":"esriFieldTypeString","alias":"ولایت","sqlType":"sqlTypeOther","length":255,"domain":null,"defaultValue":null},{"name":"Province","type":"esriFieldTypeString","alias":"Province","sqlType":"sqlTypeOther","length":255,"domain":null,"defaultValue":null},{"name":"PC_Code","type":"esriFieldTypeString","alias":"PC_Code","sqlType":"sqlTypeOther","length":255,"domain":null,"defaultValue":null},{"name":"ولسوالي","type":"esriFieldTypeString","alias":"ولسوالي","sqlType":"sqlTypeOther","length":255,"domain":null,"defaultValue":null},{"name":"District","type":"esriFieldTypeString","alias":"District","sqlType":"sqlTypeOther","length":255,"domain":null,"defaultValue":null},{"name":"د_مرکز_نوم__نام_مرکز","type":"esriFieldTypeString","alias":"د_مرکز_نوم__نام_مرکز","sqlType":"sqlTypeOther","length":255,"domain":null,"defaultValue":null},{"name":"Polling_Center_Name","type":"esriFieldTypeString","alias":"Polling_Center_Name","sqlType":"sqlTypeOther","length":255,"domain":null,"defaultValue":null},{"name":"د_مرکز_ځای__موقعیت_مرکز","type":"esriFieldTypeString","alias":"د_مرکز_ځای__موقعیت_مرکز","sqlType":"sqlTypeOther","length":255,"domain":null,"defaultValue":null},{"name":"Polling_Center_Location","type":"esriFieldTypeString","alias":"Polling_Center_Location","sqlType":"sqlTypeOther","length":255,"domain":null,"defaultValue":null},{"name":"Verification_Note","type":"esriFieldTypeString","alias":"Verification_Note","sqlType":"sqlTypeOther","length":250,"domain":null,"defaultValue":null},{"name":"PS_Male","type":"esriFieldTypeSmallInteger","alias":"PS_Male","sqlType":"sqlTypeOther","domain":null,"defaultValue":null},{"name":"PS_Female","type":"esriFieldTypeSmallInteger","alias":"PS_Female","sqlType":"sqlTypeOther","domain":null,"defaultValue":null},{"name":"Map_Accuracy","type":"esriFieldTypeString","alias":"Map_Accuracy","sqlType":"sqlTypeOther","length":10,"domain":null,"defaultValue":null}],"features":[{"attributes":{"OBJECTID":6600,"ولایت":"باميان","Province":"BAMYAN","PC_Code":"1003046","ولسوالي":"سیغان","District":"SAIGHAN","د_مرکز_نوم__نام_مرکز":"مسجد جو دره","Polling_Center_Name":"Jawdarah Mosque","د_مرکز_ځای__موقعیت_مرکز":"جو دره","Polling_Center_Location":"Jawdarah","Verification_Note":"Building","PS_Male":1,"PS_Female":1,"Map_Accuracy":"تعمیر"},"geometry":{"x":7555857.1650629044,"y":4173651.9102191776}},{"attributes":{"OBJECTID":6601,"ولایت":"باميان","Province":"BAMYAN","PC_Code":"1003047","ولسوالي":"سیغان","District":"SAIGHAN","د_مرکز_نوم__نام_مرکز":"مسجد چراغدان","Polling_Center_Name":"Cheraaghdan Mosque","د_مرکز_ځای__موقعیت_مرکز":"چراغدان","Polling_Center_Location":"Cheraaghdan","Verification_Note":"Building","PS_Male":1,"PS_Female":1,"Map_Accuracy":"تعمیر"},"geometry":{"x":7543531.4981219806,"y":4189245.2175309509}},{"attributes":{"OBJECTID":6602,"ولایت":"باميان","Province":"BAMYAN","PC_Code":"1005070","ولسوالي":"یکاولنگ","District":"YAKAWLANG","د_مرکز_نوم__نام_مرکز":"منبر نیشر","Polling_Center_Name":"Munbar-e-Naishar ","د_مرکز_ځای__موقعیت_مرکز":"نیشر","Polling_Center_Location":"Naishar","Verification_Note":"Building","PS_Male":1,"PS_Female":1,"Map_Accuracy":"تعمیر"},"geometry":{"x":7464036.0433941931,"y":4121639.1739668548}},{"attributes":{"OBJECTID":6603,"ولایت":"غزنى","Province":"GHAZNI","PC_Code":"1106113","ولسوالي":"جغتو","District":"JAGHATU","د_مرکز_نوم__نام_مرکز":"مهمان خانه یقوبی","Polling_Center_Name":"Yaqoobi Guest House","د_مرکز_ځای__موقعیت_مرکز":"قریه گیرو فقیر شاه ","Polling_Center_Location":"Gero-e-Faqeer Shah Village","Verification_Note":"Building","PS_Male":0,"PS_Female":2,"Map_Accuracy":"تعمیر"},"geometry":{"x":7572190.0164118409,"y":3972388.0281053036}},{"attributes":{"OBJECTID":6604,"ولایت":"غزنى","Province":"GHAZNI","PC_Code":"1106114","ولسوالي":"جغتو","District":"JAGHATU","د_مرکز_نوم__نام_مرکز":"لیسه قیاق","Polling_Center_Name":"Qeyaq High School ","د_مرکز_ځای__موقعیت_مرکز":"سه قلعه قیاق","Polling_Center_Location":"Sai Qala-e-Qeyaq","Verification_Note":"Building","PS_Male":1,"PS_Female":3,"Map_Accuracy":"تعمیر"},"geometry":{"x":7599563.3623124361,"y":3977689.6417996213}},{"attributes":{"OBJECTID":6605,"ولایت":"غزنى","Province":"GHAZNI","PC_Code":"1109090","ولسوالي":"رشیدان","District":"RASHIDAN","د_مرکز_نوم__نام_مرکز":"مسجد مسجد حسن خان","Polling_Center_Name":"Hassan Khan Mosque","د_مرکز_ځای__موقعیت_مرکز":"گل جینا","Polling_Center_Location":"Gul Jeena","Verification_Note":"Village","PS_Male":0,"PS_Female":2,"Map_Accuracy":"قریه"},"geometry":{"x":7595663.2906316668,"y":3986893.594708316}},{"attributes":{"OBJECTID":6606,"ولایت":"غزنى","Province":"GHAZNI","PC_Code":"1109091","ولسوالي":"رشیدان","District":"RASHIDAN","د_مرکز_نوم__نام_مرکز":"د حسن خان د کلی مسجد ","Polling_Center_Name":"Hassan Khan Village Mosque","د_مرکز_ځای__موقعیت_مرکز":"قریه حسن خان","Polling_Center_Location":"Hassan Khan Village","Verification_Note":"Building","PS_Male":2,"PS_Female":1,"Map_Accuracy":"تعمیر"},"geometry":{"x":7593243.6535193734,"y":3989713.8843445629}},{"attributes":{"OBJECTID":6607,"ولایت":"پکتيکا","Province":"PAKTIKA","PC_Code":"1203041","ولسوالي":"یوسف خیل","District":"YOSUF KHEL","د_مرکز_نوم__نام_مرکز":"میرزا خیلو بازار زوړ ښوونځی مشخیل","Polling_Center_Name":"Merza Khel  Bazar, Old School","د_مرکز_ځای__موقعیت_مرکز":"مشخیل ","Polling_Center_Location":"Mosh Khel","Verification_Note":"Building","PS_Male":4,"PS_Female":0,"Map_Accuracy":"تعمیر"},"geometry":{"x":7646319.5499700606,"y":3906384.2954749465}},{"attributes":{"OBJECTID":6608,"ولایت":"پکتيکا","Province":"PAKTIKA","PC_Code":"1203042","ولسوالي":"یوسف خیل","District":"YOSUF KHEL","د_مرکز_نوم__نام_مرکز":"میلمستون مدیر رسول","Polling_Center_Name":"Bazi Wani Mosque","د_مرکز_ځای__موقعیت_مرکز":"مشخیل ","Polling_Center_Location":"Mosh Khel","Verification_Note":"Village","PS_Male":0,"PS_Female":4,"Map_Accuracy":"قریه"},"geometry":{"x":7632104.232446529,"y":3890701.7107792571}},{"attributes":{"OBJECTID":6609,"ولایت":"پکتيکا","Province":"PAKTIKA","PC_Code":"1208139","ولسوالي":"گومل","District":"GOMAL","د_مرکز_نوم__نام_مرکز":"علی زی کلینیک","Polling_Center_Name":"Ali Zai Clinic","د_مرکز_ځای__موقعیت_مرکز":"علی زی","Polling_Center_Location":"Ali Zai","Verification_Note":"Village","PS_Male":2,"PS_Female":0,"Map_Accuracy":"قریه"},"geometry":{"x":7672157.5407182127,"y":3865685.5027401224}},{"attributes":{"OBJECTID":6610,"ولایت":"پکتيکا","Province":"PAKTIKA","PC_Code":"1208140","ولسوالي":"گومل","District":"GOMAL","د_مرکز_نوم__نام_مرکز":"خیر منزود انجونو لومړنی ښوونځی ","Polling_Center_Name":"Khair Manzo Girls Primary School","د_مرکز_ځای__موقعیت_مرکز":"خیرمنذی","Polling_Center_Location":"Khair Manzi","Verification_Note":"Village","PS_Male":0,"PS_Female":2,"Map_Accuracy":"قریه"},"geometry":{"x":7666824.1259531528,"y":3846579.4466506094}},{"attributes":{"OBJECTID":6611,"ولایت":"کابل","Province":"KABUL","PC_Code":"0101090","ولسوالي":"کابل - ناحیه 05","District":"KABUL-D05","د_مرکز_نوم__نام_مرکز":"مسجد محمدي دارالحفاظ","Polling_Center_Name":"Mohammadia Darul Hefaz Mosque","د_مرکز_ځای__موقعیت_مرکز":"قسمت ب خوشحال مينه","Polling_Center_Location":"Phase B of Khush-hal Mina","Verification_Note":"Building","PS_Male":1,"PS_Female":1,"Map_Accuracy":"تعمیر"},"geometry":{"x":7692773.7200567946,"y":4099128.6374173388}},{"attributes":{"OBJECTID":6612,"ولایت":"کابل","Province":"KABUL","PC_Code":"0101091","ولسوالي":"کابل - ناحیه 05","District":"KABUL-D05","د_مرکز_نوم__نام_مرکز":" لیسه پروفیسور رسول امین","Polling_Center_Name":"Professor Rasool Amin High School","د_مرکز_ځای__موقعیت_مرکز":"قسمت ب خوشحال مينه","Polling_Center_Location":"Phase B of Khush-hal Mina","Verification_Note":"Building","PS_Male":4,"PS_Female":3,"Map_Accuracy":"تعمیر"},"geometry":{"x":7694135.3355403766,"y":4100023.2580832392}},{"attributes":{"OBJECTID":6613,"ولایت":"کابل","Province":"KABUL","PC_Code":"0101147","ولسوالي":"کابل - ناحیه 08","District":"KABUL-D08","د_مرکز_نوم__نام_مرکز":" لیسه نسوان سید نورمحمد شاه مینه","Polling_Center_Name":"Sayed Noor Mohammad Shah Mina Girls High School","د_مرکز_ځای__موقعیت_مرکز":"سر تپه کارته نو","Polling_Center_Location":"Sar-e-Tapa Kart-e-Naw","Verification_Note":"Building","PS_Male":3,"PS_Female":5,"Map_Accuracy":"تعمیر"},"geometry":{"x":7706378.0794794187,"y":4097841.200970903}},{"attributes":{"OBJECTID":6614,"ولایت":"کابل","Province":"KABUL","PC_Code":"0101148","ولسوالي":"کابل - ناحیه 08","District":"KABUL-D08","د_مرکز_نوم__نام_مرکز":"  لیسه قلعه حشمت خان","Polling_Center_Name":"Qala-e-Hashmat Khan High School","د_مرکز_ځای__موقعیت_مرکز":"باغچه سعيد","Polling_Center_Location":"Baghcha-e-Said","Verification_Note":"Building","PS_Male":3,"PS_Female":3,"Map_Accuracy":"تعمیر"},"geometry":{"x":7702038.9626137614,"y":4096195.9223541766}},{"attributes":{"OBJECTID":6615,"ولایت":"کاپيسا","Province":"KAPISA","PC_Code":"0204029","ولسوالي":"حصه اول کوهستان ","District":"HISSA-E-AWALI KOHISTAN","د_مرکز_نوم__نام_مرکز":"لیسه نسوان نساجی گلبهار","Polling_Center_Name":"Nasaji Gulbahar Girls High School ","د_مرکز_ځای__موقعیت_مرکز":"پنجاه کوتی ","Polling_Center_Location":"Penjah Kuti","Verification_Note":"Building","PS_Male":3,"PS_Female":2,"Map_Accuracy":"تعمیر"},"geometry":{"x":7714597.9340566918,"y":4181561.8190792277}},{"attributes":{"OBJECTID":6616,"ولایت":"کاپيسا","Province":"KAPISA","PC_Code":"0204030","ولسوالي":"حصه اول کوهستان ","District":"HISSA-E-AWALI KOHISTAN","د_مرکز_نوم__نام_مرکز":"لیسه نسوان اشترگرام ","Polling_Center_Name":"Ashtargeram Girls High School ","د_مرکز_ځای__موقعیت_مرکز":"اشترگرام ","Polling_Center_Location":"Ashtar Geram","Verification_Note":"Building","PS_Male":2,"PS_Female":2,"Map_Accuracy":"تعمیر"},"geometry":{"x":7715494.6492904611,"y":4177950.13822563}},{"attributes":{"OBJECTID":6617,"ولایت":"پروان","Province":"PARWAN","PC_Code":"0301019","ولسوالي":"چاریکار","District":"CHARIKAR","د_مرکز_نوم__نام_مرکز":"مسجد دولانه","Polling_Center_Name":"Dolana Mosque","د_مرکز_ځای__موقعیت_مرکز":"دولانه ","Polling_Center_Location":"Dolana","Verification_Note":"Building","PS_Male":2,"PS_Female":1,"Map_Accuracy":"تعمیر"},"geometry":{"x":7704491.2219028361,"y":4166199.4318557382}},{"attributes":{"OBJECTID":6618,"ولایت":"پروان","Province":"PARWAN","PC_Code":"0301020","ولسوالي":"چاریکار","District":"CHARIKAR","د_مرکز_نوم__نام_مرکز":"مکتب نسوان تیلا نچی","Polling_Center_Name":"Telanchi Girls School","د_مرکز_ځای__موقعیت_مرکز":" تیلا نچی","Polling_Center_Location":"Telanchi","Verification_Note":"Building","PS_Male":2,"PS_Female":1,"Map_Accuracy":"تعمیر"},"geometry":{"x":7705841.0275016427,"y":4169468.723319523}},{"attributes":{"OBJECTID":6619,"ولایت":"پروان","Province":"PARWAN","PC_Code":"0305050","ولسوالي":"جبل السراج","District":"JABULUSSARAJ","د_مرکز_نوم__نام_مرکز":"لیسه عالی ذکور جبل السراج","Polling_Center_Name":"Jabal Seraj Boys High School","د_مرکز_ځای__موقعیت_مرکز":"مرکز جبل السراج","Polling_Center_Location":"Jabul Saraj Center ","Verification_Note":"Building","PS_Male":4,"PS_Female":0,"Map_Accuracy":"تعمیر"},"geometry":{"x":7707162.5813268907,"y":4180451.2911545113}},{"attributes":{"OBJECTID":6620,"ولایت":"پروان","Province":"PARWAN","PC_Code":"0305051","ولسوالي":"جبل السراج","District":"JABULUSSARAJ","د_مرکز_نوم__نام_مرکز":"لیسه نسوان جبل السراج","Polling_Center_Name":"Jabal Seraj Girls High School","د_مرکز_ځای__موقعیت_مرکز":"مناره ","Polling_Center_Location":"Munara ","Verification_Note":"Building","PS_Male":0,"PS_Female":4,"Map_Accuracy":"تعمیر"},"geometry":{"x":7707287.2157419734,"y":4180060.4422258064}},{"attributes":{"OBJECTID":6621,"ولایت":"وردک","Province":"WARDAK","PC_Code":"0408074","ولسوالي":"جغتو","District":"JAGHATU","د_مرکز_نوم__نام_مرکز":"مکتب امام ابو حنیفه","Polling_Center_Name":"Imam-e-Abu Hanifa School","د_مرکز_ځای__موقعیت_مرکز":"ببرباباخیل","Polling_Center_Location":"Baber Baba Khel","Verification_Note":"Building","PS_Male":2,"PS_Female":1,"Map_Accuracy":"تعمیر"},"geometry":{"x":7616796.4477042481,"y":4013473.2279667854}},{"attributes":{"OBJECTID":6622,"ولایت":"وردک","Province":"WARDAK","PC_Code":"0408075","ولسوالي":"جغتو","District":"JAGHATU","د_مرکز_نوم__نام_مرکز":"مسجد سنزله","Polling_Center_Name":"Sanzala Mosque","د_مرکز_ځای__موقعیت_مرکز":"سنزله","Polling_Center_Location":"Sanzala","Verification_Note":"Village","PS_Male":1,"PS_Female":1,"Map_Accuracy":"قریه"},"geometry":{"x":7613385.76210849,"y":4007817.3955170587}},{"attributes":{"OBJECTID":6623,"ولایت":"ننگرهار","Province":"NANGARHAR","PC_Code":"0602057","ولسوالي":"بهسود","District":"BEHSUD","د_مرکز_نوم__نام_مرکز":"لیسه ذکور سراچه علی خان","Polling_Center_Name":"Saracha Boys High School","د_مرکز_ځای__موقعیت_مرکز":"سراچه","Polling_Center_Location":"Saracha","Verification_Note":"Building","PS_Male":4,"PS_Female":2,"Map_Accuracy":"تعمیر"},"geometry":{"x":7851751.6385277882,"y":4078399.0676579624}},{"attributes":{"OBJECTID":6624,"ولایت":"ننگرهار","Province":"NANGARHAR","PC_Code":"0602058","ولسوالي":"بهسود","District":"BEHSUD","د_مرکز_نوم__نام_مرکز":"کاريز کبير کلنيک","Polling_Center_Name":"Kaarez kabeer Clinic","د_مرکز_ځای__موقعیت_مرکز":"کاريزکبير","Polling_Center_Location":"Karez Kaber","Verification_Note":"Village","PS_Male":0,"PS_Female":3,"Map_Accuracy":"قریه"},"geometry":{"x":7850265.9196230844,"y":4079798.7233517393}},{"attributes":{"OBJECTID":6625,"ولایت":"ننگرهار","Province":"NANGARHAR","PC_Code":"0604105","ولسوالي":"چپرهار","District":"CHAPARHAR","د_مرکز_نوم__نام_مرکز":"للمه مکتب","Polling_Center_Name":"Lalma School","د_مرکز_ځای__موقعیت_مرکز":"للمه کلي","Polling_Center_Location":"Lalma Village","Verification_Note":"Village","PS_Male":1,"PS_Female":1,"Map_Accuracy":"قریه"},"geometry":{"x":7843355.1711255945,"y":4074040.4048688263}},{"attributes":{"OBJECTID":6626,"ولایت":"ننگرهار","Province":"NANGARHAR","PC_Code":"0604106","ولسوالي":"چپرهار","District":"CHAPARHAR","د_مرکز_نوم__نام_مرکز":"کاريز جامي جومات","Polling_Center_Name":"Kariz Jaame Mosque","د_مرکز_ځای__موقعیت_مرکز":"کاريزکلي","Polling_Center_Location":"Kaarez Village","Verification_Note":"Building","PS_Male":2,"PS_Female":0,"Map_Accuracy":"تعمیر"},"geometry":{"x":7831090.8623748012,"y":4066725.092354849}},{"attributes":{"OBJECTID":6627,"ولایت":"ننگرهار","Province":"NANGARHAR","PC_Code":"0604126","ولسوالي":"چپرهار","District":"CHAPARHAR","د_مرکز_نوم__نام_مرکز":"غلام ډاګ مکتب","Polling_Center_Name":"Ghulam Daag School","د_مرکز_ځای__موقعیت_مرکز":"درمنګو کلي","Polling_Center_Location":"Darmango Village","Verification_Note":"Village","PS_Male":1,"PS_Female":1,"Map_Accuracy":"قریه"},"geometry":{"x":7843275.8036682531,"y":4070989.3780417368}},{"attributes":{"OBJECTID":6628,"ولایت":"ننگرهار","Province":"NANGARHAR","PC_Code":"0604127","ولسوالي":"چپرهار","District":"CHAPARHAR","د_مرکز_نوم__نام_مرکز":"څپری متوسطه","Polling_Center_Name":"Saparay Secondary School","د_مرکز_ځای__موقعیت_مرکز":"چغره","Polling_Center_Location":"Chaghara","Verification_Note":"Building","PS_Male":1,"PS_Female":1,"Map_Accuracy":"تعمیر"},"geometry":{"x":7833126.829069715,"y":4060629.154169254}},{"attributes":{"OBJECTID":6629,"ولایت":"بغلان","Province":"BAGHLAN","PC_Code":"0907126","ولسوالي":"اندراب","District":"ANDARAB","د_مرکز_نوم__نام_مرکز":"مسجد","Polling_Center_Name":"Daragi Village Mosque ","د_مرکز_ځای__موقعیت_مرکز":"دره گی ","Polling_Center_Location":"Daragi","Verification_Note":"Building","PS_Male":2,"PS_Female":1,"Map_Accuracy":"تعمیر"},"geometry":{"x":7716357.8952061348,"y":4248936.8567564562}},{"attributes":{"OBJECTID":6630,"ولایت":"غزنى","Province":"GHAZNI","PC_Code":"1105060","ولسوالي":"ده یک","District":"DEH YAK","د_مرکز_نوم__نام_مرکز":"کتب انوار العلوم","Polling_Center_Name":"Anwar-ul-Uloom School","د_مرکز_ځای__موقعیت_مرکز":"انوار العلوم","Polling_Center_Location":"Anwar-ul-Uloom ","Verification_Note":"Village","PS_Male":2,"PS_Female":1,"Map_Accuracy":"قریه"},"geometry":{"x":7627089.749135796,"y":3956150.6471057907}},{"attributes":{"OBJECTID":6631,"ولایت":"پکتيکا","Province":"PAKTIKA","PC_Code":"1208293","ولسوالي":"گومل","District":"GOMAL","د_مرکز_نوم__نام_مرکز":"خیرمنزی خیمه ","Polling_Center_Name":"Khair Manzy Tent","د_مرکز_ځای__موقعیت_مرکز":"خیرمنزی ","Polling_Center_Location":"Khair Manzi","Verification_Note":"Village","PS_Male":0,"PS_Female":2,"Map_Accuracy":"قریه"},"geometry":{"x":7666824.3363469951,"y":3846581.0170071274}},{"attributes":{"OBJECTID":6632,"ولایت":"پکتيکا","Province":"PAKTIKA","PC_Code":"1209109","ولسوالي":"جانی خیل","District":"JANI KHEL","د_مرکز_نوم__نام_مرکز":"زور دولسوالی مرکز","Polling_Center_Name":"District Old Compound","د_مرکز_ځای__موقعیت_مرکز":"د ولسوالی مرکز","Polling_Center_Location":"District Center","Verification_Note":"Building","PS_Male":4,"PS_Female":0,"Map_Accuracy":"تعمیر"},"geometry":{"x":7614408.7114184275,"y":3864094.9473285154}},{"attributes":{"OBJECTID":6633,"ولایت":"پکتيکا","Province":"PAKTIKA","PC_Code":"1209115","ولسوالي":"جانی خیل","District":"JANI KHEL","د_مرکز_نوم__نام_مرکز":"هسی کلی جومات","Polling_Center_Name":"Hasi Village Mosque","د_مرکز_ځای__موقعیت_مرکز":"هستی","Polling_Center_Location":"Hasti","Verification_Note":"Building","PS_Male":3,"PS_Female":0,"Map_Accuracy":"تعمیر"},"geometry":{"x":7608255.29502029,"y":3854850.5516328216}},{"attributes":{"OBJECTID":6634,"ولایت":"پکتيکا","Province":"PAKTIKA","PC_Code":"1209116","ولسوالي":"جانی خیل","District":"JANI KHEL","د_مرکز_نوم__نام_مرکز":"ملک عبدالله میلمستون","Polling_Center_Name":"Malik Abdullah Guest House","د_مرکز_ځای__موقعیت_مرکز":"هستی","Polling_Center_Location":"Hasti","Verification_Note":"Village","PS_Male":0,"PS_Female":2,"Map_Accuracy":"قریه"},"geometry":{"x":7608290.5632613637,"y":3854793.1830507219}},{"attributes":{"OBJECTID":6635,"ولایت":"پکتيکا","Province":"PAKTIKA","PC_Code":"1211183","ولسوالي":"اورگون","District":"URGOON","د_مرکز_نوم__نام_مرکز":"پیرکوتی","Polling_Center_Name":"Peer Koti","د_مرکز_ځای__موقعیت_مرکز":"ﭙیرکوتی کلی","Polling_Center_Location":"Peer Koti Village","Verification_Note":"Village","PS_Male":3,"PS_Female":0,"Map_Accuracy":"قریه"},"geometry":{"x":7709636.7638764754,"y":3885621.0441518873}},{"attributes":{"OBJECTID":6636,"ولایت":"پکتيکا","Province":"PAKTIKA","PC_Code":"1211184","ولسوالي":"اورگون","District":"URGOON","د_مرکز_نوم__نام_مرکز":"ظریف میلمستون","Polling_Center_Name":"Zarif Guest House","د_مرکز_ځای__موقعیت_مرکز":"ﭙیرکوتی کلی","Polling_Center_Location":"Peer Koti Village","Verification_Note":"Village","PS_Male":0,"PS_Female":2,"Map_Accuracy":"قریه"},"geometry":{"x":7709638.1865395717,"y":3885622.7390826195}},{"attributes":{"OBJECTID":6637,"ولایت":"پکتيکا","Province":"PAKTIKA","PC_Code":"1213204","ولسوالي":"نیکه","District":"NIKA","د_مرکز_نوم__نام_مرکز":"حکیم خان میلمستون","Polling_Center_Name":"Hakim Khan Guest House","د_مرکز_ځای__موقعیت_مرکز":"صادق خیل","Polling_Center_Location":"Sadiq Khel","Verification_Note":"Village","PS_Male":0,"PS_Female":2,"Map_Accuracy":"قریه"},"geometry":{"x":7709951.0098934285,"y":3920327.6803567261}},{"attributes":{"OBJECTID":6638,"ولایت":"پکتيکا","Province":"PAKTIKA","PC_Code":"1214247","ولسوالي":"برمل","District":"BARMAL","د_مرکز_نوم__نام_مرکز":"ملکشی مدرسه","Polling_Center_Name":"Malekeshi Madrassa","د_مرکز_ځای__موقعیت_مرکز":"ملک شاهی","Polling_Center_Location":"Malik Shahi","Verification_Note":"Village","PS_Male":4,"PS_Female":0,"Map_Accuracy":"قریه"},"geometry":{"x":7708249.0473118871,"y":3845689.6617086083}},{"attributes":{"OBJECTID":6639,"ولایت":"پکتيکا","Province":"PAKTIKA","PC_Code":"1214259","ولسوالي":"برمل","District":"BARMAL","د_مرکز_نوم__نام_مرکز":"عید خان مدرسه","Polling_Center_Name":"Eid Khan Madrassa","د_مرکز_ځای__موقعیت_مرکز":"شیر ﺁوه","Polling_Center_Location":"Sher Aavah","Verification_Note":"Village","PS_Male":3,"PS_Female":0,"Map_Accuracy":"قریه"},"geometry":{"x":7718065.5172705911,"y":3867491.619156532}},{"attributes":{"OBJECTID":6640,"ولایت":"پکتيکا","Province":"PAKTIKA","PC_Code":"1214260","ولسوالي":"برمل","District":"BARMAL","د_مرکز_نوم__نام_مرکز":"جانگیر میلمستون","Polling_Center_Name":"Jangir Guest House","د_مرکز_ځای__موقعیت_مرکز":"شیر ﺁوه","Polling_Center_Location":"Sher Aavah","Verification_Note":"Village","PS_Male":0,"PS_Female":2,"Map_Accuracy":"قریه"},"geometry":{"x":7718067.2505150586,"y":3867491.619156532}},{"attributes":{"OBJECTID":6641,"ولایت":"پکتيکا","Province":"PAKTIKA","PC_Code":"1215273","ولسوالي":"گیان","District":"GIYAN","د_مرکز_نوم__نام_مرکز":"سراواته جومات","Polling_Center_Name":"Saravtah Mosque","د_مرکز_ځای__موقعیت_مرکز":"سراواته","Polling_Center_Location":"Saravatah","Verification_Note":"Village","PS_Male":2,"PS_Female":0,"Map_Accuracy":"قریه"},"geometry":{"x":7722049.9457482845,"y":3896466.8681534976}},{"attributes":{"OBJECTID":6642,"ولایت":"پکتيکا","Province":"PAKTIKA","PC_Code":"1215274","ولسوالي":"گیان","District":"GIYAN","د_مرکز_نوم__نام_مرکز":"میردل میلمستون","Polling_Center_Name":"Mir Del Guest House","د_مرکز_ځای__موقعیت_مرکز":"سراواته","Polling_Center_Location":"Saravatah","Verification_Note":"Village","PS_Male":0,"PS_Female":2,"Map_Accuracy":"قریه"},"geometry":{"x":7722337.3559755906,"y":3896057.456032455}},{"attributes":{"OBJECTID":6643,"ولایت":"پکتيکا","Province":"PAKTIKA","PC_Code":"1218301","ولسوالي":"وړممی","District":"WOR MAMY","د_مرکز_نوم__نام_مرکز":"مركز ولسوالي متوسطه ښوونځی","Polling_Center_Name":"District Center Secondary School","د_مرکز_ځای__موقعیت_مرکز":"چینه","Polling_Center_Location":"Cheena","Verification_Note":"Building","PS_Male":0,"PS_Female":2,"Map_Accuracy":"تعمیر"},"geometry":{"x":7644956.4472580776,"y":3774884.350831233}},{"attributes":{"OBJECTID":6644,"ولایت":"پکتيا","Province":"PAKTYA","PC_Code":"1303097","ولسوالي":"زرمت","District":"ZURMAT","د_مرکز_نوم__نام_مرکز":"کم جمالی هجره","Polling_Center_Name":"Kam Jamali Hojra","د_مرکز_ځای__موقعیت_مرکز":" سورکی","Polling_Center_Location":"Sorkai","Verification_Note":"Village","PS_Male":0,"PS_Female":2,"Map_Accuracy":"قریه"},"geometry":{"x":7696374.2109503336,"y":3943132.8027656749}},{"attributes":{"OBJECTID":6645,"ولایت":"پکتيا","Province":"PAKTYA","PC_Code":"1306025","ولسوالي":"سید کرم","District":"SAYYID KARAM","د_مرکز_نوم__نام_مرکز":"مسجد عثمان خیل","Polling_Center_Name":"Usman Khel Mosque","د_مرکز_ځای__موقعیت_مرکز":"عثما ن خیل","Polling_Center_Location":"Usman Khel ","Verification_Note":"Building","PS_Male":2,"PS_Female":0,"Map_Accuracy":"تعمیر"},"geometry":{"x":7728860.29853661,"y":3982328.3443981707}},{"attributes":{"OBJECTID":6646,"ولایت":"پکتيا","Province":"PAKTYA","PC_Code":"1306035","ولسوالي":"سید کرم","District":"SAYYID KARAM","د_مرکز_نوم__نام_مرکز":"خان خیلو مکتب","Polling_Center_Name":"Khan Khel School","د_مرکز_ځای__موقعیت_مرکز":"خان خیل، برکلګر","Polling_Center_Location":"Khan Khel Barkalgar","Verification_Note":"Building","PS_Male":2,"PS_Female":1,"Map_Accuracy":"تعمیر"},"geometry":{"x":7734814.431895528,"y":3983757.4480338171}},{"attributes":{"OBJECTID":6647,"ولایت":"پکتيا","Province":"PAKTYA","PC_Code":"1306036","ولسوالي":"سید کرم","District":"SAYYID KARAM","د_مرکز_نوم__نام_مرکز":"ډم منگل مدرسه","Polling_Center_Name":"Dam Mangal Madrassa","د_مرکز_ځای__موقعیت_مرکز":" ‌‌ډم منگل","Polling_Center_Location":"Dam Mangal","Verification_Note":"Village","PS_Male":2,"PS_Female":0,"Map_Accuracy":"قریه"},"geometry":{"x":7734947.5711197108,"y":3976099.5068165585}},{"attributes":{"OBJECTID":6648,"ولایت":"پکتيا","Province":"PAKTYA","PC_Code":"1310162","ولسوالي":"څمکنی","District":"SAMKANI","د_مرکز_نوم__نام_مرکز":"د سلیمان خیل مسجد","Polling_Center_Name":"Sulaiman Khel Mosque ","د_مرکز_ځای__موقعیت_مرکز":"سلیمان خیل","Polling_Center_Location":"Sulaiman Khel ","Verification_Note":"Building","PS_Male":4,"PS_Female":0,"Map_Accuracy":"تعمیر"},"geometry":{"x":7769872.7366541587,"y":3995362.448056899}},{"attributes":{"OBJECTID":6649,"ولایت":"پکتيا","Province":"PAKTYA","PC_Code":"1310163","ولسوالي":"څمکنی","District":"SAMKANI","د_مرکز_نوم__نام_مرکز":"د منده خیلو لیسه","Polling_Center_Name":"Manda Khel High School","د_مرکز_ځای__موقعیت_مرکز":"منده خیل، سلیمانخیل","Polling_Center_Location":"Sulaiman Khel, Manda Khel","Verification_Note":"Village","PS_Male":0,"PS_Female":4,"Map_Accuracy":"قریه"},"geometry":{"x":7770115.1838259436,"y":3997821.3646053821}},{"attributes":{"OBJECTID":6650,"ولایت":"پکتيا","Province":"PAKTYA","PC_Code":"1312152","ولسوالي":"لجه منګل","District":"LAJA MANGAL","د_مرکز_نوم__نام_مرکز":"مکتب توشنک","Polling_Center_Name":"Toshnak School","د_مرکز_ځای__موقعیت_مرکز":"توشنک، لجه منګل","Polling_Center_Location":"Toshnak, Laja Mangal ","Verification_Note":"Village","PS_Male":3,"PS_Female":1,"Map_Accuracy":"قریه"},"geometry":{"x":7751213.7899610437,"y":3990678.7895630226}},{"attributes":{"OBJECTID":6651,"ولایت":"پکتيا","Province":"PAKTYA","PC_Code":"1313049","ولسوالي":"میرزکه","District":"MEERZAKA","د_مرکز_نوم__نام_مرکز":"د وچی اکګاډی مکتب","Polling_Center_Name":"Wacha Alagadi School","د_مرکز_ځای__موقعیت_مرکز":"کړکین، میرزکه","Polling_Center_Location":"Karkeen, Merzaka","Verification_Note":"Village","PS_Male":2,"PS_Female":0,"Map_Accuracy":"قریه"},"geometry":{"x":7738176.188122306,"y":4005930.2086643726}},{"attributes":{"OBJECTID":6652,"ولایت":"خوست","Province":"KHOST","PC_Code":"1401038","ولسوالي":"خوست","District":"KHOST","د_مرکز_نوم__نام_مرکز":"بادشاه والي هجره  ","Polling_Center_Name":"Badsha Wali Hojra","د_مرکز_ځای__موقعیت_مرکز":" کنډيو کلى","Polling_Center_Location":"Kandio Village","Verification_Note":"Building","PS_Male":2,"PS_Female":1,"Map_Accuracy":"تعمیر"},"geometry":{"x":7791621.2556267083,"y":3943708.4055775031}},{"attributes":{"OBJECTID":6653,"ولایت":"خوست","Province":"KHOST","PC_Code":"1408053","ولسوالي":"علی شیر","District":"ALI SHER","د_مرکز_نوم__نام_مرکز":"د تورو اوبو جومات","Polling_Center_Name":"Tori Awbo Mosque","د_مرکز_ځای__موقعیت_مرکز":"تورې اوبه","Polling_Center_Location":"Tori Awba","Verification_Note":"District","PS_Male":2,"PS_Female":2,"Map_Accuracy":"ولسوالی"},"geometry":{"x":7815948.072042197,"y":3941104.8010658249}},{"attributes":{"OBJECTID":6654,"ولایت":"کنړ ","Province":"KUNAR","PC_Code":"1504035","ولسوالي":"نرنګ","District":"NARANG","د_مرکز_نوم__نام_مرکز":"مسجد قریه کوتکی","Polling_Center_Name":"Kotki Village Mosque","د_مرکز_ځای__موقعیت_مرکز":"کوتکی","Polling_Center_Location":"Kotakai","Verification_Note":"Building","PS_Male":2,"PS_Female":1,"Map_Accuracy":"تعمیر"},"geometry":{"x":7904642.4307027943,"y":4128528.8176267073}},{"attributes":{"OBJECTID":6655,"ولایت":"کنړ ","Province":"KUNAR","PC_Code":"1504036","ولسوالي":"نرنګ","District":"NARANG","د_مرکز_نوم__نام_مرکز":"مسجد قریه","Polling_Center_Name":"Qalawona Village Mosque","د_مرکز_ځای__موقعیت_مرکز":"قلاونه ","Polling_Center_Location":"Qalawona ","Verification_Note":"Village","PS_Male":2,"PS_Female":1,"Map_Accuracy":"قریه"},"geometry":{"x":7903988.9652543291,"y":4131501.2589832172}},{"attributes":{"OBJECTID":6656,"ولایت":"کنړ ","Province":"KUNAR","PC_Code":"1514088","ولسوالي":"نور ګل","District":"NOOR GAL","د_مرکز_نوم__نام_مرکز":"مسجد قریه","Polling_Center_Name":"Senzo Village Mosque","د_مرکز_ځای__موقعیت_مرکز":"سینزو","Polling_Center_Location":"Senzo","Verification_Note":"Building","PS_Male":2,"PS_Female":2,"Map_Accuracy":"تعمیر"},"geometry":{"x":7875795.7490776442,"y":4113994.4655717611}},{"attributes":{"OBJECTID":6657,"ولایت":"نورستان","Province":"NOORISTAN","PC_Code":"1608069","ولسوالي":"برګ مټال","District":"BARG-E-MATAL","د_مرکز_نوم__نام_مرکز":"مسجد جامع قریه پسیگرام","Polling_Center_Name":"Pasigram Village Mosque","د_مرکز_ځای__موقعیت_مرکز":"قریه پسیگرام","Polling_Center_Location":"Pasigram Village","Verification_Note":"Village","PS_Male":1,"PS_Female":1,"Map_Accuracy":"قریه"},"geometry":{"x":7925583.9913469926,"y":4266711.5807579979}},{"attributes":{"OBJECTID":6658,"ولایت":"نورستان","Province":"NOORISTAN","PC_Code":"1608070","ولسوالي":"برګ مټال","District":"BARG-E-MATAL","د_مرکز_نوم__نام_مرکز":"ګنجلوک شال","Polling_Center_Name":"Ganjolok Shal ","د_مرکز_ځای__موقعیت_مرکز":"قریه ګنجلوک شال","Polling_Center_Location":"Ganjolok Shal ","Verification_Note":"Village","PS_Male":2,"PS_Female":1,"Map_Accuracy":"قریه"},"geometry":{"x":7931147.21963482,"y":4272107.0637631193}},{"attributes":{"OBJECTID":6659,"ولایت":"کندز","Province":"KUNDUZ","PC_Code":"1902117","ولسوالي":"چاردره","District":"CHAR DARA","د_مرکز_نوم__نام_مرکز":"لیسه غروقشلاق","Polling_Center_Name":"Gharo Qeshlaq High School","د_مرکز_ځای__موقعیت_مرکز":"غروقشلاق","Polling_Center_Location":"Gharo Qeshlaq","Verification_Note":"Building","PS_Male":4,"PS_Female":2,"Map_Accuracy":"تعمیر"},"geometry":{"x":7662957.3399133161,"y":4390235.9991434366}},{"attributes":{"OBJECTID":6660,"ولایت":"کندز","Province":"KUNDUZ","PC_Code":"1902118","ولسوالي":"چاردره","District":"CHAR DARA","د_مرکز_نوم__نام_مرکز":"مسجد امیر محمد شنواری","Polling_Center_Name":"Amir Mohammad Shinwari Mosque","د_مرکز_ځای__موقعیت_مرکز":"قتل عام","Polling_Center_Location":"Qatl Aam","Verification_Note":"Village","PS_Male":2,"PS_Female":1,"Map_Accuracy":"قریه"},"geometry":{"x":7662549.0801336169,"y":4391767.525394015}},{"attributes":{"OBJECTID":6661,"ولایت":"کندز","Province":"KUNDUZ","PC_Code":"1904155","ولسوالي":"خان آباد","District":"KHAN ABAD","د_مرکز_نوم__نام_مرکز":"مکتب متوسطه ودان کلی","Polling_Center_Name":"Wadan kalai Secondary School","د_مرکز_ځای__موقعیت_مرکز":"دهنه ده ویران","Polling_Center_Location":"Dahan Deh Weran","Verification_Note":"Building","PS_Male":1,"PS_Female":1,"Map_Accuracy":"تعمیر"},"geometry":{"x":7698623.0182852522,"y":4389852.8383192495}},{"attributes":{"OBJECTID":6662,"ولایت":"کندز","Province":"KUNDUZ","PC_Code":"1904156","ولسوالي":"خان آباد","District":"KHAN ABAD","د_مرکز_نوم__نام_مرکز":"مکتب ابتدائیه زنگی سای","Polling_Center_Name":"Zangi Say Primary School","د_مرکز_ځای__موقعیت_مرکز":"قریه زنگی سای","Polling_Center_Location":"Zangi Say Village","Verification_Note":"Building","PS_Male":1,"PS_Female":1,"Map_Accuracy":"تعمیر"},"geometry":{"x":7694442.1632264629,"y":4361660.5739065409}},{"attributes":{"OBJECTID":6663,"ولایت":"کندز","Province":"KUNDUZ","PC_Code":"1905069","ولسوالي":"حضرت امام صاحب","District":"HAZRAT-E-IMAM SAHIB","د_مرکز_نوم__نام_مرکز":"مکتب متوسطه اسماعیل قشلاق","Polling_Center_Name":"Ismail Qashlaq Secondary School","د_مرکز_ځای__موقعیت_مرکز":"قریه اسماعیل قشلاق","Polling_Center_Location":"Ismail Qashlaq Village","Verification_Note":"Building","PS_Male":3,"PS_Female":1,"Map_Accuracy":"تعمیر"},"geometry":{"x":7678555.223248601,"y":4464119.8000151888}},{"attributes":{"OBJECTID":6664,"ولایت":"کندز","Province":"KUNDUZ","PC_Code":"1905070","ولسوالي":"حضرت امام صاحب","District":"HAZRAT-E-IMAM SAHIB","د_مرکز_نوم__نام_مرکز":"مکتب هیچکلی","Polling_Center_Name":"Hechkalai School","د_مرکز_ځای__موقعیت_مرکز":"قریه هیچکلی","Polling_Center_Location":"Hechkalai Village","Verification_Note":"Building","PS_Male":1,"PS_Female":1,"Map_Accuracy":"تعمیر"},"geometry":{"x":7684430.9754408672,"y":4465393.72144679}},{"attributes":{"OBJECTID":6665,"ولایت":"کندز","Province":"KUNDUZ","PC_Code":"1906194","ولسوالي":"دشت ارچی","District":"DASHT-E-ARCHI","د_مرکز_نوم__نام_مرکز":"مسجد قره غوشی پشتونیه ","Polling_Center_Name":"Qara ghoshi Pashtonia Mosque","د_مرکز_ځای__موقعیت_مرکز":"قریه قره غوشی پشتونیه","Polling_Center_Location":"Qara Ghoshi Pashtonia Village","Verification_Note":"Building","PS_Male":1,"PS_Female":1,"Map_Accuracy":"تعمیر"},"geometry":{"x":7709237.6645776741,"y":4429249.3578476906}},{"attributes":{"OBJECTID":6666,"ولایت":"کندز","Province":"KUNDUZ","PC_Code":"1906195","ولسوالي":"دشت ارچی","District":"DASHT-E-ARCHI","د_مرکز_نوم__نام_مرکز":"مکتب وزیر خان","Polling_Center_Name":"Wazir Khan School","د_مرکز_ځای__موقعیت_مرکز":"قریه جمع وزیر خان","Polling_Center_Location":"Jama Wazir Khan Village","Verification_Note":"Building","PS_Male":1,"PS_Female":1,"Map_Accuracy":"تعمیر"},"geometry":{"x":7698646.0146656595,"y":4432545.1087577641}},{"attributes":{"OBJECTID":6667,"ولایت":"بلخ","Province":"BALKH","PC_Code":"2101003","ولسوالي":"مزار شریف","District":"MAZAR-E-SHARIF","د_مرکز_نوم__نام_مرکز":"تعمیر شاروالی مزار","Polling_Center_Name":"Mazar Municipality Office","د_مرکز_ځای__موقعیت_مرکز":"ناحیه اول مزار شاروالی ","Polling_Center_Location":"D01 - Nahia 1","Verification_Note":"Building","PS_Male":3,"PS_Female":1,"Map_Accuracy":"تعمیر"},"geometry":{"x":7471189.2212523483,"y":4398363.7625821382}},{"attributes":{"OBJECTID":6668,"ولایت":"بلخ","Province":"BALKH","PC_Code":"2101004","ولسوالي":"مزار شریف","District":"MAZAR-E-SHARIF","د_مرکز_نوم__نام_مرکز":"لیسه غازی اما ن الله","Polling_Center_Name":"Ghazi Amanullah High School","د_مرکز_ځای__موقعیت_مرکز":"ناحیه نهم مزار شاروالی ","Polling_Center_Location":"D09 - Nahia 9","Verification_Note":"Building","PS_Male":3,"PS_Female":2,"Map_Accuracy":"تعمیر"},"geometry":{"x":7468017.2057580389,"y":4400197.4953767583}},{"attributes":{"OBJECTID":6669,"ولایت":"بلخ","Province":"BALKH","PC_Code":"2101012","ولسوالي":"مزار شریف","District":"MAZAR-E-SHARIF","د_مرکز_نوم__نام_مرکز":"لیسه تجربوی ","Polling_Center_Name":"Tajrobawi High School","د_مرکز_ځای__موقعیت_مرکز":"ناحیه سوم مزار شاروالی ","Polling_Center_Location":"D03 - Nahia 3","Verification_Note":"Building","PS_Male":1,"PS_Female":1,"Map_Accuracy":"تعمیر"},"geometry":{"x":7470480.2129439488,"y":4400185.5268809348}},{"attributes":{"OBJECTID":6670,"ولایت":"بلخ","Province":"BALKH","PC_Code":"2101013","ولسوالي":"مزار شریف","District":"MAZAR-E-SHARIF","د_مرکز_نوم__نام_مرکز":"مکتب مقصودالله شهید","Polling_Center_Name":"Maqsoodullah Shaheed School","د_مرکز_ځای__موقعیت_مرکز":"ناحیه هفتم مزار شاروالی ","Polling_Center_Location":"D07 - Nahia 7","Verification_Note":"Building","PS_Male":1,"PS_Female":1,"Map_Accuracy":"تعمیر"},"geometry":{"x":7472771.9884891249,"y":4400474.0035887882}},{"attributes":{"OBJECTID":6671,"ولایت":"بلخ","Province":"BALKH","PC_Code":"2101027","ولسوالي":"مزار شریف","District":"MAZAR-E-SHARIF","د_مرکز_نوم__نام_مرکز":"مکتب غلام رسول سنائ","Polling_Center_Name":"Ghulam Rasool Sanaye School","د_مرکز_ځای__موقعیت_مرکز":"گذر قصابها ناحیه ششم مزار شاروالی ","Polling_Center_Location":"D06 - Nahia 6 Guzar Qasabha","Verification_Note":"Building","PS_Male":2,"PS_Female":1,"Map_Accuracy":"تعمیر"},"geometry":{"x":7472299.6921723448,"y":4398433.0107310042}},{"attributes":{"OBJECTID":6672,"ولایت":"بلخ","Province":"BALKH","PC_Code":"2101028","ولسوالي":"مزار شریف","District":"MAZAR-E-SHARIF","د_مرکز_نوم__نام_مرکز":"مکتب ترابی","Polling_Center_Name":"Torabi School","د_مرکز_ځای__موقعیت_مرکز":"کارته امانی ناحیه هفتم مزار شاروالی ","Polling_Center_Location":"D07 - Nahia 7 Karta-e-Amani","Verification_Note":"Building","PS_Male":2,"PS_Female":2,"Map_Accuracy":"تعمیر"},"geometry":{"x":7469744.7862940021,"y":4393346.18454764}},{"attributes":{"OBJECTID":6673,"ولایت":"بلخ","Province":"BALKH","PC_Code":"2101032","ولسوالي":"مزار شریف","District":"MAZAR-E-SHARIF","د_مرکز_نوم__نام_مرکز":"لیسه ستاره","Polling_Center_Name":"Setara High School","د_مرکز_ځای__موقعیت_مرکز":"ناحیه هفتم مزار شاروالی عقب گمرک ","Polling_Center_Location":"D07 - Nahia 7 Behind Gumrak","Verification_Note":"Building","PS_Male":3,"PS_Female":2,"Map_Accuracy":"تعمیر"},"geometry":{"x":7473243.1671582237,"y":4399746.8111994117}},{"attributes":{"OBJECTID":6674,"ولایت":"بلخ","Province":"BALKH","PC_Code":"2101033","ولسوالي":"مزار شریف","District":"MAZAR-E-SHARIF","د_مرکز_نوم__نام_مرکز":"مکتب متوسطه ذکور بخدی ","Polling_Center_Name":"Bukhdi Boys Secondary School","د_مرکز_ځای__موقعیت_مرکز":"ناحیه هشتم مزار شاروالی ","Polling_Center_Location":"D08 - Nahia 8","Verification_Note":"Building","PS_Male":3,"PS_Female":2,"Map_Accuracy":"تعمیر"},"geometry":{"x":7471447.7129023336,"y":4401089.8721996024}},{"attributes":{"OBJECTID":6675,"ولایت":"بلخ","Province":"BALKH","PC_Code":"2102064","ولسوالي":"نهر شاهی ","District":"NAHR-E-SHAHI","د_مرکز_نوم__نام_مرکز":"مکتب ابو المطیع بلخی","Polling_Center_Name":"Abul Motee Balkhi School","د_مرکز_ځای__موقعیت_مرکز":"قریه تخته پل ","Polling_Center_Location":"Takhta Pul Village","Verification_Note":"Building","PS_Male":3,"PS_Female":2,"Map_Accuracy":"تعمیر"},"geometry":{"x":7462511.8591526449,"y":4401396.3053453788}},{"attributes":{"OBJECTID":6676,"ولایت":"بلخ","Province":"BALKH","PC_Code":"2102065","ولسوالي":"نهر شاهی ","District":"NAHR-E-SHAHI","د_مرکز_نوم__نام_مرکز":"لیسه عالی محمد یوسف خیرخواه","Polling_Center_Name":"Mohammad Yosuf Khairkhowah High School","د_مرکز_ځای__موقعیت_مرکز":"قریه قلعه آجری ","Polling_Center_Location":"Qala Aajari Village","Verification_Note":"Building","PS_Male":3,"PS_Female":1,"Map_Accuracy":"تعمیر"},"geometry":{"x":7465605.9387582541,"y":4400608.4473407716}},{"attributes":{"OBJECTID":6677,"ولایت":"بلخ","Province":"BALKH","PC_Code":"2108216","ولسوالي":"چمتال","District":"CHIMTAL","د_مرکز_نوم__نام_مرکز":"مکتب پالو زولی","Polling_Center_Name":"Paloo Zolai School","د_مرکز_ځای__موقعیت_مرکز":"قریه پالو زولی","Polling_Center_Location":"Paloo Zolai Village","Verification_Note":"Building","PS_Male":2,"PS_Female":1,"Map_Accuracy":"تعمیر"},"geometry":{"x":7435490.7514980063,"y":4391121.4701071754}},{"attributes":{"OBJECTID":6678,"ولایت":"بلخ","Province":"BALKH","PC_Code":"2108217","ولسوالي":"چمتال","District":"CHIMTAL","د_مرکز_نوم__نام_مرکز":"مکتب اول امام صاحب","Polling_Center_Name":"Emam Sahib Awal School","د_مرکز_ځای__موقعیت_مرکز":"قریه امام صاحب اول","Polling_Center_Location":"Emam Sahib Awal Village","Verification_Note":"Village","PS_Male":1,"PS_Female":1,"Map_Accuracy":"قریه"},"geometry":{"x":7404083.4165692106,"y":4392072.2316912785}},{"attributes":{"OBJECTID":6679,"ولایت":"سرپل","Province":"SAR-E-PUL","PC_Code":"2205108","ولسوالي":"سنگ چارک","District":"SANG CHARAK","د_مرکز_نوم__نام_مرکز":"مکتب متوسطه ذکور شهر کهنه تکزار","Polling_Center_Name":"Shahr-e-Kuhna Takzar Boys Secondary School","د_مرکز_ځای__موقعیت_مرکز":"شهر کهنه تکزار","Polling_Center_Location":"Shahr-e-Kuhna Takzaz","Verification_Note":"Building","PS_Male":2,"PS_Female":2,"Map_Accuracy":"تعمیر"},"geometry":{"x":7393571.4491487108,"y":4293720.5361378565}},{"attributes":{"OBJECTID":6680,"ولایت":"سرپل","Province":"SAR-E-PUL","PC_Code":"2205109","ولسوالي":"سنگ چارک","District":"SANG CHARAK","د_مرکز_نوم__نام_مرکز":"مسجد قریه بهارک","Polling_Center_Name":"Baharak Village Mosque","د_مرکز_ځای__موقعیت_مرکز":"قریه بهارک ","Polling_Center_Location":"Baharak Village","Verification_Note":"Building","PS_Male":1,"PS_Female":1,"Map_Accuracy":"تعمیر"},"geometry":{"x":7392794.7352128215,"y":4286307.4866672307}},{"attributes":{"OBJECTID":6681,"ولایت":"غور","Province":"GHOR","PC_Code":"2306093","ولسوالي":"شهرک ","District":"SHAHRAK","د_مرکز_نوم__نام_مرکز":"مسجد خم ","Polling_Center_Name":"Khum Mosque","د_مرکز_ځای__موقعیت_مرکز":"قلعه کودک ","Polling_Center_Location":"Qala-e-Kodak","Verification_Note":"Village","PS_Male":1,"PS_Female":1,"Map_Accuracy":"قریه"},"geometry":{"x":7193121.0458401553,"y":4079357.8220070377}},{"attributes":{"OBJECTID":6682,"ولایت":"غور","Province":"GHOR","PC_Code":"2306094","ولسوالي":"شهرک ","District":"SHAHRAK","د_مرکز_نوم__نام_مرکز":"مکتب یکه بید","Polling_Center_Name":"Yaka Bed School","د_مرکز_ځای__موقعیت_مرکز":"تنگی ازو","Polling_Center_Location":"Tangai Arzo","Verification_Note":"Building","PS_Male":1,"PS_Female":1,"Map_Accuracy":"تعمیر"},"geometry":{"x":7147842.7290631384,"y":4045144.0605674312}},{"attributes":{"OBJECTID":6683,"ولایت":"دایکندی","Province":"DAYKUNDI","PC_Code":"2401006","ولسوالي":"نیلی","District":"NILI","د_مرکز_نوم__نام_مرکز":"مسجد میش سفلی","Polling_Center_Name":"Mesh Sufla Mosque","د_مرکز_ځای__موقعیت_مرکز":"میش","Polling_Center_Location":"Mesh","Verification_Note":"Building","PS_Male":1,"PS_Female":2,"Map_Accuracy":"تعمیر"},"geometry":{"x":7358906.2368891649,"y":3997800.7943348512}},{"attributes":{"OBJECTID":6684,"ولایت":"دایکندی","Province":"DAYKUNDI","PC_Code":"2407149","ولسوالي":"میرامور","District":"MIRAMOR","د_مرکز_نوم__نام_مرکز":"مسجد دارغله چرخ","Polling_Center_Name":"Darghala Charkh Mosque","د_مرکز_ځای__موقعیت_مرکز":"دارغله چرخ","Polling_Center_Location":"Darghala Charkh","Verification_Note":"Building","PS_Male":2,"PS_Female":1,"Map_Accuracy":"تعمیر"},"geometry":{"x":7416724.2345545478,"y":4012431.8427876979}},{"attributes":{"OBJECTID":6685,"ولایت":"دایکندی","Province":"DAYKUNDI","PC_Code":"2407150","ولسوالي":"میرامور","District":"MIRAMOR","د_مرکز_نوم__نام_مرکز":"مسجد بازار جوز","Polling_Center_Name":"Bazar Joz Mosque","د_مرکز_ځای__موقعیت_مرکز":"سیا دره، بازار جوز","Polling_Center_Location":"Siyah Dara, Bazar Joz","Verification_Note":"Building","PS_Male":2,"PS_Female":1,"Map_Accuracy":"تعمیر"},"geometry":{"x":7413269.2604993694,"y":4012256.3049678579}},{"attributes":{"OBJECTID":6686,"ولایت":"ارزگان","Province":"UROZGAN","PC_Code":"2504033","ولسوالي":"شهید حساس","District":"SHAHID-E-HASSAS","د_مرکز_نوم__نام_مرکز":"مدرسه قریه حیدر","Polling_Center_Name":"Haidar Village Madrassa","د_مرکز_ځای__موقعیت_مرکز":"سپیر کوه","Polling_Center_Location":"Sper Koh","Verification_Note":"Village","PS_Male":3,"PS_Female":1,"Map_Accuracy":"قریه"},"geometry":{"x":7298456.3113897592,"y":3886421.4500462934}},{"attributes":{"OBJECTID":6687,"ولایت":"ارزگان","Province":"UROZGAN","PC_Code":"2504034","ولسوالي":"شهید حساس","District":"SHAHID-E-HASSAS","د_مرکز_نوم__نام_مرکز":"مسجد ناجو شاه مشهد ","Polling_Center_Name":"Najo Shah Mashhad Mosque","د_مرکز_ځای__موقعیت_مرکز":"شاه مشهد","Polling_Center_Location":"Shah Mashhad","Verification_Note":"Building","PS_Male":3,"PS_Female":1,"Map_Accuracy":"تعمیر"},"geometry":{"x":7295765.0458143689,"y":3885208.2429729849}},{"attributes":{"OBJECTID":6688,"ولایت":"فارياب","Province":"FARYAB","PC_Code":"2907101","ولسوالي":"قیصار ","District":"QAISAR","د_مرکز_نوم__نام_مرکز":"مکتب ذکور صوفی قلعه","Polling_Center_Name":"Sufi Qala Boys School","د_مرکز_ځای__موقعیت_مرکز":"صوفی قلعه","Polling_Center_Location":"Sufi Qala","Verification_Note":"Building","PS_Male":1,"PS_Female":1,"Map_Accuracy":"تعمیر"},"geometry":{"x":7151589.02845211,"y":4259301.2216233313}},{"attributes":{"OBJECTID":6689,"ولایت":"فارياب","Province":"FARYAB","PC_Code":"2907102","ولسوالي":"قیصار ","District":"QAISAR","د_مرکز_نوم__نام_مرکز":"مسجد جامع خواجه های بورغن","Polling_Center_Name":"Khwaja Hai Borghan Mosque","د_مرکز_ځای__موقعیت_مرکز":"خواجه های بورغن","Polling_Center_Location":"Khwaja Hai Borghan","Verification_Note":"Building","PS_Male":1,"PS_Female":2,"Map_Accuracy":"تعمیر"},"geometry":{"x":7163458.4190641679,"y":4253888.0697835609}},{"attributes":{"OBJECTID":6690,"ولایت":"هلمند","Province":"HELMAND","PC_Code":"3001006","ولسوالي":"لشکرگاه","District":"LASHKARGAH","د_مرکز_نوم__نام_مرکز":"مسجد هاشم خان ","Polling_Center_Name":"Hashim Khan Mosque","د_مرکز_ځای__موقعیت_مرکز":"د لشکربازار شمالی کلی","Polling_Center_Location":"Lashkar Bazar Shamal Village","Verification_Note":"Building","PS_Male":0,"PS_Female":4,"Map_Accuracy":"تعمیر"},"geometry":{"x":7164104.0654316023,"y":3713928.998605758}},{"attributes":{"OBJECTID":6691,"ولایت":"هلمند","Province":"HELMAND","PC_Code":"3001007","ولسوالي":"لشکرگاه","District":"LASHKARGAH","د_مرکز_نوم__نام_مرکز":"مکتب ابتدائیه لشکربازار شرقی","Polling_Center_Name":"Lashkar Bazar Sharqi Primary School","د_مرکز_ځای__موقعیت_مرکز":"لشکربازار شرقی","Polling_Center_Location":"Lashkar Bazar Sharqi","Verification_Note":"Village","PS_Male":5,"PS_Female":0,"Map_Accuracy":"قریه"},"geometry":{"x":7170171.507560607,"y":3709599.6055287421}},{"attributes":{"OBJECTID":6692,"ولایت":"هرات","Province":"HERAT","PC_Code":"3207194","ولسوالي":"کشک (رباط سنگی)","District":"KUSHK (RUBAT-E-SANGI)","د_مرکز_نوم__نام_مرکز":"مسجد چهل دختر دوم","Polling_Center_Name":"Chel Dukhtar Duowm Mosque","د_مرکز_ځای__موقعیت_مرکز":"چهل دختردوم","Polling_Center_Location":"Chel Dukhtar Duowm","Verification_Note":"Building","PS_Male":0,"PS_Female":2,"Map_Accuracy":"تعمیر"},"geometry":{"x":6935853.6397461779,"y":4180029.01404389}},{"attributes":{"OBJECTID":6693,"ولایت":"هرات","Province":"HERAT","PC_Code":"3210422","ولسوالي":"کشک کهنه ","District":"KUSHK-E-KUHNA","د_مرکز_نوم__نام_مرکز":"مسجد پایین گله چغر زنانه","Polling_Center_Name":"Galla Chaghar Paheen Zananah- Mosque","د_مرکز_ځای__موقعیت_مرکز":"قریه گله چغر","Polling_Center_Location":"Galla Chaghar Village","Verification_Note":"Building","PS_Male":0,"PS_Female":2,"Map_Accuracy":"تعمیر"},"geometry":{"x":6988398.1693054922,"y":4129523.0254699513}},{"attributes":{"OBJECTID":6694,"ولایت":"هرات","Province":"HERAT","PC_Code":"3210423","ولسوالي":"کشک کهنه ","District":"KUSHK-E-KUHNA","د_مرکز_نوم__نام_مرکز":"مکتب نزدیک چاه خواجه الخند","Polling_Center_Name":"Nazdik-e- Chah  Khwaja alkhand School ","د_مرکز_ځای__موقعیت_مرکز":"خواجه الخند ","Polling_Center_Location":"Khwaja Alkhand ","Verification_Note":"Building","PS_Male":1,"PS_Female":1,"Map_Accuracy":"تعمیر"},"geometry":{"x":6985489.0325623043,"y":4144286.1285341457}},{"attributes":{"OBJECTID":6695,"ولایت":"هرات","Province":"HERAT","PC_Code":"3212381","ولسوالي":"اوبه ","District":"OBE","د_مرکز_نوم__نام_مرکز":"مکتب دخترانه رباط آخند زنانه","Polling_Center_Name":"Rubat-e-Akhond Zanana Girls School ","د_مرکز_ځای__موقعیت_مرکز":"قریه رباط آخند","Polling_Center_Location":"Rubat-e- Akhond Village","Verification_Note":"Village","PS_Male":0,"PS_Female":2,"Map_Accuracy":"قریه"},"geometry":{"x":7008757.5562861189,"y":4065062.6997841}},{"attributes":{"OBJECTID":6696,"ولایت":"هرات","Province":"HERAT","PC_Code":"3212382","ولسوالي":"اوبه ","District":"OBE","د_مرکز_نوم__نام_مرکز":"مکتب چناران مردانه","Polling_Center_Name":"Chenaran Boys School","د_مرکز_ځای__موقعیت_مرکز":"قریه چناران","Polling_Center_Location":"Chenaran Village ","Verification_Note":"Building","PS_Male":3,"PS_Female":0,"Map_Accuracy":"تعمیر"},"geometry":{"x":7012403.6352941245,"y":4065467.9276109412}},{"attributes":{"OBJECTID":6697,"ولایت":"هرات","Province":"HERAT","PC_Code":"3216390","ولسوالي":"چشت شریف","District":"CHISHT-E-SHARIF","د_مرکز_نوم__نام_مرکز":"مسجد سر تگاب","Polling_Center_Name":"Sar Tagab Mosque","د_مرکز_ځای__موقعیت_مرکز":"قریه سر تگاب","Polling_Center_Location":"Sar Tagab Village","Verification_Note":"Building","PS_Male":1,"PS_Female":1,"Map_Accuracy":"تعمیر"},"geometry":{"x":7095558.4978691489,"y":4076516.6458545104}},{"attributes":{"OBJECTID":6698,"ولایت":"هرات","Province":"HERAT","PC_Code":"3216391","ولسوالي":"چشت شریف","District":"CHISHT-E-SHARIF","د_مرکز_نوم__نام_مرکز":"مسجد کبوتر خان","Polling_Center_Name":"Kabotar Khan Mosque ","د_مرکز_ځای__موقعیت_مرکز":"کبوتر خان ","Polling_Center_Location":"Kabotar Khan","Verification_Note":"Village","PS_Male":1,"PS_Female":1,"Map_Accuracy":"قریه"},"geometry":{"x":7092847.0200138129,"y":4073457.9451543838}},{"attributes":{"OBJECTID":6699,"ولایت":"هرات","Province":"HERAT","PC_Code":"3216400","ولسوالي":"چشت شریف","District":"CHISHT-E-SHARIF","د_مرکز_نوم__نام_مرکز":"فضای باز باغ بسم الله قریه دره گگ ","Polling_Center_Name":"Bagh-e-Besmellah Open Space","د_مرکز_ځای__موقعیت_مرکز":"قریه دره گگ ","Polling_Center_Location":"Daragag Village","Verification_Note":"Village","PS_Male":1,"PS_Female":1,"Map_Accuracy":"قریه"},"geometry":{"x":7130513.0851450153,"y":4092190.2667303607}},{"attributes":{"OBJECTID":6700,"ولایت":"هرات","Province":"HERAT","PC_Code":"3216401","ولسوالي":"چشت شریف","District":"CHISHT-E-SHARIF","د_مرکز_نوم__نام_مرکز":"فضای باز باغ حاجی محمد رحیم قریه خار زا","Polling_Center_Name":"Bagh-e-Haji Mohammad Rahim Open Space","د_مرکز_ځای__موقعیت_مرکز":"خار زار","Polling_Center_Location":"Kharzar","Verification_Note":"Village","PS_Male":1,"PS_Female":1,"Map_Accuracy":"قریه"},"geometry":{"x":7122440.5674797818,"y":4068205.8371588513}},{"attributes":{"OBJECTID":6701,"ولایت":" فراه","Province":"FARAH","PC_Code":"3311206","ولسوالي":"پرچمن","District":"PUR CHAMAN","د_مرکز_نوم__نام_مرکز":"مسجد ایجن","Polling_Center_Name":"Ejan Mosque  ","د_مرکز_ځای__موقعیت_مرکز":"ایجن","Polling_Center_Location":"Ejan ","Verification_Note":"Building","PS_Male":1,"PS_Female":1,"Map_Accuracy":"تعمیر"},"geometry":{"x":7138446.0437910222,"y":3893197.3492628783}},{"attributes":{"OBJECTID":6702,"ولایت":"نيمروز","Province":"NIMROZ","PC_Code":"3406056","ولسوالي":"دلارام","District":"DELARAM","د_مرکز_نوم__نام_مرکز":"پوزه گی ","Polling_Center_Name":"Pozagi ","د_مرکز_ځای__موقعیت_مرکز":"پوزه گی ","Polling_Center_Location":"Pozagi ","Verification_Note":"Village","PS_Male":1,"PS_Female":1,"Map_Accuracy":"قریه"},"geometry":{"x":7070644.5590821207,"y":3786447.032230705}},{"attributes":{"OBJECTID":6703,"ولایت":"کابل","Province":"KABUL","PC_Code":"0101047","ولسوالي":"کابل - ناحیه 03","District":"KABUL-D03","د_مرکز_نوم__نام_مرکز":" ليسه رابعه بلخي","Polling_Center_Name":"Rabia Balkhi High School","د_مرکز_ځای__موقعیت_مرکز":"کارته چهار","Polling_Center_Location":"Kart-e-Chahar","Verification_Note":"Building","PS_Male":3,"PS_Female":2,"Map_Accuracy":"تعمیر"},"geometry":{"x":7697429.3594229817,"y":4097299.986154668}},{"attributes":{"OBJECTID":6704,"ولایت":"کابل","Province":"KABUL","PC_Code":"0101154","ولسوالي":"کابل - ناحیه 08","District":"KABUL-D08","د_مرکز_نوم__نام_مرکز":" مسجد جامع شهرک طلائی","Polling_Center_Name":"Shahrak-e-Talaie Mosque","د_مرکز_ځای__موقعیت_مرکز":"شهرک طلایی","Polling_Center_Location":"Shahrak Talaie","Verification_Note":"Building","PS_Male":3,"PS_Female":2,"Map_Accuracy":"تعمیر"},"geometry":{"x":7705301.3361387476,"y":4097919.7434774265}},{"attributes":{"OBJECTID":6705,"ولایت":"پروان","Province":"PARWAN","PC_Code":"0301036","ولسوالي":"چاریکار","District":"CHARIKAR","د_مرکز_نوم__نام_مرکز":"لیسه مسعود بزرگ","Polling_Center_Name":"Masoud Buzurg High School","د_مرکز_ځای__موقعیت_مرکز":"سنجد دره","Polling_Center_Location":"Sunjid Dara","Verification_Note":"Building","PS_Male":2,"PS_Female":1,"Map_Accuracy":"تعمیر"},"geometry":{"x":7691282.9862090312,"y":4157131.1761571765}},{"attributes":{"OBJECTID":6706,"ولایت":"پنجشیر","Province":"PANJSHIR","PC_Code":"0802024","ولسوالي":"رخه","District":"RUKHA","د_مرکز_نوم__نام_مرکز":"مسجد حصارک","Polling_Center_Name":"Hasarak Mosque","د_مرکز_ځای__موقعیت_مرکز":"حصارک","Polling_Center_Location":"Hasarak","Verification_Note":"Building","PS_Male":1,"PS_Female":1,"Map_Accuracy":"تعمیر"},"geometry":{"x":7736980.9719003662,"y":4195453.287705563}},{"attributes":{"OBJECTID":6707,"ولایت":"پنجشیر","Province":"PANJSHIR","PC_Code":"0802025","ولسوالي":"رخه","District":"RUKHA","د_مرکز_نوم__نام_مرکز":"مسجد مرشتان","Polling_Center_Name":"Marshtan Mosque","د_مرکز_ځای__موقعیت_مرکز":"مرشتان","Polling_Center_Location":"Marshtan","Verification_Note":"Building","PS_Male":1,"PS_Female":1,"Map_Accuracy":"تعمیر"},"geometry":{"x":7735152.97784413,"y":4198995.9906058833}},{"attributes":{"OBJECTID":6708,"ولایت":"بغلان","Province":"BAGHLAN","PC_Code":"0901012","ولسوالي":"پلخمری","District":"PUL-E-KHUMRI","د_مرکز_نوم__نام_مرکز":"مکتب خواجه کمال ولی","Polling_Center_Name":"Khwaja Kamal Wali School","د_مرکز_ځای__موقعیت_مرکز":"فامیل های بلاک سیمنت غوری","Polling_Center_Location":"Ghory Sement Familiies Building","Verification_Note":"Building","PS_Male":1,"PS_Female":1,"Map_Accuracy":"تعمیر"},"geometry":{"x":7645503.6337623,"y":4297982.1679004654}},{"attributes":{"OBJECTID":6709,"ولایت":"غزنى","Province":"GHAZNI","PC_Code":"1111193","ولسوالي":"قره باغ","District":"QARA BAGH","د_مرکز_نوم__نام_مرکز":"مسجد قریه بلند غان","Polling_Center_Name":"Bilandghan Village Mosque","د_مرکز_ځای__موقعیت_مرکز":"قریه بلند غان ","Polling_Center_Location":"Biland Ghan Village","Verification_Note":"Village","PS_Male":2,"PS_Female":1,"Map_Accuracy":"قریه"},"geometry":{"x":7570731.7288560607,"y":3950984.05081179}},{"attributes":{"OBJECTID":6710,"ولایت":"غزنى","Province":"GHAZNI","PC_Code":"1111194","ولسوالي":"قره باغ","District":"QARA BAGH","د_مرکز_نوم__نام_مرکز":"لیسه سلطان محمود غزنوی","Polling_Center_Name":"Sultan Mahmood Ghaznawi High School","د_مرکز_ځای__موقعیت_مرکز":"قریه قلبی","Polling_Center_Location":"Qalbi Village ","Verification_Note":"Building","PS_Male":2,"PS_Female":0,"Map_Accuracy":"تعمیر"},"geometry":{"x":7581058.5508126654,"y":3921990.4206188247}},{"attributes":{"OBJECTID":6711,"ولایت":"بدخشان","Province":"BADAKHSHAN","PC_Code":"1715157","ولسوالي":"کشم","District":"KISHM","د_مرکز_نوم__نام_مرکز":"لیسه تکیه","Polling_Center_Name":"Takya High School","د_مرکز_ځای__موقعیت_مرکز":"تکیه","Polling_Center_Location":"Takya","Verification_Note":"Building","PS_Male":2,"PS_Female":1,"Map_Accuracy":"تعمیر"},"geometry":{"x":7801476.8632919788,"y":4416986.7358484268}},{"attributes":{"OBJECTID":6712,"ولایت":"بدخشان","Province":"BADAKHSHAN","PC_Code":"1715158","ولسوالي":"کشم","District":"KISHM","د_مرکز_نوم__نام_مرکز":"مکتب نمازگاه ","Polling_Center_Name":"Namazgah School","د_مرکز_ځای__موقعیت_مرکز":"نمازگاه ","Polling_Center_Location":"Namazgah","Verification_Note":"Building","PS_Male":2,"PS_Female":1,"Map_Accuracy":"تعمیر"},"geometry":{"x":7808627.6088192537,"y":4406811.5188382268}},{"attributes":{"OBJECTID":6713,"ولایت":"بدخشان","Province":"BADAKHSHAN","PC_Code":"1717172","ولسوالي":"تگاب","District":"TAGAB","د_مرکز_نوم__نام_مرکز":"مکتب کوری ","Polling_Center_Name":"Koree School","د_مرکز_ځای__موقعیت_مرکز":"کوری ","Polling_Center_Location":"Koree","Verification_Note":"Building","PS_Male":1,"PS_Female":1,"Map_Accuracy":"تعمیر"},"geometry":{"x":7827894.3922147565,"y":4378499.9245020226}},{"attributes":{"OBJECTID":6714,"ولایت":"تخار","Province":"TAKHAR","PC_Code":"1809057","ولسوالي":"خواجه غار","District":"KHWAJA GHAR","د_مرکز_نوم__نام_مرکز":"شهروان با غ عبد الشکور","Polling_Center_Name":"Shahrwan Bagh Abdul Shakoor","د_مرکز_ځای__موقعیت_مرکز":"شهروان","Polling_Center_Location":"Shahrwan","Verification_Note":"District","PS_Male":1,"PS_Female":1,"Map_Accuracy":"ولسوالی"},"geometry":{"x":7725395.0426793136,"y":4446807.6905861273}},{"attributes":{"OBJECTID":6715,"ولایت":"تخار","Province":"TAKHAR","PC_Code":"1809058","ولسوالي":"خواجه غار","District":"KHWAJA GHAR","د_مرکز_نوم__نام_مرکز":"مکتب صاف قروق","Polling_Center_Name":"Saaf Qarooq School","د_مرکز_ځای__موقعیت_مرکز":"صاف قروق","Polling_Center_Location":"Saaf Qarooq","Verification_Note":"Building","PS_Male":1,"PS_Female":1,"Map_Accuracy":"تعمیر"},"geometry":{"x":7721609.6871809512,"y":4443803.7797247395}},{"attributes":{"OBJECTID":6716,"ولایت":"کندز","Province":"KUNDUZ","PC_Code":"1904174","ولسوالي":"خان آباد","District":"KHAN ABAD","د_مرکز_نوم__نام_مرکز":"مکتب عرب قدق","Polling_Center_Name":"Arab Qadaq School","د_مرکز_ځای__موقعیت_مرکز":"قریه عرب قدق","Polling_Center_Location":"Arab Qadaq Village","Verification_Note":"Building","PS_Male":1,"PS_Female":1,"Map_Accuracy":"تعمیر"},"geometry":{"x":7694805.1905574761,"y":4373911.2141792923}},{"attributes":{"OBJECTID":6717,"ولایت":"کندز","Province":"KUNDUZ","PC_Code":"1904175","ولسوالي":"خان آباد","District":"KHAN ABAD","د_مرکز_نوم__نام_مرکز":"مکتب متوسطه لاله کی","Polling_Center_Name":"Lala Kai Secondary School","د_مرکز_ځای__موقعیت_مرکز":"قریه لاله کی","Polling_Center_Location":"Lalai Kai Village","Verification_Note":"Building","PS_Male":2,"PS_Female":1,"Map_Accuracy":"تعمیر"},"geometry":{"x":7698746.7309749573,"y":4372233.3836072385}},{"attributes":{"OBJECTID":6718,"ولایت":"سمنگان","Province":"SAMANGAN","PC_Code":"2003078","ولسوالي":"خرم و سارباغ","District":"KHURAM WA SARBAGH","د_مرکز_نوم__نام_مرکز":"مکتب ابتدائیه غازی مرد","Polling_Center_Name":"Ghazi Mard Primary School","د_مرکز_ځای__موقعیت_مرکز":"قریه غازی مرد","Polling_Center_Location":"Ghazi Murad Village","Verification_Note":"Building","PS_Male":1,"PS_Female":2,"Map_Accuracy":"تعمیر"},"geometry":{"x":7573837.3099914566,"y":4294992.01691781}},{"attributes":{"OBJECTID":6719,"ولایت":"سمنگان","Province":"SAMANGAN","PC_Code":"2003079","ولسوالي":"خرم و سارباغ","District":"KHURAM WA SARBAGH","د_مرکز_نوم__نام_مرکز":"مکتب لیسه سید جمال الدین","Polling_Center_Name":"Sayed Jamaluddin High School","د_مرکز_ځای__موقعیت_مرکز":"مرکز ولسوالی","Polling_Center_Location":"District Compound","Verification_Note":"Building","PS_Male":2,"PS_Female":1,"Map_Accuracy":"تعمیر"},"geometry":{"x":7576142.4115928747,"y":4300172.6411037743}},{"attributes":{"OBJECTID":6720,"ولایت":"بلخ","Province":"BALKH","PC_Code":"2101036","ولسوالي":"مزار شریف","District":"MAZAR-E-SHARIF","د_مرکز_نوم__نام_مرکز":"لیسه  هاشم برات","Polling_Center_Name":"Hashim Barat High School","د_مرکز_ځای__موقعیت_مرکز":"ناحیه دوم مزار شاروالی ","Polling_Center_Location":"D02 - Nahia 2 ","Verification_Note":"Building","PS_Male":4,"PS_Female":3,"Map_Accuracy":"تعمیر"},"geometry":{"x":7469935.1593211815,"y":4400660.2606629953}},{"attributes":{"OBJECTID":6721,"ولایت":"بلخ","Province":"BALKH","PC_Code":"2101037","ولسوالي":"مزار شریف","District":"MAZAR-E-SHARIF","د_مرکز_نوم__نام_مرکز":"مکتب نو بهار","Polling_Center_Name":"Naw Bahar School","د_مرکز_ځای__موقعیت_مرکز":"کارته نوشاد ناحیه نهم مزار شاروالی ","Polling_Center_Location":"D09 - Nahia 9 Karta-e-Nawshad","Verification_Note":"Building","PS_Male":3,"PS_Female":2,"Map_Accuracy":"تعمیر"},"geometry":{"x":7469115.29683746,"y":4401197.3593860418}},{"attributes":{"OBJECTID":6722,"ولایت":"غور","Province":"GHOR","PC_Code":"2306074","ولسوالي":"شهرک ","District":"SHAHRAK","د_مرکز_نوم__نام_مرکز":"مکتب کمنج","Polling_Center_Name":"Kamanj School","د_مرکز_ځای__موقعیت_مرکز":" غوک","Polling_Center_Location":"Ghok","Verification_Note":"Building","PS_Male":1,"PS_Female":2,"Map_Accuracy":"تعمیر"},"geometry":{"x":7165024.2746439092,"y":4076524.0904311016}},{"attributes":{"OBJECTID":6723,"ولایت":"غور","Province":"GHOR","PC_Code":"2306075","ولسوالي":"شهرک ","District":"SHAHRAK","د_مرکز_نوم__نام_مرکز":"مکتب سر چشمه","Polling_Center_Name":"Sar Chashma School","د_مرکز_ځای__موقعیت_مرکز":"سرچشمه","Polling_Center_Location":"Sarchashma","Verification_Note":"Building","PS_Male":1,"PS_Female":2,"Map_Accuracy":"تعمیر"},"geometry":{"x":7171170.8994399086,"y":4046580.6596958116}},{"attributes":{"OBJECTID":6724,"ولایت":"غور","Province":"GHOR","PC_Code":"2307163","ولسوالي":"لعل و سرجنگل ","District":"LAL WA SARJANGAL","د_مرکز_نوم__نام_مرکز":"مکتب شور قل ","Polling_Center_Name":"Shorqal School","د_مرکز_ځای__موقعیت_مرکز":"ده مهر علی ","Polling_Center_Location":"Deh Mohr Ali","Verification_Note":"Building","PS_Male":1,"PS_Female":1,"Map_Accuracy":"تعمیر"},"geometry":{"x":7411817.3860594593,"y":4103865.5480718762}},{"attributes":{"OBJECTID":6725,"ولایت":"غور","Province":"GHOR","PC_Code":"2307164","ولسوالي":"لعل و سرجنگل ","District":"LAL WA SARJANGAL","د_مرکز_نوم__نام_مرکز":"مسجد سری کامران","Polling_Center_Name":"Sare Kamran Mosque","د_مرکز_ځای__موقعیت_مرکز":" سری کامران","Polling_Center_Location":"Sare Kamran","Verification_Note":"Village","PS_Male":1,"PS_Female":1,"Map_Accuracy":"قریه"},"geometry":{"x":7380771.8728715815,"y":4115512.717028372}},{"attributes":{"OBJECTID":6726,"ولایت":"غور","Province":"GHOR","PC_Code":"2310198","ولسوالي":"ساغر ","District":"SAGHAR","د_مرکز_نوم__نام_مرکز":"مکتب متوسطه ده شیر","Polling_Center_Name":"Deh Sheer Secondary School","د_مرکز_ځای__موقعیت_مرکز":" ده شیر","Polling_Center_Location":"Deh Sheer","Verification_Note":"Building","PS_Male":2,"PS_Female":1,"Map_Accuracy":"تعمیر"},"geometry":{"x":7091416.2150139175,"y":3981348.7014107704}},{"attributes":{"OBJECTID":6727,"ولایت":"دایکندی","Province":"DAYKUNDI","PC_Code":"2406132","ولسوالي":"کیتی","District":"KITI","د_مرکز_نوم__نام_مرکز":"مسجد کومی","Polling_Center_Name":"Komi Mosque","د_مرکز_ځای__موقعیت_مرکز":"کومی","Polling_Center_Location":"Komi","Verification_Note":"Building","PS_Male":2,"PS_Female":1,"Map_Accuracy":"تعمیر"},"geometry":{"x":7322476.3290622272,"y":3986694.9054832086}},{"attributes":{"OBJECTID":6728,"ولایت":"دایکندی","Province":"DAYKUNDI","PC_Code":"2406133","ولسوالي":"کیتی","District":"KITI","د_مرکز_نوم__نام_مرکز":"مسجد موزرمی","Polling_Center_Name":"Mozarmi Mosque","د_مرکز_ځای__موقعیت_مرکز":"موزرمی","Polling_Center_Location":"Mozrami","Verification_Note":"Building","PS_Male":2,"PS_Female":1,"Map_Accuracy":"تعمیر"},"geometry":{"x":7309326.4247816019,"y":3967250.1304868385}},{"attributes":{"OBJECTID":6729,"ولایت":"کندهار","Province":"کندهار","PC_Code":"2703079","ولسوالي":"دامان","District":"DAMAN","د_مرکز_نوم__نام_مرکز":"مكتب منډهسار","Polling_Center_Name":"Mandahsar School","د_مرکز_ځای__موقعیت_مرکز":"منډهسار","Polling_Center_Location":"Mandahsar","Verification_Note":"Building","PS_Male":3,"PS_Female":1,"Map_Accuracy":"تعمیر"},"geometry":{"x":7330798.1133312434,"y":3703796.7325441688}},{"attributes":{"OBJECTID":6730,"ولایت":"کندهار","Province":"کندهار","PC_Code":"2703080","ولسوالي":"دامان","District":"DAMAN","د_مرکز_نوم__نام_مرکز":"مكتب خوش آب","Polling_Center_Name":"Khosh Aab School","د_مرکز_ځای__موقعیت_مرکز":"خوش آب","Polling_Center_Location":"Khosh Aab","Verification_Note":"Building","PS_Male":2,"PS_Female":1,"Map_Accuracy":"تعمیر"},"geometry":{"x":7326216.1641283706,"y":3698393.509898819}},{"attributes":{"OBJECTID":6731,"ولایت":"فارياب","Province":"FARYAB","PC_Code":"2907084","ولسوالي":"قیصار ","District":"QAISAR","د_مرکز_نوم__نام_مرکز":"مسجد باشلمست ","Polling_Center_Name":"Bashalmast Mosque","د_مرکز_ځای__موقعیت_مرکز":"باشلمست ","Polling_Center_Location":"Bashlmast","Verification_Note":"Building","PS_Male":1,"PS_Female":1,"Map_Accuracy":"تعمیر"},"geometry":{"x":7120549.18365271,"y":4262939.64979969}},{"attributes":{"OBJECTID":6732,"ولایت":"فارياب","Province":"FARYAB","PC_Code":"2907085","ولسوالي":"قیصار ","District":"QAISAR","د_مرکز_نوم__نام_مرکز":"مسجد ماتو","Polling_Center_Name":"Maato Mosque","د_مرکز_ځای__موقعیت_مرکز":"چهل گزی","Polling_Center_Location":"Chehl Gazai","Verification_Note":"Village","PS_Male":1,"PS_Female":1,"Map_Accuracy":"قریه"},"geometry":{"x":7126949.0781013817,"y":4265776.6371350214}},{"attributes":{"OBJECTID":6733,"ولایت":"هلمند","Province":"HELMAND","PC_Code":"3006117","ولسوالي":"گرم سیر","District":"GARM SER","د_مرکز_نوم__نام_مرکز":"د حاجی نادر د کلي مكتب","Polling_Center_Name":"Haji Nadir Village School","د_مرکز_ځای__موقعیت_مرکز":"د حاجی نادر کلي","Polling_Center_Location":"Haji Nadir Village","Verification_Note":"Building","PS_Male":2,"PS_Female":0,"Map_Accuracy":"تعمیر"},"geometry":{"x":7139951.0910989121,"y":3621616.4113089144}},{"attributes":{"OBJECTID":6734,"ولایت":"هلمند","Province":"HELMAND","PC_Code":"3006118","ولسوالي":"گرم سیر","District":"GARM SER","د_مرکز_نوم__نام_مرکز":"مكتب لكړي","Polling_Center_Name":"Lakree School","د_مرکز_ځای__موقعیت_مرکز":"د حاجی عبدالظاهر کلي","Polling_Center_Location":"Haji Abdul Zahir Village","Verification_Note":"Building","PS_Male":3,"PS_Female":0,"Map_Accuracy":"تعمیر"},"geometry":{"x":7140059.1789848879,"y":3616004.1549559683}},{"attributes":{"OBJECTID":6735,"ولایت":"سمنگان","Province":"SAMANGAN","PC_Code":"2006093","ولسوالي":"دره صوف پائین","District":"DARA-E-SOOF-E-PAYIN","د_مرکز_نوم__نام_مرکز":"مسجد جامع دایکندی ","Polling_Center_Name":"Dai Kundi Jaame Mosque","د_مرکز_ځای__موقعیت_مرکز":"قریه دایکندی","Polling_Center_Location":"Dai Kundi Village","Verification_Note":"Building","PS_Male":1,"PS_Female":1,"Map_Accuracy":"تعمیر"},"geometry":{"x":7520775.9577661939,"y":4293677.7657532692}},{"attributes":{"OBJECTID":6736,"ولایت":"سمنگان","Province":"SAMANGAN","PC_Code":"2007033","ولسوالي":"دره صوف بالا","District":"DARA-E-SOOF-E-BALA","د_مرکز_نوم__نام_مرکز":"لیسه ذکور بازار سوخته ","Polling_Center_Name":"Bazar Sokhta Boys High School","د_مرکز_ځای__موقعیت_مرکز":"مرکز ولسوالی","Polling_Center_Location":"District Compound","Verification_Note":"Building","PS_Male":2,"PS_Female":2,"Map_Accuracy":"تعمیر"},"geometry":{"x":7489936.1582105756,"y":4287992.9840450883}},{"attributes":{"OBJECTID":6737,"ولایت":"کابل","Province":"KABUL","PC_Code":"0105464","ولسوالي":"ده سبز","District":"DEHSABZ","د_مرکز_نوم__نام_مرکز":" لیسه خواجه چشت","Polling_Center_Name":"Khwaja Chesht High School","د_مرکز_ځای__موقعیت_مرکز":"خواجه چشت","Polling_Center_Location":"Khwaja Chasht","Verification_Note":"Building","PS_Male":3,"PS_Female":3,"Map_Accuracy":"تعمیر"},"geometry":{"x":7707100.7789719924,"y":4116004.0732819587}},{"attributes":{"OBJECTID":6738,"ولایت":"کابل","Province":"KABUL","PC_Code":"0105465","ولسوالي":"ده سبز","District":"DEHSABZ","د_مرکز_نوم__نام_مرکز":" مسجد بابه قشقار","Polling_Center_Name":"Baba Qashqar Mosque","د_مرکز_ځای__موقعیت_مرکز":"بابه قشقار","Polling_Center_Location":"Baba Qashqar","Verification_Note":"Building","PS_Male":2,"PS_Female":2,"Map_Accuracy":"تعمیر"},"geometry":{"x":7721672.23982922,"y":4120164.8242212832}},{"attributes":{"OBJECTID":6739,"ولایت":"کابل","Province":"KABUL","PC_Code":"0108343","ولسوالي":"میر بچه کوت","District":"MIR BACHA KOT","د_مرکز_نوم__نام_مرکز":" مسجد جامع قلم چاق","Polling_Center_Name":"Qalam Chaaq Mosque","د_مرکز_ځای__موقعیت_مرکز":"قلم چاق","Polling_Center_Location":"Qalam Chaq","Verification_Note":"Building","PS_Male":2,"PS_Female":1,"Map_Accuracy":"تعمیر"},"geometry":{"x":7693819.71673147,"y":4132408.5498411134}},{"attributes":{"OBJECTID":6740,"ولایت":"وردک","Province":"WARDAK","PC_Code":"0405142","ولسوالي":"سید آباد","District":"SAYYD ABAD","د_مرکز_نوم__نام_مرکز":"لیسه کهنه دشت توپ","Polling_Center_Name":"Dasht-e-Toop Old High School","د_مرکز_ځای__موقعیت_مرکز":"معین خیل","Polling_Center_Location":"Muien Khel","Verification_Note":"Village","PS_Male":2,"PS_Female":1,"Map_Accuracy":"قریه"},"geometry":{"x":7657983.2544457875,"y":4055761.928589575}},{"attributes":{"OBJECTID":6741,"ولایت":"ننگرهار","Province":"NANGARHAR","PC_Code":"0609459","ولسوالي":"بټي کوټ","District":"BATI KOT","د_مرکز_نوم__نام_مرکز":"کوچي بانده جومات","Polling_Center_Name":"Kochai Banda Mosque","د_مرکز_ځای__موقعیت_مرکز":"پاس باريکاب","Polling_Center_Location":"Paas Barikaab","Verification_Note":"Village","PS_Male":1,"PS_Female":1,"Map_Accuracy":"قریه"},"geometry":{"x":7871154.3951190673,"y":4069648.37355569}},{"attributes":{"OBJECTID":6742,"ولایت":"ننگرهار","Province":"NANGARHAR","PC_Code":"0609460","ولسوالي":"بټي کوټ","District":"BATI KOT","د_مرکز_نوم__نام_مرکز":"للمه بجګی  ديره","Polling_Center_Name":"Lalma Bajgai Dera","د_مرکز_ځای__موقعیت_مرکز":"چاردهي","Polling_Center_Location":"Chardehi","Verification_Note":"Village","PS_Male":1,"PS_Female":1,"Map_Accuracy":"قریه"},"geometry":{"x":7878012.0934226625,"y":4071989.2571016476}},{"attributes":{"OBJECTID":6743,"ولایت":"ننگرهار","Province":"NANGARHAR","PC_Code":"0611308","ولسوالي":"پچیر و اګام","District":"PACHIR WAGAM","د_مرکز_نوم__نام_مرکز":"کوزصبر چارديوالي","Polling_Center_Name":"Koz Sabr Chardewali","د_مرکز_ځای__موقعیت_مرکز":"کوزصبر","Polling_Center_Location":"Koz Sabr","Verification_Note":"Building","PS_Male":0,"PS_Female":3,"Map_Accuracy":"تعمیر"},"geometry":{"x":7825431.2381984368,"y":4060967.555390507}},{"attributes":{"OBJECTID":6744,"ولایت":"بغلان","Province":"BAGHLAN","PC_Code":"0905070","ولسوالي":"بغلان جدید","District":"BAGLAN-E-JADEED","د_مرکز_نوم__نام_مرکز":"مسجد ملا نجیب","Polling_Center_Name":"Molla Najeeb Mosque ","د_مرکز_ځای__موقعیت_مرکز":"قریه ملا نجیب","Polling_Center_Location":"Molla Najib Village","Verification_Note":"Village","PS_Male":1,"PS_Female":1,"Map_Accuracy":"قریه"},"geometry":{"x":7654817.4461262859,"y":4346093.0481755137}},{"attributes":{"OBJECTID":6745,"ولایت":"بغلان","Province":"BAGHLAN","PC_Code":"0905071","ولسوالي":"بغلان جدید","District":"BAGLAN-E-JADEED","د_مرکز_نوم__نام_مرکز":"مسجد غلام مهی الدین یکه توت","Polling_Center_Name":"Ghulam Moheddin Yakatoot Mosque","د_مرکز_ځای__موقعیت_مرکز":"قندهاری","Polling_Center_Location":"Qandahari","Verification_Note":"Building","PS_Male":2,"PS_Female":1,"Map_Accuracy":"تعمیر"},"geometry":{"x":7657816.569093056,"y":4327280.6624006853}},{"attributes":{"OBJECTID":6746,"ولایت":"غزنى","Province":"GHAZNI","PC_Code":"1107225","ولسوالي":"اندر","District":"ANDAR","د_مرکز_نوم__نام_مرکز":"مسجد قریه بختیار","Polling_Center_Name":"Bakhtiar Village Mosque","د_مرکز_ځای__موقعیت_مرکز":"قریه بختیار","Polling_Center_Location":"Bakhtiar Village","Verification_Note":"Building","PS_Male":2,"PS_Female":0,"Map_Accuracy":"تعمیر"},"geometry":{"x":7617731.4112018682,"y":3944127.5981158242}},{"attributes":{"OBJECTID":6747,"ولایت":"غزنى","Province":"GHAZNI","PC_Code":"1107226","ولسوالي":"اندر","District":"ANDAR","د_مرکز_نوم__نام_مرکز":"مسجد پایین قریه بختیار","Polling_Center_Name":"Bakhtiar Village Lower Mosque","د_مرکز_ځای__موقعیت_مرکز":"قریه بختیار","Polling_Center_Location":"Bakhtiar Village","Verification_Note":"Village","PS_Male":0,"PS_Female":2,"Map_Accuracy":"قریه"},"geometry":{"x":7617839.8107824177,"y":3944213.7667782232}},{"attributes":{"OBJECTID":6748,"ولایت":"خوست","Province":"KHOST","PC_Code":"1403175","ولسوالي":"گربز","District":"GURBUZ","د_مرکز_نوم__نام_مرکز":"د ليوه ژوې خولې جومات","Polling_Center_Name":"Lewa Zhawy Khola Mosque","د_مرکز_ځای__موقعیت_مرکز":"ليوه ژاور خوله کلی","Polling_Center_Location":"lewa Zhawar Khola Village","Verification_Note":"Village","PS_Male":1,"PS_Female":1,"Map_Accuracy":"قریه"},"geometry":{"x":7793425.788877625,"y":3933421.5049997121}},{"attributes":{"OBJECTID":6749,"ولایت":"خوست","Province":"KHOST","PC_Code":"1404133","ولسوالي":"تڼي","District":"TANAY","د_مرکز_نوم__نام_مرکز":"فقيران د حاجى بادشاه ولدود هجره","Polling_Center_Name":"Faqeeran Haji Badshah Waldod Hojra","د_مرکز_ځای__موقعیت_مرکز":" ليژه","Polling_Center_Location":"lezha","Verification_Note":"Village","PS_Male":2,"PS_Female":1,"Map_Accuracy":"قریه"},"geometry":{"x":7775877.1274235919,"y":3924732.0207076967}},{"attributes":{"OBJECTID":6750,"ولایت":"خوست","Province":"KHOST","PC_Code":"1404146","ولسوالي":"تڼي","District":"TANAY","د_مرکز_نوم__نام_مرکز":"د صحرا کلي مدرسه ګربز","Polling_Center_Name":"Sahra Village Madrassa","د_مرکز_ځای__موقعیت_مرکز":"صحرا کلى","Polling_Center_Location":"Sahra Village","Verification_Note":"Village","PS_Male":2,"PS_Female":1,"Map_Accuracy":"قریه"},"geometry":{"x":7778857.1668900475,"y":3931110.2305441946}},{"attributes":{"OBJECTID":6751,"ولایت":"خوست","Province":"KHOST","PC_Code":"1405067","ولسوالي":"موسی خیل","District":"MUSA KHEL","د_مرکز_نوم__نام_مرکز":"د حاجي مير افغان هجره","Polling_Center_Name":"Haji Mir Afghan Hojra","د_مرکز_ځای__موقعیت_مرکز":"مرغه","Polling_Center_Location":"Murgha","Verification_Note":"Village","PS_Male":2,"PS_Female":1,"Map_Accuracy":"قریه"},"geometry":{"x":7773037.6377198137,"y":3956887.5574678928}},{"attributes":{"OBJECTID":6752,"ولایت":"سمنگان","Province":"SAMANGAN","PC_Code":"2007047","ولسوالي":"دره صوف بالا","District":"DARA-E-SOOF-E-BALA","د_مرکز_نوم__نام_مرکز":"منبر هشتلیز","Polling_Center_Name":"Menbar Hashtalez","د_مرکز_ځای__موقعیت_مرکز":"قریه هشتلیز","Polling_Center_Location":"Hashtlez Village","Verification_Note":"Building","PS_Male":1,"PS_Female":1,"Map_Accuracy":"تعمیر"},"geometry":{"x":7478191.6470277943,"y":4275179.54213585}},{"attributes":{"OBJECTID":6753,"ولایت":"سمنگان","Province":"SAMANGAN","PC_Code":"2007090","ولسوالي":"دره صوف بالا","District":"DARA-E-SOOF-E-BALA","د_مرکز_نوم__نام_مرکز":"منبر جیهون ","Polling_Center_Name":"Menbar Jaihoon","د_مرکز_ځای__موقعیت_مرکز":"قریه جیهون","Polling_Center_Location":"Jaihoon Village","Verification_Note":"Building","PS_Male":1,"PS_Female":1,"Map_Accuracy":"تعمیر"},"geometry":{"x":7504039.020784501,"y":4258285.5226936191}},{"attributes":{"OBJECTID":6754,"ولایت":"بلخ","Province":"BALKH","PC_Code":"2101045","ولسوالي":"مزار شریف","District":"MAZAR-E-SHARIF","د_مرکز_نوم__نام_مرکز":"مکتب متوسطه عبدالقادر خُلمی ","Polling_Center_Name":"Abdul Qader Khulmi Secondary School","د_مرکز_ځای__موقعیت_مرکز":"ناحیه هشتم مزار شاروالی ","Polling_Center_Location":"D08 - Nahia 8","Verification_Note":"Building","PS_Male":2,"PS_Female":1,"Map_Accuracy":"تعمیر"},"geometry":{"x":7475269.6783755869,"y":4396875.0330046043}},{"attributes":{"OBJECTID":6755,"ولایت":"بلخ","Province":"BALKH","PC_Code":"2101046","ولسوالي":"مزار شریف","District":"MAZAR-E-SHARIF","د_مرکز_نوم__نام_مرکز":"لیسه علی چوپان ","Polling_Center_Name":"Ali Chopan High School","د_مرکز_ځای__موقعیت_مرکز":"قریه علی چوپان ناحیه دهم ","Polling_Center_Location":"D10 - Nahia 10 Ali Chopan Village","Verification_Note":"Building","PS_Male":2,"PS_Female":2,"Map_Accuracy":"تعمیر"},"geometry":{"x":7475493.9692270942,"y":4397875.5709548816}},{"attributes":{"OBJECTID":6756,"ولایت":"بلخ","Province":"BALKH","PC_Code":"2111196","ولسوالي":"چار بولک","District":"CHAR BOLAK","د_مرکز_نوم__نام_مرکز":"مکتب تهانه","Polling_Center_Name":"Tahana School","د_مرکز_ځای__موقعیت_مرکز":"قریه تهانه","Polling_Center_Location":"Tahana Village","Verification_Note":"Building","PS_Male":1,"PS_Female":1,"Map_Accuracy":"تعمیر"},"geometry":{"x":7433789.2198342159,"y":4408802.8813933954}},{"attributes":{"OBJECTID":6757,"ولایت":"ارزگان","Province":"UROZGAN","PC_Code":"2503023","ولسوالي":"چوره","District":"CHORA","د_مرکز_نوم__نام_مرکز":"د حاجی محمد اکبر خان کور","Polling_Center_Name":"Haji Mohammad Akbar khan Private House","د_مرکز_ځای__موقعیت_مرکز":"سری کلی","Polling_Center_Location":"Sarai Village","Verification_Note":"Building","PS_Male":2,"PS_Female":1,"Map_Accuracy":"تعمیر"},"geometry":{"x":7354621.14337239,"y":3878259.8286054656}},{"attributes":{"OBJECTID":6758,"ولایت":"کندهار","Province":"کندهار","PC_Code":"2718244","ولسوالي":"تخته پل","District":"TAKHTA PUL","د_مرکز_نوم__نام_مرکز":"غټ مكتب","Polling_Center_Name":"Ghat School","د_مرکز_ځای__موقعیت_مرکز":"د مهمند خان كلي","Polling_Center_Location":"Mohmand Khan Village","Verification_Note":"Village","PS_Male":2,"PS_Female":1,"Map_Accuracy":"قریه"},"geometry":{"x":7344667.7831679434,"y":3663189.15574006}},{"attributes":{"OBJECTID":6759,"ولایت":"جوزجان","Province":"JAWZJAN","PC_Code":"2801001","ولسوالي":"شبرغان","District":"SHEBERGHAN","د_مرکز_نوم__نام_مرکز":"لیسه ابن یمین","Polling_Center_Name":"Ibn Yameen High School","د_مرکز_ځای__موقعیت_مرکز":"ناحیه اول ","Polling_Center_Location":"D01 - Nahia 1","Verification_Note":"Building","PS_Male":6,"PS_Female":4,"Map_Accuracy":"تعمیر"},"geometry":{"x":7319588.4921904057,"y":4392355.8124666065}},{"attributes":{"OBJECTID":6760,"ولایت":"کندهار","Province":"کندهار","PC_Code":"2718229","ولسوالي":"تخته پل","District":"TAKHTA PUL","د_مرکز_نوم__نام_مرکز":"سليمان زي مكتب","Polling_Center_Name":"Sulaimanzai School","د_مرکز_ځای__موقعیت_مرکز":"ظاهر کلۍ","Polling_Center_Location":"Zahir Village","Verification_Note":"Village","PS_Male":2,"PS_Female":0,"Map_Accuracy":"قریه"},"geometry":{"x":7325432.2629608735,"y":3696284.34545397}},{"attributes":{"OBJECTID":6761,"ولایت":"کندهار","Province":"کندهار","PC_Code":"2718230","ولسوالي":"تخته پل","District":"TAKHTA PUL","د_مرکز_نوم__نام_مرکز":"د کلۍ مکتب","Polling_Center_Name":"Village School","د_مرکز_ځای__موقعیت_مرکز":"حاجی نظر اکا کلی","Polling_Center_Location":"Haji Nazar Aka Village","Verification_Note":"Village","PS_Male":0,"PS_Female":2,"Map_Accuracy":"قریه"},"geometry":{"x":7344306.92077839,"y":3664267.59822686}},{"attributes":{"OBJECTID":6762,"ولایت":"کندهار","Province":"کندهار","PC_Code":"2718242","ولسوالي":"تخته پل","District":"TAKHTA PUL","د_مرکز_نوم__نام_مرکز":"د بشير خان كور","Polling_Center_Name":"Bashir Khan Private House","د_مرکز_ځای__موقعیت_مرکز":"كاريز شاميزي","Polling_Center_Location":"Karez Shameezi","Verification_Note":"Village","PS_Male":2,"PS_Female":2,"Map_Accuracy":"قریه"},"geometry":{"x":7302968.244751744,"y":3689432.8044423088}},{"attributes":{"OBJECTID":6763,"ولایت":" فراه","Province":"FARAH","PC_Code":"3302050","ولسوالي":"پشت رود","District":"PUSHTRUD","د_مرکز_نوم__نام_مرکز":"مسجد بلند ده","Polling_Center_Name":"Baland Deh Village Mosque","د_مرکز_ځای__موقعیت_مرکز":"قریه بلند ده","Polling_Center_Location":"Baland Deh Village ","Verification_Note":"Village","PS_Male":2,"PS_Female":1,"Map_Accuracy":"قریه"},"geometry":{"x":6913019.0521992259,"y":3821876.9853214025}},{"attributes":{"OBJECTID":6764,"ولایت":" فراه","Province":"FARAH","PC_Code":"3302231","ولسوالي":"پشت رود","District":"PUSHTRUD","د_مرکز_نوم__نام_مرکز":"مکتب گجگین ","Polling_Center_Name":"Gajgin School ","د_مرکز_ځای__موقعیت_مرکز":"گجگین","Polling_Center_Location":"Gajgin ","Verification_Note":"Building","PS_Male":1,"PS_Female":1,"Map_Accuracy":"تعمیر"},"geometry":{"x":6915351.6474884711,"y":3825985.0724939257}},{"attributes":{"OBJECTID":6765,"ولایت":"هرات","Province":"HERAT","PC_Code":"3211451","ولسوالي":"غوریان ","District":"GHORYAN","د_مرکز_نوم__نام_مرکز":"خيمه چشمه دم","Polling_Center_Name":"Chashma-e- Dam Tent","د_مرکز_ځای__موقعیت_مرکز":"چشمه دم ","Polling_Center_Location":"Chushma-e -Dam ","Verification_Note":"Building","PS_Male":2,"PS_Female":1,"Map_Accuracy":"تعمیر"},"geometry":{"x":6797189.4689343832,"y":4066423.8634051159}},{"attributes":{"OBJECTID":6766,"ولایت":"هرات","Province":"HERAT","PC_Code":"3211452","ولسوالي":"غوریان ","District":"GHORYAN","د_مرکز_نوم__نام_مرکز":"خيمه بلوچ ها","Polling_Center_Name":"Balochs Tent ","د_مرکز_ځای__موقعیت_مرکز":"قریه بلوچ ها","Polling_Center_Location":"Balochs Village","Verification_Note":"Village","PS_Male":2,"PS_Female":1,"Map_Accuracy":"قریه"},"geometry":{"x":6841799.081737835,"y":4072729.8877572268}},{"attributes":{"OBJECTID":6767,"ولایت":"بلخ","Province":"BALKH","PC_Code":"2102321","ولسوالي":"نهر شاهی ","District":"NAHR-E-SHAHI","د_مرکز_نوم__نام_مرکز":"مسجد شادیان","Polling_Center_Name":"Shadiyan Mosque","د_مرکز_ځای__موقعیت_مرکز":"قریه شادیان","Polling_Center_Location":"Shadiyan Village","Verification_Note":"Building","PS_Male":1,"PS_Female":1,"Map_Accuracy":"تعمیر"},"geometry":{"x":7481948.7857069075,"y":4372460.845759064}},{"attributes":{"OBJECTID":6768,"ولایت":"بلخ","Province":"BALKH","PC_Code":"2103049","ولسوالي":"دهدادی ","District":"DEHDADI","د_مرکز_نوم__نام_مرکز":"مکتب توخته","Polling_Center_Name":"Tokhta School","د_مرکز_ځای__موقعیت_مرکز":"قریه توخته","Polling_Center_Location":"Tokhta Village","Verification_Note":"Building","PS_Male":2,"PS_Female":1,"Map_Accuracy":"تعمیر"},"geometry":{"x":7450367.06634675,"y":4390699.6121410951}},{"attributes":{"OBJECTID":6769,"ولایت":"کاپيسا","Province":"KAPISA","PC_Code":"0203075","ولسوالي":"کوه بند","District":"KOH BAND","د_مرکز_نوم__نام_مرکز":"مسجد جامع سرجوی نهر خواجه","Polling_Center_Name":"Sar Joy-e-Nahre Khwaja Mosque","د_مرکز_ځای__موقعیت_مرکز":"نوآباد ","Polling_Center_Location":"Naw Abad ","Verification_Note":"Building","PS_Male":2,"PS_Female":1,"Map_Accuracy":"تعمیر"},"geometry":{"x":7732170.7686494663,"y":4171098.8577154055}},{"attributes":{"OBJECTID":6770,"ولایت":"کاپيسا","Province":"KAPISA","PC_Code":"0204026","ولسوالي":"حصه اول کوهستان ","District":"HISSA-E-AWALI KOHISTAN","د_مرکز_نوم__نام_مرکز":"پوهنتون البیرونی ","Polling_Center_Name":"Alberuni University ","د_مرکز_ځای__موقعیت_مرکز":"شش صد کوتی ","Polling_Center_Location":"Shash Sad Kuti","Verification_Note":"Building","PS_Male":3,"PS_Female":2,"Map_Accuracy":"تعمیر"},"geometry":{"x":7714681.1186593771,"y":4184066.6733770445}},{"attributes":{"OBJECTID":6771,"ولایت":"باميان","Province":"BAMYAN","PC_Code":"1007153","ولسوالي":"ورس","District":"WARAS","د_مرکز_نوم__نام_مرکز":"مکتب متوسطه بند حیدرک","Polling_Center_Name":"Band-e-Haidarak Secondary School","د_مرکز_ځای__موقعیت_مرکز":"بند حیدرک","Polling_Center_Location":"Band-e-Haidarak","Verification_Note":"Building","PS_Male":1,"PS_Female":1,"Map_Accuracy":"تعمیر"},"geometry":{"x":7445790.8389657065,"y":4032273.6598650813}},{"attributes":{"OBJECTID":6772,"ولایت":"باميان","Province":"BAMYAN","PC_Code":"1007154","ولسوالي":"ورس","District":"WARAS","د_مرکز_نوم__نام_مرکز":"مسجد دهن تینال","Polling_Center_Name":"Dahan-e-Teenal Mosque","د_مرکز_ځای__موقعیت_مرکز":"دهن تینال","Polling_Center_Location":"Dahan-e-Teenal","Verification_Note":"Building","PS_Male":2,"PS_Female":1,"Map_Accuracy":"تعمیر"},"geometry":{"x":7446549.0838848762,"y":4049611.9328352734}},{"attributes":{"OBJECTID":6773,"ولایت":"سرپل","Province":"SAR-E-PUL","PC_Code":"2201013","ولسوالي":"سرپل","District":"SAR-E-PUL","د_مرکز_نوم__نام_مرکز":"لیسه انگوت ازبکیه ","Polling_Center_Name":"Uzbekya Angot High School","د_مرکز_ځای__موقعیت_مرکز":"قریه انگوت ازبکیه ","Polling_Center_Location":"Angot Uzbekya Village","Verification_Note":"Building","PS_Male":2,"PS_Female":1,"Map_Accuracy":"تعمیر"},"geometry":{"x":7350055.5792853646,"y":4326517.1999891549}},{"attributes":{"OBJECTID":6774,"ولایت":"سرپل","Province":"SAR-E-PUL","PC_Code":"2201017","ولسوالي":"سرپل","District":"SAR-E-PUL","د_مرکز_نوم__نام_مرکز":"مکتب ابتدائیه قلعه سوخته","Polling_Center_Name":"Qala-e-Sokhta Primary School","د_مرکز_ځای__موقعیت_مرکز":"قریه قلعه سوخته ","Polling_Center_Location":"Sokhta Qala Village","Verification_Note":"Building","PS_Male":2,"PS_Female":1,"Map_Accuracy":"تعمیر"},"geometry":{"x":7359233.5417955853,"y":4306731.6757860929}},{"attributes":{"OBJECTID":6775,"ولایت":"نورستان","Province":"NOORISTAN","PC_Code":"1602036","ولسوالي":"وایګل","District":"WAYGAL","د_مرکز_نوم__نام_مرکز":"مسجد اکون","Polling_Center_Name":"Akon Mosque","د_مرکز_ځای__موقعیت_مرکز":"اکون","Polling_Center_Location":"Akon","Verification_Note":"Village","PS_Male":3,"PS_Female":4,"Map_Accuracy":"قریه"},"geometry":{"x":7902556.1798806936,"y":4189818.6327517256}}]}