{"objectIdFieldName":"OBJECTID","globalIdFieldName":"","geometryType":"esriGeometryPoint","spatialReference":{"wkid":102100,"latestWkid":3857},"fields":[{"name":"OBJECTID","type":"esriFieldTypeOID","alias":"OBJECTID","sqlType":"sqlTypeOther","domain":null,"defaultValue":null},{"name":"ولایت","type":"esriFieldTypeString","alias":"ولایت","sqlType":"sqlTypeOther","length":255,"domain":null,"defaultValue":null},{"name":"Province","type":"esriFieldTypeString","alias":"Province","sqlType":"sqlTypeOther","length":255,"domain":null,"defaultValue":null},{"name":"PC_Code","type":"esriFieldTypeString","alias":"PC_Code","sqlType":"sqlTypeOther","length":255,"domain":null,"defaultValue":null},{"name":"ولسوالي","type":"esriFieldTypeString","alias":"ولسوالي","sqlType":"sqlTypeOther","length":255,"domain":null,"defaultValue":null},{"name":"District","type":"esriFieldTypeString","alias":"District","sqlType":"sqlTypeOther","length":255,"domain":null,"defaultValue":null},{"name":"د_مرکز_نوم__نام_مرکز","type":"esriFieldTypeString","alias":"د_مرکز_نوم__نام_مرکز","sqlType":"sqlTypeOther","length":255,"domain":null,"defaultValue":null},{"name":"Polling_Center_Name","type":"esriFieldTypeString","alias":"Polling_Center_Name","sqlType":"sqlTypeOther","length":255,"domain":null,"defaultValue":null},{"name":"د_مرکز_ځای__موقعیت_مرکز","type":"esriFieldTypeString","alias":"د_مرکز_ځای__موقعیت_مرکز","sqlType":"sqlTypeOther","length":255,"domain":null,"defaultValue":null},{"name":"Polling_Center_Location","type":"esriFieldTypeString","alias":"Polling_Center_Location","sqlType":"sqlTypeOther","length":255,"domain":null,"defaultValue":null},{"name":"Verification_Note","type":"esriFieldTypeString","alias":"Verification_Note","sqlType":"sqlTypeOther","length":250,"domain":null,"defaultValue":null},{"name":"PS_Male","type":"esriFieldTypeSmallInteger","alias":"PS_Male","sqlType":"sqlTypeOther","domain":null,"defaultValue":null},{"name":"PS_Female","type":"esriFieldTypeSmallInteger","alias":"PS_Female","sqlType":"sqlTypeOther","domain":null,"defaultValue":null},{"name":"Map_Accuracy","type":"esriFieldTypeString","alias":"Map_Accuracy","sqlType":"sqlTypeOther","length":10,"domain":null,"defaultValue":null}],"features":[{"attributes":{"OBJECTID":800,"ولایت":"لوگر","Province":"LOGAR","PC_Code":"0505052","ولسوالي":"محمد آغه","District":"MOHAMMAD AGHA","د_مرکز_نوم__نام_مرکز":"مکتب آب پران","Polling_Center_Name":"Aab Paran School","د_مرکز_ځای__موقعیت_مرکز":"قریه آب پران","Polling_Center_Location":"Aabparan","Verification_Note":"Village","PS_Male":1,"PS_Female":1,"Map_Accuracy":"قریه"},"geometry":{"x":7707011.0276325345,"y":4058926.2570562586}},{"attributes":{"OBJECTID":801,"ولایت":"لوگر","Province":"LOGAR","PC_Code":"0505053","ولسوالي":"محمد آغه","District":"MOHAMMAD AGHA","د_مرکز_نوم__نام_مرکز":"مکتب دشتک","Polling_Center_Name":"Dashtak School","د_مرکز_ځای__موقعیت_مرکز":"قریه دشتک","Polling_Center_Location":"Dashtak Village","Verification_Note":"Village","PS_Male":1,"PS_Female":1,"Map_Accuracy":"قریه"},"geometry":{"x":7708907.9484910816,"y":4070547.0438478664}},{"attributes":{"OBJECTID":802,"ولایت":"لوگر","Province":"LOGAR","PC_Code":"0505063","ولسوالي":"محمد آغه","District":"MOHAMMAD AGHA","د_مرکز_نوم__نام_مرکز":"مکتب اناث مغل خيل","Polling_Center_Name":"Moghul Khel Girls School","د_مرکز_ځای__موقعیت_مرکز":"مغل خيل","Polling_Center_Location":"Moghul Khel","Verification_Note":"Building","PS_Male":2,"PS_Female":1,"Map_Accuracy":"تعمیر"},"geometry":{"x":7687594.3180336431,"y":4049763.3940280527}},{"attributes":{"OBJECTID":803,"ولایت":"لوگر","Province":"LOGAR","PC_Code":"0505064","ولسوالي":"محمد آغه","District":"MOHAMMAD AGHA","د_مرکز_نوم__نام_مرکز":"مسجد دره","Polling_Center_Name":"Dara Mosque","د_مرکز_ځای__موقعیت_مرکز":"قریه دره","Polling_Center_Location":"Dara Village","Verification_Note":"Village","PS_Male":2,"PS_Female":1,"Map_Accuracy":"قریه"},"geometry":{"x":7712070.5563752353,"y":4047714.6741834953}},{"attributes":{"OBJECTID":804,"ولایت":"لوگر","Province":"LOGAR","PC_Code":"0506071","ولسوالي":"خروار","District":"KHAR WAR","د_مرکز_نوم__نام_مرکز":"مکتب کوتگى","Polling_Center_Name":"Kotagi School","د_مرکز_ځای__موقعیت_مرکز":"گدى خيل","Polling_Center_Location":"Gudi Khel","Verification_Note":"Building","PS_Male":2,"PS_Female":1,"Map_Accuracy":"تعمیر"},"geometry":{"x":7665949.1269256435,"y":3989019.3153608963}},{"attributes":{"OBJECTID":805,"ولایت":"لوگر","Province":"LOGAR","PC_Code":"0506072","ولسوالي":"خروار","District":"KHAR WAR","د_مرکز_نوم__نام_مرکز":"مکتب متوسطه مرکزي ولسوالي","Polling_Center_Name":"District Compound Secondary School","د_مرکز_ځای__موقعیت_مرکز":"ولسوالي جوزي","Polling_Center_Location":"Jozi District","Verification_Note":"Building","PS_Male":4,"PS_Female":2,"Map_Accuracy":"تعمیر"},"geometry":{"x":7671021.1791110523,"y":3983672.7573758289}},{"attributes":{"OBJECTID":806,"ولایت":"لوگر","Province":"LOGAR","PC_Code":"0501001","ولسوالي":"پل علم","District":"PULI ALAM","د_مرکز_نوم__نام_مرکز":"ليسه عمر فاروق","Polling_Center_Name":"Omar Farooq High School","د_مرکز_ځای__موقعیت_مرکز":"مرکز","Polling_Center_Location":"Provincial Center","Verification_Note":"Building","PS_Male":5,"PS_Female":3,"Map_Accuracy":"تعمیر"},"geometry":{"x":7682166.1837402545,"y":4030291.8356670365}},{"attributes":{"OBJECTID":807,"ولایت":"لوگر","Province":"LOGAR","PC_Code":"0502034","ولسوالي":"برکی برک","District":"BARAKI BARAK","د_مرکز_نوم__نام_مرکز":"مکتب زحقوم خيل","Polling_Center_Name":"Zehqom Khel School","د_مرکز_ځای__موقعیت_مرکز":"زحقوم خيل","Polling_Center_Location":"Zahqom Khel","Verification_Note":"Building","PS_Male":1,"PS_Female":1,"Map_Accuracy":"تعمیر"},"geometry":{"x":7671320.9424622469,"y":4024188.4542854577}},{"attributes":{"OBJECTID":808,"ولایت":"لوگر","Province":"LOGAR","PC_Code":"0502035","ولسوالي":"برکی برک","District":"BARAKI BARAK","د_مرکز_نوم__نام_مرکز":"مکتب قلعه ممی","Polling_Center_Name":"Qala-e-Mami School","د_مرکز_ځای__موقعیت_مرکز":"قلعه ممی","Polling_Center_Location":"Qala-e-Momi","Verification_Note":"Building","PS_Male":1,"PS_Female":1,"Map_Accuracy":"تعمیر"},"geometry":{"x":7666219.8648328111,"y":4018434.291213192}},{"attributes":{"OBJECTID":809,"ولایت":"لوگر","Province":"LOGAR","PC_Code":"0502038","ولسوالي":"برکی برک","District":"BARAKI BARAK","د_مرکز_نوم__نام_مرکز":"ليسه حضرت بلال","Polling_Center_Name":"Hazrat-e-Bilal High School","د_مرکز_ځای__موقعیت_مرکز":"پل غازى","Polling_Center_Location":"Pul-e-Ghazi","Verification_Note":"Village","PS_Male":2,"PS_Female":1,"Map_Accuracy":"قریه"},"geometry":{"x":7669790.119126264,"y":4021976.331279926}},{"attributes":{"OBJECTID":810,"ولایت":"لوگر","Province":"LOGAR","PC_Code":"0502039","ولسوالي":"برکی برک","District":"BARAKI BARAK","د_مرکز_نوم__نام_مرکز":"مکتب چهلتن","Polling_Center_Name":"Cheheltan School","د_مرکز_ځای__موقعیت_مرکز":"چهلتن","Polling_Center_Location":"Cheheltan","Verification_Note":"Building","PS_Male":1,"PS_Female":1,"Map_Accuracy":"تعمیر"},"geometry":{"x":7669748.9776688591,"y":4020459.5421155766}},{"attributes":{"OBJECTID":811,"ولایت":"لوگر","Province":"LOGAR","PC_Code":"0505056","ولسوالي":"محمد آغه","District":"MOHAMMAD AGHA","د_مرکز_نوم__نام_مرکز":"مسجد حارو ","Polling_Center_Name":"Haro Mosque","د_مرکز_ځای__موقعیت_مرکز":"قریه برگ","Polling_Center_Location":"Borag","Verification_Note":"Village","PS_Male":2,"PS_Female":1,"Map_Accuracy":"قریه"},"geometry":{"x":7707527.3052782565,"y":4046796.551809907}},{"attributes":{"OBJECTID":812,"ولایت":"لوگر","Province":"LOGAR","PC_Code":"0505057","ولسوالي":"محمد آغه","District":"MOHAMMAD AGHA","د_مرکز_نوم__نام_مرکز":"تعمير سابقه ولسوالى","Polling_Center_Name":"Old District Building","د_مرکز_ځای__موقعیت_مرکز":"محمد آغه","Polling_Center_Location":"Mohammad Agha","Verification_Note":"Building","PS_Male":3,"PS_Female":2,"Map_Accuracy":"تعمیر"},"geometry":{"x":7690409.9263670519,"y":4055957.85225679}},{"attributes":{"OBJECTID":813,"ولایت":"لوگر","Province":"LOGAR","PC_Code":"0507074","ولسوالي":"اذره","District":"AZRA","د_مرکز_نوم__نام_مرکز":"مکتب منگل","Polling_Center_Name":"Mangal School","د_مرکز_ځای__موقعیت_مرکز":"منگل","Polling_Center_Location":"Mangal","Verification_Note":"Building","PS_Male":3,"PS_Female":3,"Map_Accuracy":"تعمیر"},"geometry":{"x":7761496.8566785939,"y":4049583.5730975121}},{"attributes":{"OBJECTID":814,"ولایت":"لوگر","Province":"LOGAR","PC_Code":"0507075","ولسوالي":"اذره","District":"AZRA","د_مرکز_نوم__نام_مرکز":"مکتب چوترا","Polling_Center_Name":"Chotra School","د_مرکز_ځای__موقعیت_مرکز":"چوترا","Polling_Center_Location":"Chotra","Verification_Note":"Building","PS_Male":5,"PS_Female":3,"Map_Accuracy":"تعمیر"},"geometry":{"x":7760702.0722497664,"y":4052718.772538878}},{"attributes":{"OBJECTID":815,"ولایت":"لوگر","Province":"LOGAR","PC_Code":"0507078","ولسوالي":"اذره","District":"AZRA","د_مرکز_نوم__نام_مرکز":"مکتب موسی خان","Polling_Center_Name":"Musa Khan School","د_مرکز_ځای__موقعیت_مرکز":"قریه موسى خان","Polling_Center_Location":"Musa Khan Village","Verification_Note":"Village","PS_Male":3,"PS_Female":2,"Map_Accuracy":"قریه"},"geometry":{"x":7742416.84178517,"y":4048363.0616574734}},{"attributes":{"OBJECTID":816,"ولایت":"لوگر","Province":"LOGAR","PC_Code":"0507079","ولسوالي":"اذره","District":"AZRA","د_مرکز_نوم__نام_مرکز":"مکتب متوسطه رازى خيل","Polling_Center_Name":"Razi Khel Secondary School","د_مرکز_ځای__موقعیت_مرکز":"رازى خيل","Polling_Center_Location":"Razi Khel","Verification_Note":"Building","PS_Male":3,"PS_Female":2,"Map_Accuracy":"تعمیر"},"geometry":{"x":7761985.078361731,"y":4045426.6144457161}},{"attributes":{"OBJECTID":817,"ولایت":"لوگر","Province":"LOGAR","PC_Code":"0507082","ولسوالي":"اذره","District":"AZRA","د_مرکز_نوم__نام_مرکز":"مکتب وچه مرغا","Polling_Center_Name":"Wacha Morgha School","د_مرکز_ځای__موقعیت_مرکز":"قریه وچه مرغا","Polling_Center_Location":"Wacha Morgha Village","Verification_Note":"Village","PS_Male":2,"PS_Female":1,"Map_Accuracy":"قریه"},"geometry":{"x":7752500.5430870764,"y":4040171.6001531035}},{"attributes":{"OBJECTID":818,"ولایت":"ننگرهار","Province":"NANGARHAR","PC_Code":"0601002","ولسوالي":"جلال آباد","District":"JALALABAD","د_مرکز_نوم__نام_مرکز":"لیسه تجربوی","Polling_Center_Name":"Experimental High School","د_مرکز_ځای__موقعیت_مرکز":"دریمه ناحیه","Polling_Center_Location":"D03-Nahia 3","Verification_Note":"Building","PS_Male":0,"PS_Female":7,"Map_Accuracy":"تعمیر"},"geometry":{"x":7841428.3805760033,"y":4087588.4504672736}},{"attributes":{"OBJECTID":819,"ولایت":"ننگرهار","Province":"NANGARHAR","PC_Code":"0601003","ولسوالي":"جلال آباد","District":"JALALABAD","د_مرکز_نوم__نام_مرکز":"پوهنځی تعلیم و تربیه","Polling_Center_Name":"Faculty of Education","د_مرکز_ځای__موقعیت_مرکز":"دریمه ناحیه","Polling_Center_Location":"D03-Nahia 4","Verification_Note":"Building","PS_Male":5,"PS_Female":0,"Map_Accuracy":"تعمیر"},"geometry":{"x":7841363.8650311492,"y":4087650.9940461516}},{"attributes":{"OBJECTID":820,"ولایت":"ننگرهار","Province":"NANGARHAR","PC_Code":"0601004","ولسوالي":"جلال آباد","District":"JALALABAD","د_مرکز_نوم__نام_مرکز":"الايي ليسه","Polling_Center_Name":"Allayee High School","د_مرکز_ځای__موقعیت_مرکز":"څلورمه ناحیه","Polling_Center_Location":"D04-Nahia 4","Verification_Note":"Building","PS_Male":0,"PS_Female":7,"Map_Accuracy":"تعمیر"},"geometry":{"x":7844477.5389822125,"y":4086501.4938484877}},{"attributes":{"OBJECTID":821,"ولایت":"ننگرهار","Province":"NANGARHAR","PC_Code":"0601012","ولسوالي":"جلال آباد","District":"JALALABAD","د_مرکز_نوم__نام_مرکز":"جامع جومات","Polling_Center_Name":"Jami Mosque","د_مرکز_ځای__موقعیت_مرکز":"شپږمه ناحیه","Polling_Center_Location":"D06-Nahia 6","Verification_Note":"Building","PS_Male":4,"PS_Female":3,"Map_Accuracy":"تعمیر"},"geometry":{"x":7839712.8741972856,"y":4077541.8254455775}},{"attributes":{"OBJECTID":822,"ولایت":"ننگرهار","Province":"NANGARHAR","PC_Code":"0601022","ولسوالي":"جلال آباد","District":"JALALABAD","د_مرکز_نوم__نام_مرکز":"عربانو مکتب","Polling_Center_Name":"Araban School","د_مرکز_ځای__موقعیت_مرکز":"دریمه ناحیه","Polling_Center_Location":"D03-Nahia 3","Verification_Note":"Building","PS_Male":0,"PS_Female":6,"Map_Accuracy":"تعمیر"},"geometry":{"x":7841522.3335583135,"y":4086788.9473635107}},{"attributes":{"OBJECTID":823,"ولایت":"ننگرهار","Province":"NANGARHAR","PC_Code":"0601023","ولسوالي":"جلال آباد","District":"JALALABAD","د_مرکز_نوم__نام_مرکز":"دارلمعلمین","Polling_Center_Name":"Teacher Training Institution","د_مرکز_ځای__موقعیت_مرکز":"پنځمه ناحیه","Polling_Center_Location":"D05-Nahia 5","Verification_Note":"Building","PS_Male":6,"PS_Female":0,"Map_Accuracy":"تعمیر"},"geometry":{"x":7840537.6464271434,"y":4085809.9054247886}},{"attributes":{"OBJECTID":824,"ولایت":"ننگرهار","Province":"NANGARHAR","PC_Code":"0601033","ولسوالي":"جلال آباد","District":"JALALABAD","د_مرکز_نوم__نام_مرکز":"زيړ جومات","Polling_Center_Name":"Zer Mosque","د_مرکز_ځای__موقعیت_مرکز":"څلورمه ناحیه","Polling_Center_Location":"D04-Nahia 4","Verification_Note":"Building","PS_Male":4,"PS_Female":0,"Map_Accuracy":"تعمیر"},"geometry":{"x":7844007.60241599,"y":4084874.9927811623}},{"attributes":{"OBJECTID":825,"ولایت":"ننگرهار","Province":"NANGARHAR","PC_Code":"0601034","ولسوالي":"جلال آباد","District":"JALALABAD","د_مرکز_نوم__نام_مرکز":"کوچيانو جومات","Polling_Center_Name":"Kochi Mosque","د_مرکز_ځای__موقعیت_مرکز":"څلورمه ناحیه","Polling_Center_Location":"D04-Nahia 4","Verification_Note":"Building","PS_Male":0,"PS_Female":4,"Map_Accuracy":"تعمیر"},"geometry":{"x":7843984.7585432865,"y":4085427.5851603225}},{"attributes":{"OBJECTID":826,"ولایت":"ننگرهار","Province":"NANGARHAR","PC_Code":"0602060","ولسوالي":"بهسود","District":"BEHSUD","د_مرکز_نوم__نام_مرکز":"وچ تنګی لیسه","Polling_Center_Name":"Wuch Tangai High School","د_مرکز_ځای__موقعیت_مرکز":"وچ تنګي","Polling_Center_Location":"Woch Tangahe","Verification_Note":"Village","PS_Male":3,"PS_Female":1,"Map_Accuracy":"قریه"},"geometry":{"x":7851311.7695786729,"y":4094741.5155899823}},{"attributes":{"OBJECTID":827,"ولایت":"ننگرهار","Province":"NANGARHAR","PC_Code":"0602061","ولسوالي":"بهسود","District":"BEHSUD","د_مرکز_نوم__نام_مرکز":"بانډه جومات","Polling_Center_Name":"Baanda Mosque","د_مرکز_ځای__موقعیت_مرکز":"بنې ګاه","Polling_Center_Location":"Bani Gah","Verification_Note":"Village","PS_Male":7,"PS_Female":0,"Map_Accuracy":"قریه"},"geometry":{"x":7850676.7286191322,"y":4091113.7836298048}},{"attributes":{"OBJECTID":828,"ولایت":"ننگرهار","Province":"NANGARHAR","PC_Code":"0602070","ولسوالي":"بهسود","District":"BEHSUD","د_مرکز_نوم__نام_مرکز":"بحر آباد ابتدائیه","Polling_Center_Name":"Bahr Abad Primary School","د_مرکز_ځای__موقعیت_مرکز":"بحر آباد","Polling_Center_Location":"Bahr Abad","Verification_Note":"Village","PS_Male":3,"PS_Female":1,"Map_Accuracy":"قریه"},"geometry":{"x":7839068.9588479437,"y":4090002.4754974023}},{"attributes":{"OBJECTID":829,"ولایت":"ننگرهار","Province":"NANGARHAR","PC_Code":"0602072","ولسوالي":"بهسود","District":"BEHSUD","د_مرکز_نوم__نام_مرکز":"بحرآباد لیسه","Polling_Center_Name":"Bahr Abad High School","د_مرکز_ځای__موقعیت_مرکز":"بحرآباد","Polling_Center_Location":"Bahr Abad","Verification_Note":"Building","PS_Male":5,"PS_Female":2,"Map_Accuracy":"تعمیر"},"geometry":{"x":7842570.7683524787,"y":4089876.6311652735}},{"attributes":{"OBJECTID":830,"ولایت":"ننگرهار","Province":"NANGARHAR","PC_Code":"0603093","ولسوالي":"سرخرود","District":"SURKH RUD","د_مرکز_نوم__نام_مرکز":"لیسه فقرالله","Polling_Center_Name":"Faqrullah School","د_مرکز_ځای__موقعیت_مرکز":"کوزسلطان پور","Polling_Center_Location":"Koz Sultanpoor","Verification_Note":"Village","PS_Male":5,"PS_Female":2,"Map_Accuracy":"قریه"},"geometry":{"x":7828361.688060008,"y":4084816.6674359813}},{"attributes":{"OBJECTID":831,"ولایت":"ننگرهار","Province":"NANGARHAR","PC_Code":"0603094","ولسوالي":"سرخرود","District":"SURKH RUD","د_مرکز_نوم__نام_مرکز":"لیسه اناث","Polling_Center_Name":"Girls' High School","د_مرکز_ځای__موقعیت_مرکز":"کوزسلطان پور","Polling_Center_Location":"Koz Sultanpoor","Verification_Note":"Village","PS_Male":3,"PS_Female":2,"Map_Accuracy":"قریه"},"geometry":{"x":7828552.9115680978,"y":4085151.3307944015}},{"attributes":{"OBJECTID":832,"ولایت":"ننگرهار","Province":"NANGARHAR","PC_Code":"0604117","ولسوالي":"چپرهار","District":"CHAPARHAR","د_مرکز_نوم__نام_مرکز":"حافظانو کلی مکتب","Polling_Center_Name":"Haafizan Village School","د_مرکز_ځای__موقعیت_مرکز":"حافظان","Polling_Center_Location":"Hafizan","Verification_Note":"Village","PS_Male":2,"PS_Female":0,"Map_Accuracy":"قریه"},"geometry":{"x":7833883.9875106588,"y":4067436.9377769977}},{"attributes":{"OBJECTID":833,"ولایت":"ننگرهار","Province":"NANGARHAR","PC_Code":"0604118","ولسوالي":"چپرهار","District":"CHAPARHAR","د_مرکز_نوم__نام_مرکز":"عبدالرحمن ديره","Polling_Center_Name":"Abdul Rahman Dera","د_مرکز_ځای__موقعیت_مرکز":"حافظان","Polling_Center_Location":"Hafizan","Verification_Note":"Village","PS_Male":0,"PS_Female":2,"Map_Accuracy":"قریه"},"geometry":{"x":7833192.8348485865,"y":4066534.7405179963}},{"attributes":{"OBJECTID":834,"ولایت":"ننگرهار","Province":"NANGARHAR","PC_Code":"0604120","ولسوالي":"چپرهار","District":"CHAPARHAR","د_مرکز_نوم__نام_مرکز":"ملا صاحب جومات","Polling_Center_Name":"Mula Sahib Mosque","د_مرکز_ځای__موقعیت_مرکز":"دولت زئې","Polling_Center_Location":"Dawlatzai","Verification_Note":"Building","PS_Male":2,"PS_Female":0,"Map_Accuracy":"تعمیر"},"geometry":{"x":7836449.3418364,"y":4071250.4890487343}},{"attributes":{"OBJECTID":835,"ولایت":"ننگرهار","Province":"NANGARHAR","PC_Code":"0604121","ولسوالي":"چپرهار","District":"CHAPARHAR","د_مرکز_نوم__نام_مرکز":"حاجی ملوک جومات ","Polling_Center_Name":"Haji Malook Dera","د_مرکز_ځای__موقعیت_مرکز":"دولت زئې","Polling_Center_Location":"Dawlatzai","Verification_Note":"Village","PS_Male":0,"PS_Female":2,"Map_Accuracy":"قریه"},"geometry":{"x":7836242.5024301521,"y":4069200.1246040538}},{"attributes":{"OBJECTID":836,"ولایت":"ننگرهار","Province":"NANGARHAR","PC_Code":"0605154","ولسوالي":"کامه","District":"KAMA","د_مرکز_نوم__نام_مرکز":"خښی ميدان","Polling_Center_Name":"Khashe Maidan","د_مرکز_ځای__موقعیت_مرکز":"خښی","Polling_Center_Location":"Khashe ","Verification_Note":"Village","PS_Male":0,"PS_Female":3,"Map_Accuracy":"قریه"},"geometry":{"x":7855163.8102387525,"y":4086762.0450670123}},{"attributes":{"OBJECTID":837,"ولایت":"ننگرهار","Province":"NANGARHAR","PC_Code":"0605155","ولسوالي":"کامه","District":"KAMA","د_مرکز_نوم__نام_مرکز":"سپدري جومات","Polling_Center_Name":"Spadree Mosque","د_مرکز_ځای__موقعیت_مرکز":"سپدرى","Polling_Center_Location":"Spadree","Verification_Note":"Village","PS_Male":2,"PS_Female":1,"Map_Accuracy":"قریه"},"geometry":{"x":7863867.1854770593,"y":4088683.2433281913}},{"attributes":{"OBJECTID":838,"ولایت":"ننگرهار","Province":"NANGARHAR","PC_Code":"0605165","ولسوالي":"کامه","District":"KAMA","د_مرکز_نوم__نام_مرکز":"توتکی جومات","Polling_Center_Name":"Totakay Mosque","د_مرکز_ځای__موقعیت_مرکز":"توتکی","Polling_Center_Location":"Totakay","Verification_Note":"Village","PS_Male":1,"PS_Female":1,"Map_Accuracy":"قریه"},"geometry":{"x":7872267.9119629711,"y":4096630.8688703179}},{"attributes":{"OBJECTID":839,"ولایت":"ننگرهار","Province":"NANGARHAR","PC_Code":"0605166","ولسوالي":"کامه","District":"KAMA","د_مرکز_نوم__نام_مرکز":"وټه پور چارديوالي","Polling_Center_Name":"WataPoor Chardewali","د_مرکز_ځای__موقعیت_مرکز":"وټه پور","Polling_Center_Location":"WataPoor","Verification_Note":"Village","PS_Male":3,"PS_Female":0,"Map_Accuracy":"قریه"},"geometry":{"x":7860292.4361025728,"y":4083495.5373575389}},{"attributes":{"OBJECTID":840,"ولایت":"ننگرهار","Province":"NANGARHAR","PC_Code":"0605174","ولسوالي":"کامه","District":"KAMA","د_مرکز_نوم__نام_مرکز":"درمان ښوونځی ","Polling_Center_Name":"Darman School","د_مرکز_ځای__موقعیت_مرکز":"زرشوي","Polling_Center_Location":"Zershwee","Verification_Note":"Village","PS_Male":1,"PS_Female":1,"Map_Accuracy":"قریه"},"geometry":{"x":7858034.3157790527,"y":4086293.6371472031}},{"attributes":{"OBJECTID":841,"ولایت":"ننگرهار","Province":"NANGARHAR","PC_Code":"0605175","ولسوالي":"کامه","District":"KAMA","د_مرکز_نوم__نام_مرکز":"نادر خان مومند ښوونځی","Polling_Center_Name":"Nadar Khan Momand School","د_مرکز_ځای__موقعیت_مرکز":"ګرداو","Polling_Center_Location":"Gerdaw","Verification_Note":"Building","PS_Male":4,"PS_Female":0,"Map_Accuracy":"تعمیر"},"geometry":{"x":7871125.4055199213,"y":4082171.9810886905}},{"attributes":{"OBJECTID":842,"ولایت":"ننگرهار","Province":"NANGARHAR","PC_Code":"0605177","ولسوالي":"کامه","District":"KAMA","د_مرکز_نوم__نام_مرکز":"چارديوالي","Polling_Center_Name":"Chaardewali ","د_مرکز_ځای__موقعیت_مرکز":"کنډۍ کلی","Polling_Center_Location":"Kandi  Village ","Verification_Note":"Village","PS_Male":2,"PS_Female":0,"Map_Accuracy":"قریه"},"geometry":{"x":7859777.5166659541,"y":4082801.5548717678}},{"attributes":{"OBJECTID":843,"ولایت":"ننگرهار","Province":"NANGARHAR","PC_Code":"0605178","ولسوالي":"کامه","District":"KAMA","د_مرکز_نوم__نام_مرکز":"شهيد خدايدوست مکتب","Polling_Center_Name":"Shaheed Khudai Dost School","د_مرکز_ځای__موقعیت_مرکز":"کنډۍ","Polling_Center_Location":"Kandi  Village ","Verification_Note":"Village","PS_Male":0,"PS_Female":2,"Map_Accuracy":"قریه"},"geometry":{"x":7859409.1860744059,"y":4083738.3121149316}},{"attributes":{"OBJECTID":844,"ولایت":"ننگرهار","Province":"NANGARHAR","PC_Code":"0606187","ولسوالي":"کوز کنړ","District":"KUZ KUNAR","د_مرکز_نوم__نام_مرکز":"جينکو مکتب","Polling_Center_Name":"Girls School","د_مرکز_ځای__موقعیت_مرکز":"بوډيالۍ کلي","Polling_Center_Location":"Bodyalai Kalay","Verification_Note":"Building","PS_Male":0,"PS_Female":2,"Map_Accuracy":"تعمیر"},"geometry":{"x":7861186.0265982375,"y":4110633.6439140812}},{"attributes":{"OBJECTID":845,"ولایت":"ننگرهار","Province":"NANGARHAR","PC_Code":"0606201","ولسوالي":"کوز کنړ","District":"KUZ KUNAR","د_مرکز_نوم__نام_مرکز":"برکاشکوټ مکتب","Polling_Center_Name":"Bar Kashkot School","د_مرکز_ځای__موقعیت_مرکز":"بارکاشکوټ کلی","Polling_Center_Location":"Bar Kashkot Village","Verification_Note":"Building","PS_Male":3,"PS_Female":0,"Map_Accuracy":"تعمیر"},"geometry":{"x":7871924.6861429848,"y":4107151.8896657228}},{"attributes":{"OBJECTID":846,"ولایت":"ننگرهار","Province":"NANGARHAR","PC_Code":"0606202","ولسوالي":"کوز کنړ","District":"KUZ KUNAR","د_مرکز_نوم__نام_مرکز":"سرکنډ جومات","Polling_Center_Name":"Sarkand Mosque","د_مرکز_ځای__موقعیت_مرکز":"سرکنډ","Polling_Center_Location":"Sarkand","Verification_Note":"Village","PS_Male":0,"PS_Female":2,"Map_Accuracy":"قریه"},"geometry":{"x":7873645.72554566,"y":4109008.2823963761}},{"attributes":{"OBJECTID":847,"ولایت":"ننگرهار","Province":"NANGARHAR","PC_Code":"0606210","ولسوالي":"کوز کنړ","District":"KUZ KUNAR","د_مرکز_نوم__نام_مرکز":"هلکانو مکتب","Polling_Center_Name":"Boys' School","د_مرکز_ځای__موقعیت_مرکز":"قله ټک","Polling_Center_Location":"Qala Tak","Verification_Note":"Building","PS_Male":0,"PS_Female":2,"Map_Accuracy":"تعمیر"},"geometry":{"x":7855372.4585867375,"y":4106881.0860018358}},{"attributes":{"OBJECTID":848,"ولایت":"ننگرهار","Province":"NANGARHAR","PC_Code":"0606211","ولسوالي":"کوز کنړ","District":"KUZ KUNAR","د_مرکز_نوم__نام_مرکز":"بازارک کلینيک","Polling_Center_Name":"Bazarak Clinic","د_مرکز_ځای__موقعیت_مرکز":"بازارک","Polling_Center_Location":"Bazarak","Verification_Note":"Building","PS_Male":0,"PS_Female":2,"Map_Accuracy":"تعمیر"},"geometry":{"x":7855744.2155922167,"y":4103715.2565008253}},{"attributes":{"OBJECTID":849,"ولایت":"ننگرهار","Province":"NANGARHAR","PC_Code":"0607129","ولسوالي":"رودات","District":"RODAT","د_مرکز_نوم__نام_مرکز":"باغچه جومات","Polling_Center_Name":"Baaghcha Mosque","د_مرکز_ځای__موقعیت_مرکز":"کنکرک","Polling_Center_Location":"Kankarak","Verification_Note":"Village","PS_Male":0,"PS_Female":3,"Map_Accuracy":"قریه"},"geometry":{"x":7856912.1192431338,"y":4062588.3733585179}},{"attributes":{"OBJECTID":850,"ولایت":"ننگرهار","Province":"NANGARHAR","PC_Code":"0607130","ولسوالي":"رودات","District":"RODAT","د_مرکز_نوم__نام_مرکز":"قلعه میرجی جومات","Polling_Center_Name":"Meerjay Qala Mosque","د_مرکز_ځای__موقعیت_مرکز":"قلعه ميرجی","Polling_Center_Location":"Meerjay Village","Verification_Note":"Building","PS_Male":2,"PS_Female":0,"Map_Accuracy":"تعمیر"},"geometry":{"x":7849625.16574727,"y":4058784.6415467039}},{"attributes":{"OBJECTID":851,"ولایت":"ننگرهار","Province":"NANGARHAR","PC_Code":"0607134","ولسوالي":"رودات","District":"RODAT","د_مرکز_نوم__نام_مرکز":"زاخيل ابتدائيه مکتب","Polling_Center_Name":"Zakhel Primary School","د_مرکز_ځای__موقعیت_مرکز":"زاخيل","Polling_Center_Location":"Zakhel","Verification_Note":"Village","PS_Male":2,"PS_Female":1,"Map_Accuracy":"قریه"},"geometry":{"x":7845183.3644437231,"y":4063130.2717787847}},{"attributes":{"OBJECTID":852,"ولایت":"ننگرهار","Province":"NANGARHAR","PC_Code":"0607135","ولسوالي":"رودات","District":"RODAT","د_مرکز_نوم__نام_مرکز":"حصارک مزینی لیسه ","Polling_Center_Name":"Hisarak High School","د_مرکز_ځای__موقعیت_مرکز":"حصارک کلي","Polling_Center_Location":"Hisarak Village","Verification_Note":"Village","PS_Male":2,"PS_Female":1,"Map_Accuracy":"قریه"},"geometry":{"x":7848185.0132497363,"y":4057537.8260757104}},{"attributes":{"OBJECTID":853,"ولایت":"ننگرهار","Province":"NANGARHAR","PC_Code":"0607137","ولسوالي":"رودات","District":"RODAT","د_مرکز_نوم__نام_مرکز":"کان کلینیک","Polling_Center_Name":"Kaan Clinic","د_مرکز_ځای__موقعیت_مرکز":"خان کلي","Polling_Center_Location":"Khan Village","Verification_Note":"Village","PS_Male":0,"PS_Female":2,"Map_Accuracy":"قریه"},"geometry":{"x":7846933.3725174926,"y":4064478.1461399272}},{"attributes":{"OBJECTID":854,"ولایت":"ننگرهار","Province":"NANGARHAR","PC_Code":"0607138","ولسوالي":"رودات","District":"RODAT","د_مرکز_نوم__نام_مرکز":"د روغانو جينکواو هلکانو مکتب","Polling_Center_Name":"Roghano Girls' & Boys' School","د_مرکز_ځای__موقعیت_مرکز":"روغانو","Polling_Center_Location":"Roghano","Verification_Note":"Building","PS_Male":2,"PS_Female":1,"Map_Accuracy":"تعمیر"},"geometry":{"x":7851516.0775797069,"y":4061875.4558461756}},{"attributes":{"OBJECTID":855,"ولایت":"ننگرهار","Province":"NANGARHAR","PC_Code":"0607141","ولسوالي":"رودات","District":"RODAT","د_مرکز_نوم__نام_مرکز":"بړو ليسه","Polling_Center_Name":"Baroo High School","د_مرکز_ځای__موقعیت_مرکز":"بړو","Polling_Center_Location":"Baroo","Verification_Note":"Building","PS_Male":3,"PS_Female":0,"Map_Accuracy":"تعمیر"},"geometry":{"x":7862815.7250191383,"y":4063538.1436116993}},{"attributes":{"OBJECTID":856,"ولایت":"ننگرهار","Province":"NANGARHAR","PC_Code":"0607142","ولسوالي":"رودات","District":"RODAT","د_مرکز_نوم__نام_مرکز":"دجينکو مکتب","Polling_Center_Name":"Girls School","د_مرکز_ځای__موقعیت_مرکز":"بړو","Polling_Center_Location":"Baroo","Verification_Note":"Building","PS_Male":0,"PS_Female":2,"Map_Accuracy":"تعمیر"},"geometry":{"x":7862826.7974122912,"y":4063461.549819611}},{"attributes":{"OBJECTID":857,"ولایت":"ننگرهار","Province":"NANGARHAR","PC_Code":"0607146","ولسوالي":"رودات","District":"RODAT","د_مرکز_نوم__نام_مرکز":"چنار کډی جومات","Polling_Center_Name":"Chenar Kadi Mosque","د_مرکز_ځای__موقعیت_مرکز":"ګدي","Polling_Center_Location":"Kadee","Verification_Note":"Village","PS_Male":0,"PS_Female":2,"Map_Accuracy":"قریه"},"geometry":{"x":7849180.6536621973,"y":4060890.6929620281}},{"attributes":{"OBJECTID":858,"ولایت":"ننگرهار","Province":"NANGARHAR","PC_Code":"0607148","ولسوالي":"رودات ","District":"RODAT","د_مرکز_نوم__نام_مرکز":"احداد ابتدائيه مکتب","Polling_Center_Name":"Ahdad Primary School","د_مرکز_ځای__موقعیت_مرکز":"حصارشاهي","Polling_Center_Location":"HesarShahee","Verification_Note":"Building","PS_Male":3,"PS_Female":2,"Map_Accuracy":"تعمیر"},"geometry":{"x":7855615.98444438,"y":4063293.1744341105}},{"attributes":{"OBJECTID":859,"ولایت":"ننگرهار","Province":"NANGARHAR","PC_Code":"0608285","ولسوالي":"خوګیاڼي","District":"KHUGYANI","د_مرکز_نوم__نام_مرکز":"بر بهار لیسه مکتب","Polling_Center_Name":"Bar Bahar High School","د_مرکز_ځای__موقعیت_مرکز":"بر بهار","Polling_Center_Location":"Bar Bahar","Verification_Note":"Village","PS_Male":0,"PS_Female":2,"Map_Accuracy":"قریه"},"geometry":{"x":7816272.1564757377,"y":4066125.0229215994}},{"attributes":{"OBJECTID":860,"ولایت":"ننگرهار","Province":"NANGARHAR","PC_Code":"0608286","ولسوالي":"خوګیاڼي","District":"KHUGYANI","د_مرکز_نوم__نام_مرکز":"بربهار ميدان","Polling_Center_Name":"Bar Bahar Maidan","د_مرکز_ځای__موقعیت_مرکز":"بر بهار","Polling_Center_Location":"Bar Bahar","Verification_Note":"Village","PS_Male":2,"PS_Female":0,"Map_Accuracy":"قریه"},"geometry":{"x":7815562.8687554151,"y":4067282.3584752455}},{"attributes":{"OBJECTID":861,"ولایت":"ننگرهار","Province":"NANGARHAR","PC_Code":"0608296","ولسوالي":"خوګیاڼي","District":"KHUGYANI","د_مرکز_نوم__نام_مرکز":"نوکړخيل مکتب","Polling_Center_Name":"Nokar Khel School","د_مرکز_ځای__موقعیت_مرکز":"نوکړخيل","Polling_Center_Location":"Nokar Khel","Verification_Note":"Village","PS_Male":2,"PS_Female":1,"Map_Accuracy":"قریه"},"geometry":{"x":7798396.0028759018,"y":4064179.5240079314}},{"attributes":{"OBJECTID":862,"ولایت":"ننگرهار","Province":"NANGARHAR","PC_Code":"0608297","ولسوالي":"خوګیاڼي","District":"KHUGYANI","د_مرکز_نوم__نام_مرکز":"ټټنګ مکتب","Polling_Center_Name":"Tatang School","د_مرکز_ځای__موقعیت_مرکز":"ټټنګ","Polling_Center_Location":"Tatang ","Verification_Note":"Building","PS_Male":3,"PS_Female":0,"Map_Accuracy":"تعمیر"},"geometry":{"x":7797855.4821827933,"y":4075965.6556224525}},{"attributes":{"OBJECTID":863,"ولایت":"ننگرهار","Province":"NANGARHAR","PC_Code":"0609438","ولسوالي":"بټي کوټ","District":"BATI KOT","د_مرکز_نوم__نام_مرکز":"باريکاب مکتب","Polling_Center_Name":"Barikaab School","د_مرکز_ځای__موقعیت_مرکز":"باريکاب","Polling_Center_Location":"Barikaab","Verification_Note":"District","PS_Male":2,"PS_Female":1,"Map_Accuracy":"ولسوالی"},"geometry":{"x":7871446.3234705515,"y":4071341.399106048}},{"attributes":{"OBJECTID":864,"ولایت":"ننگرهار","Province":"NANGARHAR","PC_Code":"0609439","ولسوالي":"بټي کوټ","District":"BATI KOT","د_مرکز_نوم__نام_مرکز":"مشواڼې کلينیک","Polling_Center_Name":"Mashwanai Clinic","د_مرکز_ځای__موقعیت_مرکز":"ميشواڼي","Polling_Center_Location":"Mashwanai","Verification_Note":"Village","PS_Male":2,"PS_Female":1,"Map_Accuracy":"قریه"},"geometry":{"x":7874716.8261013478,"y":4073989.4745417088}},{"attributes":{"OBJECTID":865,"ولایت":"ننگرهار","Province":"NANGARHAR","PC_Code":"0609444","ولسوالي":"بټي کوټ","District":"BATI KOT","د_مرکز_نوم__نام_مرکز":"ګړباوه جومات","Polling_Center_Name":"Garbawa Mosque","د_مرکز_ځای__موقعیت_مرکز":"ګړباوه","Polling_Center_Location":"Garbawa","Verification_Note":"Building","PS_Male":2,"PS_Female":1,"Map_Accuracy":"تعمیر"},"geometry":{"x":7885552.7054101788,"y":4064682.7254521921}},{"attributes":{"OBJECTID":866,"ولایت":"ننگرهار","Province":"NANGARHAR","PC_Code":"0609445","ولسوالي":"بټي کوټ","District":"BATI KOT","د_مرکز_نوم__نام_مرکز":"انبار خانه کلینيک","Polling_Center_Name":"Anbar Khana Clinic","د_مرکز_ځای__موقعیت_مرکز":"انبار خانه","Polling_Center_Location":"Anbar Khana","Verification_Note":"Village","PS_Male":2,"PS_Female":1,"Map_Accuracy":"قریه"},"geometry":{"x":7883884.3724468052,"y":4067165.73725228}},{"attributes":{"OBJECTID":867,"ولایت":"ننگرهار","Province":"NANGARHAR","PC_Code":"0609448","ولسوالي":"بټي کوټ","District":"BATI KOT","د_مرکز_نوم__نام_مرکز":"چهاردهي جومات","Polling_Center_Name":"Chahardi High School","د_مرکز_ځای__موقعیت_مرکز":"چاردهي کلي","Polling_Center_Location":"Chahardi Village","Verification_Note":"Village","PS_Male":2,"PS_Female":1,"Map_Accuracy":"قریه"},"geometry":{"x":7878339.2413685955,"y":4072133.6163193733}},{"attributes":{"OBJECTID":868,"ولایت":"ننگرهار","Province":"NANGARHAR","PC_Code":"0609449","ولسوالي":"بټي کوټ","District":"BATI KOT","د_مرکز_نوم__نام_مرکز":"ګندياني جومات","Polling_Center_Name":"Gandyani Mosque","د_مرکز_ځای__موقعیت_مرکز":"ګندياني","Polling_Center_Location":"Gandyani","Verification_Note":"Village","PS_Male":2,"PS_Female":1,"Map_Accuracy":"قریه"},"geometry":{"x":7878098.1612001657,"y":4070680.3414843008}},{"attributes":{"OBJECTID":869,"ولایت":"ننگرهار","Province":"NANGARHAR","PC_Code":"0610318","ولسوالي":"ده بالا","District":"DEH BALA","د_مرکز_نوم__نام_مرکز":"مریز ذکور لیسه ","Polling_Center_Name":"Marez Boys High School","د_مرکز_ځای__موقعیت_مرکز":"مريز کلی","Polling_Center_Location":"Marez village","Verification_Note":"Village","PS_Male":2,"PS_Female":0,"Map_Accuracy":"قریه"},"geometry":{"x":7841909.0563561283,"y":4049146.28087572}},{"attributes":{"OBJECTID":870,"ولایت":"ننگرهار","Province":"NANGARHAR","PC_Code":"0610319","ولسوالي":"ده بالا","District":"DEH BALA","د_مرکز_نوم__نام_مرکز":"مریز اناث لیسه","Polling_Center_Name":"Marez Girls High School","د_مرکز_ځای__موقعیت_مرکز":"مريز کلی","Polling_Center_Location":"Marez village","Verification_Note":"Village","PS_Male":0,"PS_Female":2,"Map_Accuracy":"قریه"},"geometry":{"x":7841376.4048378281,"y":4048434.8157107681}},{"attributes":{"OBJECTID":871,"ولایت":"ننگرهار","Province":"NANGARHAR","PC_Code":"0610327","ولسوالي":"ده بالا","District":"DEH BALA","د_مرکز_نوم__نام_مرکز":"ده بالا ليسه","Polling_Center_Name":"Deh Bala High School","د_مرکز_ځای__موقعیت_مرکز":"کوټوال","Polling_Center_Location":"Kotwal","Verification_Note":"Building","PS_Male":3,"PS_Female":2,"Map_Accuracy":"تعمیر"},"geometry":{"x":7843909.6201133877,"y":4044701.5753789321}},{"attributes":{"OBJECTID":872,"ولایت":"ننگرهار","Province":"NANGARHAR","PC_Code":"0610328","ولسوالي":"ده بالا","District":"DEH BALA","د_مرکز_نوم__نام_مرکز":"ابتدائيه مکتب","Polling_Center_Name":"Primary School","د_مرکز_ځای__موقعیت_مرکز":"کځونه","Polling_Center_Location":"Kazoona","Verification_Note":"Village","PS_Male":1,"PS_Female":1,"Map_Accuracy":"قریه"},"geometry":{"x":7844224.2646541148,"y":4036319.1326212585}},{"attributes":{"OBJECTID":873,"ولایت":"ننگرهار","Province":"NANGARHAR","PC_Code":"0610336","ولسوالي":"ده بالا","District":"DEH BALA","د_مرکز_نوم__نام_مرکز":"شابی لیسه","Polling_Center_Name":"Shabay High School","د_مرکز_ځای__موقعیت_مرکز":"ګورګورۍ","Polling_Center_Location":"Gorgoray","Verification_Note":"Village","PS_Male":0,"PS_Female":2,"Map_Accuracy":"قریه"},"geometry":{"x":7836465.2594103925,"y":4042948.6550877318}},{"attributes":{"OBJECTID":874,"ولایت":"ننگرهار","Province":"NANGARHAR","PC_Code":"0611304","ولسوالي":"پچیر و اګام","District":"PACHIR WAGAM","د_مرکز_نوم__نام_مرکز":"مرخاني جومات","Polling_Center_Name":"Markhanay Mosque","د_مرکز_ځای__موقعیت_مرکز":"مرخاني","Polling_Center_Location":"Markhanay","Verification_Note":"Village","PS_Male":2,"PS_Female":1,"Map_Accuracy":"قریه"},"geometry":{"x":7818670.7119028717,"y":4040025.4709433019}},{"attributes":{"OBJECTID":875,"ولایت":"ننگرهار","Province":"NANGARHAR","PC_Code":"0611305","ولسوالي":"پچیر و اګام","District":"PACHIR WAGAM","د_مرکز_نوم__نام_مرکز":"ښارکي  ميدان","Polling_Center_Name":"Khaarki Maidan","د_مرکز_ځای__موقعیت_مرکز":"ښارکي","Polling_Center_Location":"Khaarki","Verification_Note":"Village","PS_Male":2,"PS_Female":1,"Map_Accuracy":"قریه"},"geometry":{"x":7825430.7249042653,"y":4059336.0483543724}},{"attributes":{"OBJECTID":876,"ولایت":"ننگرهار","Province":"NANGARHAR","PC_Code":"0611307","ولسوالي":"پچیر و اګام","District":"PACHIR WAGAM","د_مرکز_نوم__نام_مرکز":"پچير اګام مکتب","Polling_Center_Name":"Pacheer Agam School","د_مرکز_ځای__موقعیت_مرکز":"مورکۍ","Polling_Center_Location":"Morkay","Verification_Note":"Village","PS_Male":2,"PS_Female":0,"Map_Accuracy":"قریه"},"geometry":{"x":7821301.0879431888,"y":4052916.6849641725}},{"attributes":{"OBJECTID":877,"ولایت":"ننگرهار","Province":"NANGARHAR","PC_Code":"0611312","ولسوالي":"پچیر و اګام","District":"PACHIR WAGAM","د_مرکز_نوم__نام_مرکز":"ملاصاحب جومات","Polling_Center_Name":"Mula Sahib Mosque","د_مرکز_ځای__موقعیت_مرکز":"لاندي پچير","Polling_Center_Location":"Landi Pacheer","Verification_Note":"Village","PS_Male":2,"PS_Female":0,"Map_Accuracy":"قریه"},"geometry":{"x":7824477.3725399673,"y":4047178.7870868221}},{"attributes":{"OBJECTID":878,"ولایت":"ننگرهار","Province":"NANGARHAR","PC_Code":"0611313","ولسوالي":"پچیر و اګام","District":"PACHIR WAGAM","د_مرکز_نوم__نام_مرکز":"تش ميدان","Polling_Center_Name":"Open Space","د_مرکز_ځای__موقعیت_مرکز":"لاندي پچير","Polling_Center_Location":"Landi Pacheer","Verification_Note":"Village","PS_Male":0,"PS_Female":2,"Map_Accuracy":"قریه"},"geometry":{"x":7824653.7159717269,"y":4047205.9841854274}},{"attributes":{"OBJECTID":879,"ولایت":"ننگرهار","Province":"NANGARHAR","PC_Code":"0612215","ولسوالي":"دره نور","District":"DARAH-E-NOOR","د_مرکز_نوم__نام_مرکز":"کوز کلی جومات","Polling_Center_Name":"Koz Kalay Mosque","د_مرکز_ځای__موقعیت_مرکز":"امله","Polling_Center_Location":"Amla","Verification_Note":"Village","PS_Male":2,"PS_Female":2,"Map_Accuracy":"قریه"},"geometry":{"x":7859198.2066962905,"y":4112962.3250246197}},{"attributes":{"OBJECTID":880,"ولایت":"ننگرهار","Province":"NANGARHAR","PC_Code":"0612216","ولسوالي":"دره نور","District":"DARAH-E-NOOR","د_مرکز_نوم__نام_مرکز":"د انجونو منځنی ښوونځی","Polling_Center_Name":"Girls Secondary School","د_مرکز_ځای__موقعیت_مرکز":"امله","Polling_Center_Location":"Amla","Verification_Note":"Building","PS_Male":2,"PS_Female":1,"Map_Accuracy":"تعمیر"},"geometry":{"x":7858725.1300298721,"y":4113908.3886774778}},{"attributes":{"OBJECTID":881,"ولایت":"ننگرهار","Province":"NANGARHAR","PC_Code":"0612218","ولسوالي":"دره نور","District":"DARAH-E-NOOR","د_مرکز_نوم__نام_مرکز":"جينکو مکتب","Polling_Center_Name":"Girls School","د_مرکز_ځای__موقعیت_مرکز":"قلاې شاهې","Polling_Center_Location":"Qalay Shahee","Verification_Note":"Building","PS_Male":0,"PS_Female":2,"Map_Accuracy":"تعمیر"},"geometry":{"x":7858043.704464905,"y":4116807.2111701816}},{"attributes":{"OBJECTID":882,"ولایت":"ننگرهار","Province":"NANGARHAR","PC_Code":"0612219","ولسوالي":"دره نور","District":"DARAH-E-NOOR","د_مرکز_نوم__نام_مرکز":"هلکانو قلعه شاهی لیسه ","Polling_Center_Name":"Qala-e- Shahee Boys High School","د_مرکز_ځای__موقعیت_مرکز":"قلاې شاهې","Polling_Center_Location":"Qalay Shahee","Verification_Note":"Building","PS_Male":3,"PS_Female":0,"Map_Accuracy":"تعمیر"},"geometry":{"x":7858284.6911249645,"y":4116038.1888826787}},{"attributes":{"OBJECTID":883,"ولایت":"ننگرهار","Province":"NANGARHAR","PC_Code":"0612221","ولسوالي":"دره نور","District":"DARAH-E-NOOR","د_مرکز_نوم__نام_مرکز":"شهید محمود شاه متوسطه","Polling_Center_Name":"Shaheed Mahmood Shah Secondary School","د_مرکز_ځای__موقعیت_مرکز":"سفرکلا","Polling_Center_Location":"Safar Kala","Verification_Note":"Building","PS_Male":2,"PS_Female":1,"Map_Accuracy":"تعمیر"},"geometry":{"x":7856485.5032133535,"y":4122548.3100454733}},{"attributes":{"OBJECTID":884,"ولایت":"ننگرهار","Province":"NANGARHAR","PC_Code":"0612222","ولسوالي":"دره نور","District":"DARAH-E-NOOR","د_مرکز_نوم__نام_مرکز":"لمه ټک جومات","Polling_Center_Name":"Lama Tak Mosque","د_مرکز_ځای__موقعیت_مرکز":"لمه ټک","Polling_Center_Location":"Lama Tak","Verification_Note":"Village","PS_Male":1,"PS_Female":1,"Map_Accuracy":"قریه"},"geometry":{"x":7861368.3156040013,"y":4125963.414365299}},{"attributes":{"OBJECTID":885,"ولایت":"ننگرهار","Province":"NANGARHAR","PC_Code":"0612224","ولسوالي":"دره نور","District":"DARAH-E-NOOR","د_مرکز_نوم__نام_مرکز":"حسن او سرور شاه دیره","Polling_Center_Name":"Hassan and Sarwar Shah Dera","د_مرکز_ځای__موقعیت_مرکز":"شوکالۍ","Polling_Center_Location":"Shokalay","Verification_Note":"Village","PS_Male":2,"PS_Female":1,"Map_Accuracy":"قریه"},"geometry":{"x":7858687.0810279176,"y":4121007.6041747034}},{"attributes":{"OBJECTID":886,"ولایت":"ننگرهار","Province":"NANGARHAR","PC_Code":"0612225","ولسوالي":"دره نور","District":"DARAH-E-NOOR","د_مرکز_نوم__نام_مرکز":"عمر قلا جومات","Polling_Center_Name":"Umar Qala Mosque","د_مرکز_ځای__موقعیت_مرکز":"عمر قلا","Polling_Center_Location":"Omar Qala","Verification_Note":"Village","PS_Male":1,"PS_Female":1,"Map_Accuracy":"قریه"},"geometry":{"x":7859771.00447575,"y":4122283.5737506449}},{"attributes":{"OBJECTID":887,"ولایت":"ننگرهار","Province":"NANGARHAR","PC_Code":"0612229","ولسوالي":"دره نور","District":"DARAH-E-NOOR","د_مرکز_نوم__نام_مرکز":"شيمول ميدان","Polling_Center_Name":"Shemol Maidan","د_مرکز_ځای__موقعیت_مرکز":"شېمول","Polling_Center_Location":"Shemol","Verification_Note":"Village","PS_Male":1,"PS_Female":2,"Map_Accuracy":"قریه"},"geometry":{"x":7859841.55431623,"y":4128294.1834001541}},{"attributes":{"OBJECTID":888,"ولایت":"ننگرهار","Province":"NANGARHAR","PC_Code":"0612230","ولسوالي":"دره نور","District":"DARAH-E-NOOR","د_مرکز_نوم__نام_مرکز":"وايګل ميدان","Polling_Center_Name":"Waygal Maidan","د_مرکز_ځای__موقعیت_مرکز":"واېګل","Polling_Center_Location":"Waygal","Verification_Note":"Village","PS_Male":2,"PS_Female":1,"Map_Accuracy":"قریه"},"geometry":{"x":7853961.1400637031,"y":4126986.1159643531}},{"attributes":{"OBJECTID":889,"ولایت":"ننگرهار","Province":"NANGARHAR","PC_Code":"0612232","ولسوالي":"دره نور","District":"DARAH-E-NOOR","د_مرکز_نوم__نام_مرکز":"وتران مکتب","Polling_Center_Name":"Watran School","د_مرکز_ځای__موقعیت_مرکز":"وتران","Polling_Center_Location":"Watran","Verification_Note":"Village","PS_Male":1,"PS_Female":1,"Map_Accuracy":"قریه"},"geometry":{"x":7862510.6383698918,"y":4126294.6635144576}},{"attributes":{"OBJECTID":890,"ولایت":"ننگرهار","Province":"NANGARHAR","PC_Code":"0614485","ولسوالي":"ګوشته","District":"GOSHTA","د_مرکز_نوم__نام_مرکز":"کوداخيل جومات","Polling_Center_Name":"Koda Khel Mosque","د_مرکز_ځای__موقعیت_مرکز":"اړخۍ","Polling_Center_Location":"Arkhai","Verification_Note":"Village","PS_Male":0,"PS_Female":2,"Map_Accuracy":"قریه"},"geometry":{"x":7877703.2052128091,"y":4078256.4922041297}},{"attributes":{"OBJECTID":891,"ولایت":"ننگرهار","Province":"NANGARHAR","PC_Code":"0614486","ولسوالي":"ګوشته","District":"GOSHTA","د_مرکز_نوم__نام_مرکز":"اړخۍ جومات","Polling_Center_Name":"Arkhai Mosque","د_مرکز_ځای__موقعیت_مرکز":"اړخۍ","Polling_Center_Location":"Arkhai","Verification_Note":"Village","PS_Male":2,"PS_Female":0,"Map_Accuracy":"قریه"},"geometry":{"x":7877922.2619331777,"y":4078177.5524694771}},{"attributes":{"OBJECTID":892,"ولایت":"ننگرهار","Province":"NANGARHAR","PC_Code":"0614501","ولسوالي":"ګوشته","District":"GOSHTA","د_مرکز_نوم__نام_مرکز":"راغه کلې جومات","Polling_Center_Name":"Ragha Village Mosque","د_مرکز_ځای__موقعیت_مرکز":"راغه کلې","Polling_Center_Location":"Ragha Village","Verification_Note":"Village","PS_Male":1,"PS_Female":1,"Map_Accuracy":"قریه"},"geometry":{"x":7884857.0487615094,"y":4071746.1159766391}},{"attributes":{"OBJECTID":893,"ولایت":"ننگرهار","Province":"NANGARHAR","PC_Code":"0615353","ولسوالي":"اچین","District":"ACHIN","د_مرکز_نوم__نام_مرکز":"مومند کلینيک","Polling_Center_Name":"Moman Clinic","د_مرکز_ځای__موقعیت_مرکز":"شوکاني","Polling_Center_Location":"Shokany","Verification_Note":"Village","PS_Male":2,"PS_Female":0,"Map_Accuracy":"قریه"},"geometry":{"x":7856552.58767809,"y":4034108.5435038731}},{"attributes":{"OBJECTID":894,"ولایت":"ننگرهار","Province":"NANGARHAR","PC_Code":"0615377","ولسوالي":"اچین","District":"ACHIN","د_مرکز_نوم__نام_مرکز":"زوړ جومات","Polling_Center_Name":"Mosque","د_مرکز_ځای__موقعیت_مرکز":"لاندي مومند","Polling_Center_Location":"Landi Momand","Verification_Note":"Village","PS_Male":0,"PS_Female":2,"Map_Accuracy":"قریه"},"geometry":{"x":7871401.2630104646,"y":4044992.63671764}},{"attributes":{"OBJECTID":895,"ولایت":"ننگرهار","Province":"NANGARHAR","PC_Code":"0615378","ولسوالي":"اچین","District":"ACHIN","د_مرکز_نوم__نام_مرکز":"مورګي جومات","Polling_Center_Name":"Morgai Mosque","د_مرکز_ځای__موقعیت_مرکز":"مورګۍ کلی","Polling_Center_Location":"Morgai Village","Verification_Note":"Village","PS_Male":2,"PS_Female":0,"Map_Accuracy":"قریه"},"geometry":{"x":7859836.4347328469,"y":4036003.0816089809}},{"attributes":{"OBJECTID":896,"ولایت":"ننگرهار","Province":"NANGARHAR","PC_Code":"0615389","ولسوالي":"اچین","District":"ACHIN","د_مرکز_نوم__نام_مرکز":"اچین لیسه","Polling_Center_Name":"Achin High School","د_مرکز_ځای__موقعیت_مرکز":"شاډل","Polling_Center_Location":"Shaadal","Verification_Note":"Building","PS_Male":2,"PS_Female":0,"Map_Accuracy":"تعمیر"},"geometry":{"x":7866165.0668963045,"y":4040670.2009031773}},{"attributes":{"OBJECTID":897,"ولایت":"ننگرهار","Province":"NANGARHAR","PC_Code":"0615390","ولسوالي":"اچین","District":"ACHIN","د_مرکز_نوم__نام_مرکز":"تريلي ابتدائيه مکتب","Polling_Center_Name":"Trelay Primary School","د_مرکز_ځای__موقعیت_مرکز":"تريلي","Polling_Center_Location":"Trelay","Verification_Note":"Building","PS_Male":0,"PS_Female":3,"Map_Accuracy":"تعمیر"},"geometry":{"x":7866226.6332538836,"y":4039876.8436550647}},{"attributes":{"OBJECTID":898,"ولایت":"ننگرهار","Province":"NANGARHAR","PC_Code":"0616430","ولسوالي":"شینوار","District":"SHINWAR","د_مرکز_نوم__نام_مرکز":"الفتحی لیسه","Polling_Center_Name":"Alfathi High School","د_مرکز_ځای__موقعیت_مرکز":"شېرګړ","Polling_Center_Location":"Sher Garh","Verification_Note":"Building","PS_Male":0,"PS_Female":2,"Map_Accuracy":"تعمیر"},"geometry":{"x":7881183.3285673447,"y":4055503.1554419175}},{"attributes":{"OBJECTID":899,"ولایت":"ننگرهار","Province":"NANGARHAR","PC_Code":"0616431","ولسوالي":"شینوار","District":"SHINWAR","د_مرکز_نوم__نام_مرکز":"الله محمد جومات","Polling_Center_Name":"Allah Mohammad Mosque","د_مرکز_ځای__موقعیت_مرکز":"سياچوب","Polling_Center_Location":"Siya Chob","Verification_Note":"Village","PS_Male":0,"PS_Female":2,"Map_Accuracy":"قریه"},"geometry":{"x":7872939.4089425541,"y":4052746.7942915037}},{"attributes":{"OBJECTID":900,"ولایت":"ننگرهار","Province":"NANGARHAR","PC_Code":"0617476","ولسوالي":"مهمند دره","District":"MUHMAND DARA","د_مرکز_نوم__نام_مرکز":"غزګی لیسه ","Polling_Center_Name":"Ghazgai High School","د_مرکز_ځای__موقعیت_مرکز":"غزګۍ","Polling_Center_Location":"Ghazgai ","Verification_Note":"Building","PS_Male":0,"PS_Female":2,"Map_Accuracy":"تعمیر"},"geometry":{"x":7896450.70878724,"y":4060624.6769937128}},{"attributes":{"OBJECTID":901,"ولایت":"ننگرهار","Province":"NANGARHAR","PC_Code":"0617477","ولسوالي":"مهمند دره","District":"MUHMAND DARA","د_مرکز_نوم__نام_مرکز":"جومات کولالي کلې","Polling_Center_Name":"Kolali Village Mosque","د_مرکز_ځای__موقعیت_مرکز":"کولالي کلې","Polling_Center_Location":"Kolali Village","Verification_Note":"Village","PS_Male":1,"PS_Female":1,"Map_Accuracy":"قریه"},"geometry":{"x":7898628.6289836168,"y":4059952.0462268144}},{"attributes":{"OBJECTID":902,"ولایت":"ننگرهار","Province":"NANGARHAR","PC_Code":"0618505","ولسوالي":"لعل پور","District":"LALPOOR","د_مرکز_نوم__نام_مرکز":"چکنور لیسه ","Polling_Center_Name":"Cheknor High School","د_مرکز_ځای__موقعیت_مرکز":"چکنورکلي","Polling_Center_Location":"Cheknor Village","Verification_Note":"Building","PS_Male":3,"PS_Female":2,"Map_Accuracy":"تعمیر"},"geometry":{"x":7895402.9875510111,"y":4066620.4497107565}},{"attributes":{"OBJECTID":903,"ولایت":"ننگرهار","Province":"NANGARHAR","PC_Code":"0619238","ولسوالي":"شیرزاد","District":"SHER ZAD","د_مرکز_نوم__نام_مرکز":"تو تو ليسه","Polling_Center_Name":"Toto High School","د_مرکز_ځای__موقعیت_مرکز":"لقمان خيل","Polling_Center_Location":"Luqman Khel","Verification_Note":"Village","PS_Male":2,"PS_Female":1,"Map_Accuracy":"قریه"},"geometry":{"x":7786880.0060061179,"y":4063975.4494478852}},{"attributes":{"OBJECTID":904,"ولایت":"ننگرهار","Province":"NANGARHAR","PC_Code":"0619241","ولسوالي":"شیرزاد","District":"SHER ZAD","د_مرکز_نوم__نام_مرکز":"دکلي ديره","Polling_Center_Name":"Village Dera","د_مرکز_ځای__موقعیت_مرکز":"براشپان","Polling_Center_Location":"Barashpaan","Verification_Note":"Village","PS_Male":0,"PS_Female":2,"Map_Accuracy":"قریه"},"geometry":{"x":7781722.2611899,"y":4066214.7517016381}},{"attributes":{"OBJECTID":905,"ولایت":"ننگرهار","Province":"NANGARHAR","PC_Code":"0619242","ولسوالي":"شیرزاد","District":"SHER ZAD","د_مرکز_نوم__نام_مرکز":"جينکومکتب","Polling_Center_Name":"Girls School","د_مرکز_ځای__موقعیت_مرکز":"براشپان","Polling_Center_Location":"Barashpaan","Verification_Note":"Village","PS_Male":3,"PS_Female":0,"Map_Accuracy":"قریه"},"geometry":{"x":7781874.5674040057,"y":4065479.0963756517}},{"attributes":{"OBJECTID":906,"ولایت":"ننگرهار","Province":"NANGARHAR","PC_Code":"0620393","ولسوالي":"نازیان","District":"NAZYAN","د_مرکز_نوم__نام_مرکز":"ابدال خوله جومات","Polling_Center_Name":"Abdaal Khola Mosque","د_مرکز_ځای__موقعیت_مرکز":"ابدال خوله","Polling_Center_Location":"Abdaal Khola","Verification_Note":"Village","PS_Male":1,"PS_Female":1,"Map_Accuracy":"قریه"},"geometry":{"x":7886360.4050150178,"y":4030571.74838078}},{"attributes":{"OBJECTID":907,"ولایت":"ننگرهار","Province":"NANGARHAR","PC_Code":"0620395","ولسوالي":"نازیان","District":"NAZYAN","د_مرکز_نوم__نام_مرکز":"عمرفاروق جومات","Polling_Center_Name":"Omar Farooq Mosque","د_مرکز_ځای__موقعیت_مرکز":"نختر ناو","Polling_Center_Location":"Nakhtar Naaw","Verification_Note":"Village","PS_Male":2,"PS_Female":1,"Map_Accuracy":"قریه"},"geometry":{"x":7888961.5776114389,"y":4028976.2902975604}},{"attributes":{"OBJECTID":908,"ولایت":"ننگرهار","Province":"NANGARHAR","PC_Code":"0620404","ولسوالي":"نازیان","District":"NAZYAN","د_مرکز_نوم__نام_مرکز":"مورچل کلي میدان  ","Polling_Center_Name":"Morchal Village Maidan","د_مرکز_ځای__موقعیت_مرکز":"مورچل کلي","Polling_Center_Location":"Morchal Village","Verification_Note":"Village","PS_Male":0,"PS_Female":3,"Map_Accuracy":"قریه"},"geometry":{"x":7880808.1707514152,"y":4039365.42900116}},{"attributes":{"OBJECTID":909,"ولایت":"ننگرهار","Province":"NANGARHAR","PC_Code":"0620405","ولسوالي":"نازیان","District":"NAZYAN","د_مرکز_نوم__نام_مرکز":"عسکرجومات","Polling_Center_Name":"Askar Mosque","د_مرکز_ځای__موقعیت_مرکز":"سپين ځاي","Polling_Center_Location":"Speen Zay","Verification_Note":"Village","PS_Male":1,"PS_Female":1,"Map_Accuracy":"قریه"},"geometry":{"x":7884835.8702283874,"y":4030201.5910541564}},{"attributes":{"OBJECTID":910,"ولایت":"ننگرهار","Province":"NANGARHAR","PC_Code":"0621253","ولسوالي":"حصارک","District":"HESARAK","د_مرکز_نوم__نام_مرکز":"محمدي مکتب","Polling_Center_Name":"Mohammadi School","د_مرکز_ځای__موقعیت_مرکز":"محمدی مکتب","Polling_Center_Location":"Mohammadi School","Verification_Note":"Village","PS_Male":3,"PS_Female":0,"Map_Accuracy":"قریه"},"geometry":{"x":7766079.0741614439,"y":4073192.4816739187}},{"attributes":{"OBJECTID":911,"ولایت":"ننگرهار","Province":"NANGARHAR","PC_Code":"0621254","ولسوالي":"حصارک","District":"HESARAK","د_مرکز_نوم__نام_مرکز":"محمدي جومات","Polling_Center_Name":"Mohammadi Mosque","د_مرکز_ځای__موقعیت_مرکز":"محمدی مسجد","Polling_Center_Location":"Mohammadi Mosque","Verification_Note":"Village","PS_Male":0,"PS_Female":2,"Map_Accuracy":"قریه"},"geometry":{"x":7766266.5027880929,"y":4073348.9737089127}},{"attributes":{"OBJECTID":912,"ولایت":"ننگرهار","Province":"NANGARHAR","PC_Code":"0622419","ولسوالي":"در بابا","District":"DUR BABA","د_مرکز_نوم__نام_مرکز":"شولګر جومات","Polling_Center_Name":"Sholagr Mosque","د_مرکز_ځای__موقعیت_مرکز":"شولګر جومات","Polling_Center_Location":"Sholgar Mosque","Verification_Note":"Village","PS_Male":0,"PS_Female":2,"Map_Accuracy":"قریه"},"geometry":{"x":7893860.3220476061,"y":4038820.579968594}},{"attributes":{"OBJECTID":913,"ولایت":"ننگرهار","Province":"NANGARHAR","PC_Code":"0622507","ولسوالي":"در بابا","District":"DUR BABA","د_مرکز_نوم__نام_مرکز":"کلی  ګړوکو جامع مسجد","Polling_Center_Name":"Guroko Village Mosque","د_مرکز_ځای__موقعیت_مرکز":"کلی  ګړوکو","Polling_Center_Location":"Kaley Garooko ","Verification_Note":"Village","PS_Male":2,"PS_Female":1,"Map_Accuracy":"قریه"},"geometry":{"x":7907529.7098639719,"y":4047848.6465434656}},{"attributes":{"OBJECTID":914,"ولایت":"ننگرهار","Province":"NANGARHAR","PC_Code":"0601007","ولسوالي":"جلال آباد","District":"JALALABAD","د_مرکز_نوم__نام_مرکز":"نصرت ليسه","Polling_Center_Name":"Nasrat High School","د_مرکز_ځای__موقعیت_مرکز":"څلورمه ناحیه","Polling_Center_Location":"D04-Nahia 4","Verification_Note":"Building","PS_Male":0,"PS_Female":4,"Map_Accuracy":"تعمیر"},"geometry":{"x":7844763.3816084489,"y":4085709.5579487011}},{"attributes":{"OBJECTID":915,"ولایت":"ننگرهار","Province":"NANGARHAR","PC_Code":"0601008","ولسوالي":"جلال آباد","District":"JALALABAD","د_مرکز_نوم__نام_مرکز":"بيز اکملاتې","Polling_Center_Name":"Procurement Base","د_مرکز_ځای__موقعیت_مرکز":"څلورمه ناحیه","Polling_Center_Location":"D04-Nahia 4","Verification_Note":"Building","PS_Male":3,"PS_Female":1,"Map_Accuracy":"تعمیر"},"geometry":{"x":7845579.69199853,"y":4084203.330647938}},{"attributes":{"OBJECTID":916,"ولایت":"ننگرهار","Province":"NANGARHAR","PC_Code":"0601019","ولسوالي":"جلال آباد","District":"JALALABAD","د_مرکز_نوم__نام_مرکز":"امام بخاري ليسه","Polling_Center_Name":"Imam-e-Bukhari High School","د_مرکز_ځای__موقعیت_مرکز":"دریمه ناحیه ","Polling_Center_Location":"D03-Nahia 3","Verification_Note":"Building","PS_Male":6,"PS_Female":0,"Map_Accuracy":"تعمیر"},"geometry":{"x":7841324.9507428,"y":4087418.3294653669}},{"attributes":{"OBJECTID":917,"ولایت":"ننگرهار","Province":"NANGARHAR","PC_Code":"0601028","ولسوالي":"جلال آباد","District":"JALALABAD","د_مرکز_نوم__نام_مرکز":"انکشاف دهات رياست","Polling_Center_Name":"Rural Development Directorate","د_مرکز_ځای__موقعیت_مرکز":"اوله ناحیه","Polling_Center_Location":"D01-Nahia 1","Verification_Note":"Building","PS_Male":2,"PS_Female":4,"Map_Accuracy":"تعمیر"},"geometry":{"x":7843875.2869560421,"y":4087764.3457186}},{"attributes":{"OBJECTID":918,"ولایت":"ننگرهار","Province":"NANGARHAR","PC_Code":"0601029","ولسوالي":"جلال آباد","District":"JALALABAD","د_مرکز_نوم__نام_مرکز":"کمپونو جومات","Polling_Center_Name":"Campono Mosque","د_مرکز_ځای__موقعیت_مرکز":"اوله ناحیه","Polling_Center_Location":"D01-Nahia 1","Verification_Note":"Building","PS_Male":6,"PS_Female":0,"Map_Accuracy":"تعمیر"},"geometry":{"x":7843889.942166999,"y":4087864.4493503869}},{"attributes":{"OBJECTID":919,"ولایت":"ننگرهار","Province":"NANGARHAR","PC_Code":"0603076","ولسوالي":"سرخرود","District":"SURKH RUD","د_مرکز_نوم__نام_مرکز":"شهید ادم خان لیسه مکتب","Polling_Center_Name":"Shaheed Adam Khan School","د_مرکز_ځای__موقعیت_مرکز":"شمسپور","Polling_Center_Location":"Shamspoor","Verification_Note":"Building","PS_Male":0,"PS_Female":6,"Map_Accuracy":"تعمیر"},"geometry":{"x":7824506.9835245162,"y":4085665.6876688376}},{"attributes":{"OBJECTID":920,"ولایت":"ننگرهار","Province":"NANGARHAR","PC_Code":"0603077","ولسوالي":"سرخرود","District":"SURKH RUD","د_مرکز_نوم__نام_مرکز":"لیسه نسوان","Polling_Center_Name":"Girls High School","د_مرکز_ځای__موقعیت_مرکز":"شمسپور","Polling_Center_Location":"Shamspoor","Verification_Note":"Village","PS_Male":2,"PS_Female":6,"Map_Accuracy":"قریه"},"geometry":{"x":7824404.51282005,"y":4085337.0209158808}},{"attributes":{"OBJECTID":921,"ولایت":"ننگرهار","Province":"NANGARHAR","PC_Code":"0603081","ولسوالي":"سرخرود","District":"SURKH RUD","د_مرکز_نوم__نام_مرکز":"چکنوري جومات","Polling_Center_Name":"Cheknowri Mosque","د_مرکز_ځای__موقعیت_مرکز":"چکنوري","Polling_Center_Location":"Cheknowry","Verification_Note":"Village","PS_Male":0,"PS_Female":2,"Map_Accuracy":"قریه"},"geometry":{"x":7839344.3165139705,"y":4087942.6105447412}},{"attributes":{"OBJECTID":922,"ولایت":"ننگرهار","Province":"NANGARHAR","PC_Code":"0603082","ولسوالي":"سرخرود","District":"SURKH RUD","د_مرکز_نوم__نام_مرکز":"ریاست کانان","Polling_Center_Name":"Reyasat Kanan","د_مرکز_ځای__موقعیت_مرکز":"دوسرکه","Polling_Center_Location":"Du Saraka","Verification_Note":"Village","PS_Male":3,"PS_Female":0,"Map_Accuracy":"قریه"},"geometry":{"x":7836876.9122081809,"y":4088000.9007617608}},{"attributes":{"OBJECTID":923,"ولایت":"ننگرهار","Province":"NANGARHAR","PC_Code":"0603100","ولسوالي":"سرخرود","District":"SURKH RUD","د_مرکز_نوم__نام_مرکز":"لیسه نسوان","Polling_Center_Name":"Girls High School","د_مرکز_ځای__موقعیت_مرکز":"کوشکک","Polling_Center_Location":"Koshkak","Verification_Note":"Village","PS_Male":3,"PS_Female":1,"Map_Accuracy":"قریه"},"geometry":{"x":7822261.1929478012,"y":4082261.5054203495}},{"attributes":{"OBJECTID":924,"ولایت":"ننگرهار","Province":"NANGARHAR","PC_Code":"0603101","ولسوالي":"سرخرود","District":"SURKH RUD","د_مرکز_نوم__نام_مرکز":"سيا سنګ جومات","Polling_Center_Name":"Siya Sang Mosque","د_مرکز_ځای__موقعیت_مرکز":"سيا سنګ","Polling_Center_Location":"Siya Sang","Verification_Note":"Building","PS_Male":1,"PS_Female":2,"Map_Accuracy":"تعمیر"},"geometry":{"x":7834965.5376269482,"y":4082654.0642147809}},{"attributes":{"OBJECTID":925,"ولایت":"ننگرهار","Province":"NANGARHAR","PC_Code":"0604111","ولسوالي":"چپرهار","District":"CHAPARHAR","د_مرکز_نوم__نام_مرکز":"جامع جومات","Polling_Center_Name":"Mosque","د_مرکز_ځای__موقعیت_مرکز":"دولت زئې فاميلې","Polling_Center_Location":"Dawlatzai Family","Verification_Note":"Building","PS_Male":1,"PS_Female":1,"Map_Accuracy":"تعمیر"},"geometry":{"x":7836309.47891498,"y":4069902.827090241}},{"attributes":{"OBJECTID":926,"ولایت":"ننگرهار","Province":"NANGARHAR","PC_Code":"0604112","ولسوالي":"چپرهار","District":"CHAPARHAR","د_مرکز_نوم__نام_مرکز":"تر يلي مکتب","Polling_Center_Name":"Terelay School","د_مرکز_ځای__موقعیت_مرکز":"تريلي کلي","Polling_Center_Location":"Terelay Village","Verification_Note":"Building","PS_Male":2,"PS_Female":1,"Map_Accuracy":"تعمیر"},"geometry":{"x":7838202.4835538417,"y":4071766.4454912767}},{"attributes":{"OBJECTID":927,"ولایت":"ننگرهار","Province":"NANGARHAR","PC_Code":"0605151","ولسوالي":"کامه","District":"KAMA","د_مرکز_نوم__نام_مرکز":"لنډه بوچ کلنيک","Polling_Center_Name":"Landa Boch Clinic","د_مرکز_ځای__موقعیت_مرکز":"لنډه بوچ","Polling_Center_Location":"Landa Boch ","Verification_Note":"Building","PS_Male":2,"PS_Female":0,"Map_Accuracy":"تعمیر"},"geometry":{"x":7859870.8747569136,"y":4087750.3271778226}},{"attributes":{"OBJECTID":928,"ولایت":"ننگرهار","Province":"NANGARHAR","PC_Code":"0605152","ولسوالي":"کامه","District":"KAMA","د_مرکز_نوم__نام_مرکز":"محمد موسی شفیق لیسه","Polling_Center_Name":"Mohammad Mussa Shafeq High School","د_مرکز_ځای__موقعیت_مرکز":"برلنده بوچ","Polling_Center_Location":"Bar Landa Boch ","Verification_Note":"Building","PS_Male":0,"PS_Female":2,"Map_Accuracy":"تعمیر"},"geometry":{"x":7858701.75293681,"y":4088167.8876702189}},{"attributes":{"OBJECTID":929,"ولایت":"ننگرهار","Province":"NANGARHAR","PC_Code":"0605162","ولسوالي":"کامه","District":"KAMA","د_مرکز_نوم__نام_مرکز":"زاخيل جومات","Polling_Center_Name":"Zakhel Mosque","د_مرکز_ځای__موقعیت_مرکز":"زاخيل","Polling_Center_Location":"Zakhel","Verification_Note":"Building","PS_Male":2,"PS_Female":1,"Map_Accuracy":"تعمیر"},"geometry":{"x":7854661.7628974952,"y":4082449.7151078135}},{"attributes":{"OBJECTID":930,"ولایت":"ننگرهار","Province":"NANGARHAR","PC_Code":"0605163","ولسوالي":"کامه","District":"KAMA","د_مرکز_نوم__نام_مرکز":"چارديوالي","Polling_Center_Name":"Chardewali","د_مرکز_ځای__موقعیت_مرکز":"ماما خيل","Polling_Center_Location":"Mama Khel","Verification_Note":"Village","PS_Male":2,"PS_Female":0,"Map_Accuracy":"قریه"},"geometry":{"x":7865956.0445148274,"y":4085243.9460661784}},{"attributes":{"OBJECTID":931,"ولایت":"ننگرهار","Province":"NANGARHAR","PC_Code":"0605169","ولسوالي":"کامه","District":"KAMA","د_مرکز_نوم__نام_مرکز":"چارديوالي","Polling_Center_Name":"Chardewali","د_مرکز_ځای__موقعیت_مرکز":"کوزلنده بوچ کلی","Polling_Center_Location":"Koz landabooch Village","Verification_Note":"Village","PS_Male":0,"PS_Female":2,"Map_Accuracy":"قریه"},"geometry":{"x":7861037.7245462127,"y":4086125.9087344632}},{"attributes":{"OBJECTID":932,"ولایت":"ننگرهار","Province":"NANGARHAR","PC_Code":"0605170","ولسوالي":"کامه","District":"KAMA","د_مرکز_نوم__نام_مرکز":"خیمه","Polling_Center_Name":"Tent","د_مرکز_ځای__موقعیت_مرکز":"وارثه فقير کلی","Polling_Center_Location":"Waresa Faqer  Village","Verification_Note":"Village","PS_Male":2,"PS_Female":1,"Map_Accuracy":"قریه"},"geometry":{"x":7856531.4147109389,"y":4087002.1165568903}},{"attributes":{"OBJECTID":933,"ولایت":"ننگرهار","Province":"NANGARHAR","PC_Code":"0605181","ولسوالي":"کامه","District":"KAMA","د_مرکز_نوم__نام_مرکز":"ده غازی ښوونځی","Polling_Center_Name":"Deh Ghazi School","د_مرکز_ځای__موقعیت_مرکز":"ده غازي","Polling_Center_Location":"Deh Ghazi","Verification_Note":"Building","PS_Male":2,"PS_Female":0,"Map_Accuracy":"تعمیر"},"geometry":{"x":7854101.931389682,"y":4086462.6663675085}},{"attributes":{"OBJECTID":934,"ولایت":"ننگرهار","Province":"NANGARHAR","PC_Code":"0605182","ولسوالي":"کامه","District":"KAMA","د_مرکز_نوم__نام_مرکز":"ده غازی باغ","Polling_Center_Name":"Deh Ghazi Bagh","د_مرکز_ځای__موقعیت_مرکز":"ده غازي","Polling_Center_Location":"Deh Ghazi","Verification_Note":"Building","PS_Male":0,"PS_Female":2,"Map_Accuracy":"تعمیر"},"geometry":{"x":7854692.4990994558,"y":4085676.6267482638}},{"attributes":{"OBJECTID":935,"ولایت":"ننگرهار","Province":"NANGARHAR","PC_Code":"0608280","ولسوالي":"خوګیاڼي","District":"KHUGYANI","د_مرکز_نوم__نام_مرکز":"حکيم آباد جومات","Polling_Center_Name":"Hakeem Abad Mosque","د_مرکز_ځای__موقعیت_مرکز":"حکيم آباد","Polling_Center_Location":"Hakeem Abad","Verification_Note":"Village","PS_Male":1,"PS_Female":1,"Map_Accuracy":"قریه"},"geometry":{"x":7812605.8022922724,"y":4058425.4018377066}},{"attributes":{"OBJECTID":936,"ولایت":"ننگرهار","Province":"NANGARHAR","PC_Code":"0608281","ولسوالي":"خوګیاڼي","District":"KHUGYANI","د_مرکز_نوم__نام_مرکز":"سنګانی ابتدائیه مکتب","Polling_Center_Name":"Sangani Primary School","د_مرکز_ځای__موقعیت_مرکز":"سنګانی","Polling_Center_Location":"Sangani","Verification_Note":"Village","PS_Male":2,"PS_Female":1,"Map_Accuracy":"قریه"},"geometry":{"x":7808410.69277269,"y":4051210.7471814454}},{"attributes":{"OBJECTID":937,"ولایت":"ننگرهار","Province":"NANGARHAR","PC_Code":"0608291","ولسوالي":"خوګیاڼي","District":"KHUGYANI","د_مرکز_نوم__نام_مرکز":"کلينیک چمتله کمپ","Polling_Center_Name":"Chamtala Camp Clinic","د_مرکز_ځای__موقعیت_مرکز":"چمتله کمپ","Polling_Center_Location":"Chamtala Clinic","Verification_Note":"Village","PS_Male":2,"PS_Female":1,"Map_Accuracy":"قریه"},"geometry":{"x":7811979.7492684126,"y":4073636.7944881171}},{"attributes":{"OBJECTID":938,"ولایت":"ننگرهار","Province":"NANGARHAR","PC_Code":"0608292","ولسوالي":"خوګیاڼي","District":"KHUGYANI","د_مرکز_نوم__نام_مرکز":"کمبو ابتدائيه خوازه خيل","Polling_Center_Name":"Kambo Primary School","د_مرکز_ځای__موقعیت_مرکز":"خوازه خيل","Polling_Center_Location":"Khwaza Khel","Verification_Note":"Village","PS_Male":2,"PS_Female":1,"Map_Accuracy":"قریه"},"geometry":{"x":7813260.8050629087,"y":4055029.4302950054}},{"attributes":{"OBJECTID":939,"ولایت":"ننگرهار","Province":"NANGARHAR","PC_Code":"0609452","ولسوالي":"بټي کوټ","District":"BATI KOT","د_مرکز_نوم__نام_مرکز":"سیپای کلی جومات ","Polling_Center_Name":"Sepay Village Mosque","د_مرکز_ځای__موقعیت_مرکز":"سيپاي کلي","Polling_Center_Location":"Sepay Village","Verification_Note":"Building","PS_Male":2,"PS_Female":1,"Map_Accuracy":"تعمیر"},"geometry":{"x":7874052.5314928144,"y":4064318.6355953589}},{"attributes":{"OBJECTID":940,"ولایت":"ننگرهار","Province":"NANGARHAR","PC_Code":"0609453","ولسوالي":"بټي کوټ","District":"BATI KOT","د_مرکز_نوم__نام_مرکز":"صوفیانو کلی جومات ","Polling_Center_Name":"Sofyano Village Mosque","د_مرکز_ځای__موقعیت_مرکز":"صوفیانو کلی ","Polling_Center_Location":"Sofyano Village","Verification_Note":"Building","PS_Male":0,"PS_Female":3,"Map_Accuracy":"تعمیر"},"geometry":{"x":7874189.3598449305,"y":4064042.2163139284}},{"attributes":{"OBJECTID":941,"ولایت":"ننگرهار","Province":"NANGARHAR","PC_Code":"0609456","ولسوالي":"بټي کوټ","District":"BATI KOT","د_مرکز_نوم__نام_مرکز":"هلکانو ليسه","Polling_Center_Name":"Boys High School","د_مرکز_ځای__موقعیت_مرکز":"لاچه پور","Polling_Center_Location":"Lacha Poor","Verification_Note":"Village","PS_Male":2,"PS_Female":1,"Map_Accuracy":"قریه"},"geometry":{"x":7872448.8306257986,"y":4076673.8931823}},{"attributes":{"OBJECTID":942,"ولایت":"ننگرهار","Province":"NANGARHAR","PC_Code":"0609457","ولسوالي":"بټي کوټ","District":"BATI KOT","د_مرکز_نوم__نام_مرکز":"بټې کوټ مکتب","Polling_Center_Name":"Bati Kot School","د_مرکز_ځای__موقعیت_مرکز":"شودياني","Polling_Center_Location":"Shodyanai","Verification_Note":"Building","PS_Male":2,"PS_Female":1,"Map_Accuracy":"تعمیر"},"geometry":{"x":7874867.9890642837,"y":4064729.8827071264}},{"attributes":{"OBJECTID":943,"ولایت":"ننگرهار","Province":"NANGARHAR","PC_Code":"0610331","ولسوالي":"ده بالا","District":"DEH BALA","د_مرکز_نوم__نام_مرکز":"ياغيبند ابتدائیه مکتب","Polling_Center_Name":"Yaaghiband Primary School","د_مرکز_ځای__موقعیت_مرکز":"ياغيبند","Polling_Center_Location":"Yaaghiband","Verification_Note":"Village","PS_Male":1,"PS_Female":1,"Map_Accuracy":"قریه"},"geometry":{"x":7843845.7494423576,"y":4051342.4681840837}},{"attributes":{"OBJECTID":944,"ولایت":"ننگرهار","Province":"NANGARHAR","PC_Code":"0610332","ولسوالي":"ده بالا","District":"DEH BALA","د_مرکز_نوم__نام_مرکز":"د غوښت ميدان","Polling_Center_Name":"Ghokht Maidan","د_مرکز_ځای__موقعیت_مرکز":"غوښت دره","Polling_Center_Location":"Ghokht Dara","Verification_Note":"Village","PS_Male":2,"PS_Female":1,"Map_Accuracy":"قریه"},"geometry":{"x":7845124.47086712,"y":4046042.7550828382}},{"attributes":{"OBJECTID":945,"ولایت":"ننگرهار","Province":"NANGARHAR","PC_Code":"0613338","ولسوالي":"کوټ","District":"KOT","د_مرکز_نوم__نام_مرکز":"لیسه ذکور پورشاه خیل ","Polling_Center_Name":"Poorshah Khel Boys High School","د_مرکز_ځای__موقعیت_مرکز":"لاغورجۍ کلی","Polling_Center_Location":"Laghorjay Village","Verification_Note":"Village","PS_Male":0,"PS_Female":2,"Map_Accuracy":"قریه"},"geometry":{"x":7858721.5921851322,"y":4046814.7766888812}},{"attributes":{"OBJECTID":946,"ولایت":"ننگرهار","Province":"NANGARHAR","PC_Code":"0613339","ولسوالي":"کوټ","District":"KOT","د_مرکز_نوم__نام_مرکز":"لیسه اناث پورشاه خیل","Polling_Center_Name":"Poorshah Khel Girls High School","د_مرکز_ځای__موقعیت_مرکز":"لاغورجی کلی","Polling_Center_Location":"Laghorjay Village","Verification_Note":"Building","PS_Male":2,"PS_Female":1,"Map_Accuracy":"تعمیر"},"geometry":{"x":7854043.3216777854,"y":4045305.0002033934}},{"attributes":{"OBJECTID":947,"ولایت":"ننگرهار","Province":"NANGARHAR","PC_Code":"0613345","ولسوالي":"کوټ","District":"KOT","د_مرکز_نوم__نام_مرکز":"دواني کلې ميدان","Polling_Center_Name":"Dwani Village Maidan","د_مرکز_ځای__موقعیت_مرکز":"دواني کلې","Polling_Center_Location":"Dwanai Village","Verification_Note":"Village","PS_Male":0,"PS_Female":2,"Map_Accuracy":"قریه"},"geometry":{"x":7859593.6981303953,"y":4050336.4982390329}},{"attributes":{"OBJECTID":948,"ولایت":"ننگرهار","Province":"NANGARHAR","PC_Code":"0613346","ولسوالي":"کوټ","District":"KOT","د_مرکز_نوم__نام_مرکز":"عطاخان لوی جومات ","Polling_Center_Name":"Ata Khan Big Mosque","د_مرکز_ځای__موقعیت_مرکز":"عطاخان","Polling_Center_Location":"Ata Khan","Verification_Note":"Village","PS_Male":3,"PS_Female":0,"Map_Accuracy":"قریه"},"geometry":{"x":7861810.48552699,"y":4052107.579140678}},{"attributes":{"OBJECTID":949,"ولایت":"ننگرهار","Province":"NANGARHAR","PC_Code":"0615358","ولسوالي":"اچین","District":"ACHIN","د_مرکز_نوم__نام_مرکز":" سورډاګ خاص اچين جومات","Polling_Center_Name":"Soor Daag Acheen Mosque","د_مرکز_ځای__موقعیت_مرکز":"خاص اچين","Polling_Center_Location":"Khaas Acheen","Verification_Note":"Village","PS_Male":2,"PS_Female":0,"Map_Accuracy":"قریه"},"geometry":{"x":7867247.7680561244,"y":4039808.6932220533}},{"attributes":{"OBJECTID":950,"ولایت":"ننگرهار","Province":"NANGARHAR","PC_Code":"0615359","ولسوالي":"اچین","District":"ACHIN","د_مرکز_نوم__نام_مرکز":"علي اکاخیل زوړ جومات ","Polling_Center_Name":"Aliaka Khel  Mosque","د_مرکز_ځای__موقعیت_مرکز":"خاص اچين","Polling_Center_Location":"Khaas Acheen","Verification_Note":"Village","PS_Male":0,"PS_Female":2,"Map_Accuracy":"قریه"},"geometry":{"x":7867663.6843904033,"y":4039888.0128114}},{"attributes":{"OBJECTID":951,"ولایت":"ننگرهار","Province":"NANGARHAR","PC_Code":"0615369","ولسوالي":"اچین","District":"ACHIN","د_مرکز_نوم__نام_مرکز":"لوخي باغ","Polling_Center_Name":"Lokhe Bagh","د_مرکز_ځای__موقعیت_مرکز":"لوخۍ","Polling_Center_Location":"Lokhay","Verification_Note":"Building","PS_Male":2,"PS_Female":1,"Map_Accuracy":"تعمیر"},"geometry":{"x":7868903.4606913216,"y":4054716.9634888992}},{"attributes":{"OBJECTID":952,"ولایت":"ننگرهار","Province":"NANGARHAR","PC_Code":"0615370","ولسوالي":"اچین","District":"ACHIN","د_مرکز_نوم__نام_مرکز":"خوار اخنذاده ګان جامع مسجد","Polling_Center_Name":"Khowar Akhonzadagan Jaame Mosque","د_مرکز_ځای__موقعیت_مرکز":"پيخه","Polling_Center_Location":"Pekha","Verification_Note":"Village","PS_Male":2,"PS_Female":1,"Map_Accuracy":"قریه"},"geometry":{"x":7875891.909080185,"y":4047317.7347904891}},{"attributes":{"OBJECTID":953,"ولایت":"ننگرهار","Province":"NANGARHAR","PC_Code":"0615380","ولسوالي":"اچین","District":"ACHIN","د_مرکز_نوم__نام_مرکز":"براکبر خيل جومات","Polling_Center_Name":"Bar Akbar Khel Mosque","د_مرکز_ځای__موقعیت_مرکز":"برعبدلخيل","Polling_Center_Location":"Bar Akbar Khel","Verification_Note":"Village","PS_Male":2,"PS_Female":0,"Map_Accuracy":"قریه"},"geometry":{"x":7869354.43342568,"y":4036241.4287515953}},{"attributes":{"OBJECTID":954,"ولایت":"ننگرهار","Province":"NANGARHAR","PC_Code":"0616434","ولسوالي":"شینوار","District":"SHINWAR","د_مرکز_نوم__نام_مرکز":"سراي جومات","Polling_Center_Name":"Sray Mosque","د_مرکز_ځای__موقعیت_مرکز":"ګولايي کلي","Polling_Center_Location":"Golayee Village","Verification_Note":"Village","PS_Male":2,"PS_Female":2,"Map_Accuracy":"قریه"},"geometry":{"x":7877714.587630745,"y":4056859.3802662119}},{"attributes":{"OBJECTID":955,"ولایت":"ننگرهار","Province":"NANGARHAR","PC_Code":"0616435","ولسوالي":"شینوار","District":"SHINWAR","د_مرکز_نوم__نام_مرکز":"ټولنیزی شورا دفتر","Polling_Center_Name":"Social Council Office","د_مرکز_ځای__موقعیت_مرکز":"شيرګړ","Polling_Center_Location":"Sher Garh","Verification_Note":"Building","PS_Male":3,"PS_Female":0,"Map_Accuracy":"تعمیر"},"geometry":{"x":7881047.5154489875,"y":4055771.8508747146}},{"attributes":{"OBJECTID":956,"ولایت":"ننگرهار","Province":"NANGARHAR","PC_Code":"0617467","ولسوالي":"مهمند دره","District":"MUHMAND DARA","د_مرکز_نوم__نام_مرکز":"اوتمانزيي جومات","Polling_Center_Name":"Otmanzai  Mosque","د_مرکز_ځای__موقعیت_مرکز":"ګردي اوتمانزيي","Polling_Center_Location":"Gardee Otmanzai","Verification_Note":"Village","PS_Male":2,"PS_Female":2,"Map_Accuracy":"قریه"},"geometry":{"x":7902461.0039424561,"y":4060064.369401589}},{"attributes":{"OBJECTID":957,"ولایت":"ننگرهار","Province":"NANGARHAR","PC_Code":"0617468","ولسوالي":"مهمند دره","District":"MUHMAND DARA","د_مرکز_نوم__نام_مرکز":"هزارناو جومات","Polling_Center_Name":"Hazar Naaw Mosque","د_مرکز_ځای__موقعیت_مرکز":"هزارناوکلي","Polling_Center_Location":"Hazar Naaw Village","Verification_Note":"Village","PS_Male":5,"PS_Female":0,"Map_Accuracy":"قریه"},"geometry":{"x":7899737.7351266555,"y":4060806.5877427831}},{"attributes":{"OBJECTID":958,"ولایت":"ننگرهار","Province":"NANGARHAR","PC_Code":"0617482","ولسوالي":"مهمند دره","District":"MUHMAND DARA","د_مرکز_نوم__نام_مرکز":"ساګی سپین جومات","Polling_Center_Name":"Saagai Speen Mosque","د_مرکز_ځای__موقعیت_مرکز":"ساګۍ","Polling_Center_Location":"Saagai","Verification_Note":"Village","PS_Male":1,"PS_Female":1,"Map_Accuracy":"قریه"},"geometry":{"x":7893422.3355110772,"y":4055036.7140626162}},{"attributes":{"OBJECTID":959,"ولایت":"ننگرهار","Province":"NANGARHAR","PC_Code":"0617483","ولسوالي":"مهمند دره","District":"MUHMAND DARA","د_مرکز_نوم__نام_مرکز":"طورخم کلینیک","Polling_Center_Name":"Turkham Clinic","د_مرکز_ځای__موقعیت_مرکز":"طورخم","Polling_Center_Location":"Torkham ","Verification_Note":"Village","PS_Male":3,"PS_Female":2,"Map_Accuracy":"قریه"},"geometry":{"x":7914141.6701689959,"y":4045148.3487653062}},{"attributes":{"OBJECTID":960,"ولایت":"ننگرهار","Province":"NANGARHAR","PC_Code":"0619245","ولسوالي":"شیرزاد","District":"SHER ZAD","د_مرکز_نوم__نام_مرکز":"ملايانو جومات","Polling_Center_Name":"Mulayano Mosque","د_مرکز_ځای__موقعیت_مرکز":"کودي خيل","Polling_Center_Location":"Kodi Khel","Verification_Note":"Village","PS_Male":3,"PS_Female":0,"Map_Accuracy":"قریه"},"geometry":{"x":7792748.955464296,"y":4064106.4634625465}},{"attributes":{"OBJECTID":961,"ولایت":"ننگرهار","Province":"NANGARHAR","PC_Code":"0619246","ولسوالي":"شیرزاد","District":"SHER ZAD","د_مرکز_نوم__نام_مرکز":"ملې خيل جومات","Polling_Center_Name":"Muli Khel Mosque","د_مرکز_ځای__موقعیت_مرکز":"ملې خيل","Polling_Center_Location":"Muli khel","Verification_Note":"Village","PS_Male":0,"PS_Female":3,"Map_Accuracy":"قریه"},"geometry":{"x":7788563.3927042335,"y":4060461.5662785247}},{"attributes":{"OBJECTID":962,"ولایت":"ننگرهار","Province":"NANGARHAR","PC_Code":"0620409","ولسوالي":"نازیان","District":"NAZYAN","د_مرکز_نوم__نام_مرکز":"اخند کاکا جومات","Polling_Center_Name":"Akhond Kaka Mosque","د_مرکز_ځای__موقعیت_مرکز":"سروبي","Polling_Center_Location":"Sarobay ","Verification_Note":"Village","PS_Male":2,"PS_Female":1,"Map_Accuracy":"قریه"},"geometry":{"x":7883109.7735812441,"y":4045714.862298578}},{"attributes":{"OBJECTID":963,"ولایت":"ننگرهار","Province":"NANGARHAR","PC_Code":"0620410","ولسوالي":"نازیان","District":"NAZYAN","د_مرکز_نوم__نام_مرکز":"سروبي لیسه ","Polling_Center_Name":"Sarobay High School","د_مرکز_ځای__موقعیت_مرکز":"سروبي","Polling_Center_Location":"Sarobay","Verification_Note":"Building","PS_Male":3,"PS_Female":0,"Map_Accuracy":"تعمیر"},"geometry":{"x":7882515.1048614159,"y":4045762.5351820812}},{"attributes":{"OBJECTID":964,"ولایت":"ننگرهار","Province":"NANGARHAR","PC_Code":"0621264","ولسوالي":"حصارک","District":"HESARAK","د_مرکز_نوم__نام_مرکز":"فرزينه جومات","Polling_Center_Name":"Farzeena Mosque","د_مرکز_ځای__موقعیت_مرکز":"فرزينه","Polling_Center_Location":"Farzeena","Verification_Note":"Village","PS_Male":3,"PS_Female":0,"Map_Accuracy":"قریه"},"geometry":{"x":7776470.3812726736,"y":4069343.6262327284}},{"attributes":{"OBJECTID":965,"ولایت":"ننگرهار","Province":"NANGARHAR","PC_Code":"0621265","ولسوالي":"حصارک","District":"HESARAK","د_مرکز_نوم__نام_مرکز":"خالي ميدان","Polling_Center_Name":"Open Space","د_مرکز_ځای__موقعیت_مرکز":"فرزينه کلی","Polling_Center_Location":"Farzeena Village","Verification_Note":"Village","PS_Male":0,"PS_Female":3,"Map_Accuracy":"قریه"},"geometry":{"x":7776334.7663030215,"y":4070942.7243703082}},{"attributes":{"OBJECTID":966,"ولایت":"وردک","Province":"WARDAK","PC_Code":"0401012","ولسوالي":"میدان شهر","District":"MAYDAN SHAHR","د_مرکز_نوم__نام_مرکز":"خیمه قول دوست خیل ","Polling_Center_Name":"Qule Dost Khel Tent","د_مرکز_ځای__موقعیت_مرکز":"قول دوست خیل ","Polling_Center_Location":"Qul-e-Dost Khel","Verification_Note":"Village","PS_Male":2,"PS_Female":2,"Map_Accuracy":"قریه"},"geometry":{"x":7665502.7480127066,"y":4080601.0099486485}},{"attributes":{"OBJECTID":967,"ولایت":"وردک","Province":"WARDAK","PC_Code":"0404086","ولسوالي":"چک وردک","District":"CHAKI WARDAK","د_مرکز_نوم__نام_مرکز":"مکتب محلی","Polling_Center_Name":"Local School","د_مرکز_ځای__موقعیت_مرکز":"بونان","Polling_Center_Location":"Bunan","Verification_Note":"Village","PS_Male":2,"PS_Female":1,"Map_Accuracy":"قریه"},"geometry":{"x":7625550.419877518,"y":4029907.9464727864}},{"attributes":{"OBJECTID":968,"ولایت":"وردک","Province":"WARDAK","PC_Code":"0404087","ولسوالي":"چک وردک","District":"CHAKI WARDAK","د_مرکز_نوم__نام_مرکز":"کلینیک صحی قریه سیبک","Polling_Center_Name":"Sebak Village Clinic","د_مرکز_ځای__موقعیت_مرکز":"قریه سیبک","Polling_Center_Location":"Sebak Village","Verification_Note":"Building","PS_Male":1,"PS_Female":1,"Map_Accuracy":"تعمیر"},"geometry":{"x":7628518.7117981166,"y":4036214.6716876477}},{"attributes":{"OBJECTID":969,"ولایت":"وردک","Province":"WARDAK","PC_Code":"0404095","ولسوالي":"چک وردک","District":"CHAKI WARDAK","د_مرکز_نوم__نام_مرکز":"مکتب ابتدائیه صاحب چارقلعه   ","Polling_Center_Name":"Saheb Char Qala Primary School","د_مرکز_ځای__موقعیت_مرکز":"چارقلعه","Polling_Center_Location":"Char Qala","Verification_Note":"Village","PS_Male":1,"PS_Female":1,"Map_Accuracy":"قریه"},"geometry":{"x":7627195.6139715351,"y":4043760.0387619212}},{"attributes":{"OBJECTID":970,"ولایت":"وردک","Province":"WARDAK","PC_Code":"0406071","ولسوالي":"دایمیرداد","District":"DAYMIRDAD","د_مرکز_نوم__نام_مرکز":"دوکان محمد عالم","Polling_Center_Name":"Mohammad Aalim Shop","د_مرکز_ځای__موقعیت_مرکز":"قریه چهار دیوال","Polling_Center_Location":"Chahar Dewal","Verification_Note":"Village","PS_Male":1,"PS_Female":1,"Map_Accuracy":"قریه"},"geometry":{"x":7593041.451683104,"y":4037136.6764821783}},{"attributes":{"OBJECTID":971,"ولایت":"وردک","Province":"WARDAK","PC_Code":"0407028","ولسوالي":"حصه اول بهسود","District":"HISSA-E-AWALI BIHSUD","د_مرکز_نوم__نام_مرکز":"بازار دهن آبدره","Polling_Center_Name":"Bazar-e-Dahan Aabdara ","د_مرکز_ځای__موقعیت_مرکز":"دهن آبدره","Polling_Center_Location":"Dahan-e-Aabdara","Verification_Note":"Village","PS_Male":2,"PS_Female":1,"Map_Accuracy":"قریه"},"geometry":{"x":7600497.4786687344,"y":4125941.1448080018}},{"attributes":{"OBJECTID":972,"ولایت":"وردک","Province":"WARDAK","PC_Code":"0407029","ولسوالي":"حصه اول بهسود","District":"HISSA-E-AWALI BIHSUD","د_مرکز_نوم__نام_مرکز":"مکتب دولت قولی","Polling_Center_Name":"Dawlat Quli School","د_مرکز_ځای__موقعیت_مرکز":"قریه دولت قولی","Polling_Center_Location":"Dawlat Quli Village ","Verification_Note":"Building","PS_Male":2,"PS_Female":1,"Map_Accuracy":"تعمیر"},"geometry":{"x":7602755.7848958,"y":4119722.6796092391}},{"attributes":{"OBJECTID":973,"ولایت":"وردک","Province":"WARDAK","PC_Code":"0408081","ولسوالي":"جغتو","District":"JAGHATU","د_مرکز_نوم__نام_مرکز":"خانه شخصی","Polling_Center_Name":"Private House","د_مرکز_ځای__موقعیت_مرکز":"قلعه سلیمان","Polling_Center_Location":"Qala-e-Sulaiman","Verification_Note":"Village","PS_Male":1,"PS_Female":1,"Map_Accuracy":"قریه"},"geometry":{"x":7600194.2655265108,"y":3991461.576303862}},{"attributes":{"OBJECTID":974,"ولایت":"وردک","Province":"WARDAK","PC_Code":"0408082","ولسوالي":"جغتو","District":"JAGHATU","د_مرکز_نوم__نام_مرکز":"خانه شخصی رحمت الله","Polling_Center_Name":"Rahmatullah House","د_مرکز_ځای__موقعیت_مرکز":"موله","Polling_Center_Location":"Mola","Verification_Note":"Village","PS_Male":1,"PS_Female":1,"Map_Accuracy":"قریه"},"geometry":{"x":7617113.496745985,"y":4019144.6933137551}},{"attributes":{"OBJECTID":975,"ولایت":"وردک","Province":"WARDAK","PC_Code":"0409042","ولسوالي":"مرکز بهسود","District":"MARKAZ-E-BEHSUD","د_مرکز_نوم__نام_مرکز":"مسجد نی بولاق عجم","Polling_Center_Name":"Nai Bolaq-e-Ajam Mosque","د_مرکز_ځای__موقعیت_مرکز":"قریه نی بولاق عجم","Polling_Center_Location":"Nai Bolaq Ajam Village","Verification_Note":"Village","PS_Male":1,"PS_Female":1,"Map_Accuracy":"قریه"},"geometry":{"x":7516870.0704212673,"y":4069714.160215795}},{"attributes":{"OBJECTID":976,"ولایت":"وردک","Province":"WARDAK","PC_Code":"0409043","ولسوالي":"مرکز بهسود","District":"MARKAZ-E-BEHSUD","د_مرکز_نوم__نام_مرکز":"مکتب آب شیروم","Polling_Center_Name":"Aabsherum School","د_مرکز_ځای__موقعیت_مرکز":"اب شیروم","Polling_Center_Location":"Aabsherum","Verification_Note":"Building","PS_Male":1,"PS_Female":1,"Map_Accuracy":"تعمیر"},"geometry":{"x":7549316.4714958854,"y":4085806.12865708}},{"attributes":{"OBJECTID":977,"ولایت":"وردک","Province":"WARDAK","PC_Code":"0409050","ولسوالي":"مرکز بهسود","District":"MARKAZ-E-BEHSUD","د_مرکز_نوم__نام_مرکز":"مکتب سربلاق","Polling_Center_Name":"Sarbalaq School","د_مرکز_ځای__موقعیت_مرکز":"قریه سربلاق","Polling_Center_Location":"Sarbalaq Village","Verification_Note":"Building","PS_Male":2,"PS_Female":1,"Map_Accuracy":"تعمیر"},"geometry":{"x":7502893.487564493,"y":4106837.7069680467}},{"attributes":{"OBJECTID":978,"ولایت":"وردک","Province":"WARDAK","PC_Code":"0409063","ولسوالي":"مرکز بهسود","District":"MARKAZ-E-BEHSUD","د_مرکز_نوم__نام_مرکز":"مدرسه قره قل","Polling_Center_Name":"Qara Qul Madrassa","د_مرکز_ځای__موقعیت_مرکز":"قره قل","Polling_Center_Location":"Qaraqul","Verification_Note":"Village","PS_Male":2,"PS_Female":1,"Map_Accuracy":"قریه"},"geometry":{"x":7495911.2608219683,"y":4030748.4037800208}},{"attributes":{"OBJECTID":979,"ولایت":"لوگر","Province":"LOGAR","PC_Code":"0507080","ولسوالي":"اذره","District":"AZRA","د_مرکز_نوم__نام_مرکز":"مکتب معروف خیل","Polling_Center_Name":"Maroof Khel School","د_مرکز_ځای__موقعیت_مرکز":"قریه معروف خیل","Polling_Center_Location":"Maroof Khel Village","Verification_Note":"Village","PS_Male":3,"PS_Female":2,"Map_Accuracy":"قریه"},"geometry":{"x":7764706.471444115,"y":4055387.6432340667}},{"attributes":{"OBJECTID":980,"ولایت":"ننگرهار","Province":"NANGARHAR","PC_Code":"0618503","ولسوالي":"لعل پور","District":"LALPOOR","د_مرکز_نوم__نام_مرکز":"عید ګاه مسجد","Polling_Center_Name":"Eid Gah Mosque","د_مرکز_ځای__موقعیت_مرکز":"ملک محمدعمر کلي","Polling_Center_Location":"Malak Mohammad Omar Village","Verification_Note":"Building","PS_Male":4,"PS_Female":2,"Map_Accuracy":"تعمیر"},"geometry":{"x":7908432.62448018,"y":4060973.5491973981}},{"attributes":{"OBJECTID":981,"ولایت":"لوگر","Province":"LOGAR","PC_Code":"0501003","ولسوالي":"پل علم","District":"PULI ALAM","د_مرکز_نوم__نام_مرکز":"مرکز سره میاشت","Polling_Center_Name":"Red Crescent Center","د_مرکز_ځای__موقعیت_مرکز":"امور زنان سره میاشت","Polling_Center_Location":"Women Affairs of Red Crescent","Verification_Note":"Building","PS_Male":4,"PS_Female":1,"Map_Accuracy":"تعمیر"},"geometry":{"x":7682781.0357969478,"y":4029753.1436665803}},{"attributes":{"OBJECTID":982,"ولایت":"لوگر","Province":"LOGAR","PC_Code":"0501012","ولسوالي":"پل علم","District":"PULI ALAM","د_مرکز_نوم__نام_مرکز":"مکتب شلوک","Polling_Center_Name":"Sholak School","د_مرکز_ځای__موقعیت_مرکز":"شلوک","Polling_Center_Location":"Shalook","Verification_Note":"Village","PS_Male":1,"PS_Female":2,"Map_Accuracy":"قریه"},"geometry":{"x":7668741.8780280128,"y":4043717.6716620177}},{"attributes":{"OBJECTID":983,"ولایت":"لوگر","Province":"LOGAR","PC_Code":"0501013","ولسوالي":"پل علم","District":"PULI ALAM","د_مرکز_نوم__نام_مرکز":"مکتب شهیدان دوشنبه","Polling_Center_Name":"Shaheedan Doshanba School","د_مرکز_ځای__موقعیت_مرکز":"شهیدان","Polling_Center_Location":"Shaheedan","Verification_Note":"Building","PS_Male":2,"PS_Female":1,"Map_Accuracy":"تعمیر"},"geometry":{"x":7682084.437385384,"y":4022923.4377066195}},{"attributes":{"OBJECTID":984,"ولایت":"لوگر","Province":"LOGAR","PC_Code":"0501016","ولسوالي":"پل علم","District":"PULI ALAM","د_مرکز_نوم__نام_مرکز":"مکتب آپچکان","Polling_Center_Name":"Aabchakan School","د_مرکز_ځای__موقعیت_مرکز":"آپچکان","Polling_Center_Location":"Aabchakan","Verification_Note":"Village","PS_Male":3,"PS_Female":2,"Map_Accuracy":"قریه"},"geometry":{"x":7708106.7553991675,"y":4014424.8668702692}},{"attributes":{"OBJECTID":985,"ولایت":"لوگر","Province":"LOGAR","PC_Code":"0501017","ولسوالي":"پل علم","District":"PULI ALAM","د_مرکز_نوم__نام_مرکز":"مسجد هونی سیدان","Polling_Center_Name":"Honi Saidan Mosque","د_مرکز_ځای__موقعیت_مرکز":"هونی سیدان","Polling_Center_Location":"Honi Sayedan","Verification_Note":"Building","PS_Male":2,"PS_Female":1,"Map_Accuracy":"تعمیر"},"geometry":{"x":7683428.4165220484,"y":4025714.9557577521}},{"attributes":{"OBJECTID":986,"ولایت":"لوگر","Province":"LOGAR","PC_Code":"0501020","ولسوالي":"پل علم","District":"PULI ALAM","د_مرکز_نوم__نام_مرکز":"مسجد پشتون آباد","Polling_Center_Name":"Pashton Abad Mosque","د_مرکز_ځای__موقعیت_مرکز":"پشتون آباد","Polling_Center_Location":"Pashton Abad","Verification_Note":"District","PS_Male":2,"PS_Female":1,"Map_Accuracy":"ولسوالی"},"geometry":{"x":7700357.6798540242,"y":4008658.1597280428}},{"attributes":{"OBJECTID":987,"ولایت":"لوگر","Province":"LOGAR","PC_Code":"0501021","ولسوالي":"پل علم","District":"PULI ALAM","د_مرکز_نوم__نام_مرکز":"مسجد ده دوشنبی","Polling_Center_Name":"Deh Doshanbi Mosque","د_مرکز_ځای__موقعیت_مرکز":"ده دوشنبی","Polling_Center_Location":"Deh Doshanbi","Verification_Note":"Village","PS_Male":1,"PS_Female":2,"Map_Accuracy":"قریه"},"geometry":{"x":7680779.1707148477,"y":4023658.9528375342}},{"attributes":{"OBJECTID":988,"ولایت":"لوگر","Province":"LOGAR","PC_Code":"0502023","ولسوالي":"برکی برک","District":"BARAKI BARAK","د_مرکز_نوم__نام_مرکز":"مکتب ذکور و اناث پادخواب روغنى","Polling_Center_Name":"Padkhwab Roghani Boys & Girls School","د_مرکز_ځای__موقعیت_مرکز":"پادخواب روغنى","Polling_Center_Location":"Pad Khwab Roghani","Verification_Note":"Building","PS_Male":5,"PS_Female":2,"Map_Accuracy":"تعمیر"},"geometry":{"x":7677098.9093873948,"y":4021263.7443131581}},{"attributes":{"OBJECTID":989,"ولایت":"لوگر","Province":"LOGAR","PC_Code":"0502025","ولسوالي":"برکی برک","District":"BARAKI BARAK","د_مرکز_نوم__نام_مرکز":"لیسه بره کی راجان","Polling_Center_Name":"Baraki Rajan High School","د_مرکز_ځای__موقعیت_مرکز":"بره کی راجان","Polling_Center_Location":"Baraki Rajan","Verification_Note":"Building","PS_Male":2,"PS_Female":1,"Map_Accuracy":"تعمیر"},"geometry":{"x":7672445.1936220005,"y":4021132.1734559909}},{"attributes":{"OBJECTID":990,"ولایت":"لوگر","Province":"LOGAR","PC_Code":"0503041","ولسوالي":"چرخ","District":"CHARKH","د_مرکز_نوم__نام_مرکز":"مکتب متوسطه الحاج شهید تفسیر شاه","Polling_Center_Name":"Alhaj Shaheed Tafser Shah Secondary School","د_مرکز_ځای__موقعیت_مرکز":"پنگرام سر آسياب","Polling_Center_Location":"Pengeram Sar Asyab","Verification_Note":"Building","PS_Male":2,"PS_Female":2,"Map_Accuracy":"تعمیر"},"geometry":{"x":7674791.6582066119,"y":4000758.8902696893}},{"attributes":{"OBJECTID":991,"ولایت":"لوگر","Province":"LOGAR","PC_Code":"0503044","ولسوالي":"چرخ","District":"CHARKH","د_مرکز_نوم__نام_مرکز":"مکتب قلعه نو","Polling_Center_Name":"Qala-e-Naw School","د_مرکز_ځای__موقعیت_مرکز":"دشت","Polling_Center_Location":"Dasht","Verification_Note":"Building","PS_Male":2,"PS_Female":2,"Map_Accuracy":"تعمیر"},"geometry":{"x":7672781.4007480964,"y":4003190.1043340862}},{"attributes":{"OBJECTID":992,"ولایت":"لوگر","Province":"LOGAR","PC_Code":"0503045","ولسوالي":"چرخ","District":"CHARKH","د_مرکز_نوم__نام_مرکز":"مکتب ډبر","Polling_Center_Name":"Dabar School","د_مرکز_ځای__موقعیت_مرکز":"ډبر ها","Polling_Center_Location":"Dabar Ha","Verification_Note":"Building","PS_Male":2,"PS_Female":2,"Map_Accuracy":"تعمیر"},"geometry":{"x":7677251.3558640666,"y":4008515.4465115666}},{"attributes":{"OBJECTID":993,"ولایت":"لوگر","Province":"LOGAR","PC_Code":"0505061","ولسوالي":"محمد آغه","District":"MOHAMMAD AGHA","د_مرکز_نوم__نام_مرکز":"مکتب سید صالح پادشاه","Polling_Center_Name":"Sayed Salih Pad Shah School","د_مرکز_ځای__موقعیت_مرکز":"سيد سليم پاد شاه","Polling_Center_Location":"Sayed Saleem Pad Shah","Verification_Note":"Building","PS_Male":2,"PS_Female":1,"Map_Accuracy":"تعمیر"},"geometry":{"x":7696158.35243893,"y":4061957.8587167636}},{"attributes":{"OBJECTID":994,"ولایت":"ننگرهار","Province":"NANGARHAR","PC_Code":"0601009","ولسوالي":"جلال آباد","District":"JALALABAD","د_مرکز_نوم__نام_مرکز":"ابياري رياست","Polling_Center_Name":"Irrigation Directorate","د_مرکز_ځای__موقعیت_مرکز":"څلورمه ناحیه","Polling_Center_Location":"D04-Nahia 4","Verification_Note":"Building","PS_Male":6,"PS_Female":0,"Map_Accuracy":"تعمیر"},"geometry":{"x":7845157.3568710908,"y":4084804.0667289197}},{"attributes":{"OBJECTID":995,"ولایت":"ننگرهار","Province":"NANGARHAR","PC_Code":"0601010","ولسوالي":"جلال آباد","District":"JALALABAD","د_مرکز_نوم__نام_مرکز":"ننګرهار ليسه","Polling_Center_Name":"Nangrahar High School","د_مرکز_ځای__موقعیت_مرکز":"څلورمه ناحیه","Polling_Center_Location":"D04-Nahia 4","Verification_Note":"Building","PS_Male":0,"PS_Female":7,"Map_Accuracy":"تعمیر"},"geometry":{"x":7843955.7609291263,"y":4086389.1161784381}},{"attributes":{"OBJECTID":996,"ولایت":"ننگرهار","Province":"NANGARHAR","PC_Code":"0601030","ولسوالي":"جلال آباد","District":"JALALABAD","د_مرکز_نوم__نام_مرکز":"شانزده فاميلي جومات","Polling_Center_Name":"Shanzda Family Mosque","د_مرکز_ځای__موقعیت_مرکز":"څلورمه ناحیه","Polling_Center_Location":"D04-Nahia 4","Verification_Note":"Building","PS_Male":4,"PS_Female":0,"Map_Accuracy":"تعمیر"},"geometry":{"x":7843663.0819503218,"y":4086233.0209935755}},{"attributes":{"OBJECTID":997,"ولایت":"ننگرهار","Province":"NANGARHAR","PC_Code":"0601031","ولسوالي":"جلال آباد","District":"JALALABAD","د_مرکز_نوم__نام_مرکز":"ګمرک جومات","Polling_Center_Name":"Custom House Mosque","د_مرکز_ځای__موقعیت_مرکز":"دویمه ناحیه","Polling_Center_Location":"D02-Nahia 2","Verification_Note":"Building","PS_Male":4,"PS_Female":0,"Map_Accuracy":"تعمیر"},"geometry":{"x":7842876.753350012,"y":4086690.9586924464}},{"attributes":{"OBJECTID":998,"ولایت":"ننگرهار","Province":"NANGARHAR","PC_Code":"0602045","ولسوالي":"بهسود","District":"BEHSUD","د_مرکز_نوم__نام_مرکز":"جانان خان لیسه","Polling_Center_Name":"Janan Khan High School","د_مرکز_ځای__موقعیت_مرکز":"قلاي جانان خان","Polling_Center_Location":"Qala-e- Janan khan","Verification_Note":"Building","PS_Male":4,"PS_Female":2,"Map_Accuracy":"تعمیر"},"geometry":{"x":7844384.5780791938,"y":4089677.1005031541}},{"attributes":{"OBJECTID":999,"ولایت":"ننگرهار","Province":"NANGARHAR","PC_Code":"0602046","ولسوالي":"بهسود","District":"BEHSUD","د_مرکز_نوم__نام_مرکز":"حضرت ابوبکر صدیق لیسه","Polling_Center_Name":"Hazrat Abu Bakr Sediq High School","د_مرکز_ځای__موقعیت_مرکز":"قلعه ريګي","Polling_Center_Location":"Qala-e-Regee","Verification_Note":"Village","PS_Male":3,"PS_Female":1,"Map_Accuracy":"قریه"},"geometry":{"x":7848793.7972809859,"y":4090558.3028560653}}]}