{"objectIdFieldName":"OBJECTID","globalIdFieldName":"","geometryType":"esriGeometryPoint","spatialReference":{"wkid":102100,"latestWkid":3857},"fields":[{"name":"OBJECTID","type":"esriFieldTypeOID","alias":"OBJECTID","sqlType":"sqlTypeOther","domain":null,"defaultValue":null},{"name":"ولایت","type":"esriFieldTypeString","alias":"ولایت","sqlType":"sqlTypeOther","length":255,"domain":null,"defaultValue":null},{"name":"Province","type":"esriFieldTypeString","alias":"Province","sqlType":"sqlTypeOther","length":255,"domain":null,"defaultValue":null},{"name":"PC_Code","type":"esriFieldTypeString","alias":"PC_Code","sqlType":"sqlTypeOther","length":255,"domain":null,"defaultValue":null},{"name":"ولسوالي","type":"esriFieldTypeString","alias":"ولسوالي","sqlType":"sqlTypeOther","length":255,"domain":null,"defaultValue":null},{"name":"District","type":"esriFieldTypeString","alias":"District","sqlType":"sqlTypeOther","length":255,"domain":null,"defaultValue":null},{"name":"د_مرکز_نوم__نام_مرکز","type":"esriFieldTypeString","alias":"د_مرکز_نوم__نام_مرکز","sqlType":"sqlTypeOther","length":255,"domain":null,"defaultValue":null},{"name":"Polling_Center_Name","type":"esriFieldTypeString","alias":"Polling_Center_Name","sqlType":"sqlTypeOther","length":255,"domain":null,"defaultValue":null},{"name":"د_مرکز_ځای__موقعیت_مرکز","type":"esriFieldTypeString","alias":"د_مرکز_ځای__موقعیت_مرکز","sqlType":"sqlTypeOther","length":255,"domain":null,"defaultValue":null},{"name":"Polling_Center_Location","type":"esriFieldTypeString","alias":"Polling_Center_Location","sqlType":"sqlTypeOther","length":255,"domain":null,"defaultValue":null},{"name":"Verification_Note","type":"esriFieldTypeString","alias":"Verification_Note","sqlType":"sqlTypeOther","length":250,"domain":null,"defaultValue":null},{"name":"PS_Male","type":"esriFieldTypeSmallInteger","alias":"PS_Male","sqlType":"sqlTypeOther","domain":null,"defaultValue":null},{"name":"PS_Female","type":"esriFieldTypeSmallInteger","alias":"PS_Female","sqlType":"sqlTypeOther","domain":null,"defaultValue":null},{"name":"Map_Accuracy","type":"esriFieldTypeString","alias":"Map_Accuracy","sqlType":"sqlTypeOther","length":10,"domain":null,"defaultValue":null}],"features":[{"attributes":{"OBJECTID":1000,"ولایت":"ننگرهار","Province":"NANGARHAR","PC_Code":"0602053","ولسوالي":"بهسود","District":"BEHSUD","د_مرکز_نوم__نام_مرکز":"ناهيدشهيد مکتب","Polling_Center_Name":"Nahid-e- Shaheed School","د_مرکز_ځای__موقعیت_مرکز":"تعميرات","Polling_Center_Location":"Tamerat","Verification_Note":"Village","PS_Male":5,"PS_Female":2,"Map_Accuracy":"قریه"},"geometry":{"x":7846450.8381471373,"y":4088290.111619629}},{"attributes":{"OBJECTID":1001,"ولایت":"ننگرهار","Province":"NANGARHAR","PC_Code":"0602054","ولسوالي":"بهسود","District":"BEHSUD","د_مرکز_نوم__نام_مرکز":"حاجی حفیظ جومات","Polling_Center_Name":"Haji Hafeez Mosque","د_مرکز_ځای__موقعیت_مرکز":"خوشګنبد بانې چوک","Polling_Center_Location":"Khoshgunbad bany Chauk","Verification_Note":"Building","PS_Male":2,"PS_Female":1,"Map_Accuracy":"تعمیر"},"geometry":{"x":7848946.1057214849,"y":4083799.6057005897}},{"attributes":{"OBJECTID":1002,"ولایت":"ننگرهار","Province":"NANGARHAR","PC_Code":"0603078","ولسوالي":"سرخرود","District":"SURKH RUD","د_مرکز_نوم__نام_مرکز":"جامع مسجد","Polling_Center_Name":"Jami Mosque","د_مرکز_ځای__موقعیت_مرکز":"غوچک","Polling_Center_Location":"Ghawchak","Verification_Note":"Building","PS_Male":2,"PS_Female":1,"Map_Accuracy":"تعمیر"},"geometry":{"x":7837977.5413719863,"y":4086426.3176848292}},{"attributes":{"OBJECTID":1003,"ولایت":"ننگرهار","Province":"NANGARHAR","PC_Code":"0603079","ولسوالي":"سرخرود","District":"SURKH RUD","د_مرکز_نوم__نام_مرکز":"د کانو صنايعو رياست","Polling_Center_Name":"Mine and Industrial Department","د_مرکز_ځای__موقعیت_مرکز":"چکنوري","Polling_Center_Location":"Cheknowry","Verification_Note":"Building","PS_Male":2,"PS_Female":0,"Map_Accuracy":"تعمیر"},"geometry":{"x":7838684.2965738922,"y":4088192.4257606864}},{"attributes":{"OBJECTID":1004,"ولایت":"ننگرهار","Province":"NANGARHAR","PC_Code":"0603088","ولسوالي":"سرخرود","District":"SURKH RUD","د_مرکز_نوم__نام_مرکز":"امرخيل کلینيک","Polling_Center_Name":"AmarKhil Clinic","د_مرکز_ځای__موقعیت_مرکز":"امر خيل","Polling_Center_Location":"AmarKhel","Verification_Note":"Village","PS_Male":0,"PS_Female":3,"Map_Accuracy":"قریه"},"geometry":{"x":7833033.6179204918,"y":4090135.176726453}},{"attributes":{"OBJECTID":1005,"ولایت":"ننگرهار","Province":"NANGARHAR","PC_Code":"0603089","ولسوالي":"سرخرود","District":"SURKH RUD","د_مرکز_نوم__نام_مرکز":"بالا باغ لیسه ","Polling_Center_Name":"Bala Bagh School","د_مرکز_ځای__موقعیت_مرکز":"بالا باغ","Polling_Center_Location":"Bala Bagh","Verification_Note":"Building","PS_Male":3,"PS_Female":0,"Map_Accuracy":"تعمیر"},"geometry":{"x":7817637.4410497434,"y":4082031.4692929611}},{"attributes":{"OBJECTID":1006,"ولایت":"ننگرهار","Province":"NANGARHAR","PC_Code":"0606193","ولسوالي":"کوز کنړ","District":"KUZ KUNAR","د_مرکز_نوم__نام_مرکز":"پاچاهی قلعه جومات","Polling_Center_Name":"Pachahee Mosque","د_مرکز_ځای__موقعیت_مرکز":"پاچاهي قله","Polling_Center_Location":"Pachahee Qala","Verification_Note":"Village","PS_Male":2,"PS_Female":1,"Map_Accuracy":"قریه"},"geometry":{"x":7860754.7971547991,"y":4107170.5037785769}},{"attributes":{"OBJECTID":1007,"ولایت":"ننگرهار","Province":"NANGARHAR","PC_Code":"0606194","ولسوالي":"کوز کنړ","District":"KUZ KUNAR","د_مرکز_نوم__نام_مرکز":"کچړه جومات","Polling_Center_Name":"Kachara Mosque","د_مرکز_ځای__موقعیت_مرکز":"کچړه","Polling_Center_Location":"Kachra","Verification_Note":"Building","PS_Male":1,"PS_Female":1,"Map_Accuracy":"تعمیر"},"geometry":{"x":7858149.6394319274,"y":4102624.6042152196}},{"attributes":{"OBJECTID":1008,"ولایت":"ننگرهار","Province":"NANGARHAR","PC_Code":"0606205","ولسوالي":"کوز کنړ","District":"KUZ KUNAR","د_مرکز_نوم__نام_مرکز":"پوري کلي مدرسه","Polling_Center_Name":"Poory Village Madrassa","د_مرکز_ځای__موقعیت_مرکز":"بوډيالۍ پوري کلي","Polling_Center_Location":"Bodyalai Poory Village","Verification_Note":"Village","PS_Male":0,"PS_Female":2,"Map_Accuracy":"قریه"},"geometry":{"x":7861186.2859726548,"y":4110783.0474678874}},{"attributes":{"OBJECTID":1009,"ولایت":"ننگرهار","Province":"NANGARHAR","PC_Code":"0606206","ولسوالي":"کوز کنړ","District":"KUZ KUNAR","د_مرکز_نوم__نام_مرکز":"شامل کلی جومات","Polling_Center_Name":"Shamil Village Mosque","د_مرکز_ځای__موقعیت_مرکز":"شامل کلي","Polling_Center_Location":"Shamil Village","Verification_Note":"Village","PS_Male":1,"PS_Female":1,"Map_Accuracy":"قریه"},"geometry":{"x":7852350.8913842328,"y":4104900.9126039147}},{"attributes":{"OBJECTID":1010,"ولایت":"ننگرهار","Province":"NANGARHAR","PC_Code":"0608277","ولسوالي":"خوګیاڼي","District":"KHUGYANI","د_مرکز_نوم__نام_مرکز":"جهادي اناث ليسه","Polling_Center_Name":"Jihadi Girls High School","د_مرکز_ځای__موقعیت_مرکز":"وزير احمد خيل کلی","Polling_Center_Location":"Wazir Ahmad Khel Village","Verification_Note":"Village","PS_Male":0,"PS_Female":3,"Map_Accuracy":"قریه"},"geometry":{"x":7811663.9236278906,"y":4056893.4493921697}},{"attributes":{"OBJECTID":1011,"ولایت":"ننگرهار","Province":"NANGARHAR","PC_Code":"0610333","ولسوالي":"ده بالا","District":"DEH BALA","د_مرکز_نوم__نام_مرکز":"مورګی منځنی ښوونځی","Polling_Center_Name":"Morgay Secondary School","د_مرکز_ځای__موقعیت_مرکز":"مورګی","Polling_Center_Location":"Morgay","Verification_Note":"Building","PS_Male":2,"PS_Female":1,"Map_Accuracy":"تعمیر"},"geometry":{"x":7843604.3429964893,"y":4044848.6622204334}},{"attributes":{"OBJECTID":1012,"ولایت":"ننگرهار","Province":"NANGARHAR","PC_Code":"0610334","ولسوالي":"ده بالا","District":"DEH BALA","د_مرکز_نوم__نام_مرکز":"پاپين ليسه","Polling_Center_Name":"Papeen High School","د_مرکز_ځای__موقعیت_مرکز":"پاپين","Polling_Center_Location":"Papeen","Verification_Note":"Building","PS_Male":2,"PS_Female":1,"Map_Accuracy":"تعمیر"},"geometry":{"x":7840036.5712390058,"y":4043603.4368394539}},{"attributes":{"OBJECTID":1013,"ولایت":"ننگرهار","Province":"NANGARHAR","PC_Code":"0612236","ولسوالي":"دره نور","District":"DARAH-E-NOOR","د_مرکز_نوم__نام_مرکز":"اودرک ميدان","Polling_Center_Name":"Odarak Maidan","د_مرکز_ځای__موقعیت_مرکز":"اودرک","Polling_Center_Location":"Odrak","Verification_Note":"Village","PS_Male":2,"PS_Female":0,"Map_Accuracy":"قریه"},"geometry":{"x":7855192.0608991235,"y":4124091.7789600492}},{"attributes":{"OBJECTID":1014,"ولایت":"ننگرهار","Province":"NANGARHAR","PC_Code":"0612237","ولسوالي":"دره نور","District":"DARAH-E-NOOR","د_مرکز_نوم__نام_مرکز":"اودرک مکتب","Polling_Center_Name":"Odarak School","د_مرکز_ځای__موقعیت_مرکز":"اودرک","Polling_Center_Location":"Odrak","Verification_Note":"Building","PS_Male":0,"PS_Female":2,"Map_Accuracy":"تعمیر"},"geometry":{"x":7855694.5782312676,"y":4123777.1337472275}},{"attributes":{"OBJECTID":1015,"ولایت":"ننگرهار","Province":"NANGARHAR","PC_Code":"0613341","ولسوالي":"کوټ","District":"KOT","د_مرکز_نوم__نام_مرکز":"لوي جومات سيپاي کلي","Polling_Center_Name":"Saypay Village Mosque","د_مرکز_ځای__موقعیت_مرکز":"سيپاي کلي","Polling_Center_Location":"Saypay Village","Verification_Note":"Village","PS_Male":3,"PS_Female":0,"Map_Accuracy":"قریه"},"geometry":{"x":7856682.7346343622,"y":4047613.855670996}},{"attributes":{"OBJECTID":1016,"ولایت":"ننگرهار","Province":"NANGARHAR","PC_Code":"0613349","ولسوالي":"کوټ","District":"KOT","د_مرکز_نوم__نام_مرکز":"حيدرخاني لوي جومات ","Polling_Center_Name":"Haidar Khani Mosque","د_مرکز_ځای__موقعیت_مرکز":"حيدرخاني","Polling_Center_Location":"Haidar Khani","Verification_Note":"Village","PS_Male":2,"PS_Female":0,"Map_Accuracy":"قریه"},"geometry":{"x":7865494.966976326,"y":4056040.6092011854}},{"attributes":{"OBJECTID":1017,"ولایت":"ننگرهار","Province":"NANGARHAR","PC_Code":"0613350","ولسوالي":"کوټ","District":"KOT","د_مرکز_نوم__نام_مرکز":"ازاد میدان","Polling_Center_Name":"Open Space","د_مرکز_ځای__موقعیت_مرکز":"حيدرخاني کلی","Polling_Center_Location":"Haidar Khani Village","Verification_Note":"Village","PS_Male":0,"PS_Female":3,"Map_Accuracy":"قریه"},"geometry":{"x":7865789.1331835315,"y":4056225.7212472856}},{"attributes":{"OBJECTID":1018,"ولایت":"ننگرهار","Province":"NANGARHAR","PC_Code":"0614492","ولسوالي":"ګوشته","District":"GOSHTA","د_مرکز_نوم__نام_مرکز":"ورسک مکتب","Polling_Center_Name":"Warsak School","د_مرکز_ځای__موقعیت_مرکز":"ورسک","Polling_Center_Location":"Warsak","Verification_Note":"Village","PS_Male":2,"PS_Female":0,"Map_Accuracy":"قریه"},"geometry":{"x":7882558.1287314221,"y":4074534.3057248518}},{"attributes":{"OBJECTID":1019,"ولایت":"ننگرهار","Province":"NANGARHAR","PC_Code":"0614493","ولسوالي":"ګوشته","District":"GOSHTA","د_مرکز_نوم__نام_مرکز":"یعقوب خیل جومات","Polling_Center_Name":"Yaqoob Khel Mosque","د_مرکز_ځای__موقعیت_مرکز":"یعقوب خیل","Polling_Center_Location":"Yaqoob Khel","Verification_Note":"Village","PS_Male":4,"PS_Female":1,"Map_Accuracy":"قریه"},"geometry":{"x":7881702.7954051606,"y":4075378.9211129025}},{"attributes":{"OBJECTID":1020,"ولایت":"ننگرهار","Province":"NANGARHAR","PC_Code":"0614495","ولسوالي":"ګوشته","District":"GOSHTA","د_مرکز_نوم__نام_مرکز":"دورخيل ميدان","Polling_Center_Name":"Dor Khel Maidan","د_مرکز_ځای__موقعیت_مرکز":"دورخيل","Polling_Center_Location":"Dor Khel","Verification_Note":"Village","PS_Male":2,"PS_Female":0,"Map_Accuracy":"قریه"},"geometry":{"x":7881692.3469577469,"y":4076058.6702178791}},{"attributes":{"OBJECTID":1021,"ولایت":"ننگرهار","Province":"NANGARHAR","PC_Code":"0615355","ولسوالي":"اچین","District":"ACHIN","د_مرکز_نوم__نام_مرکز":"کوشتال منځ کلی جومات","Polling_Center_Name":"Koshtal Mainz Village Mosque","د_مرکز_ځای__موقعیت_مرکز":"کوشتال","Polling_Center_Location":"Koshtal","Verification_Note":"Village","PS_Male":2,"PS_Female":0,"Map_Accuracy":"قریه"},"geometry":{"x":7869637.2061943226,"y":4041806.6697445661}},{"attributes":{"OBJECTID":1022,"ولایت":"ننگرهار","Province":"NANGARHAR","PC_Code":"0615362","ولسوالي":"اچین","District":"ACHIN","د_مرکز_نوم__نام_مرکز":"د پیروخیلو لوي تپه جامع جومات","Polling_Center_Name":"Perokhelo Tapa Mosque","د_مرکز_ځای__موقعیت_مرکز":"زوړ ده سرک","Polling_Center_Location":"Zordeh Road","Verification_Note":"Village","PS_Male":3,"PS_Female":1,"Map_Accuracy":"قریه"},"geometry":{"x":7876848.94723282,"y":4044540.7249602452}},{"attributes":{"OBJECTID":1023,"ولایت":"ننگرهار","Province":"NANGARHAR","PC_Code":"0615363","ولسوالي":"اچین","District":"ACHIN","د_مرکز_نوم__نام_مرکز":"ده سرک کهنه لیسه","Polling_Center_Name":"Deh Sarak Kuhna High School","د_مرکز_ځای__موقعیت_مرکز":"شیخ مل خیل","Polling_Center_Location":"Shekh Mal Khel ","Verification_Note":"Village","PS_Male":1,"PS_Female":1,"Map_Accuracy":"قریه"},"geometry":{"x":7874226.1208803728,"y":4046469.3574448824}},{"attributes":{"OBJECTID":1024,"ولایت":"ننگرهار","Province":"NANGARHAR","PC_Code":"0617462","ولسوالي":"مهمند دره","District":"MUHMAND DARA","د_مرکز_نوم__نام_مرکز":"دامان کلی سپین جومات","Polling_Center_Name":"Amaan Village Speen Mosque","د_مرکز_ځای__موقعیت_مرکز":"دامان کلی ","Polling_Center_Location":"Damaan Village","Verification_Note":"Village","PS_Male":2,"PS_Female":1,"Map_Accuracy":"قریه"},"geometry":{"x":7891534.7320939042,"y":4058618.9549378529}},{"attributes":{"OBJECTID":1025,"ولایت":"ننگرهار","Province":"NANGARHAR","PC_Code":"0617463","ولسوالي":"مهمند دره","District":"MUHMAND DARA","د_مرکز_نوم__نام_مرکز":"صلح ازادی تجارتی لیسه","Polling_Center_Name":"Sulh Azadi Commerce High School","د_مرکز_ځای__موقعیت_مرکز":" لوي ډکه","Polling_Center_Location":"Loy Daka","Verification_Note":"Building","PS_Male":4,"PS_Female":0,"Map_Accuracy":"تعمیر"},"geometry":{"x":7908607.3949675336,"y":4055806.0836326182}},{"attributes":{"OBJECTID":1026,"ولایت":"ننگرهار","Province":"NANGARHAR","PC_Code":"0617469","ولسوالي":"مهمند دره","District":"MUHMAND DARA","د_مرکز_نوم__نام_مرکز":"هزارناو لیسه ","Polling_Center_Name":"Hazar Naaw  High School","د_مرکز_ځای__موقعیت_مرکز":"هزارناوکلي","Polling_Center_Location":"Hazar Naaw Village","Verification_Note":"Building","PS_Male":1,"PS_Female":3,"Map_Accuracy":"تعمیر"},"geometry":{"x":7894163.6331509687,"y":4060724.1797758341}},{"attributes":{"OBJECTID":1027,"ولایت":"ننگرهار","Province":"NANGARHAR","PC_Code":"0617470","ولسوالي":"مهمند دره","District":"MUHMAND DARA","د_مرکز_نوم__نام_مرکز":"هديري کلې جومات ","Polling_Center_Name":"Hadeere Village Mosque","د_مرکز_ځای__موقعیت_مرکز":"هديري کلې","Polling_Center_Location":"Hadeere Village","Verification_Note":"Village","PS_Male":2,"PS_Female":1,"Map_Accuracy":"قریه"},"geometry":{"x":7892493.0938352831,"y":4060133.7118993104}},{"attributes":{"OBJECTID":1028,"ولایت":"ننگرهار","Province":"NANGARHAR","PC_Code":"0617478","ولسوالي":"مهمند دره","District":"MUHMAND DARA","د_مرکز_نوم__نام_مرکز":"علي جان قلعه جومات","Polling_Center_Name":"Ali Jan Qala Mosque","د_مرکز_ځای__موقعیت_مرکز":"علي جان قلعه","Polling_Center_Location":"Ali Jan Qala ","Verification_Note":"Village","PS_Male":1,"PS_Female":1,"Map_Accuracy":"قریه"},"geometry":{"x":7888531.23427115,"y":4061158.154669039}},{"attributes":{"OBJECTID":1029,"ولایت":"ننگرهار","Province":"NANGARHAR","PC_Code":"0617479","ولسوالي":"مهمند دره","District":"MUHMAND DARA","د_مرکز_نوم__نام_مرکز":"ذکور لیسه لاندي باسوول","Polling_Center_Name":"Landy Basool Boys High School","د_مرکز_ځای__موقعیت_مرکز":"لاندي باسوول","Polling_Center_Location":"Landy Basool","Verification_Note":"Village","PS_Male":2,"PS_Female":0,"Map_Accuracy":"قریه"},"geometry":{"x":7888227.784018416,"y":4063332.7095201463}},{"attributes":{"OBJECTID":1030,"ولایت":"ننگرهار","Province":"NANGARHAR","PC_Code":"0621259","ولسوالي":"حصارک","District":"HESARAK","د_مرکز_نوم__نام_مرکز":"لاجيګړ جومات ","Polling_Center_Name":"Lajigarh Mosque","د_مرکز_ځای__موقعیت_مرکز":"لاجيګړ","Polling_Center_Location":"Lajigarh","Verification_Note":"Village","PS_Male":3,"PS_Female":0,"Map_Accuracy":"قریه"},"geometry":{"x":7774348.9735289924,"y":4065744.6861368641}},{"attributes":{"OBJECTID":1031,"ولایت":"ننگرهار","Province":"NANGARHAR","PC_Code":"0621260","ولسوالي":"حصارک","District":"HESARAK","د_مرکز_نوم__نام_مرکز":"لاجيګر مکتب","Polling_Center_Name":"Lajigarh School","د_مرکز_ځای__موقعیت_مرکز":"لاجيګړ","Polling_Center_Location":"Lajigarh","Verification_Note":"Village","PS_Male":0,"PS_Female":2,"Map_Accuracy":"قریه"},"geometry":{"x":7774242.2793630473,"y":4065685.9623175114}},{"attributes":{"OBJECTID":1032,"ولایت":"ننگرهار","Province":"NANGARHAR","PC_Code":"0621268","ولسوالي":"حصارک","District":"HESARAK","د_مرکز_نوم__نام_مرکز":"جامع جومات","Polling_Center_Name":"Jami Mosque","د_مرکز_ځای__موقعیت_مرکز":"برشيخان","Polling_Center_Location":"Bar Shekhaan","Verification_Note":"Village","PS_Male":2,"PS_Female":0,"Map_Accuracy":"قریه"},"geometry":{"x":7778783.0758652389,"y":4061135.838459745}},{"attributes":{"OBJECTID":1033,"ولایت":"ننگرهار","Province":"NANGARHAR","PC_Code":"0621269","ولسوالي":"حصارک","District":"HESARAK","د_مرکز_نوم__نام_مرکز":"جوکان مکتب","Polling_Center_Name":"Jokan School","د_مرکز_ځای__موقعیت_مرکز":"جوکان","Polling_Center_Location":"Jokaan","Verification_Note":"Village","PS_Male":2,"PS_Female":0,"Map_Accuracy":"قریه"},"geometry":{"x":7777367.6753677987,"y":4063771.37317615}},{"attributes":{"OBJECTID":1034,"ولایت":"ننگرهار","Province":"NANGARHAR","PC_Code":"0621272","ولسوالي":"حصارک","District":"HESARAK","د_مرکز_نوم__نام_مرکز":"خالي ميدان","Polling_Center_Name":"Open Space","د_مرکز_ځای__موقعیت_مرکز":"علي شير کلی","Polling_Center_Location":"Ali Sher Village","Verification_Note":"Village","PS_Male":0,"PS_Female":2,"Map_Accuracy":"قریه"},"geometry":{"x":7760258.490795631,"y":4065218.8216229826}},{"attributes":{"OBJECTID":1035,"ولایت":"ننگرهار","Province":"NANGARHAR","PC_Code":"0621273","ولسوالي":"حصارک","District":"HESARAK","د_مرکز_نوم__نام_مرکز":"مکتب دواب","Polling_Center_Name":"Dawaab School","د_مرکز_ځای__موقعیت_مرکز":"دواب","Polling_Center_Location":"Dawaab","Verification_Note":"Village","PS_Male":1,"PS_Female":1,"Map_Accuracy":"قریه"},"geometry":{"x":7760919.0962762311,"y":4069783.2788140923}},{"attributes":{"OBJECTID":1036,"ولایت":"ننگرهار","Province":"NANGARHAR","PC_Code":"0614518","ولسوالي":"گوشته","District":"GOSHTA","د_مرکز_نوم__نام_مرکز":"يعقوب خيل جومات","Polling_Center_Name":"Yahqub khil Mosque","د_مرکز_ځای__موقعیت_مرکز":"یعقوب خیل","Polling_Center_Location":"Yaqob khil","Verification_Note":"Building","PS_Male":2,"PS_Female":1,"Map_Accuracy":"تعمیر"},"geometry":{"x":7881305.9767087512,"y":4075082.9267725274}},{"attributes":{"OBJECTID":1037,"ولایت":"ننگرهار","Province":"NANGARHAR","PC_Code":"0615519","ولسوالي":"اچین","District":"ACHIN","د_مرکز_نوم__نام_مرکز":"ملک گل محمد حجره","Polling_Center_Name":"Malik gul muhammad House","د_مرکز_ځای__موقعیت_مرکز":"صندوق کلی","Polling_Center_Location":"Sanduq village","Verification_Note":"Village","PS_Male":2,"PS_Female":1,"Map_Accuracy":"قریه"},"geometry":{"x":7869898.2384890467,"y":4043137.6278726459}},{"attributes":{"OBJECTID":1038,"ولایت":"لغمان","Province":"LAGHMAN","PC_Code":"0701004","ولسوالي":"مهترلام","District":"MEHTARLAM","د_مرکز_نوم__نام_مرکز":"د صحت عامې روغتون","Polling_Center_Name":"Public Health Hospital","د_مرکز_ځای__موقعیت_مرکز":"مهترلام","Polling_Center_Location":"Mahtarlam","Verification_Note":"Building","PS_Male":3,"PS_Female":2,"Map_Accuracy":"تعمیر"},"geometry":{"x":7815231.9726822339,"y":4119461.3533485904}},{"attributes":{"OBJECTID":1039,"ولایت":"لغمان","Province":"LAGHMAN","PC_Code":"0701005","ولسوالي":"مهترلام","District":"MEHTARLAM","د_مرکز_نوم__نام_مرکز":"د ګمین دکلي جومات اوښوونځی","Polling_Center_Name":"Gameen Village Mosque and School","د_مرکز_ځای__موقعیت_مرکز":"ګمین","Polling_Center_Location":"Gameen","Verification_Note":"Building","PS_Male":4,"PS_Female":2,"Map_Accuracy":"تعمیر"},"geometry":{"x":7816570.2188651115,"y":4117924.108642973}},{"attributes":{"OBJECTID":1040,"ولایت":"لغمان","Province":"LAGHMAN","PC_Code":"0702037","ولسوالي":"قرغه یي","District":"QARGHAYEE","د_مرکز_نوم__نام_مرکز":"د پاچا کلا جومات ","Polling_Center_Name":"Pacha Kala Mosque","د_مرکز_ځای__موقعیت_مرکز":"پاچا کلا","Polling_Center_Location":"Pacha Kala","Verification_Note":"Village","PS_Male":2,"PS_Female":1,"Map_Accuracy":"قریه"},"geometry":{"x":7825142.4764411971,"y":4098977.4822631106}},{"attributes":{"OBJECTID":1041,"ولایت":"لغمان","Province":"LAGHMAN","PC_Code":"0702038","ولسوالي":"قرغه یي","District":"QARGHAYEE","د_مرکز_نوم__نام_مرکز":"دصواتي ښونځي","Polling_Center_Name":"Swati School","د_مرکز_ځای__موقعیت_مرکز":"صواتی","Polling_Center_Location":"Swati","Verification_Note":"Building","PS_Male":2,"PS_Female":1,"Map_Accuracy":"تعمیر"},"geometry":{"x":7822114.31912484,"y":4100489.3846216872}},{"attributes":{"OBJECTID":1042,"ولایت":"لغمان","Province":"LAGHMAN","PC_Code":"0702041","ولسوالي":"قرغه یي","District":"QARGHAYEE","د_مرکز_نوم__نام_مرکز":" د مندروړ لېسه اولمړنۍ ښوونځی","Polling_Center_Name":"Mandaror High School and Primary Lomlany School","د_مرکز_ځای__موقعیت_مرکز":"مندروړ","Polling_Center_Location":"Mandaror","Verification_Note":"Building","PS_Male":2,"PS_Female":1,"Map_Accuracy":"تعمیر"},"geometry":{"x":7815970.0376041159,"y":4102717.9998297095}},{"attributes":{"OBJECTID":1043,"ولایت":"لغمان","Province":"LAGHMAN","PC_Code":"0702042","ولسوالي":"قرغه یي","District":"QARGHAYEE","د_مرکز_نوم__نام_مرکز":" د فرمانخېلو د کلي جومات","Polling_Center_Name":"Farman Khel Village Mosque and Hojra","د_مرکز_ځای__موقعیت_مرکز":"فرمانخیل","Polling_Center_Location":"Farmankhel","Verification_Note":"Building","PS_Male":3,"PS_Female":1,"Map_Accuracy":"تعمیر"},"geometry":{"x":7816092.9599254355,"y":4101056.1500469297}},{"attributes":{"OBJECTID":1044,"ولایت":"لغمان","Province":"LAGHMAN","PC_Code":"0702047","ولسوالي":"قرغه یي","District":"QARGHAYEE","د_مرکز_نوم__نام_مرکز":"دکمالپورجامع جومات اوښوونځی","Polling_Center_Name":"Kamalpoor Jaame Mosque","د_مرکز_ځای__موقعیت_مرکز":"کمالپور","Polling_Center_Location":"Kamalpoor","Verification_Note":"Village","PS_Male":2,"PS_Female":1,"Map_Accuracy":"قریه"},"geometry":{"x":7819938.4438675046,"y":4099659.8860329464}},{"attributes":{"OBJECTID":1045,"ولایت":"لغمان","Province":"LAGHMAN","PC_Code":"0702048","ولسوالي":"قرغه یي","District":"QARGHAYEE","د_مرکز_نوم__نام_مرکز":"دبلوچ آباد جومات اودملک بريالي حجره","Polling_Center_Name":"Baloch Abad Mosque","د_مرکز_ځای__موقعیت_مرکز":"بلوچ آباد","Polling_Center_Location":"Baloch Abad","Verification_Note":"Village","PS_Male":2,"PS_Female":1,"Map_Accuracy":"قریه"},"geometry":{"x":7818360.3197666891,"y":4100576.1452391446}},{"attributes":{"OBJECTID":1046,"ولایت":"لغمان","Province":"LAGHMAN","PC_Code":"0704059","ولسوالي":"علینګار","District":"ALINGAR","د_مرکز_نوم__نام_مرکز":"دسالاب سفلا ښوونځی","Polling_Center_Name":"Salab Sufla School","د_مرکز_ځای__موقعیت_مرکز":"سالاب","Polling_Center_Location":"Salab","Verification_Note":"Building","PS_Male":1,"PS_Female":1,"Map_Accuracy":"تعمیر"},"geometry":{"x":7825355.2202332392,"y":4143358.4605593011}},{"attributes":{"OBJECTID":1047,"ولایت":"لغمان","Province":"LAGHMAN","PC_Code":"0704060","ولسوالي":"علینګار","District":"ALINGAR","د_مرکز_نوم__نام_مرکز":"دسالاب سفلادصاحبزادګانو جومات","Polling_Center_Name":"Salab Sufla Sahibzadagan Mosque","د_مرکز_ځای__موقعیت_مرکز":"سالاب","Polling_Center_Location":"Salab","Verification_Note":"Building","PS_Male":2,"PS_Female":1,"Map_Accuracy":"تعمیر"},"geometry":{"x":7825364.7335969321,"y":4143396.3940003663}},{"attributes":{"OBJECTID":1048,"ولایت":"لغمان","Province":"LAGHMAN","PC_Code":"0705120","ولسوالي":"دولت شاه","District":"DAWLAT SHAH","د_مرکز_نوم__نام_مرکز":"ویس جومات","Polling_Center_Name":"Wais Mosque","د_مرکز_ځای__موقعیت_مرکز":"ویس سيمه دولت شاه","Polling_Center_Location":"Wais Sema Dawlat Shah","Verification_Note":"Building","PS_Male":1,"PS_Female":2,"Map_Accuracy":"تعمیر"},"geometry":{"x":7798965.4165428467,"y":4158869.046691604}},{"attributes":{"OBJECTID":1049,"ولایت":"لغمان","Province":"LAGHMAN","PC_Code":"0705124","ولسوالي":"دولت شاه","District":"DAWLAT SHAH","د_مرکز_نوم__نام_مرکز":"چاشدار مکتب","Polling_Center_Name":"Chashdar School","د_مرکز_ځای__موقعیت_مرکز":"چاشدار","Polling_Center_Location":"Chashdar","Verification_Note":"Village","PS_Male":2,"PS_Female":1,"Map_Accuracy":"قریه"},"geometry":{"x":7786116.7094084546,"y":4170363.3952088952}},{"attributes":{"OBJECTID":1050,"ولایت":"لغمان","Province":"LAGHMAN","PC_Code":"0705125","ولسوالي":"دولت شاه","District":"DAWLAT SHAH","د_مرکز_نوم__نام_مرکز":"نيو بالادي مکتب","Polling_Center_Name":"New Balady School","د_مرکز_ځای__موقعیت_مرکز":"نیو بالادی","Polling_Center_Location":"New Balady","Verification_Note":"Building","PS_Male":1,"PS_Female":1,"Map_Accuracy":"تعمیر"},"geometry":{"x":7801538.3539523,"y":4165353.3825723976}},{"attributes":{"OBJECTID":1051,"ولایت":"لغمان","Province":"LAGHMAN","PC_Code":"0706027","ولسوالي":"بادپښ","District":"BADPAKH","د_مرکز_نوم__نام_مرکز":"داخونزادګانو دکلي جومات","Polling_Center_Name":"Akhunzada Village Mosque","د_مرکز_ځای__موقعیت_مرکز":"مهترلام","Polling_Center_Location":"Meterlam","Verification_Note":"Building","PS_Male":1,"PS_Female":1,"Map_Accuracy":"تعمیر"},"geometry":{"x":7780228.37087797,"y":4118808.2532902882}},{"attributes":{"OBJECTID":1052,"ولایت":"لغمان","Province":"LAGHMAN","PC_Code":"0704133","ولسوالي":"علینگار","District":"ALINGAR","د_مرکز_نوم__نام_مرکز":" مکتب","Polling_Center_Name":"School","د_مرکز_ځای__موقعیت_مرکز":"سلینگار","Polling_Center_Location":"Salingar","Verification_Note":"Building","PS_Male":2,"PS_Female":1,"Map_Accuracy":"تعمیر"},"geometry":{"x":7823865.1573080532,"y":4125690.3846320882}},{"attributes":{"OBJECTID":1053,"ولایت":"لغمان","Province":"LAGHMAN","PC_Code":"0701010","ولسوالي":"مهترلام","District":"MEHTARLAM","د_مرکز_نوم__نام_مرکز":"د شمټيو جومات","Polling_Center_Name":"Shamatyo Mosque","د_مرکز_ځای__موقعیت_مرکز":"شمټی","Polling_Center_Location":"Shamtay","Verification_Note":"Building","PS_Male":2,"PS_Female":2,"Map_Accuracy":"تعمیر"},"geometry":{"x":7819570.3270093761,"y":4118594.4504841194}},{"attributes":{"OBJECTID":1054,"ولایت":"لغمان","Province":"LAGHMAN","PC_Code":"0701019","ولسوالي":"مهترلام","District":"MEHTARLAM","د_مرکز_نوم__نام_مرکز":"دعلي خېلو ښوونځی","Polling_Center_Name":"AliKhel School","د_مرکز_ځای__موقعیت_مرکز":"علی خیل","Polling_Center_Location":"AliKhel","Verification_Note":"Building","PS_Male":2,"PS_Female":1,"Map_Accuracy":"تعمیر"},"geometry":{"x":7814623.1396704055,"y":4120347.7213440984}},{"attributes":{"OBJECTID":1055,"ولایت":"لغمان","Province":"LAGHMAN","PC_Code":"0701020","ولسوالي":"مهترلام","District":"MEHTARLAM","د_مرکز_نوم__نام_مرکز":"دعليشنګ دکلي ښوونځی","Polling_Center_Name":"Alishang Village School","د_مرکز_ځای__موقعیت_مرکز":"د علیشنګ کلی","Polling_Center_Location":"Alishang Village","Verification_Note":"Building","PS_Male":3,"PS_Female":2,"Map_Accuracy":"تعمیر"},"geometry":{"x":7809920.9687570632,"y":4124003.6177203134}},{"attributes":{"OBJECTID":1056,"ولایت":"لغمان","Province":"LAGHMAN","PC_Code":"0701025","ولسوالي":"مهترلام","District":"MEHTARLAM","د_مرکز_نوم__نام_مرکز":"د شېرګړ ښوونځی","Polling_Center_Name":"Sher garh School","د_مرکز_ځای__موقعیت_مرکز":"شیرګړ","Polling_Center_Location":"Sher garh","Verification_Note":"Building","PS_Male":3,"PS_Female":1,"Map_Accuracy":"تعمیر"},"geometry":{"x":7810909.90884937,"y":4118103.306915842}},{"attributes":{"OBJECTID":1057,"ولایت":"لغمان","Province":"LAGHMAN","PC_Code":"0701026","ولسوالي":"مهترلام","District":"MEHTARLAM","د_مرکز_نوم__نام_مرکز":"د ده زيارت ښوونځی","Polling_Center_Name":"Deh Ziarat School","د_مرکز_ځای__موقعیت_مرکز":"ده زیارت","Polling_Center_Location":"Deh Ziarat","Verification_Note":"Village","PS_Male":2,"PS_Female":1,"Map_Accuracy":"قریه"},"geometry":{"x":7813580.4166793078,"y":4114884.8327546343}},{"attributes":{"OBJECTID":1058,"ولایت":"لغمان","Province":"LAGHMAN","PC_Code":"0701031","ولسوالي":"مهترلام","District":"MEHTARLAM","د_مرکز_نوم__نام_مرکز":"کتب زی مکتب","Polling_Center_Name":"Kutubzai School","د_مرکز_ځای__موقعیت_مرکز":"کتب زی","Polling_Center_Location":"Kutubzai","Verification_Note":"Building","PS_Male":1,"PS_Female":1,"Map_Accuracy":"تعمیر"},"geometry":{"x":7812068.4419595078,"y":4121351.1928429231}},{"attributes":{"OBJECTID":1059,"ولایت":"لغمان","Province":"LAGHMAN","PC_Code":"0701032","ولسوالي":"مهترلام","District":"MEHTARLAM","د_مرکز_نوم__نام_مرکز":"د مهاجرينو کمپ ښوونځی","Polling_Center_Name":"Refugees Camp School","د_مرکز_ځای__موقعیت_مرکز":"د مهاجرينو کمپ","Polling_Center_Location":"Refugees Camp","Verification_Note":"Village","PS_Male":1,"PS_Female":1,"Map_Accuracy":"قریه"},"geometry":{"x":7812596.9768830389,"y":4112148.774699457}},{"attributes":{"OBJECTID":1060,"ولایت":"لغمان","Province":"LAGHMAN","PC_Code":"0702034","ولسوالي":"قرغه یي","District":"QARGHAYEE","د_مرکز_نوم__نام_مرکز":"دسلطان ويس بابا ښونځي","Polling_Center_Name":"Sultan Wais Baba School","د_مرکز_ځای__موقعیت_مرکز":"قلعټک","Polling_Center_Location":"Qalhatak","Verification_Note":"Building","PS_Male":2,"PS_Female":1,"Map_Accuracy":"تعمیر"},"geometry":{"x":7822672.7856330611,"y":4102510.7121626213}},{"attributes":{"OBJECTID":1061,"ولایت":"لغمان","Province":"LAGHMAN","PC_Code":"0703087","ولسوالي":"علیشنګ","District":"ALISHING","د_مرکز_نوم__نام_مرکز":"دترنګ ښوونځی","Polling_Center_Name":"Tarang School","د_مرکز_ځای__موقعیت_مرکز":"ترنګ","Polling_Center_Location":"Trang","Verification_Note":"Building","PS_Male":2,"PS_Female":1,"Map_Accuracy":"تعمیر"},"geometry":{"x":7805223.8907104209,"y":4130023.041553095}},{"attributes":{"OBJECTID":1062,"ولایت":"لغمان","Province":"LAGHMAN","PC_Code":"0703088","ولسوالي":"علیشنګ","District":"ALISHING","د_مرکز_نوم__نام_مرکز":"د مياعبدالکريم لېسۀ ","Polling_Center_Name":"Mia Abdul karim High School","د_مرکز_ځای__موقعیت_مرکز":"د ولسوالی مرکز","Polling_Center_Location":"Distirct Compound","Verification_Note":"Building","PS_Male":3,"PS_Female":2,"Map_Accuracy":"تعمیر"},"geometry":{"x":7804128.5302981064,"y":4134854.3110972717}},{"attributes":{"OBJECTID":1063,"ولایت":"لغمان","Province":"LAGHMAN","PC_Code":"0703098","ولسوالي":"علیشنګ","District":"ALISHING","د_مرکز_نوم__نام_مرکز":"د سالاب ښوونځی ","Polling_Center_Name":"Salab School","د_مرکز_ځای__موقعیت_مرکز":"سالاب علیا ښوونځی","Polling_Center_Location":"Salab Ulya School","Verification_Note":"Village","PS_Male":2,"PS_Female":1,"Map_Accuracy":"قریه"},"geometry":{"x":7800060.653390523,"y":4131746.6843305975}},{"attributes":{"OBJECTID":1064,"ولایت":"لغمان","Province":"LAGHMAN","PC_Code":"0703099","ولسوالي":"علیشنګ","District":"ALISHING","د_مرکز_نوم__نام_مرکز":"ډوميه جومات ","Polling_Center_Name":"Domya Village Mosque","د_مرکز_ځای__موقعیت_مرکز":"ډومیه کلی","Polling_Center_Location":"Domya Village","Verification_Note":"Building","PS_Male":1,"PS_Female":1,"Map_Accuracy":"تعمیر"},"geometry":{"x":7797102.9479535,"y":4135882.0659584329}},{"attributes":{"OBJECTID":1065,"ولایت":"لغمان","Province":"LAGHMAN","PC_Code":"0703102","ولسوالي":"علیشنګ","District":"ALISHING","د_مرکز_نوم__نام_مرکز":"د نورام پايان د کلي جومات ","Polling_Center_Name":"Noram Payan Village Mosque","د_مرکز_ځای__موقعیت_مرکز":"نورام پایان","Polling_Center_Location":"Noram Payan","Verification_Note":"Building","PS_Male":1,"PS_Female":1,"Map_Accuracy":"تعمیر"},"geometry":{"x":7803172.3760222271,"y":4138273.8493545055}},{"attributes":{"OBJECTID":1066,"ولایت":"لغمان","Province":"LAGHMAN","PC_Code":"0703103","ولسوالي":"علیشنګ","District":"ALISHING","د_مرکز_نوم__نام_مرکز":"د ماسمود د کلي جومات ","Polling_Center_Name":"Masmod Village Mosque ","د_مرکز_ځای__موقعیت_مرکز":"ماسمود","Polling_Center_Location":"Masmod","Verification_Note":"Building","PS_Male":2,"PS_Female":1,"Map_Accuracy":"تعمیر"},"geometry":{"x":7808456.2781041712,"y":4143285.2771219164}},{"attributes":{"OBJECTID":1067,"ولایت":"لغمان","Province":"LAGHMAN","PC_Code":"0704065","ولسوالي":"علینګار","District":"ALINGAR","د_مرکز_نوم__نام_مرکز":"د قصبې دکلي جومات ","Polling_Center_Name":"Qasaba Village Mosque","د_مرکز_ځای__موقعیت_مرکز":"قصبه","Polling_Center_Location":"Qasaba","Verification_Note":"Building","PS_Male":2,"PS_Female":2,"Map_Accuracy":"تعمیر"},"geometry":{"x":7824556.3069644943,"y":4127054.1513927132}},{"attributes":{"OBJECTID":1068,"ولایت":"لغمان","Province":"LAGHMAN","PC_Code":"0704066","ولسوالي":"علینګار","District":"ALINGAR","د_مرکز_نوم__نام_مرکز":"د قلعټک ښوونځی ","Polling_Center_Name":"Qalatak School","د_مرکز_ځای__موقعیت_مرکز":"قلعټک نیازی","Polling_Center_Location":"Qalatak Niazai","Verification_Note":"Building","PS_Male":2,"PS_Female":1,"Map_Accuracy":"تعمیر"},"geometry":{"x":7826658.9172989689,"y":4130040.6287632585}},{"attributes":{"OBJECTID":1069,"ولایت":"لغمان","Province":"LAGHMAN","PC_Code":"0704083","ولسوالي":"علینګار","District":"ALINGAR","د_مرکز_نوم__نام_مرکز":"دتګ ښوونځی","Polling_Center_Name":"Tag School","د_مرکز_ځای__موقعیت_مرکز":"د تګ کلی","Polling_Center_Location":"Taki village","Verification_Note":"Village","PS_Male":1,"PS_Female":1,"Map_Accuracy":"قریه"},"geometry":{"x":7826407.6747742184,"y":4149681.2720967755}},{"attributes":{"OBJECTID":1070,"ولایت":"لغمان","Province":"LAGHMAN","PC_Code":"0705113","ولسوالي":"دولت شاه","District":"DAWLAT SHAH","د_مرکز_نوم__نام_مرکز":"د کاراک جومات ","Polling_Center_Name":"Kark Mosque","د_مرکز_ځای__موقعیت_مرکز":"کاراک","Polling_Center_Location":"Kark","Verification_Note":"Village","PS_Male":1,"PS_Female":2,"Map_Accuracy":"قریه"},"geometry":{"x":7787497.1868665591,"y":4167780.4450321123}},{"attributes":{"OBJECTID":1071,"ولایت":"لغمان","Province":"LAGHMAN","PC_Code":"0705114","ولسوالي":"دولت شاه","District":"DAWLAT SHAH","د_مرکز_نوم__نام_مرکز":"د پیتک جومات ","Polling_Center_Name":"Petak Mosque","د_مرکز_ځای__موقعیت_مرکز":"پیتک","Polling_Center_Location":"Petak","Verification_Note":"Building","PS_Male":2,"PS_Female":1,"Map_Accuracy":"تعمیر"},"geometry":{"x":7785309.6564585343,"y":4167159.5708672926}},{"attributes":{"OBJECTID":1072,"ولایت":"لغمان","Province":"LAGHMAN","PC_Code":"0701021","ولسوالي":"مهترلام","District":"MEHTARLAM","د_مرکز_نوم__نام_مرکز":"د کرنج دکلي جومات","Polling_Center_Name":"Karanj Village Mosque","د_مرکز_ځای__موقعیت_مرکز":"د کرنج کلی ","Polling_Center_Location":"Karanj Village","Verification_Note":"Village","PS_Male":1,"PS_Female":1,"Map_Accuracy":"قریه"},"geometry":{"x":7812948.4648356363,"y":4131476.6166088358}},{"attributes":{"OBJECTID":1073,"ولایت":"لغمان","Province":"LAGHMAN","PC_Code":"0701022","ولسوالي":"مهترلام","District":"MEHTARLAM","د_مرکز_نوم__نام_مرکز":"دسلطان خېلو دکلي جومات","Polling_Center_Name":"Sultankhelo Village Mosque","د_مرکز_ځای__موقعیت_مرکز":"سلطان کلی","Polling_Center_Location":"Sultan Village","Verification_Note":"Building","PS_Male":1,"PS_Female":1,"Map_Accuracy":"تعمیر"},"geometry":{"x":7809079.9199478589,"y":4122312.3090738654}},{"attributes":{"OBJECTID":1074,"ولایت":"لغمان","Province":"LAGHMAN","PC_Code":"0702049","ولسوالي":"قرغه یي","District":"QARGHAYEE","د_مرکز_نوم__نام_مرکز":"دغونډۍعبدالرحيمزیو جامع جومات اودکلي حجره","Polling_Center_Name":"Ghondai Abdul Rahimzayo Mosque","د_مرکز_ځای__موقعیت_مرکز":"عبدالرحیمزی","Polling_Center_Location":"Abdul Rahimzai","Verification_Note":"Building","PS_Male":3,"PS_Female":2,"Map_Accuracy":"تعمیر"},"geometry":{"x":7817877.3879857548,"y":4097538.072131224}},{"attributes":{"OBJECTID":1075,"ولایت":"لغمان","Province":"LAGHMAN","PC_Code":"0702050","ولسوالي":"قرغه یي","District":"QARGHAYEE","د_مرکز_نوم__نام_مرکز":"ددړه غرښوونځی","Polling_Center_Name":"Dara Ghar School","د_مرکز_ځای__موقعیت_مرکز":"دړه غر","Polling_Center_Location":"Dara Ghar","Verification_Note":"Building","PS_Male":2,"PS_Female":1,"Map_Accuracy":"تعمیر"},"geometry":{"x":7822005.1948544048,"y":4096941.325980857}},{"attributes":{"OBJECTID":1076,"ولایت":"لغمان","Province":"LAGHMAN","PC_Code":"0702051","ولسوالي":"قرغه یي","District":"QARGHAYEE","د_مرکز_نوم__نام_مرکز":"د ګمبېري د احمدزيو د کوچيانو جومات ","Polling_Center_Name":"Gambiri Ahmadzayo Kuchano Mosque","د_مرکز_ځای__موقعیت_مرکز":"احمدزیو کلی","Polling_Center_Location":"Ahmadzai Village","Verification_Note":"Village","PS_Male":1,"PS_Female":2,"Map_Accuracy":"قریه"},"geometry":{"x":7829588.8507494256,"y":4099959.1967351958}},{"attributes":{"OBJECTID":1077,"ولایت":"لغمان","Province":"LAGHMAN","PC_Code":"0702052","ولسوالي":"قرغه یي","District":"QARGHAYEE","د_مرکز_نوم__نام_مرکز":"د کندي کلي د NSP تعمير","Polling_Center_Name":"Kandi Village NSP Building","د_مرکز_ځای__موقعیت_مرکز":"کندی","Polling_Center_Location":"Kandi","Verification_Note":"Village","PS_Male":2,"PS_Female":1,"Map_Accuracy":"قریه"},"geometry":{"x":7816039.5588525049,"y":4106077.7735845}},{"attributes":{"OBJECTID":1078,"ولایت":"لغمان","Province":"LAGHMAN","PC_Code":"0703094","ولسوالي":"علیشنګ","District":"ALISHING","د_مرکز_نوم__نام_مرکز":"دپرمه وال دکلي جومات او حجره","Polling_Center_Name":"Parmawal Village Mosque","د_مرکز_ځای__موقعیت_مرکز":"عليشنګ","Polling_Center_Location":"Alishang","Verification_Note":"Village","PS_Male":2,"PS_Female":1,"Map_Accuracy":"قریه"},"geometry":{"x":7804247.3561734855,"y":4134436.7475555316}},{"attributes":{"OBJECTID":1079,"ولایت":"لغمان","Province":"LAGHMAN","PC_Code":"0703095","ولسوالي":"علیشنګ","District":"ALISHING","د_مرکز_نوم__نام_مرکز":"دبارکزايو دهلکانو او نجونوښوونځي","Polling_Center_Name":"Barakzai Boys & Girls School","د_مرکز_ځای__موقعیت_مرکز":"بارکزی","Polling_Center_Location":"Barakzai","Verification_Note":"Building","PS_Male":3,"PS_Female":1,"Map_Accuracy":"تعمیر"},"geometry":{"x":7807067.6286822408,"y":4125780.9401938841}},{"attributes":{"OBJECTID":1080,"ولایت":"لغمان","Province":"LAGHMAN","PC_Code":"0703105","ولسوالي":"علیشنګ","District":"ALISHING","د_مرکز_نوم__نام_مرکز":"د اړیني د کوچيانو جومات ","Polling_Center_Name":"Areenai Kochi Village Mosque","د_مرکز_ځای__موقعیت_مرکز":"اړینه","Polling_Center_Location":"Areenai","Verification_Note":"Building","PS_Male":1,"PS_Female":1,"Map_Accuracy":"تعمیر"},"geometry":{"x":7806916.777413886,"y":4132725.1587091833}},{"attributes":{"OBJECTID":1081,"ولایت":"لغمان","Province":"LAGHMAN","PC_Code":"0704062","ولسوالي":"علینګار","District":"ALINGAR","د_مرکز_نوم__نام_مرکز":"دانجنیرشېرمحمد لېسه اودنجونوښوونځی","Polling_Center_Name":"Engineer Sher Mohammad High School and Girls School","د_مرکز_ځای__موقعیت_مرکز":"علينګار مرکز","Polling_Center_Location":"Alingar Center","Verification_Note":"Building","PS_Male":3,"PS_Female":2,"Map_Accuracy":"تعمیر"},"geometry":{"x":7832905.2064350806,"y":4141104.9069478288}},{"attributes":{"OBJECTID":1082,"ولایت":"لغمان","Province":"LAGHMAN","PC_Code":"0705121","ولسوالي":"دولت شاه","District":"DAWLAT SHAH","د_مرکز_نوم__نام_مرکز":"د موړانایوا د کلی جومات ","Polling_Center_Name":"Mor Anaywa Village Mosque","د_مرکز_ځای__موقعیت_مرکز":"ویس سيمه دولت شاه","Polling_Center_Location":"Wais Sema Dawlat Shah","Verification_Note":"Village","PS_Male":1,"PS_Female":1,"Map_Accuracy":"قریه"},"geometry":{"x":7798850.85765487,"y":4158481.2342411429}},{"attributes":{"OBJECTID":1083,"ولایت":"لغمان","Province":"LAGHMAN","PC_Code":"0705122","ولسوالي":"دولت شاه","District":"DAWLAT SHAH","د_مرکز_نوم__نام_مرکز":"د بالا ده د کلي جومات ","Polling_Center_Name":"Baladeh Village Mosque","د_مرکز_ځای__موقعیت_مرکز":"بالا ده ","Polling_Center_Location":"Dah Bala ","Verification_Note":"Village","PS_Male":1,"PS_Female":1,"Map_Accuracy":"قریه"},"geometry":{"x":7785636.47601198,"y":4167375.5835681856}},{"attributes":{"OBJECTID":1084,"ولایت":"پنجشیر","Province":"PANJSHIR","PC_Code":"0801007","ولسوالي":" بازارک","District":"BAZARAK","د_مرکز_نوم__نام_مرکز":"مسجد جامع منجهور","Polling_Center_Name":"Manjhor Mosque","د_مرکز_ځای__موقعیت_مرکز":"منجهور","Polling_Center_Location":"Manjhor","Verification_Note":"Building","PS_Male":1,"PS_Female":1,"Map_Accuracy":"تعمیر"},"geometry":{"x":7742916.88782461,"y":4205421.4894483164}},{"attributes":{"OBJECTID":1085,"ولایت":"پنجشیر","Province":"PANJSHIR","PC_Code":"0801008","ولسوالي":" بازارک","District":"BAZARAK","د_مرکز_نوم__نام_مرکز":"مسجد داخل قریه منجهور","Polling_Center_Name":"Manjhor Village  Mosque","د_مرکز_ځای__موقعیت_مرکز":"منجهور","Polling_Center_Location":"Manjhor","Verification_Note":"Building","PS_Male":1,"PS_Female":1,"Map_Accuracy":"تعمیر"},"geometry":{"x":7742916.88782461,"y":4205421.4894483164}},{"attributes":{"OBJECTID":1086,"ولایت":"پنجشیر","Province":"PANJSHIR","PC_Code":"0803043","ولسوالي":"دره","District":"DARAH","د_مرکز_نوم__نام_مرکز":"لیسه ذکورکرامان","Polling_Center_Name":"Kraman Boys School","د_مرکز_ځای__موقعیت_مرکز":"کرامان ","Polling_Center_Location":"Kraman","Verification_Note":"Building","PS_Male":2,"PS_Female":1,"Map_Accuracy":"تعمیر"},"geometry":{"x":7754054.7479689009,"y":4203771.3867853135}},{"attributes":{"OBJECTID":1087,"ولایت":"پنجشیر","Province":"PANJSHIR","PC_Code":"0803044","ولسوالي":"دره","District":"DARAH","د_مرکز_نوم__نام_مرکز":"لیسه نسوان کرامان","Polling_Center_Name":"Kraman Girls School","د_مرکز_ځای__موقعیت_مرکز":"کرامان ","Polling_Center_Location":"Kraman","Verification_Note":"Building","PS_Male":2,"PS_Female":2,"Map_Accuracy":"تعمیر"},"geometry":{"x":7753845.64766378,"y":4204166.4663790688}},{"attributes":{"OBJECTID":1088,"ولایت":"پنجشیر","Province":"PANJSHIR","PC_Code":"0804009","ولسوالي":"حصه اول خنج","District":"HISSA-E-AWAL KHINJ","د_مرکز_نوم__نام_مرکز":"مدرسه خنج","Polling_Center_Name":"Khanj Madrassa","د_مرکز_ځای__موقعیت_مرکز":"مرکز خنج","Polling_Center_Location":"Markaz Khanj","Verification_Note":"Building","PS_Male":3,"PS_Female":1,"Map_Accuracy":"تعمیر"},"geometry":{"x":7761647.5431941189,"y":4221816.8375040516}},{"attributes":{"OBJECTID":1089,"ولایت":"پنجشیر","Province":"PANJSHIR","PC_Code":"0804010","ولسوالي":"حصه اول خنج","District":"HISSA-E-AWAL KHINJ","د_مرکز_نوم__نام_مرکز":"لیسه سفید چهر","Polling_Center_Name":"Safid Cheher High School","د_مرکز_ځای__موقعیت_مرکز":"سفید چهر ","Polling_Center_Location":"Safid Cheher ","Verification_Note":"Village","PS_Male":2,"PS_Female":1,"Map_Accuracy":"قریه"},"geometry":{"x":7765627.4676852226,"y":4225795.5192360356}},{"attributes":{"OBJECTID":1090,"ولایت":"پنجشیر","Province":"PANJSHIR","PC_Code":"0804012","ولسوالي":"حصه اول خنج","District":"HISSA-E-AWAL KHINJ","د_مرکز_نوم__نام_مرکز":"مسجد شابه ","Polling_Center_Name":"Shaba Mosque","د_مرکز_ځای__موقعیت_مرکز":"عمرز","Polling_Center_Location":"Omarzai","Verification_Note":"Building","PS_Male":2,"PS_Female":1,"Map_Accuracy":"تعمیر"},"geometry":{"x":7753400.2973429412,"y":4216359.3605902568}},{"attributes":{"OBJECTID":1091,"ولایت":"پنجشیر","Province":"PANJSHIR","PC_Code":"0804013","ولسوالي":"حصه اول خنج","District":"HISSA-E-AWAL KHINJ","د_مرکز_نوم__نام_مرکز":"مکتب عمرز","Polling_Center_Name":"Omarz School","د_مرکز_ځای__موقعیت_مرکز":"عمرز","Polling_Center_Location":"Omarz","Verification_Note":"Building","PS_Male":6,"PS_Female":2,"Map_Accuracy":"تعمیر"},"geometry":{"x":7752785.5677376874,"y":4216446.2849009857}},{"attributes":{"OBJECTID":1092,"ولایت":"پنجشیر","Province":"PANJSHIR","PC_Code":"0804015","ولسوالي":"حصه اول خنج","District":"HISSA-E-AWAL KHINJ","د_مرکز_نوم__نام_مرکز":"مدرسه خارو","Polling_Center_Name":"Kharo Madrassa","د_مرکز_ځای__موقعیت_مرکز":"خارو","Polling_Center_Location":"Kharo","Verification_Note":"Building","PS_Male":1,"PS_Female":1,"Map_Accuracy":"تعمیر"},"geometry":{"x":7758759.426910378,"y":4221751.5792679414}},{"attributes":{"OBJECTID":1093,"ولایت":"پنجشیر","Province":"PANJSHIR","PC_Code":"0804016","ولسوالي":"حصه اول خنج","District":"HISSA-E-AWAL KHINJ","د_مرکز_نوم__نام_مرکز":"مسجد درنامه","Polling_Center_Name":"Darnama Mosque","د_مرکز_ځای__موقعیت_مرکز":"درنامه","Polling_Center_Location":"Darnama","Verification_Note":"Village","PS_Male":2,"PS_Female":1,"Map_Accuracy":"قریه"},"geometry":{"x":7774491.3923459314,"y":4232228.3749451414}},{"attributes":{"OBJECTID":1094,"ولایت":"پنجشیر","Province":"PANJSHIR","PC_Code":"0804092","ولسوالي":"حصه اول خنج","District":"HISSA-E-AWAL KHINJ","د_مرکز_نوم__نام_مرکز":"کلینیک دشت ریوت","Polling_Center_Name":"Dasht -e-Rewet Clinic","د_مرکز_ځای__موقعیت_مرکز":"دشت ریوت","Polling_Center_Location":"Dasht-e-Rewet","Verification_Note":"Village","PS_Male":1,"PS_Female":1,"Map_Accuracy":"قریه"},"geometry":{"x":7773625.5738368295,"y":4231316.8197460473}},{"attributes":{"OBJECTID":1095,"ولایت":"پنجشیر","Province":"PANJSHIR","PC_Code":"0805029","ولسوالي":"عنابه","District":"UNABA","د_مرکز_نوم__نام_مرکز":"مکتب متوسط زمانکور","Polling_Center_Name":"Zamankor Secondary School","د_مرکز_ځای__موقعیت_مرکز":"زمانکور","Polling_Center_Location":"Zamankor","Verification_Note":"Building","PS_Male":1,"PS_Female":1,"Map_Accuracy":"تعمیر"},"geometry":{"x":7719536.7546227314,"y":4195260.6444612965}},{"attributes":{"OBJECTID":1096,"ولایت":"پنجشیر","Province":"PANJSHIR","PC_Code":"0807068","ولسوالي":"پریان","District":"PARYAN","د_مرکز_نوم__نام_مرکز":"لیسه کوجان","Polling_Center_Name":"Kojan High School","د_مرکز_ځای__موقعیت_مرکز":"کوجان وجشته ","Polling_Center_Location":"Kojan Wajshta ","Verification_Note":"Building","PS_Male":1,"PS_Female":1,"Map_Accuracy":"تعمیر"},"geometry":{"x":7797760.3084709495,"y":4252071.1494063288}},{"attributes":{"OBJECTID":1097,"ولایت":"پنجشیر","Province":"PANJSHIR","PC_Code":"0807069","ولسوالي":"پریان","District":"PARYAN","د_مرکز_نوم__نام_مرکز":"مسجد جامع قلعه ","Polling_Center_Name":"Qala Mosque ","د_مرکز_ځای__موقعیت_مرکز":"قلعه","Polling_Center_Location":"Qala","Verification_Note":"Village","PS_Male":1,"PS_Female":1,"Map_Accuracy":"قریه"},"geometry":{"x":7792946.6176917292,"y":4248638.6971753091}},{"attributes":{"OBJECTID":1098,"ولایت":"پنجشیر","Province":"PANJSHIR","PC_Code":"0807077","ولسوالي":"پریان","District":"PARYAN","د_مرکز_نوم__نام_مرکز":"مسجد شال کچه","Polling_Center_Name":"Shal Kacha Mosque ","د_مرکز_ځای__موقعیت_مرکز":"شال کچه","Polling_Center_Location":"Shal Kacha","Verification_Note":"Village","PS_Male":1,"PS_Female":1,"Map_Accuracy":"قریه"},"geometry":{"x":7798152.1737839654,"y":4256936.3796986789}},{"attributes":{"OBJECTID":1099,"ولایت":"پنجشیر","Province":"PANJSHIR","PC_Code":"0807078","ولسوالي":"پریان","District":"PARYAN","د_مرکز_نوم__نام_مرکز":"مکتب دوآبی خاواک","Polling_Center_Name":"Du Aabi Khawaak School","د_مرکز_ځای__موقعیت_مرکز":"دوی آبی خاواک","Polling_Center_Location":"Du Aabi Khawaak","Verification_Note":"Village","PS_Male":1,"PS_Female":1,"Map_Accuracy":"قریه"},"geometry":{"x":7781887.7097830847,"y":4241556.0230467767}},{"attributes":{"OBJECTID":1100,"ولایت":"پنجشیر","Province":"PANJSHIR","PC_Code":"0808052","ولسوالي":"آبشار","District":"ABSHAR","د_مرکز_نوم__نام_مرکز":"مکتب نسوان آستانه ","Polling_Center_Name":"Astana Girls School ","د_مرکز_ځای__موقعیت_مرکز":"آستانه ","Polling_Center_Location":"Astana ","Verification_Note":"Village","PS_Male":0,"PS_Female":1,"Map_Accuracy":"قریه"},"geometry":{"x":7780444.2366251387,"y":4202856.0458180979}},{"attributes":{"OBJECTID":1101,"ولایت":"پنجشیر","Province":"PANJSHIR","PC_Code":"0808053","ولسوالي":"آبشار","District":"ABSHAR","د_مرکز_نوم__نام_مرکز":"مکتب ذکور آستانه ","Polling_Center_Name":"Astana Boys School ","د_مرکز_ځای__موقعیت_مرکز":"آستانه کلان ","Polling_Center_Location":"Astana Kalan","Verification_Note":"Village","PS_Male":1,"PS_Female":0,"Map_Accuracy":"قریه"},"geometry":{"x":7775443.5803083554,"y":4196930.8223744482}},{"attributes":{"OBJECTID":1102,"ولایت":"بغلان","Province":"BAGHLAN","PC_Code":"0901001","ولسوالي":"پلخمری","District":"PUL-E-KHUMRI","د_مرکز_نوم__نام_مرکز":"لیسه نسوان حوا","Polling_Center_Name":"Hawa Girls High School","د_مرکز_ځای__موقعیت_مرکز":"ناحیه سوم","Polling_Center_Location":"Third Nahia","Verification_Note":"Building","PS_Male":3,"PS_Female":3,"Map_Accuracy":"تعمیر"},"geometry":{"x":7648839.9412402809,"y":4293789.910674952}},{"attributes":{"OBJECTID":1103,"ولایت":"بغلان","Province":"BAGHLAN","PC_Code":"0901002","ولسوالي":"پلخمری","District":"PUL-E-KHUMRI","د_مرکز_نوم__نام_مرکز":"لیسه حضرت حمزه","Polling_Center_Name":"Hazrat Hamza High School","د_مرکز_ځای__موقعیت_مرکز":"ناحیه سوم","Polling_Center_Location":"Third Nahia","Verification_Note":"Building","PS_Male":2,"PS_Female":2,"Map_Accuracy":"تعمیر"},"geometry":{"x":7647347.5565244742,"y":4296628.13123136}},{"attributes":{"OBJECTID":1104,"ولایت":"پنجشیر","Province":"PANJSHIR","PC_Code":"0801002","ولسوالي":" بازارک","District":"BAZARAK","د_مرکز_نوم__نام_مرکز":"مسجد جامع سنگانه","Polling_Center_Name":"Sangana Mosque","د_مرکز_ځای__موقعیت_مرکز":"سنگانه","Polling_Center_Location":"Sangana","Verification_Note":"Building","PS_Male":1,"PS_Female":1,"Map_Accuracy":"تعمیر"},"geometry":{"x":7746842.2535200827,"y":4211757.5296758637}},{"attributes":{"OBJECTID":1105,"ولایت":"پنجشیر","Province":"PANJSHIR","PC_Code":"0801003","ولسوالي":" بازارک","District":"BAZARAK","د_مرکز_نوم__نام_مرکز":"مسجد جامع ملسپه ","Polling_Center_Name":"Malsapa Mosque","د_مرکز_ځای__موقعیت_مرکز":"ملسپه","Polling_Center_Location":"Malsapa","Verification_Note":"Building","PS_Male":1,"PS_Female":1,"Map_Accuracy":"تعمیر"},"geometry":{"x":7741340.5259113349,"y":4207783.2042273581}},{"attributes":{"OBJECTID":1106,"ولایت":"پنجشیر","Province":"PANJSHIR","PC_Code":"0803056","ولسوالي":"دره","District":"DARAH","د_مرکز_نوم__نام_مرکز":"مکتب نسوان تمبنه","Polling_Center_Name":"Tambina Girls School","د_مرکز_ځای__موقعیت_مرکز":"تمبنه ","Polling_Center_Location":"Tambina","Verification_Note":"Building","PS_Male":1,"PS_Female":1,"Map_Accuracy":"تعمیر"},"geometry":{"x":7752671.0400191732,"y":4207755.5828437582}},{"attributes":{"OBJECTID":1107,"ولایت":"پنجشیر","Province":"PANJSHIR","PC_Code":"0803059","ولسوالي":"دره","District":"DARAH","د_مرکز_نوم__نام_مرکز":"کلینیک تندخو ","Polling_Center_Name":"Tund Kho Clinic","د_مرکز_ځای__موقعیت_مرکز":"تندخو ","Polling_Center_Location":"Tund kho","Verification_Note":"Building","PS_Male":1,"PS_Female":1,"Map_Accuracy":"تعمیر"},"geometry":{"x":7752083.621537786,"y":4200551.1408380941}},{"attributes":{"OBJECTID":1108,"ولایت":"پنجشیر","Province":"PANJSHIR","PC_Code":"0805031","ولسوالي":"عنابه","District":"UNABA","د_مرکز_نوم__نام_مرکز":"لیسه نسوان عنابه ","Polling_Center_Name":"Hanaba Girls School","د_مرکز_ځای__موقعیت_مرکز":"عنابه ","Polling_Center_Location":"Unaba","Verification_Note":"Building","PS_Male":2,"PS_Female":1,"Map_Accuracy":"تعمیر"},"geometry":{"x":7722325.1698309369,"y":4195501.5635197684}},{"attributes":{"OBJECTID":1109,"ولایت":"پنجشیر","Province":"PANJSHIR","PC_Code":"0805032","ولسوالي":"عنابه","District":"UNABA","د_مرکز_نوم__نام_مرکز":"لیسه ذکورفراج","Polling_Center_Name":"Faraj Boys School","د_مرکز_ځای__موقعیت_مرکز":"فراج","Polling_Center_Location":"Faraj","Verification_Note":"Building","PS_Male":3,"PS_Female":0,"Map_Accuracy":"تعمیر"},"geometry":{"x":7721983.1573933959,"y":4192253.1379460245}},{"attributes":{"OBJECTID":1110,"ولایت":"پنجشیر","Province":"PANJSHIR","PC_Code":"0805039","ولسوالي":"عنابه","District":"UNABA","د_مرکز_نوم__نام_مرکز":"مکتب متوسطه شوفه ","Polling_Center_Name":"Shofa Secondary School ","د_مرکز_ځای__موقعیت_مرکز":"شوفه آبدره","Polling_Center_Location":"Shfa-e- Aabdara ","Verification_Note":"Building","PS_Male":1,"PS_Female":1,"Map_Accuracy":"تعمیر"},"geometry":{"x":7731723.9612678178,"y":4193194.1000417024}},{"attributes":{"OBJECTID":1111,"ولایت":"پنجشیر","Province":"PANJSHIR","PC_Code":"0805040","ولسوالي":"عنابه","District":"UNABA","د_مرکز_نوم__نام_مرکز":"مکتب متوسطه ذکور دربند","Polling_Center_Name":"Dar Band  Boys Secondary School ","د_مرکز_ځای__موقعیت_مرکز":"دربند فراج","Polling_Center_Location":"Dar Band Faraj","Verification_Note":"Building","PS_Male":1,"PS_Female":1,"Map_Accuracy":"تعمیر"},"geometry":{"x":7718628.1983347237,"y":4188791.49934195}},{"attributes":{"OBJECTID":1112,"ولایت":"پنجشیر","Province":"PANJSHIR","PC_Code":"0805042","ولسوالي":"عنابه","District":"UNABA","د_مرکز_نوم__نام_مرکز":"چمن قلعچه","Polling_Center_Name":"Chaman Qala","د_مرکز_ځای__موقعیت_مرکز":"قلعچه ","Polling_Center_Location":"Qalaja","Verification_Note":"Building","PS_Male":1,"PS_Female":1,"Map_Accuracy":"تعمیر"},"geometry":{"x":7722710.8940929286,"y":4194435.61423938}},{"attributes":{"OBJECTID":1113,"ولایت":"پنجشیر","Province":"PANJSHIR","PC_Code":"0806084","ولسوالي":"شتل","District":"SHUTUL","د_مرکز_نوم__نام_مرکز":"مسجد ده کلان ","Polling_Center_Name":"Deh Kalan Mosque","د_مرکز_ځای__موقعیت_مرکز":"ده کلان","Polling_Center_Location":"Deh Kalan","Verification_Note":"Village","PS_Male":1,"PS_Female":1,"Map_Accuracy":"قریه"},"geometry":{"x":7711503.1141764633,"y":4190261.1848987117}},{"attributes":{"OBJECTID":1114,"ولایت":"پنجشیر","Province":"PANJSHIR","PC_Code":"0808049","ولسوالي":"آبشار","District":"ABSHAR","د_مرکز_نوم__نام_مرکز":"مسجد جامع ","Polling_Center_Name":"Mosque ","د_مرکز_ځای__موقعیت_مرکز":"سنگی خان ","Polling_Center_Location":"Sangee Khan","Verification_Note":"Village","PS_Male":1,"PS_Female":1,"Map_Accuracy":"قریه"},"geometry":{"x":7761808.861834202,"y":4197847.7771379426}},{"attributes":{"OBJECTID":1115,"ولایت":"پنجشیر","Province":"PANJSHIR","PC_Code":"0808050","ولسوالي":"آبشار","District":"ABSHAR","د_مرکز_نوم__نام_مرکز":"لیسه اناث","Polling_Center_Name":"Girls High  School","د_مرکز_ځای__موقعیت_مرکز":"دوست علی","Polling_Center_Location":"Dost Ali","Verification_Note":"Village","PS_Male":1,"PS_Female":2,"Map_Accuracy":"قریه"},"geometry":{"x":7764200.3262097687,"y":4198057.0359905735}},{"attributes":{"OBJECTID":1116,"ولایت":"پنجشیر","Province":"PANJSHIR","PC_Code":"0803100","ولسوالي":"دره","District":"DARAH","د_مرکز_نوم__نام_مرکز":"مسجد اسکنیاز","Polling_Center_Name":"Askan yar Mosque","د_مرکز_ځای__موقعیت_مرکز":"اسکنیاز","Polling_Center_Location":"Askanyar","Verification_Note":"Building","PS_Male":2,"PS_Female":1,"Map_Accuracy":"تعمیر"},"geometry":{"x":7755968.9974873029,"y":4203865.0254207551}},{"attributes":{"OBJECTID":1117,"ولایت":"پنجشیر","Province":"PANJSHIR","PC_Code":"0803101","ولسوالي":"دره","District":"DARAH","د_مرکز_نوم__نام_مرکز":"مکتب نسوان عبدالله خیل","Polling_Center_Name":"Abdullah khil Female mosque","د_مرکز_ځای__موقعیت_مرکز":"مرجان عبدالله خیل","Polling_Center_Location":"Marjan abdullah khil","Verification_Note":"Building","PS_Male":2,"PS_Female":1,"Map_Accuracy":"تعمیر"},"geometry":{"x":7748594.4522501081,"y":4196705.2180541158}},{"attributes":{"OBJECTID":1118,"ولایت":"پنجشیر","Province":"PANJSHIR","PC_Code":"0807106","ولسوالي":"پریان","District":"PARYAN","د_مرکز_نوم__نام_مرکز":"خیمه","Polling_Center_Name":"Tent","د_مرکز_ځای__موقعیت_مرکز":"قلعه","Polling_Center_Location":"Qala","Verification_Note":"Village","PS_Male":2,"PS_Female":1,"Map_Accuracy":"قریه"},"geometry":{"x":7792942.1348558366,"y":4248527.6858483776}},{"attributes":{"OBJECTID":1119,"ولایت":"پنجشیر","Province":"PANJSHIR","PC_Code":"0807107","ولسوالي":"پریان","District":"PARYAN","د_مرکز_نوم__نام_مرکز":"مسجد چمار","Polling_Center_Name":"Chamar Mosque","د_مرکز_ځای__موقعیت_مرکز":"چمار پائین","Polling_Center_Location":"Chamar paien","Verification_Note":"Village","PS_Male":2,"PS_Female":1,"Map_Accuracy":"قریه"},"geometry":{"x":7803861.6477188617,"y":4259164.0963048562}},{"attributes":{"OBJECTID":1120,"ولایت":"پنجشیر","Province":"PANJSHIR","PC_Code":"0802021","ولسوالي":"رخه","District":"RUKHA","د_مرکز_نوم__نام_مرکز":"مکتب متوسطه دخترانه داکه ","Polling_Center_Name":"Daka Girls Secondary School ","د_مرکز_ځای__موقعیت_مرکز":"داکه ","Polling_Center_Location":"Daka","Verification_Note":"Building","PS_Male":2,"PS_Female":1,"Map_Accuracy":"تعمیر"},"geometry":{"x":7733430.0994434506,"y":4199826.036329329}},{"attributes":{"OBJECTID":1121,"ولایت":"پنجشیر","Province":"PANJSHIR","PC_Code":"0805035","ولسوالي":"عنابه","District":"UNABA","د_مرکز_نوم__نام_مرکز":"مدرسه تاواخ ","Polling_Center_Name":"Madrassa Tawaakh","د_مرکز_ځای__موقعیت_مرکز":"تاواخ","Polling_Center_Location":"Tawaakh","Verification_Note":"Building","PS_Male":2,"PS_Female":1,"Map_Accuracy":"تعمیر"},"geometry":{"x":7725350.1233723462,"y":4197633.65460223}},{"attributes":{"OBJECTID":1122,"ولایت":"پنجشیر","Province":"PANJSHIR","PC_Code":"0805036","ولسوالي":"عنابه","District":"UNABA","د_مرکز_نوم__نام_مرکز":"مدرسه گنه","Polling_Center_Name":"Madrassa Gana ","د_مرکز_ځای__موقعیت_مرکز":"قریه گنه","Polling_Center_Location":"Gana Village ","Verification_Note":"Building","PS_Male":2,"PS_Female":0,"Map_Accuracy":"تعمیر"},"geometry":{"x":7730294.8271734715,"y":4195207.77704566}},{"attributes":{"OBJECTID":1123,"ولایت":"پنجشیر","Province":"PANJSHIR","PC_Code":"0806093","ولسوالي":"شتل","District":"SHUTUL","د_مرکز_نوم__نام_مرکز":"دوآبی مرغی و آروی شتل","Polling_Center_Name":"Du Aabi Murghi and Arwe Shutul","د_مرکز_ځای__موقعیت_مرکز":"دوآبی مر غی و آرزو شتل","Polling_Center_Location":"Du Aabi Murghi and Arzo Shutul","Verification_Note":"Village","PS_Male":1,"PS_Female":1,"Map_Accuracy":"قریه"},"geometry":{"x":7716217.9883135036,"y":4200077.3005102724}},{"attributes":{"OBJECTID":1124,"ولایت":"پنجشیر","Province":"PANJSHIR","PC_Code":"0807072","ولسوالي":"پریان","District":"PARYAN","د_مرکز_نوم__نام_مرکز":"مسجد کوهسور","Polling_Center_Name":"Kohsar Mosque","د_مرکز_ځای__موقعیت_مرکز":"کوهسور","Polling_Center_Location":"Kohsar","Verification_Note":"Village","PS_Male":1,"PS_Female":1,"Map_Accuracy":"قریه"},"geometry":{"x":7791260.8020023219,"y":4246849.0228780806}},{"attributes":{"OBJECTID":1125,"ولایت":"پنجشیر","Province":"PANJSHIR","PC_Code":"0807073","ولسوالي":"پریان","District":"PARYAN","د_مرکز_نوم__نام_مرکز":"مکتب ده خاواک","Polling_Center_Name":"Deh khawak School","د_مرکز_ځای__موقعیت_مرکز":"ده خاواک","Polling_Center_Location":"Deh Khawak","Verification_Note":"Building","PS_Male":1,"PS_Female":1,"Map_Accuracy":"تعمیر"},"geometry":{"x":7782253.313047111,"y":4251797.83676701}},{"attributes":{"OBJECTID":1126,"ولایت":"پنجشیر","Province":"PANJSHIR","PC_Code":"0807083","ولسوالي":"پریان","District":"PARYAN","د_مرکز_نوم__نام_مرکز":"مسجد جامع پس مزار ","Polling_Center_Name":"Pasmazar Mosque ","د_مرکز_ځای__موقعیت_مرکز":"پس مزار ","Polling_Center_Location":"Pasmazar","Verification_Note":"Village","PS_Male":1,"PS_Female":1,"Map_Accuracy":"قریه"},"geometry":{"x":7805121.9387547784,"y":4260027.0622214824}},{"attributes":{"OBJECTID":1127,"ولایت":"پنجشیر","Province":"PANJSHIR","PC_Code":"0807094","ولسوالي":"پریان","District":"PARYAN","د_مرکز_نوم__نام_مرکز":"خیمه قریه چونی ","Polling_Center_Name":"Choni Village Tent ","د_مرکز_ځای__موقعیت_مرکز":"قریه چونی","Polling_Center_Location":"Choni Village","Verification_Note":"Village","PS_Male":1,"PS_Female":1,"Map_Accuracy":"قریه"},"geometry":{"x":7778849.8042189293,"y":4251345.32702639}},{"attributes":{"OBJECTID":1128,"ولایت":"پنجشیر","Province":"PANJSHIR","PC_Code":"0807096","ولسوالي":"پریان","District":"PARYAN","د_مرکز_نوم__نام_مرکز":"چمن بوسی","Polling_Center_Name":"Chaman Bosee ","د_مرکز_ځای__موقعیت_مرکز":"بوسی","Polling_Center_Location":"Bosee","Verification_Note":"Village","PS_Male":1,"PS_Female":1,"Map_Accuracy":"قریه"},"geometry":{"x":7801600.3926384784,"y":4258136.2870437652}},{"attributes":{"OBJECTID":1129,"ولایت":"پنجشیر","Province":"PANJSHIR","PC_Code":"0808063","ولسوالي":"آبشار","District":"ABSHAR","د_مرکز_نوم__نام_مرکز":"مسجد گلاب خیل","Polling_Center_Name":"Gulabkhel Mosque ","د_مرکز_ځای__موقعیت_مرکز":"گلاب خیل ","Polling_Center_Location":"Gulabkhel","Verification_Note":"Village","PS_Male":1,"PS_Female":1,"Map_Accuracy":"قریه"},"geometry":{"x":7777817.1422834061,"y":4199335.968616046}},{"attributes":{"OBJECTID":1130,"ولایت":"پنجشیر","Province":"PANJSHIR","PC_Code":"0808064","ولسوالي":"آبشار","District":"ABSHAR","د_مرکز_نوم__نام_مرکز":"مسجد روبی صلاح","Polling_Center_Name":"Rueebi Salah Mosque","د_مرکز_ځای__موقعیت_مرکز":"پرنگال","Polling_Center_Location":"Parngan","Verification_Note":"Village","PS_Male":1,"PS_Female":1,"Map_Accuracy":"قریه"},"geometry":{"x":7764459.9956199639,"y":4195139.0537353829}},{"attributes":{"OBJECTID":1131,"ولایت":"بغلان","Province":"BAGHLAN","PC_Code":"0901018","ولسوالي":"پلخمری","District":"PUL-E-KHUMRI","د_مرکز_نوم__نام_مرکز":"مسجد  نیاز الله","Polling_Center_Name":"Niazullah Village","د_مرکز_ځای__موقعیت_مرکز":"قریه نیاز الله","Polling_Center_Location":"Niazullah Village","Verification_Note":"Building","PS_Male":1,"PS_Female":1,"Map_Accuracy":"تعمیر"},"geometry":{"x":7643645.11701487,"y":4295737.8466390073}},{"attributes":{"OBJECTID":1132,"ولایت":"بغلان","Province":"BAGHLAN","PC_Code":"0901019","ولسوالي":"پلخمری","District":"PUL-E-KHUMRI","د_مرکز_نوم__نام_مرکز":"مکتب سید جمال الدین افغان چشمه شیر سرک مزار پلجمری","Polling_Center_Name":"Said Jamalluddin Afghan School","د_مرکز_ځای__موقعیت_مرکز":"باغ شمال","Polling_Center_Location":"Bagh Shamal","Verification_Note":"Building","PS_Male":1,"PS_Female":1,"Map_Accuracy":"تعمیر"},"geometry":{"x":7641573.25535015,"y":4299940.5424731895}},{"attributes":{"OBJECTID":1133,"ولایت":"بغلان","Province":"BAGHLAN","PC_Code":"0901031","ولسوالي":"پلخمری","District":"PUL-E-KHUMRI","د_مرکز_نوم__نام_مرکز":"امرخیل جلادخان","Polling_Center_Name":"Omar Khel Jalad Khan","د_مرکز_ځای__موقعیت_مرکز":"امرخیل جلادخان","Polling_Center_Location":"Omar Khil Jalad Khan","Verification_Note":"Building","PS_Male":1,"PS_Female":1,"Map_Accuracy":"تعمیر"},"geometry":{"x":7632622.5215241276,"y":4302933.2063725442}},{"attributes":{"OBJECTID":1134,"ولایت":"بغلان","Province":"BAGHLAN","PC_Code":"0901032","ولسوالي":"پلخمری","District":"PUL-E-KHUMRI","د_مرکز_نوم__نام_مرکز":"کهنه مسجد ","Polling_Center_Name":"Old Mosque","د_مرکز_ځای__موقعیت_مرکز":"مکتب سرخ کوتل","Polling_Center_Location":"Sorkh Kotal Village","Verification_Note":"Building","PS_Male":2,"PS_Female":1,"Map_Accuracy":"تعمیر"},"geometry":{"x":7635566.6159270108,"y":4304414.102581948}},{"attributes":{"OBJECTID":1135,"ولایت":"بغلان","Province":"BAGHLAN","PC_Code":"0901037","ولسوالي":"پلخمری","District":"PUL-E-KHUMRI","د_مرکز_نوم__نام_مرکز":"مکتب عمر خیل بی بی آینه","Polling_Center_Name":"Omarkhel Bebi Aiyana School","د_مرکز_ځای__موقعیت_مرکز":"ناحیه سوم","Polling_Center_Location":"Third Nahia","Verification_Note":"Building","PS_Male":2,"PS_Female":1,"Map_Accuracy":"تعمیر"},"geometry":{"x":7640641.852963049,"y":4311383.5870310664}},{"attributes":{"OBJECTID":1136,"ولایت":"بغلان","Province":"BAGHLAN","PC_Code":"0901038","ولسوالي":"پلخمری","District":"PUL-E-KHUMRI","د_مرکز_نوم__نام_مرکز":"مکتب چشمه شیر","Polling_Center_Name":"Chesma Shir School","د_مرکز_ځای__موقعیت_مرکز":"قریه عیسی بای","Polling_Center_Location":"Eisa Bai Village","Verification_Note":"Building","PS_Male":2,"PS_Female":1,"Map_Accuracy":"تعمیر"},"geometry":{"x":7636224.8347177356,"y":4308226.2628562674}},{"attributes":{"OBJECTID":1137,"ولایت":"بغلان","Province":"BAGHLAN","PC_Code":"0901041","ولسوالي":"پلخمری","District":"PUL-E-KHUMRI","د_مرکز_نوم__نام_مرکز":"مکتب الجهاد مهاجرین","Polling_Center_Name":"Aljehad Muhajreen School","د_مرکز_ځای__موقعیت_مرکز":"قریه هزاردو","Polling_Center_Location":"Hazardo Village","Verification_Note":"Building","PS_Male":2,"PS_Female":1,"Map_Accuracy":"تعمیر"},"geometry":{"x":7633107.63405389,"y":4313131.7810641825}},{"attributes":{"OBJECTID":1138,"ولایت":"بغلان","Province":"BAGHLAN","PC_Code":"0901227","ولسوالي":"پلخمری","District":"PUL-E-KHUMRI","د_مرکز_نوم__نام_مرکز":"مسجد قریه مزار دره","Polling_Center_Name":"Mazar Dara Mosque","د_مرکز_ځای__موقعیت_مرکز":" مکتب مزار دره ","Polling_Center_Location":"Mazar Dara School","Verification_Note":"Building","PS_Male":2,"PS_Female":1,"Map_Accuracy":"تعمیر"},"geometry":{"x":7654832.8872528523,"y":4280519.3621370494}},{"attributes":{"OBJECTID":1139,"ولایت":"بغلان","Province":"BAGHLAN","PC_Code":"0902079","ولسوالي":"دهنه غوری","District":"DAHANA-E-GHURI","د_مرکز_نوم__نام_مرکز":"تندره مسجد جامع بن نقاء","Polling_Center_Name":"Ibn Neqa Mosque","د_مرکز_ځای__موقعیت_مرکز":"تندره","Polling_Center_Location":"Tondara","Verification_Note":"Building","PS_Male":1,"PS_Female":1,"Map_Accuracy":"تعمیر"},"geometry":{"x":7624139.8494214565,"y":4275629.0742018521}},{"attributes":{"OBJECTID":1140,"ولایت":"بغلان","Province":"BAGHLAN","PC_Code":"0902080","ولسوالي":"دهنه غوری","District":"DAHANA-E-GHURI","د_مرکز_نوم__نام_مرکز":"مکتب دشتک علی جم","Polling_Center_Name":"Dasht-e-Ali Jum School","د_مرکز_ځای__موقعیت_مرکز":"دشتک علی جم","Polling_Center_Location":"Ali Jam Desert","Verification_Note":"Building","PS_Male":1,"PS_Female":1,"Map_Accuracy":"تعمیر"},"geometry":{"x":7645386.9186157845,"y":4270348.7360709608}},{"attributes":{"OBJECTID":1141,"ولایت":"بغلان","Province":"BAGHLAN","PC_Code":"0902084","ولسوالي":"دهنه غوری","District":"DAHANA-E-GHURI","د_مرکز_نوم__نام_مرکز":"لیسه پشه قل","Polling_Center_Name":"Pasha Qul High School","د_مرکز_ځای__موقعیت_مرکز":"پشه قل","Polling_Center_Location":"Pasha Qul","Verification_Note":"Building","PS_Male":1,"PS_Female":1,"Map_Accuracy":"تعمیر"},"geometry":{"x":7617805.3162118047,"y":4279337.4678735733}},{"attributes":{"OBJECTID":1142,"ولایت":"بغلان","Province":"BAGHLAN","PC_Code":"0902085","ولسوالي":"دهنه غوری","District":"DAHANA-E-GHURI","د_مرکز_نوم__نام_مرکز":"لیسه عزیزان بابا","Polling_Center_Name":"Azizan Baba High School","د_مرکز_ځای__موقعیت_مرکز":"مرکز ولسوالی دهنه غوری","Polling_Center_Location":"Dahana-e-Ghuri District Capital ","Verification_Note":"Building","PS_Male":1,"PS_Female":1,"Map_Accuracy":"تعمیر"},"geometry":{"x":7624947.22074512,"y":4288557.5043510348}},{"attributes":{"OBJECTID":1143,"ولایت":"بغلان","Province":"BAGHLAN","PC_Code":"0902088","ولسوالي":"دهنه غوری","District":"DAHANA-E-GHURI","د_مرکز_نوم__نام_مرکز":"لیسه کمپیرک بالا","Polling_Center_Name":"Kamperak Bala High School","د_مرکز_ځای__موقعیت_مرکز":"کمپیرک بالا","Polling_Center_Location":"Kaperak Bala","Verification_Note":"Building","PS_Male":1,"PS_Female":1,"Map_Accuracy":"تعمیر"},"geometry":{"x":7635456.9417382926,"y":4262170.7951127887}},{"attributes":{"OBJECTID":1144,"ولایت":"بغلان","Province":"BAGHLAN","PC_Code":"0902089","ولسوالي":"دهنه غوری","District":"DAHANA-E-GHURI","د_مرکز_نوم__نام_مرکز":"شلکتو مسجد آش خواجه","Polling_Center_Name":"Shalkato Mosque","د_مرکز_ځای__موقعیت_مرکز":"آش خواجه","Polling_Center_Location":"Ash Khawaja","Verification_Note":"Building","PS_Male":1,"PS_Female":1,"Map_Accuracy":"تعمیر"},"geometry":{"x":7626976.0696717873,"y":4264278.8315366954}},{"attributes":{"OBJECTID":1145,"ولایت":"بغلان","Province":"BAGHLAN","PC_Code":"0903097","ولسوالي":"دوشی","District":"DUSHI","د_مرکز_نوم__نام_مرکز":"مکتب چهل کپه","Polling_Center_Name":"Chehl Kapa School","د_مرکز_ځای__موقعیت_مرکز":"چهل کپه","Polling_Center_Location":"Chehl Kapa","Verification_Note":"Building","PS_Male":2,"PS_Female":1,"Map_Accuracy":"تعمیر"},"geometry":{"x":7660644.005122371,"y":4276956.4059248492}},{"attributes":{"OBJECTID":1146,"ولایت":"بغلان","Province":"BAGHLAN","PC_Code":"0903098","ولسوالي":"دوشی","District":"DUSHI","د_مرکز_نوم__نام_مرکز":"مکتب کیان ","Polling_Center_Name":"Keyan School","د_مرکز_ځای__موقعیت_مرکز":"مرکز کیان","Polling_Center_Location":"Keyan Center","Verification_Note":"Building","PS_Male":2,"PS_Female":1,"Map_Accuracy":"تعمیر"},"geometry":{"x":7615343.37657981,"y":4249901.5443077311}},{"attributes":{"OBJECTID":1147,"ولایت":"بغلان","Province":"BAGHLAN","PC_Code":"0904133","ولسوالي":"نهرین","District":"NAHREEN","د_مرکز_نوم__نام_مرکز":"مکتب حضرت عباس","Polling_Center_Name":"Hazrat Abas School","د_مرکز_ځای__موقعیت_مرکز":"بره قی","Polling_Center_Location":"Baraqi","Verification_Note":"Building","PS_Male":1,"PS_Female":1,"Map_Accuracy":"تعمیر"},"geometry":{"x":7676822.85374815,"y":4310162.5857653171}},{"attributes":{"OBJECTID":1148,"ولایت":"بغلان","Province":"BAGHLAN","PC_Code":"0904134","ولسوالي":"نهرین","District":"NAHREEN","د_مرکز_نوم__نام_مرکز":"مکتب لکن خیل","Polling_Center_Name":"Lakan Khel School","د_مرکز_ځای__موقعیت_مرکز":"لکن خیل","Polling_Center_Location":"Lakan Khel","Verification_Note":"Building","PS_Male":1,"PS_Female":1,"Map_Accuracy":"تعمیر"},"geometry":{"x":7683348.0026614815,"y":4313769.9911579341}},{"attributes":{"OBJECTID":1149,"ولایت":"بغلان","Province":"BAGHLAN","PC_Code":"0904136","ولسوالي":"نهرین","District":"NAHREEN","د_مرکز_نوم__نام_مرکز":"لیسه خواج خضر ","Polling_Center_Name":"Khwaja Khezr High School","د_مرکز_ځای__موقعیت_مرکز":"خواجه خضر","Polling_Center_Location":"Khwja Khezr","Verification_Note":"Building","PS_Male":1,"PS_Female":1,"Map_Accuracy":"تعمیر"},"geometry":{"x":7690676.0445153527,"y":4299242.508446537}},{"attributes":{"OBJECTID":1150,"ولایت":"بغلان","Province":"BAGHLAN","PC_Code":"0904137","ولسوالي":"نهرین","District":"NAHREEN","د_مرکز_نوم__نام_مرکز":"مکتب دوابی","Polling_Center_Name":"Du Aabi School","د_مرکز_ځای__موقعیت_مرکز":"دو آبی","Polling_Center_Location":"Do Aabi","Verification_Note":"Building","PS_Male":1,"PS_Female":1,"Map_Accuracy":"تعمیر"},"geometry":{"x":7695326.863747593,"y":4302264.6050633118}},{"attributes":{"OBJECTID":1151,"ولایت":"بغلان","Province":"BAGHLAN","PC_Code":"0905045","ولسوالي":"بغلان جدید","District":"BAGLAN-E-JADEED","د_مرکز_نوم__نام_مرکز":"مکتب لیسه حسن تال","Polling_Center_Name":"Hasan Tal High School","د_مرکز_ځای__موقعیت_مرکز":"هوفیانی حسن تال","Polling_Center_Location":"Hoofyani Hassan Tal","Verification_Note":"Building","PS_Male":2,"PS_Female":2,"Map_Accuracy":"تعمیر"},"geometry":{"x":7664630.2748244405,"y":4332948.8947513551}},{"attributes":{"OBJECTID":1152,"ولایت":"بغلان","Province":"BAGHLAN","PC_Code":"0905046","ولسوالي":"بغلان جدید","District":"BAGLAN-E-JADEED","د_مرکز_نوم__نام_مرکز":"لیسه ذکور منگل ها","Polling_Center_Name":"Mangalha Boys High School","د_مرکز_ځای__موقعیت_مرکز":"قریه منگل ها","Polling_Center_Location":"Mangal Ha Village","Verification_Note":"Building","PS_Male":2,"PS_Female":2,"Map_Accuracy":"تعمیر"},"geometry":{"x":7647341.0165043846,"y":4332004.546362929}},{"attributes":{"OBJECTID":1153,"ولایت":"بغلان","Province":"BAGHLAN","PC_Code":"0905051","ولسوالي":"بغلان جدید","District":"BAGLAN-E-JADEED","د_مرکز_نوم__نام_مرکز":"مکتب متوسطه شاهی خیل","Polling_Center_Name":"Shahi khel Secondary School","د_مرکز_ځای__موقعیت_مرکز":"شاهی خیل","Polling_Center_Location":"Shahi Khel","Verification_Note":"Building","PS_Male":2,"PS_Female":2,"Map_Accuracy":"تعمیر"},"geometry":{"x":7653484.3206399828,"y":4335905.6996798068}},{"attributes":{"OBJECTID":1154,"ولایت":"بغلان","Province":"BAGHLAN","PC_Code":"0905052","ولسوالي":"بغلان جدید","District":"BAGLAN-E-JADEED","د_مرکز_نوم__نام_مرکز":"مسجد جامع علاوالدین","Polling_Center_Name":"Allawuddin Mosque","د_مرکز_ځای__موقعیت_مرکز":" قریه شاهی خیل","Polling_Center_Location":"Shahi Khel Village","Verification_Note":"Building","PS_Male":1,"PS_Female":1,"Map_Accuracy":"تعمیر"},"geometry":{"x":7647958.237439841,"y":4337875.1907052547}},{"attributes":{"OBJECTID":1155,"ولایت":"بغلان","Province":"BAGHLAN","PC_Code":"0905055","ولسوالي":"بغلان جدید","District":"BAGLAN-E-JADEED","د_مرکز_نوم__نام_مرکز":"مکتب شیخ جلال","Polling_Center_Name":"Shaikh Jalal School","د_مرکز_ځای__موقعیت_مرکز":"شیخ جلال","Polling_Center_Location":"Shaikh Jalal","Verification_Note":"Building","PS_Male":1,"PS_Female":1,"Map_Accuracy":"تعمیر"},"geometry":{"x":7665381.2572600357,"y":4314621.5654945076}},{"attributes":{"OBJECTID":1156,"ولایت":"بغلان","Province":"BAGHLAN","PC_Code":"0905056","ولسوالي":"بغلان جدید","District":"BAGLAN-E-JADEED","د_مرکز_نوم__نام_مرکز":"مکتب نسوان بغلان جدید","Polling_Center_Name":"Baghlan Jadeed Girls School","د_مرکز_ځای__موقعیت_مرکز":"شهربغلان جدید","Polling_Center_Location":"Shahr-e-Baghlan Jadeed","Verification_Note":"Building","PS_Male":1,"PS_Female":1,"Map_Accuracy":"تعمیر"},"geometry":{"x":7653280.792988576,"y":4324649.5864203125}},{"attributes":{"OBJECTID":1157,"ولایت":"بغلان","Province":"BAGHLAN","PC_Code":"0905064","ولسوالي":"بغلان جدید","District":"BAGLAN-E-JADEED","د_مرکز_نوم__نام_مرکز":"بایسقال","Polling_Center_Name":"Baisqal","د_مرکز_ځای__موقعیت_مرکز":"قریه بایسقال","Polling_Center_Location":"Baisqal Village ","Verification_Note":"Village","PS_Male":1,"PS_Female":1,"Map_Accuracy":"قریه"},"geometry":{"x":7630140.8672103174,"y":4333477.5362902284}},{"attributes":{"OBJECTID":1158,"ولایت":"بغلان","Province":"BAGHLAN","PC_Code":"0905065","ولسوالي":"بغلان جدید","District":"BAGLAN-E-JADEED","د_مرکز_نوم__نام_مرکز":" طرف جپ قصرخیل  قشلاق عرب ها","Polling_Center_Name":"Qeshlaq Arab Ha leftside of Qasarkhel","د_مرکز_ځای__موقعیت_مرکز":"قشلاق عرب ها","Polling_Center_Location":"Qeshlaq Arab Ha","Verification_Note":"Building","PS_Male":1,"PS_Female":1,"Map_Accuracy":"تعمیر"},"geometry":{"x":7647233.4418012612,"y":4327448.3007866517}},{"attributes":{"OBJECTID":1159,"ولایت":"بغلان","Province":"BAGHLAN","PC_Code":"0906116","ولسوالي":"خنجان","District":"KHINJAN","د_مرکز_نوم__نام_مرکز":"مسجد گزان ","Polling_Center_Name":"Gazan Mosque","د_مرکز_ځای__موقعیت_مرکز":"گزان پایان","Polling_Center_Location":"Guzan Payan","Verification_Note":"Building","PS_Male":1,"PS_Female":1,"Map_Accuracy":"تعمیر"},"geometry":{"x":7665341.7577651218,"y":4246339.291142039}},{"attributes":{"OBJECTID":1160,"ولایت":"بغلان","Province":"BAGHLAN","PC_Code":"0906117","ولسوالي":"خنجان","District":"KHINJAN","د_مرکز_نوم__نام_مرکز":"مکتب لیسه  باجگاه","Polling_Center_Name":"Bajgah High School","د_مرکز_ځای__موقعیت_مرکز":"سرتل باجگاه","Polling_Center_Location":"Bajgah Village","Verification_Note":"Building","PS_Male":1,"PS_Female":1,"Map_Accuracy":"تعمیر"},"geometry":{"x":7683393.6458790973,"y":4243762.428818725}},{"attributes":{"OBJECTID":1161,"ولایت":"بغلان","Province":"BAGHLAN","PC_Code":"0906119","ولسوالي":"خنجان","District":"KHINJAN","د_مرکز_نوم__نام_مرکز":"مکتب لیسه ","Polling_Center_Name":"School","د_مرکز_ځای__موقعیت_مرکز":"قریه خوب دره","Polling_Center_Location":"Khoob Dara Village","Verification_Note":"Building","PS_Male":1,"PS_Female":1,"Map_Accuracy":"تعمیر"},"geometry":{"x":7668014.2181389332,"y":4231744.1008863747}},{"attributes":{"OBJECTID":1162,"ولایت":"بغلان","Province":"BAGHLAN","PC_Code":"0906241","ولسوالي":"خنجان","District":"KHINJAN","د_مرکز_نوم__نام_مرکز":"مسجد فراق دره","Polling_Center_Name":"Feraq Dara Mosque","د_مرکز_ځای__موقعیت_مرکز":"ترکان","Polling_Center_Location":"Turkan","Verification_Note":"Building","PS_Male":2,"PS_Female":1,"Map_Accuracy":"تعمیر"},"geometry":{"x":7671781.6481936425,"y":4245810.1462054625}},{"attributes":{"OBJECTID":1163,"ولایت":"بغلان","Province":"BAGHLAN","PC_Code":"0908182","ولسوالي":"ده صلاح ","District":"DEH SALAH","د_مرکز_نوم__نام_مرکز":"مسجد قریه ارزنگان","Polling_Center_Name":"Uroznegan Village Mosque ","د_مرکز_ځای__موقعیت_مرکز":"قریه ارزنگان","Polling_Center_Location":"Uroznegan Village","Verification_Note":"Building","PS_Male":1,"PS_Female":1,"Map_Accuracy":"تعمیر"},"geometry":{"x":7714801.5207074247,"y":4254371.6803114042}},{"attributes":{"OBJECTID":1164,"ولایت":"بغلان","Province":"BAGHLAN","PC_Code":"0908183","ولسوالي":"ده صلاح ","District":"DEH SALAH","د_مرکز_نوم__نام_مرکز":"مسجد  کمیخلر","Polling_Center_Name":"Kamekhlar Mosque","د_مرکز_ځای__موقعیت_مرکز":"کمیخلر","Polling_Center_Location":"Kamekhlar","Verification_Note":"Building","PS_Male":1,"PS_Female":1,"Map_Accuracy":"تعمیر"},"geometry":{"x":7706514.2644048743,"y":4259548.7436785549}},{"attributes":{"OBJECTID":1165,"ولایت":"بغلان","Province":"BAGHLAN","PC_Code":"0908185","ولسوالي":"ده صلاح ","District":"DEH SALAH","د_مرکز_نوم__نام_مرکز":"مدرسه امام قطیبه ","Polling_Center_Name":"Amam Qutbia Madrassa","د_مرکز_ځای__موقعیت_مرکز":"پشه ئی","Polling_Center_Location":"Pashayee","Verification_Note":"Building","PS_Male":1,"PS_Female":1,"Map_Accuracy":"تعمیر"},"geometry":{"x":7728787.0859339088,"y":4264372.8563908115}},{"attributes":{"OBJECTID":1166,"ولایت":"بغلان","Province":"BAGHLAN","PC_Code":"0908186","ولسوالي":"ده صلاح ","District":"DEH SALAH","د_مرکز_نوم__نام_مرکز":"مدرسه سنگبران ","Polling_Center_Name":"Sangbaran Madrassa","د_مرکز_ځای__موقعیت_مرکز":"سنگبران","Polling_Center_Location":"Sang Baran","Verification_Note":"Building","PS_Male":1,"PS_Female":1,"Map_Accuracy":"تعمیر"},"geometry":{"x":7717157.0300006606,"y":4256094.0704633892}},{"attributes":{"OBJECTID":1167,"ولایت":"بغلان","Province":"BAGHLAN","PC_Code":"0908251","ولسوالي":"ده صلاح ","District":"DEH SALAH","د_مرکز_نوم__نام_مرکز":"مسجد شریف ساکه ","Polling_Center_Name":"Saka Sharif Moaque","د_مرکز_ځای__موقعیت_مرکز":"ساکه","Polling_Center_Location":"Saka","Verification_Note":"Building","PS_Male":1,"PS_Female":1,"Map_Accuracy":"تعمیر"},"geometry":{"x":7716382.338739913,"y":4261469.9433531985}},{"attributes":{"OBJECTID":1168,"ولایت":"بغلان","Province":"BAGHLAN","PC_Code":"0909190","ولسوالي":"جلگه","District":"JALGA","د_مرکز_نوم__نام_مرکز":"مکتب غوری سنگ","Polling_Center_Name":"Sangee Ghuri School","د_مرکز_ځای__موقعیت_مرکز":"گدری","Polling_Center_Location":"Gadree","Verification_Note":"Building","PS_Male":1,"PS_Female":1,"Map_Accuracy":"تعمیر"},"geometry":{"x":7716078.7315266989,"y":4310369.2924619094}},{"attributes":{"OBJECTID":1169,"ولایت":"بغلان","Province":"BAGHLAN","PC_Code":"0909192","ولسوالي":"جلگه","District":"JALGA","د_مرکز_نوم__نام_مرکز":"لیسه  مولوی سید احمد ","Polling_Center_Name":"Maolawe Sayed Ahmad High School","د_مرکز_ځای__موقعیت_مرکز":"قریه مهرداد","Polling_Center_Location":"Mherdad Village ","Verification_Note":"Building","PS_Male":1,"PS_Female":1,"Map_Accuracy":"تعمیر"},"geometry":{"x":7709064.6585042514,"y":4293451.9790366963}},{"attributes":{"OBJECTID":1170,"ولایت":"بغلان","Province":"BAGHLAN","PC_Code":"0909193","ولسوالي":"جلگه","District":"JALGA","د_مرکز_نوم__نام_مرکز":"لیسه یرم علیا","Polling_Center_Name":"Yarm Ulya High School","د_مرکز_ځای__موقعیت_مرکز":"یرم علیا","Polling_Center_Location":"Yarm Ulya","Verification_Note":"Building","PS_Male":1,"PS_Female":2,"Map_Accuracy":"تعمیر"},"geometry":{"x":7710569.8149052411,"y":4291255.259524405}},{"attributes":{"OBJECTID":1171,"ولایت":"بغلان","Province":"BAGHLAN","PC_Code":"0909195","ولسوالي":"جلگه","District":"JALGA","د_مرکز_نوم__نام_مرکز":"مکتب ابتدائیه خواجه هجران ","Polling_Center_Name":"Khwaja Hejran Primary School","د_مرکز_ځای__موقعیت_مرکز":"خواجه هجران","Polling_Center_Location":"Khwaja Hajran","Verification_Note":"Building","PS_Male":1,"PS_Female":1,"Map_Accuracy":"تعمیر"},"geometry":{"x":7708996.5510133952,"y":4306291.1876107231}},{"attributes":{"OBJECTID":1172,"ولایت":"بغلان","Province":"BAGHLAN","PC_Code":"0909196","ولسوالي":"جلگه","District":"JALGA","د_مرکز_نوم__نام_مرکز":"مکتب ابتدائیه ","Polling_Center_Name":"Primary School","د_مرکز_ځای__موقعیت_مرکز":"گدری","Polling_Center_Location":"Gadree","Verification_Note":"Building","PS_Male":1,"PS_Female":1,"Map_Accuracy":"تعمیر"},"geometry":{"x":7721724.1247306876,"y":4308829.909720026}},{"attributes":{"OBJECTID":1173,"ولایت":"بغلان","Province":"BAGHLAN","PC_Code":"0909200","ولسوالي":"جلگه","District":"JALGA","د_مرکز_نوم__نام_مرکز":"مسجد جامع گدری","Polling_Center_Name":"Gadree Mosque","د_مرکز_ځای__موقعیت_مرکز":"گدری","Polling_Center_Location":"Gardree","Verification_Note":"Building","PS_Male":1,"PS_Female":1,"Map_Accuracy":"تعمیر"},"geometry":{"x":7713009.5073370039,"y":4309182.890076533}},{"attributes":{"OBJECTID":1174,"ولایت":"بغلان","Province":"BAGHLAN","PC_Code":"0909252","ولسوالي":"جلگه","District":"JALGA","د_مرکز_نوم__نام_مرکز":"مسجد جامع خواجه اولیا","Polling_Center_Name":"Khawja Awliya Mosque","د_مرکز_ځای__موقعیت_مرکز":"خواجه اولیا","Polling_Center_Location":"Khwaja Awliya","Verification_Note":"Building","PS_Male":1,"PS_Female":1,"Map_Accuracy":"تعمیر"},"geometry":{"x":7711659.3110067807,"y":4280510.1930397078}},{"attributes":{"OBJECTID":1175,"ولایت":"بغلان","Province":"BAGHLAN","PC_Code":"0910151","ولسوالي":"برکه","District":"BURKA","د_مرکز_نوم__نام_مرکز":"لیسه فلول","Polling_Center_Name":"Falol High School","د_مرکز_ځای__موقعیت_مرکز":"فلول","Polling_Center_Location":"Felol","Verification_Note":"Building","PS_Male":1,"PS_Female":1,"Map_Accuracy":"تعمیر"},"geometry":{"x":7707908.7102326863,"y":4330721.3522685915}},{"attributes":{"OBJECTID":1176,"ولایت":"بغلان","Province":"BAGHLAN","PC_Code":"0910152","ولسوالي":"برکه","District":"BURKA","د_مرکز_نوم__نام_مرکز":"مکتب چپه","Polling_Center_Name":"Chapa School","د_مرکز_ځای__موقعیت_مرکز":"چپه","Polling_Center_Location":"Chapa","Verification_Note":"Building","PS_Male":1,"PS_Female":1,"Map_Accuracy":"تعمیر"},"geometry":{"x":7695894.7233944461,"y":4328206.0503111333}},{"attributes":{"OBJECTID":1177,"ولایت":"بغلان","Province":"BAGHLAN","PC_Code":"0910156","ولسوالي":"برکه","District":"BURKA","د_مرکز_نوم__نام_مرکز":"مسجد خلیفه","Polling_Center_Name":"Khalifa Mosque","د_مرکز_ځای__موقعیت_مرکز":"فلول علیا","Polling_Center_Location":"Felol Ulya","Verification_Note":"Building","PS_Male":1,"PS_Female":1,"Map_Accuracy":"تعمیر"},"geometry":{"x":7709022.7255652584,"y":4330577.21343264}},{"attributes":{"OBJECTID":1178,"ولایت":"بغلان","Province":"BAGHLAN","PC_Code":"0910157","ولسوالي":"برکه","District":"BURKA","د_مرکز_نوم__نام_مرکز":"لیسه بولک","Polling_Center_Name":"Boolak High School","د_مرکز_ځای__موقعیت_مرکز":"بولک پشته","Polling_Center_Location":"Boolak Poshta","Verification_Note":"Building","PS_Male":1,"PS_Female":1,"Map_Accuracy":"تعمیر"},"geometry":{"x":7682012.7353881709,"y":4348909.1170656756}},{"attributes":{"OBJECTID":1179,"ولایت":"بغلان","Province":"BAGHLAN","PC_Code":"0910159","ولسوالي":"برکه","District":"BURKA","د_مرکز_نوم__نام_مرکز":"مسجد مریم چشمه","Polling_Center_Name":"Mariam Cheshma Mosque","د_مرکز_ځای__موقعیت_مرکز":"مریم چشمه","Polling_Center_Location":"Mariam Cheshma","Verification_Note":"Building","PS_Male":1,"PS_Female":1,"Map_Accuracy":"تعمیر"},"geometry":{"x":7681183.4274456576,"y":4333238.0450878888}},{"attributes":{"OBJECTID":1180,"ولایت":"بغلان","Province":"BAGHLAN","PC_Code":"0910160","ولسوالي":"برکه","District":"BURKA","د_مرکز_نوم__نام_مرکز":"مکتب شورچه","Polling_Center_Name":"Shorcha School","د_مرکز_ځای__موقعیت_مرکز":"شورچه","Polling_Center_Location":"Shorcha","Verification_Note":"Building","PS_Male":1,"PS_Female":1,"Map_Accuracy":"تعمیر"},"geometry":{"x":7695902.5814373009,"y":4315569.0768044814}},{"attributes":{"OBJECTID":1181,"ولایت":"بغلان","Province":"BAGHLAN","PC_Code":"0912175","ولسوالي":"پل حصار","District":"PUL-E-HISAR","د_مرکز_نوم__نام_مرکز":"مسجد لکر مار ","Polling_Center_Name":"Lakarmar Mosque","د_مرکز_ځای__موقعیت_مرکز":"لکر مار ","Polling_Center_Location":"Lakarmar","Verification_Note":"Building","PS_Male":1,"PS_Female":1,"Map_Accuracy":"تعمیر"},"geometry":{"x":7737034.1547870934,"y":4247434.6804418191}},{"attributes":{"OBJECTID":1182,"ولایت":"بغلان","Province":"BAGHLAN","PC_Code":"0912176","ولسوالي":"پل حصار","District":"PUL-E-HISAR","د_مرکز_نوم__نام_مرکز":"مکتب سمندان","Polling_Center_Name":"Samandan School","د_مرکز_ځای__موقعیت_مرکز":"سمندان","Polling_Center_Location":"Samandan","Verification_Note":"Building","PS_Male":1,"PS_Female":1,"Map_Accuracy":"تعمیر"},"geometry":{"x":7751424.9763934128,"y":4249642.19785466}},{"attributes":{"OBJECTID":1183,"ولایت":"بغلان","Province":"BAGHLAN","PC_Code":"0912178","ولسوالي":"پل حصار","District":"PUL-E-HISAR","د_مرکز_نوم__نام_مرکز":"مسجد دریشو","Polling_Center_Name":"Deresho Mosque","د_مرکز_ځای__موقعیت_مرکز":"دریشو","Polling_Center_Location":"Daresho","Verification_Note":"Building","PS_Male":1,"PS_Female":1,"Map_Accuracy":"تعمیر"},"geometry":{"x":7734444.8801291585,"y":4239222.2222968638}},{"attributes":{"OBJECTID":1184,"ولایت":"بغلان","Province":"BAGHLAN","PC_Code":"0912179","ولسوالي":"پل حصار","District":"PUL-E-HISAR","د_مرکز_نوم__نام_مرکز":"مسجد قلکها","Polling_Center_Name":"Qalakha Mosque","د_مرکز_ځای__موقعیت_مرکز":"قلکها","Polling_Center_Location":"Qalakha","Verification_Note":"Building","PS_Male":1,"PS_Female":1,"Map_Accuracy":"تعمیر"},"geometry":{"x":7754912.27317594,"y":4250178.058367908}},{"attributes":{"OBJECTID":1185,"ولایت":"بغلان","Province":"BAGHLAN","PC_Code":"0913208","ولسوالي":"خوست و فرنگ","District":"KHOST WA FIRING","د_مرکز_نوم__نام_مرکز":"مکتب لیسه بازار","Polling_Center_Name":"Bazaar School","د_مرکز_ځای__موقعیت_مرکز":"بازار","Polling_Center_Location":"Bazaar","Verification_Note":"Building","PS_Male":1,"PS_Female":1,"Map_Accuracy":"تعمیر"},"geometry":{"x":7737780.4317478053,"y":4295820.1983492821}},{"attributes":{"OBJECTID":1186,"ولایت":"بغلان","Province":"BAGHLAN","PC_Code":"0913209","ولسوالي":"خوست و فرنگ","District":"KHOST WA FIRING","د_مرکز_نوم__نام_مرکز":"مکتب لیسه میان شهر","Polling_Center_Name":"Meyan Shahr School","د_مرکز_ځای__موقعیت_مرکز":"میان شهر","Polling_Center_Location":"Meyan Shahr","Verification_Note":"Building","PS_Male":1,"PS_Female":1,"Map_Accuracy":"تعمیر"},"geometry":{"x":7739589.1864564605,"y":4307286.2241301984}},{"attributes":{"OBJECTID":1187,"ولایت":"بغلان","Province":"BAGHLAN","PC_Code":"0913211","ولسوالي":"خوست و فرنگ","District":"KHOST WA FIRING","د_مرکز_نوم__نام_مرکز":"مکتب لیسه دهنه ","Polling_Center_Name":"Dahana High School","د_مرکز_ځای__موقعیت_مرکز":"دهنه","Polling_Center_Location":"Dahana","Verification_Note":"Building","PS_Male":2,"PS_Female":1,"Map_Accuracy":"تعمیر"},"geometry":{"x":7736621.2674561515,"y":4288196.8335015178}},{"attributes":{"OBJECTID":1188,"ولایت":"بغلان","Province":"BAGHLAN","PC_Code":"0913212","ولسوالي":"خوست و فرنگ","District":"KHOST WA FIRING","د_مرکز_نوم__نام_مرکز":"مکتب متوسطه بهارک","Polling_Center_Name":"Baharak Secondary School","د_مرکز_ځای__موقعیت_مرکز":"بهارک","Polling_Center_Location":"Baharak","Verification_Note":"Building","PS_Male":2,"PS_Female":1,"Map_Accuracy":"تعمیر"},"geometry":{"x":7738534.7482021526,"y":4301586.6227510944}},{"attributes":{"OBJECTID":1189,"ولایت":"بغلان","Province":"BAGHLAN","PC_Code":"0913216","ولسوالي":"خوست و فرنگ","District":"KHOST WA FIRING","د_مرکز_نوم__نام_مرکز":"مکتب گرم آبه","Polling_Center_Name":"Garm Aaba School","د_مرکز_ځای__موقعیت_مرکز":"گرم آبه","Polling_Center_Location":"Garm Aaba","Verification_Note":"Building","PS_Male":1,"PS_Female":1,"Map_Accuracy":"تعمیر"},"geometry":{"x":7743443.6850508973,"y":4304309.3664315119}},{"attributes":{"OBJECTID":1190,"ولایت":"بغلان","Province":"BAGHLAN","PC_Code":"0913217","ولسوالي":"خوست و فرنگ","District":"KHOST WA FIRING","د_مرکز_نوم__نام_مرکز":"مکتب گردن تل","Polling_Center_Name":"Gardan Tal School","د_مرکز_ځای__موقعیت_مرکز":"پل اسد ","Polling_Center_Location":"Pul-e- Asad","Verification_Note":"Building","PS_Male":1,"PS_Female":1,"Map_Accuracy":"تعمیر"},"geometry":{"x":7750269.8875083216,"y":4298970.4702396393}},{"attributes":{"OBJECTID":1191,"ولایت":"بغلان","Province":"BAGHLAN","PC_Code":"0904266","ولسوالي":"نهرین","District":"NAHREEN","د_مرکز_نوم__نام_مرکز":"مسجد","Polling_Center_Name":"Mosque","د_مرکز_ځای__موقعیت_مرکز":"قوزی بالا","Polling_Center_Location":"Qozi bala","Verification_Note":"Building","PS_Male":2,"PS_Female":1,"Map_Accuracy":"تعمیر"},"geometry":{"x":7685894.2235044688,"y":4313023.5134112388}},{"attributes":{"OBJECTID":1192,"ولایت":"بغلان","Province":"BAGHLAN","PC_Code":"0901007","ولسوالي":"پلخمری","District":"PUL-E-KHUMRI","د_مرکز_نوم__نام_مرکز":"دروازه شمرق","Polling_Center_Name":"Shamaroq Gate","د_مرکز_ځای__موقعیت_مرکز":"پارک شمرق","Polling_Center_Location":"Shamaroq Park","Verification_Note":"Building","PS_Male":1,"PS_Female":1,"Map_Accuracy":"تعمیر"},"geometry":{"x":7653372.8853769191,"y":4286838.8401099369}},{"attributes":{"OBJECTID":1193,"ولایت":"بغلان","Province":"BAGHLAN","PC_Code":"0901008","ولسوالي":"پلخمری","District":"PUL-E-KHUMRI","د_مرکز_نوم__نام_مرکز":"تکیه خانه ملا اسحاق","Polling_Center_Name":"Mollah Eshaq Takia Khana ","د_مرکز_ځای__موقعیت_مرکز":"ناحیه دوم","Polling_Center_Location":"Second Nahia","Verification_Note":"Building","PS_Male":1,"PS_Female":1,"Map_Accuracy":"تعمیر"},"geometry":{"x":7650345.4427316934,"y":4290773.6604469791}},{"attributes":{"OBJECTID":1194,"ولایت":"بغلان","Province":"BAGHLAN","PC_Code":"0901022","ولسوالي":"پلخمری","District":"PUL-E-KHUMRI","د_مرکز_نوم__نام_مرکز":"لیسه حسین خیل","Polling_Center_Name":"Hussain Khel  High School","د_مرکز_ځای__موقعیت_مرکز":"ناحیه سوم","Polling_Center_Location":"Third Nahia","Verification_Note":"Building","PS_Male":2,"PS_Female":2,"Map_Accuracy":"تعمیر"},"geometry":{"x":7645020.3413062133,"y":4303937.400296241}},{"attributes":{"OBJECTID":1195,"ولایت":"بغلان","Province":"BAGHLAN","PC_Code":"0901023","ولسوالي":"پلخمری","District":"PUL-E-KHUMRI","د_مرکز_نوم__نام_مرکز":" مکتب بالادوری","Polling_Center_Name":"Bala Dori School","د_مرکز_ځای__موقعیت_مرکز":"ناحیه سوم","Polling_Center_Location":"Third Nahia","Verification_Note":"Building","PS_Male":2,"PS_Female":1,"Map_Accuracy":"تعمیر"},"geometry":{"x":7644504.16841213,"y":4306969.4283296764}},{"attributes":{"OBJECTID":1196,"ولایت":"بغلان","Province":"BAGHLAN","PC_Code":"0901232","ولسوالي":"پلخمری","District":"PUL-E-KHUMRI","د_مرکز_نوم__نام_مرکز":"مسجد غروشاخ نافیل","Polling_Center_Name":"Gheroshakh Nafil Mosque","د_مرکز_ځای__موقعیت_مرکز":"غروشاخ نافیل","Polling_Center_Location":"Gheroshakh Nafil ","Verification_Note":"Building","PS_Male":2,"PS_Female":1,"Map_Accuracy":"تعمیر"},"geometry":{"x":7636393.2455225773,"y":4299495.3797234371}},{"attributes":{"OBJECTID":1197,"ولایت":"بغلان","Province":"BAGHLAN","PC_Code":"0902075","ولسوالي":"دهنه غوری","District":"DAHANA-E-GHURI","د_مرکز_نوم__نام_مرکز":"مکتب جنگآغلی","Polling_Center_Name":"Jangaghli School","د_مرکز_ځای__موقعیت_مرکز":"جنگاغلی","Polling_Center_Location":"Jangaghli","Verification_Note":"Building","PS_Male":1,"PS_Female":2,"Map_Accuracy":"تعمیر"},"geometry":{"x":7618669.6530584767,"y":4299881.0364127681}},{"attributes":{"OBJECTID":1198,"ولایت":"بغلان","Province":"BAGHLAN","PC_Code":"0902090","ولسوالي":"دهنه غوری","District":"DAHANA-E-GHURI","د_مرکز_نوم__نام_مرکز":"پهلوی مکتب مسجد قمبرعلی محمد","Polling_Center_Name":"Qambar Ali Mohammad Mosque","د_مرکز_ځای__موقعیت_مرکز":"قمبرعلی محمد","Polling_Center_Location":"Qambar Ali Mohammad near school","Verification_Note":"Building","PS_Male":1,"PS_Female":1,"Map_Accuracy":"تعمیر"},"geometry":{"x":7640648.3573608957,"y":4271326.09626805}},{"attributes":{"OBJECTID":1199,"ولایت":"بغلان","Province":"BAGHLAN","PC_Code":"0902091","ولسوالي":"دهنه غوری","District":"DAHANA-E-GHURI","د_مرکز_نوم__نام_مرکز":"پهلوی حدرانه مسجد قنداری قشلاق","Polling_Center_Name":"Qandari Mosque","د_مرکز_ځای__موقعیت_مرکز":"قشلاق","Polling_Center_Location":"Qeshlaq","Verification_Note":"Building","PS_Male":1,"PS_Female":1,"Map_Accuracy":"تعمیر"},"geometry":{"x":7625722.5327233411,"y":4289623.5719262809}}]}