{"objectIdFieldName":"OBJECTID","globalIdFieldName":"","geometryType":"esriGeometryPoint","spatialReference":{"wkid":102100,"latestWkid":3857},"fields":[{"name":"OBJECTID","type":"esriFieldTypeOID","alias":"OBJECTID","sqlType":"sqlTypeOther","domain":null,"defaultValue":null},{"name":"ولایت","type":"esriFieldTypeString","alias":"ولایت","sqlType":"sqlTypeOther","length":255,"domain":null,"defaultValue":null},{"name":"Province","type":"esriFieldTypeString","alias":"Province","sqlType":"sqlTypeOther","length":255,"domain":null,"defaultValue":null},{"name":"PC_Code","type":"esriFieldTypeString","alias":"PC_Code","sqlType":"sqlTypeOther","length":255,"domain":null,"defaultValue":null},{"name":"ولسوالي","type":"esriFieldTypeString","alias":"ولسوالي","sqlType":"sqlTypeOther","length":255,"domain":null,"defaultValue":null},{"name":"District","type":"esriFieldTypeString","alias":"District","sqlType":"sqlTypeOther","length":255,"domain":null,"defaultValue":null},{"name":"د_مرکز_نوم__نام_مرکز","type":"esriFieldTypeString","alias":"د_مرکز_نوم__نام_مرکز","sqlType":"sqlTypeOther","length":255,"domain":null,"defaultValue":null},{"name":"Polling_Center_Name","type":"esriFieldTypeString","alias":"Polling_Center_Name","sqlType":"sqlTypeOther","length":255,"domain":null,"defaultValue":null},{"name":"د_مرکز_ځای__موقعیت_مرکز","type":"esriFieldTypeString","alias":"د_مرکز_ځای__موقعیت_مرکز","sqlType":"sqlTypeOther","length":255,"domain":null,"defaultValue":null},{"name":"Polling_Center_Location","type":"esriFieldTypeString","alias":"Polling_Center_Location","sqlType":"sqlTypeOther","length":255,"domain":null,"defaultValue":null},{"name":"Verification_Note","type":"esriFieldTypeString","alias":"Verification_Note","sqlType":"sqlTypeOther","length":250,"domain":null,"defaultValue":null},{"name":"PS_Male","type":"esriFieldTypeSmallInteger","alias":"PS_Male","sqlType":"sqlTypeOther","domain":null,"defaultValue":null},{"name":"PS_Female","type":"esriFieldTypeSmallInteger","alias":"PS_Female","sqlType":"sqlTypeOther","domain":null,"defaultValue":null},{"name":"Map_Accuracy","type":"esriFieldTypeString","alias":"Map_Accuracy","sqlType":"sqlTypeOther","length":10,"domain":null,"defaultValue":null}],"features":[{"attributes":{"OBJECTID":1800,"ولایت":"بدخشان","Province":"BADAKHSHAN","PC_Code":"1702049","ولسوالي":"ارگو","District":"ARGO","د_مرکز_نوم__نام_مرکز":"لیسه عبدالقادر حنیف شهید ","Polling_Center_Name":"Abdul Qader Hanif Shaheed High School","د_مرکز_ځای__موقعیت_مرکز":"اتین جلو","Polling_Center_Location":"Ateen Jalo","Verification_Note":"Building","PS_Male":2,"PS_Female":1,"Map_Accuracy":"تعمیر"},"geometry":{"x":7810842.8511013091,"y":4449603.4671645015}},{"attributes":{"OBJECTID":1801,"ولایت":"بدخشان","Province":"BADAKHSHAN","PC_Code":"1702051","ولسوالي":"ارگو","District":"ARGO","د_مرکز_نوم__نام_مرکز":"لیسه قچی ","Polling_Center_Name":"Qachi High School","د_مرکز_ځای__موقعیت_مرکز":"قچی","Polling_Center_Location":"Qachi","Verification_Note":"Building","PS_Male":2,"PS_Female":1,"Map_Accuracy":"تعمیر"},"geometry":{"x":7815546.5426388979,"y":4460914.8231390342}},{"attributes":{"OBJECTID":1802,"ولایت":"بدخشان","Province":"BADAKHSHAN","PC_Code":"1702052","ولسوالي":"ارگو","District":"ARGO","د_مرکز_نوم__نام_مرکز":"لیسه چتراق ","Polling_Center_Name":"Chatraaq High School","د_مرکز_ځای__موقعیت_مرکز":"چتراق","Polling_Center_Location":"Chatraaq","Verification_Note":"Building","PS_Male":2,"PS_Female":1,"Map_Accuracy":"تعمیر"},"geometry":{"x":7857464.493569579,"y":4447052.4686517641}},{"attributes":{"OBJECTID":1803,"ولایت":"بدخشان","Province":"BADAKHSHAN","PC_Code":"1702060","ولسوالي":"ارگو","District":"ARGO","د_مرکز_نوم__نام_مرکز":"مکتب متوسطه آب باریک ","Polling_Center_Name":"Aab Bareek Secondary School","د_مرکز_ځای__موقعیت_مرکز":"آب باریک ","Polling_Center_Location":"Aab Bareek","Verification_Note":"Building","PS_Male":2,"PS_Female":1,"Map_Accuracy":"تعمیر"},"geometry":{"x":7830482.0861359164,"y":4441607.9769798368}},{"attributes":{"OBJECTID":1804,"ولایت":"بدخشان","Province":"BADAKHSHAN","PC_Code":"1702061","ولسوالي":"ارگو","District":"ARGO","د_مرکز_نوم__نام_مرکز":"توروق","Polling_Center_Name":"Toroq","د_مرکز_ځای__موقعیت_مرکز":"توروق","Polling_Center_Location":"Toroq","Verification_Note":"Building","PS_Male":2,"PS_Female":1,"Map_Accuracy":"تعمیر"},"geometry":{"x":7843635.1463241093,"y":4456527.6974090785}},{"attributes":{"OBJECTID":1805,"ولایت":"بدخشان","Province":"BADAKHSHAN","PC_Code":"1704036","ولسوالي":"یفتل سفلا","District":"YAFTAL-E-SUFLA","د_مرکز_نوم__نام_مرکز":"مکتب سرن ","Polling_Center_Name":"Saran School","د_مرکز_ځای__موقعیت_مرکز":"سرن","Polling_Center_Location":"Saran","Verification_Note":"Building","PS_Male":2,"PS_Female":1,"Map_Accuracy":"تعمیر"},"geometry":{"x":7845958.6301130392,"y":4479513.4981062636}},{"attributes":{"OBJECTID":1806,"ولایت":"بدخشان","Province":"BADAKHSHAN","PC_Code":"1704037","ولسوالي":"یفتل سفلا","District":"YAFTAL-E-SUFLA","د_مرکز_نوم__نام_مرکز":"مکتب زمستانک","Polling_Center_Name":"Zemestanak School","د_مرکز_ځای__موقعیت_مرکز":"زمستانک","Polling_Center_Location":"Zemestanak","Verification_Note":"Building","PS_Male":2,"PS_Female":1,"Map_Accuracy":"تعمیر"},"geometry":{"x":7819983.5583175421,"y":4477236.3175856993}},{"attributes":{"OBJECTID":1807,"ولایت":"بدخشان","Province":"BADAKHSHAN","PC_Code":"1706105","ولسوالي":"بهارک","District":"BAHARAK","د_مرکز_نوم__نام_مرکز":"مکتب دشت فراخ ","Polling_Center_Name":"Dasht Faraakh School","د_مرکز_ځای__موقعیت_مرکز":"دشت فراخ ","Polling_Center_Location":"Dasht Faraakh","Verification_Note":"Building","PS_Male":1,"PS_Female":1,"Map_Accuracy":"تعمیر"},"geometry":{"x":7887343.3183814138,"y":4435300.219380863}},{"attributes":{"OBJECTID":1808,"ولایت":"بدخشان","Province":"BADAKHSHAN","PC_Code":"1706106","ولسوالي":"بهارک","District":"BAHARAK","د_مرکز_نوم__نام_مرکز":"مکتب یردار","Polling_Center_Name":"Yardar School","د_مرکز_ځای__موقعیت_مرکز":"یردار","Polling_Center_Location":"Yardar","Verification_Note":"Building","PS_Male":1,"PS_Female":1,"Map_Accuracy":"تعمیر"},"geometry":{"x":7894662.3923371062,"y":4435142.6958190054}},{"attributes":{"OBJECTID":1809,"ولایت":"بدخشان","Province":"BADAKHSHAN","PC_Code":"1707065","ولسوالي":"درایم","District":"DARAYIM","د_مرکز_نوم__نام_مرکز":"لیسه پنگانی ","Polling_Center_Name":"Pangani High School","د_مرکز_ځای__موقعیت_مرکز":"پنگانی ","Polling_Center_Location":"Pangani","Verification_Note":"Building","PS_Male":2,"PS_Female":1,"Map_Accuracy":"تعمیر"},"geometry":{"x":7822949.2820974849,"y":4439061.7053754777}},{"attributes":{"OBJECTID":1810,"ولایت":"بدخشان","Province":"BADAKHSHAN","PC_Code":"1707066","ولسوالي":"درایم","District":"DARAYIM","د_مرکز_نوم__نام_مرکز":"مسجد جامع نیم تله ","Polling_Center_Name":"Neem Tala Mosque","د_مرکز_ځای__موقعیت_مرکز":"نیم تله","Polling_Center_Location":"Neem Tala","Verification_Note":"Building","PS_Male":1,"PS_Female":1,"Map_Accuracy":"تعمیر"},"geometry":{"x":7838941.506936539,"y":4428862.4863251969}},{"attributes":{"OBJECTID":1811,"ولایت":"بدخشان","Province":"BADAKHSHAN","PC_Code":"1708123","ولسوالي":"کوهستان","District":"KOHISTAN","د_مرکز_نوم__نام_مرکز":"مسجد شپوی بالا","Polling_Center_Name":"Shpoy Bala Mosque","د_مرکز_ځای__موقعیت_مرکز":"شپوی بالا","Polling_Center_Location":"Shpoy Bala","Verification_Note":"Building","PS_Male":1,"PS_Female":1,"Map_Accuracy":"تعمیر"},"geometry":{"x":7857897.3738810644,"y":4507146.935074769}},{"attributes":{"OBJECTID":1812,"ولایت":"بدخشان","Province":"BADAKHSHAN","PC_Code":"1708124","ولسوالي":"کوهستان","District":"KOHISTAN","د_مرکز_نوم__نام_مرکز":"مکتب وختی ده ","Polling_Center_Name":"Wakhti Deh School","د_مرکز_ځای__موقعیت_مرکز":"مکتب وختی ده ","Polling_Center_Location":"Wakhti Deh","Verification_Note":"Building","PS_Male":2,"PS_Female":1,"Map_Accuracy":"تعمیر"},"geometry":{"x":7852936.9751449265,"y":4503320.9102741405}},{"attributes":{"OBJECTID":1813,"ولایت":"بدخشان","Province":"BADAKHSHAN","PC_Code":"1710079","ولسوالي":"جرم","District":"JURM","د_مرکز_نوم__نام_مرکز":"لیسه غیاثی ","Polling_Center_Name":"Ghiyasi High School","د_مرکز_ځای__موقعیت_مرکز":"مرکز جرم","Polling_Center_Location":"Markaz Jorm","Verification_Note":"Building","PS_Male":2,"PS_Female":2,"Map_Accuracy":"تعمیر"},"geometry":{"x":7884963.219725851,"y":4420520.5067628175}},{"attributes":{"OBJECTID":1814,"ولایت":"بدخشان","Province":"BADAKHSHAN","PC_Code":"1710080","ولسوالي":"جرم","District":"JURM","د_مرکز_نوم__نام_مرکز":"لیسه فرغا میرو ","Polling_Center_Name":"Fergha Meero High School","د_مرکز_ځای__موقعیت_مرکز":"فرغا میرو","Polling_Center_Location":"Fergha Meero","Verification_Note":"Building","PS_Male":1,"PS_Female":1,"Map_Accuracy":"تعمیر"},"geometry":{"x":7885367.69575607,"y":4403794.052065134}},{"attributes":{"OBJECTID":1815,"ولایت":"بدخشان","Province":"BADAKHSHAN","PC_Code":"1710088","ولسوالي":"جرم","District":"JURM","د_مرکز_نوم__نام_مرکز":"مسجد خانقا ","Polling_Center_Name":"Khanqah Mosque","د_مرکز_ځای__موقعیت_مرکز":"خانقا ","Polling_Center_Location":"Khanqah","Verification_Note":"Building","PS_Male":1,"PS_Female":1,"Map_Accuracy":"تعمیر"},"geometry":{"x":7884287.5660764836,"y":4418946.7920405045}},{"attributes":{"OBJECTID":1816,"ولایت":"بدخشان","Province":"BADAKHSHAN","PC_Code":"1710089","ولسوالي":"جرم","District":"JURM","د_مرکز_نوم__نام_مرکز":"لیسه سر حوض ","Polling_Center_Name":"Sar Hawz High School","د_مرکز_ځای__موقعیت_مرکز":"سر حوض ","Polling_Center_Location":"Sar Hawz","Verification_Note":"Building","PS_Male":1,"PS_Female":1,"Map_Accuracy":"تعمیر"},"geometry":{"x":7883768.4087068588,"y":4432502.5426737443}},{"attributes":{"OBJECTID":1817,"ولایت":"بدخشان","Province":"BADAKHSHAN","PC_Code":"1711179","ولسوالي":"تشکان ","District":"TASHKAN","د_مرکز_نوم__نام_مرکز":"مکتب ده آستایان","Polling_Center_Name":"Deh Aastayan School","د_مرکز_ځای__موقعیت_مرکز":"ده آستایان","Polling_Center_Location":"Deh Aastayan","Verification_Note":"Building","PS_Male":1,"PS_Female":1,"Map_Accuracy":"تعمیر"},"geometry":{"x":7832869.6131410934,"y":4400358.7561269775}},{"attributes":{"OBJECTID":1818,"ولایت":"بدخشان","Province":"BADAKHSHAN","PC_Code":"1711180","ولسوالي":"تشکان ","District":"TASHKAN","د_مرکز_نوم__نام_مرکز":"مکتب ده سیدان ","Polling_Center_Name":"Deh Sayedan School","د_مرکز_ځای__موقعیت_مرکز":"ده سیدان","Polling_Center_Location":"Deh Sayedan","Verification_Note":"Building","PS_Male":1,"PS_Female":1,"Map_Accuracy":"تعمیر"},"geometry":{"x":7833995.332604941,"y":4412748.9181936309}},{"attributes":{"OBJECTID":1819,"ولایت":"بدخشان","Province":"BADAKHSHAN","PC_Code":"1711184","ولسوالي":"تشکان ","District":"TASHKAN","د_مرکز_نوم__نام_مرکز":"مکتب سیدان ","Polling_Center_Name":"Sayedan School","د_مرکز_ځای__موقعیت_مرکز":"سیدان ","Polling_Center_Location":"Sayedan","Verification_Note":"Building","PS_Male":1,"PS_Female":1,"Map_Accuracy":"تعمیر"},"geometry":{"x":7816444.5781218261,"y":4428881.7825686708}},{"attributes":{"OBJECTID":1820,"ولایت":"بدخشان","Province":"BADAKHSHAN","PC_Code":"1711185","ولسوالي":"تشکان ","District":"TASHKAN","د_مرکز_نوم__نام_مرکز":"مکتب مظفری","Polling_Center_Name":"Muzaffari School","د_مرکز_ځای__موقعیت_مرکز":"مظفری","Polling_Center_Location":"Muzaffari","Verification_Note":"Building","PS_Male":1,"PS_Female":1,"Map_Accuracy":"تعمیر"},"geometry":{"x":7807694.2583410665,"y":4435518.1656901985}},{"attributes":{"OBJECTID":1821,"ولایت":"بدخشان","Province":"BADAKHSHAN","PC_Code":"1711187","ولسوالي":"تشکان ","District":"TASHKAN","د_مرکز_نوم__نام_مرکز":"مکتب دشت آغه ","Polling_Center_Name":"Dasht Aagha School","د_مرکز_ځای__موقعیت_مرکز":"دشت آغه ","Polling_Center_Location":"Dasht Aagha","Verification_Note":"Building","PS_Male":1,"PS_Female":1,"Map_Accuracy":"تعمیر"},"geometry":{"x":7818320.2670139037,"y":4414838.8941106126}},{"attributes":{"OBJECTID":1822,"ولایت":"بدخشان","Province":"BADAKHSHAN","PC_Code":"1712113","ولسوالي":"شهدا","District":"SHUHADA","د_مرکز_نوم__نام_مرکز":"مکتب محمودان","Polling_Center_Name":"Mahmoodan School","د_مرکز_ځای__موقعیت_مرکز":"محمودان","Polling_Center_Location":"Mahmoodan","Verification_Note":"Building","PS_Male":2,"PS_Female":1,"Map_Accuracy":"تعمیر"},"geometry":{"x":7903975.5646140315,"y":4443902.9395245463}},{"attributes":{"OBJECTID":1823,"ولایت":"بدخشان","Province":"BADAKHSHAN","PC_Code":"1713148","ولسوالي":"شهر بزرگ","District":"SHAHR-E-BUZURG","د_مرکز_نوم__نام_مرکز":"لیسه برلاس ","Polling_Center_Name":"Barlaas High School","د_مرکز_ځای__موقعیت_مرکز":"برلاس","Polling_Center_Location":"Barlaas","Verification_Note":"Building","PS_Male":1,"PS_Female":1,"Map_Accuracy":"تعمیر"},"geometry":{"x":7811163.6471570954,"y":4455118.7219127491}},{"attributes":{"OBJECTID":1824,"ولایت":"بدخشان","Province":"BADAKHSHAN","PC_Code":"1713149","ولسوالي":"شهر بزرگ","District":"SHAHR-E-BUZURG","د_مرکز_نوم__نام_مرکز":"مکتب دره کلاتی ","Polling_Center_Name":"Kalati Dara School","د_مرکز_ځای__موقعیت_مرکز":"ګردنګ","Polling_Center_Location":"Gardang","Verification_Note":"Building","PS_Male":1,"PS_Female":1,"Map_Accuracy":"تعمیر"},"geometry":{"x":7796964.3217916191,"y":4499419.6349472478}},{"attributes":{"OBJECTID":1825,"ولایت":"بدخشان","Province":"BADAKHSHAN","PC_Code":"1714230","ولسوالي":"راغستان ","District":"RAGHISTAN","د_مرکز_نوم__نام_مرکز":"مکتب متوسطه نقش ده ","Polling_Center_Name":"Naqsh Deh Secondary School","د_مرکز_ځای__موقعیت_مرکز":"نقش ده ","Polling_Center_Location":"Naqsh Deh","Verification_Note":"Building","PS_Male":1,"PS_Female":2,"Map_Accuracy":"تعمیر"},"geometry":{"x":7854544.98964221,"y":4517547.0742283538}},{"attributes":{"OBJECTID":1826,"ولایت":"بدخشان","Province":"BADAKHSHAN","PC_Code":"1714231","ولسوالي":"راغستان ","District":"RAGHISTAN","د_مرکز_نوم__نام_مرکز":"مکتب متوسطه کالر ","Polling_Center_Name":"Kaalar Secondary School","د_مرکز_ځای__موقعیت_مرکز":"کالر","Polling_Center_Location":"Kaalar","Verification_Note":"Building","PS_Male":2,"PS_Female":2,"Map_Accuracy":"تعمیر"},"geometry":{"x":7859289.6267149039,"y":4526113.1495919749}},{"attributes":{"OBJECTID":1827,"ولایت":"بدخشان","Province":"BADAKHSHAN","PC_Code":"1715151","ولسوالي":"کشم","District":"KISHM","د_مرکز_نوم__نام_مرکز":"مکتب چارمغ","Polling_Center_Name":"Charmagh School","د_مرکز_ځای__موقعیت_مرکز":"چارمغ دره ","Polling_Center_Location":"Charmagh Dara","Verification_Note":"Building","PS_Male":3,"PS_Female":2,"Map_Accuracy":"تعمیر"},"geometry":{"x":7815258.0225562677,"y":4412321.145734556}},{"attributes":{"OBJECTID":1828,"ولایت":"بدخشان","Province":"BADAKHSHAN","PC_Code":"1715152","ولسوالي":"کشم","District":"KISHM","د_مرکز_نوم__نام_مرکز":"مکتب نسوان جر شاه بابا ","Polling_Center_Name":"Jar Shah Baba Girls School","د_مرکز_ځای__موقعیت_مرکز":"جر شاه بابا","Polling_Center_Location":"Jar Shah Baba","Verification_Note":"Building","PS_Male":2,"PS_Female":2,"Map_Accuracy":"تعمیر"},"geometry":{"x":7811255.3198709674,"y":4400510.0045273677}},{"attributes":{"OBJECTID":1829,"ولایت":"بدخشان","Province":"BADAKHSHAN","PC_Code":"1715165","ولسوالي":"کشم","District":"KISHM","د_مرکز_نوم__نام_مرکز":"مکتب نوآباد گندم قول ","Polling_Center_Name":"Nawabad Gandom Qol School","د_مرکز_ځای__موقعیت_مرکز":"نوآباد گندم قول","Polling_Center_Location":"Nawabad Gandum Qol","Verification_Note":"Building","PS_Male":1,"PS_Female":1,"Map_Accuracy":"تعمیر"},"geometry":{"x":7806196.1840860769,"y":4411906.8639143705}},{"attributes":{"OBJECTID":1830,"ولایت":"بدخشان","Province":"BADAKHSHAN","PC_Code":"1715166","ولسوالي":"کشم","District":"KISHM","د_مرکز_نوم__نام_مرکز":"مسجد پشه دره ","Polling_Center_Name":"Pasha Dara Mosque","د_مرکز_ځای__موقعیت_مرکز":"پشه دره ","Polling_Center_Location":"Pasha Dara","Verification_Note":"Building","PS_Male":1,"PS_Female":1,"Map_Accuracy":"تعمیر"},"geometry":{"x":7798211.4273678064,"y":4403593.4896003082}},{"attributes":{"OBJECTID":1831,"ولایت":"بدخشان","Province":"BADAKHSHAN","PC_Code":"1716095","ولسوالي":"وردوج","District":"WARDOOJ","د_مرکز_نوم__نام_مرکز":"مکتب شاکران ","Polling_Center_Name":"Shakeran School","د_مرکز_ځای__موقعیت_مرکز":"شاکران","Polling_Center_Location":"Shakeran","Verification_Note":"Building","PS_Male":2,"PS_Female":1,"Map_Accuracy":"تعمیر"},"geometry":{"x":7909630.8006873876,"y":4421350.7443322837}},{"attributes":{"OBJECTID":1832,"ولایت":"بدخشان","Province":"BADAKHSHAN","PC_Code":"1716096","ولسوالي":"وردوج","District":"WARDOOJ","د_مرکز_نوم__نام_مرکز":"مکتب خاشبین","Polling_Center_Name":"Khashbeen School","د_مرکز_ځای__موقعیت_مرکز":"خاشبین","Polling_Center_Location":"Khashbeen","Verification_Note":"Building","PS_Male":3,"PS_Female":3,"Map_Accuracy":"تعمیر"},"geometry":{"x":7912279.2394282781,"y":4410133.24904599}},{"attributes":{"OBJECTID":1833,"ولایت":"بدخشان","Province":"BADAKHSHAN","PC_Code":"1716100","ولسوالي":"وردوج","District":"WARDOOJ","د_مرکز_نوم__نام_مرکز":"مکتب سرقلات حویلی حمید الله ","Polling_Center_Name":"Sarqalat School/Hamidullah House","د_مرکز_ځای__موقعیت_مرکز":"سرقلات","Polling_Center_Location":"Sarqalat","Verification_Note":"Village","PS_Male":1,"PS_Female":1,"Map_Accuracy":"قریه"},"geometry":{"x":7910146.3156832755,"y":4421871.79742682}},{"attributes":{"OBJECTID":1834,"ولایت":"بدخشان","Province":"BADAKHSHAN","PC_Code":"1716101","ولسوالي":"وردوج","District":"WARDOOJ","د_مرکز_نوم__نام_مرکز":"مکتب غنیو","Polling_Center_Name":"Ghanyo School","د_مرکز_ځای__موقعیت_مرکز":"غنیو","Polling_Center_Location":"Ghanyo","Verification_Note":"Building","PS_Male":1,"PS_Female":1,"Map_Accuracy":"تعمیر"},"geometry":{"x":7912582.9279047251,"y":4421812.9603451118}},{"attributes":{"OBJECTID":1835,"ولایت":"بدخشان","Province":"BADAKHSHAN","PC_Code":"1717176","ولسوالي":"تگاب","District":"TAGAB","د_مرکز_نوم__نام_مرکز":"مکتب آسیابک ","Polling_Center_Name":"Asyabak School","د_مرکز_ځای__موقعیت_مرکز":"آسیابک","Polling_Center_Location":"Asyabak","Verification_Note":"Building","PS_Male":1,"PS_Female":1,"Map_Accuracy":"تعمیر"},"geometry":{"x":7821001.4770996943,"y":4372391.4528131038}},{"attributes":{"OBJECTID":1836,"ولایت":"بدخشان","Province":"BADAKHSHAN","PC_Code":"1718254","ولسوالي":"یمگان","District":"YAMGAN","د_مرکز_نوم__نام_مرکز":"مکتب غرمی ","Polling_Center_Name":"Gharmai School","د_مرکز_ځای__موقعیت_مرکز":"مرکز ولسوالی","Polling_Center_Location":"District Office","Verification_Note":"Building","PS_Male":2,"PS_Female":2,"Map_Accuracy":"تعمیر"},"geometry":{"x":7880923.7304016165,"y":4372081.83655028}},{"attributes":{"OBJECTID":1837,"ولایت":"بدخشان","Province":"BADAKHSHAN","PC_Code":"1718255","ولسوالي":"یمگان","District":"YAMGAN","د_مرکز_نوم__نام_مرکز":"مسجد ملا قربان ","Polling_Center_Name":"Mula Qurban Mosque","د_مرکز_ځای__موقعیت_مرکز":"آوریش","Polling_Center_Location":"Aawreesh","Verification_Note":"Building","PS_Male":1,"PS_Female":1,"Map_Accuracy":"تعمیر"},"geometry":{"x":7879806.0459786206,"y":4373404.2724831253}},{"attributes":{"OBJECTID":1838,"ولایت":"بدخشان","Province":"BADAKHSHAN","PC_Code":"1719215","ولسوالي":"شغنان","District":"SHIGHNAN","د_مرکز_نوم__نام_مرکز":"لیسه شدوج ","Polling_Center_Name":"Shadoj High School","د_مرکز_ځای__موقعیت_مرکز":"شدوج ","Polling_Center_Location":"Shadoj","Verification_Note":"Building","PS_Male":2,"PS_Female":1,"Map_Accuracy":"تعمیر"},"geometry":{"x":7963677.15040255,"y":4536772.8812680691}},{"attributes":{"OBJECTID":1839,"ولایت":"بدخشان","Province":"BADAKHSHAN","PC_Code":"1719216","ولسوالي":"شغنان","District":"SHIGHNAN","د_مرکز_نوم__نام_مرکز":"مکتب پاجور چاوید","Polling_Center_Name":"Pajor Jawed School","د_مرکز_ځای__موقعیت_مرکز":"پاجور","Polling_Center_Location":"Pajor","Verification_Note":"Building","PS_Male":2,"PS_Female":1,"Map_Accuracy":"تعمیر"},"geometry":{"x":7953131.8561529,"y":4567016.9560754523}},{"attributes":{"OBJECTID":1840,"ولایت":"بدخشان","Province":"BADAKHSHAN","PC_Code":"1720242","ولسوالي":"خواهان","District":"KHWAHAN","د_مرکز_نوم__نام_مرکز":"مکتب سیل دان ","Polling_Center_Name":"Sel Daan School","د_مرکز_ځای__موقعیت_مرکز":"سیل دان ","Polling_Center_Location":"Sel Daan","Verification_Note":"Building","PS_Male":2,"PS_Female":2,"Map_Accuracy":"تعمیر"},"geometry":{"x":7835327.2636331059,"y":4544187.6827912182}},{"attributes":{"OBJECTID":1841,"ولایت":"بدخشان","Province":"BADAKHSHAN","PC_Code":"1720243","ولسوالي":"خواهان","District":"KHWAHAN","د_مرکز_نوم__نام_مرکز":"مکتب حوض شاه ","Polling_Center_Name":"Hawz Shah School","د_مرکز_ځای__موقعیت_مرکز":"زرهیج","Polling_Center_Location":"Zarhej","Verification_Note":"Building","PS_Male":2,"PS_Female":1,"Map_Accuracy":"تعمیر"},"geometry":{"x":7843054.9602700472,"y":4545344.7634276226}},{"attributes":{"OBJECTID":1842,"ولایت":"بدخشان","Province":"BADAKHSHAN","PC_Code":"1720245","ولسوالي":"خواهان","District":"KHWAHAN","د_مرکز_نوم__نام_مرکز":"مکتب حوزه شاه ","Polling_Center_Name":"Hawza Shah School","د_مرکز_ځای__موقعیت_مرکز":"کجگه","Polling_Center_Location":"Kajaga","Verification_Note":"Building","PS_Male":1,"PS_Female":1,"Map_Accuracy":"تعمیر"},"geometry":{"x":7846352.6254131943,"y":4546402.5292496979}},{"attributes":{"OBJECTID":1843,"ولایت":"بدخشان","Province":"BADAKHSHAN","PC_Code":"1721246","ولسوالي":"کوف آب","District":"KUFAB","د_مرکز_نوم__نام_مرکز":"مکتب قلعه ","Polling_Center_Name":"Qala School","د_مرکز_ځای__موقعیت_مرکز":"قلعه ","Polling_Center_Location":"Qala","Verification_Note":"Building","PS_Male":2,"PS_Female":2,"Map_Accuracy":"تعمیر"},"geometry":{"x":7845479.7726254687,"y":4585090.3244327605}},{"attributes":{"OBJECTID":1844,"ولایت":"بدخشان","Province":"BADAKHSHAN","PC_Code":"1721252","ولسوالي":"کوف آب","District":"KUFAB","د_مرکز_نوم__نام_مرکز":"مکتب پدیو","Polling_Center_Name":"Padyo School","د_مرکز_ځای__موقعیت_مرکز":"پدیو","Polling_Center_Location":"Padyo","Verification_Note":"Building","PS_Male":1,"PS_Female":1,"Map_Accuracy":"تعمیر"},"geometry":{"x":7848947.5628936216,"y":4574672.6298481449}},{"attributes":{"OBJECTID":1845,"ولایت":"بدخشان","Province":"BADAKHSHAN","PC_Code":"1722261","ولسوالي":"درواز پائین (مایمی)","District":"DARWAZ-E-PAYIN","د_مرکز_نوم__نام_مرکز":"مدرسه چار باغ","Polling_Center_Name":"Charbagh Madrassa","د_مرکز_ځای__موقعیت_مرکز":"مدرسه","Polling_Center_Location":"Madrassa","Verification_Note":"Village","PS_Male":1,"PS_Female":2,"Map_Accuracy":"قریه"},"geometry":{"x":7909334.2010361105,"y":4636699.9000396356}},{"attributes":{"OBJECTID":1846,"ولایت":"بدخشان","Province":"BADAKHSHAN","PC_Code":"1722267","ولسوالي":"درواز پائین (مایمی)","District":"DARWAZ-E-PAYIN","د_مرکز_نوم__نام_مرکز":"مکتب تنگ شیو","Polling_Center_Name":"Tang Shew School","د_مرکز_ځای__موقعیت_مرکز":"تنگ شیو","Polling_Center_Location":"Tang Shew","Verification_Note":"District","PS_Male":1,"PS_Female":1,"Map_Accuracy":"ولسوالی"},"geometry":{"x":7897702.6221409179,"y":4620670.3097534627}},{"attributes":{"OBJECTID":1847,"ولایت":"بدخشان","Province":"BADAKHSHAN","PC_Code":"1727272","ولسوالي":"درواز بالا (نسی) ","District":"DARWAZ-E-BALA","د_مرکز_نوم__نام_مرکز":"مکتب اوباغون","Polling_Center_Name":"Awbaghoon School","د_مرکز_ځای__موقعیت_مرکز":"اوباغون","Polling_Center_Location":"Awbaghoon","Verification_Note":"Village","PS_Male":2,"PS_Female":1,"Map_Accuracy":"قریه"},"geometry":{"x":7894852.1553334743,"y":4640399.156258814}},{"attributes":{"OBJECTID":1848,"ولایت":"بدخشان","Province":"BADAKHSHAN","PC_Code":"1727273","ولسوالي":"درواز بالا (نسی) ","District":"DARWAZ-E-BALA","د_مرکز_نوم__نام_مرکز":"مکتب آرون","Polling_Center_Name":"Aaroon School","د_مرکز_ځای__موقعیت_مرکز":" آرون","Polling_Center_Location":"Aaroon","Verification_Note":"Village","PS_Male":2,"PS_Female":1,"Map_Accuracy":"قریه"},"geometry":{"x":7885894.6811122857,"y":4622727.1044436991}},{"attributes":{"OBJECTID":1849,"ولایت":"بدخشان","Province":"BADAKHSHAN","PC_Code":"1727275","ولسوالي":"درواز بالا (نسی) ","District":"DARWAZ-E-BALA","د_مرکز_نوم__نام_مرکز":"مکتب مه گی جاوای","Polling_Center_Name":"Magai Jawai School","د_مرکز_ځای__موقعیت_مرکز":"مه گی جاوای","Polling_Center_Location":"Magai Jawai","Verification_Note":"Village","PS_Male":2,"PS_Female":1,"Map_Accuracy":"قریه"},"geometry":{"x":7882572.1616664231,"y":4623628.6866549477}},{"attributes":{"OBJECTID":1850,"ولایت":"بدخشان","Province":"BADAKHSHAN","PC_Code":"1728203","ولسوالي":"واخان","District":"WAKHAN","د_مرکز_نوم__نام_مرکز":"مکتب قاضی ده ","Polling_Center_Name":"Qazi Deh School","د_مرکز_ځای__موقعیت_مرکز":"قاضی ده ","Polling_Center_Location":"Qazi Deh","Verification_Note":"Building","PS_Male":1,"PS_Female":1,"Map_Accuracy":"تعمیر"},"geometry":{"x":7987038.7667203285,"y":4393247.1813734174}},{"attributes":{"OBJECTID":1851,"ولایت":"بدخشان","Province":"BADAKHSHAN","PC_Code":"1728211","ولسوالي":"واخان","District":"WAKHAN","د_مرکز_نوم__نام_مرکز":"مکتب متوسطه سست ","Polling_Center_Name":"Khana Qala Panja Mosque","د_مرکز_ځای__موقعیت_مرکز":"سست","Polling_Center_Location":"Sast","Verification_Note":"Building","PS_Male":1,"PS_Female":1,"Map_Accuracy":"تعمیر"},"geometry":{"x":8103414.787531849,"y":4435888.7931067124}},{"attributes":{"OBJECTID":1852,"ولایت":"بدخشان","Province":"BADAKHSHAN","PC_Code":"1701008","ولسوالي":"فیض آباد","District":"FAIZ ABAD","د_مرکز_نوم__نام_مرکز":"مسجد جامع اتفاق","Polling_Center_Name":"Itifaq Mosque","د_مرکز_ځای__موقعیت_مرکز":"ناحیه اول","Polling_Center_Location":"D01 - Zone One","Verification_Note":"Building","PS_Male":3,"PS_Female":2,"Map_Accuracy":"تعمیر"},"geometry":{"x":7856617.8431635983,"y":4455737.5366678834}},{"attributes":{"OBJECTID":1853,"ولایت":"بدخشان","Province":"BADAKHSHAN","PC_Code":"1701009","ولسوالي":"فیض آباد","District":"FAIZ ABAD","د_مرکز_نوم__نام_مرکز":"مکتب ضیاوالدین شهید","Polling_Center_Name":"Ziauddin Shaheed School","د_مرکز_ځای__موقعیت_مرکز":"قریه آس","Polling_Center_Location":"Aas Village","Verification_Note":"Building","PS_Male":2,"PS_Female":1,"Map_Accuracy":"تعمیر"},"geometry":{"x":7851310.695345588,"y":4460983.9232517332}},{"attributes":{"OBJECTID":1854,"ولایت":"بدخشان","Province":"BADAKHSHAN","PC_Code":"1701019","ولسوالي":"فیض آباد","District":"FAIZ ABAD","د_مرکز_نوم__نام_مرکز":"تعمیر کهنه لیسه عالی مخفی ","Polling_Center_Name":"Makhfi High School Old Building","د_مرکز_ځای__موقعیت_مرکز":"ناحیه اول شهر کهنه","Polling_Center_Location":"Nahia 1 Shahr Kuhna","Verification_Note":"Building","PS_Male":3,"PS_Female":2,"Map_Accuracy":"تعمیر"},"geometry":{"x":7857023.38340814,"y":4455497.5310245454}},{"attributes":{"OBJECTID":1855,"ولایت":"بدخشان","Province":"BADAKHSHAN","PC_Code":"1702056","ولسوالي":"ارگو","District":"ARGO","د_مرکز_نوم__نام_مرکز":"لیسه نسوان شهر وحدت ","Polling_Center_Name":"Shahr-e-Wahdat Girls High School","د_مرکز_ځای__موقعیت_مرکز":" شهر وحدت","Polling_Center_Location":"Shahr-e-Wahdat","Verification_Note":"Building","PS_Male":3,"PS_Female":1,"Map_Accuracy":"تعمیر"},"geometry":{"x":7839259.4365154393,"y":4446338.2114826292}},{"attributes":{"OBJECTID":1856,"ولایت":"بدخشان","Province":"BADAKHSHAN","PC_Code":"1702057","ولسوالي":"ارگو","District":"ARGO","د_مرکز_نوم__نام_مرکز":"مکتب برلاس چنار","Polling_Center_Name":"Barlaas Chenar School","د_مرکز_ځای__موقعیت_مرکز":"برلاس چنار","Polling_Center_Location":"Barlaas Chenar","Verification_Note":"Building","PS_Male":2,"PS_Female":1,"Map_Accuracy":"تعمیر"},"geometry":{"x":7829044.1210663766,"y":4445778.797624819}},{"attributes":{"OBJECTID":1857,"ولایت":"بدخشان","Province":"BADAKHSHAN","PC_Code":"1704025","ولسوالي":"یفتل سفلا","District":"YAFTAL-E-SUFLA","د_مرکز_نوم__نام_مرکز":"کلینیک نالند مرکز ولسوالی","Polling_Center_Name":"Naland Clinic - District Office","د_مرکز_ځای__موقعیت_مرکز":"نالند","Polling_Center_Location":"Naland","Verification_Note":"Building","PS_Male":2,"PS_Female":2,"Map_Accuracy":"تعمیر"},"geometry":{"x":7838461.0041468963,"y":4478464.6202829778}},{"attributes":{"OBJECTID":1858,"ولایت":"بدخشان","Province":"BADAKHSHAN","PC_Code":"1704026","ولسوالي":"یفتل سفلا","District":"YAFTAL-E-SUFLA","د_مرکز_نوم__نام_مرکز":"مکتب اناردره ","Polling_Center_Name":"Anar Dara School","د_مرکز_ځای__موقعیت_مرکز":"انار دره","Polling_Center_Location":"Anar Dara","Verification_Note":"Building","PS_Male":3,"PS_Female":1,"Map_Accuracy":"تعمیر"},"geometry":{"x":7822562.95782344,"y":4469780.125180833}},{"attributes":{"OBJECTID":1859,"ولایت":"بدخشان","Province":"BADAKHSHAN","PC_Code":"1704031","ولسوالي":"یفتل سفلا","District":"YAFTAL-E-SUFLA","د_مرکز_نوم__نام_مرکز":"مکتب کشت گاه ","Polling_Center_Name":"Keshtgaah School","د_مرکز_ځای__موقعیت_مرکز":"دشت شیبر","Polling_Center_Location":"Dasht Shebar","Verification_Note":"Building","PS_Male":1,"PS_Female":2,"Map_Accuracy":"تعمیر"},"geometry":{"x":7829730.5626875944,"y":4486549.6686342806}},{"attributes":{"OBJECTID":1860,"ولایت":"بدخشان","Province":"BADAKHSHAN","PC_Code":"1704032","ولسوالي":"یفتل سفلا","District":"YAFTAL-E-SUFLA","د_مرکز_نوم__نام_مرکز":"مکتب شلخزار ","Polling_Center_Name":"Shalakhzar School","د_مرکز_ځای__موقعیت_مرکز":"شلخزار ","Polling_Center_Location":"Shalakhzar","Verification_Note":"Building","PS_Male":2,"PS_Female":1,"Map_Accuracy":"تعمیر"},"geometry":{"x":7831277.4583316557,"y":4494754.4212858826}},{"attributes":{"OBJECTID":1861,"ولایت":"بدخشان","Province":"BADAKHSHAN","PC_Code":"1705077","ولسوالي":"خاش","District":"KHASH","د_مرکز_نوم__نام_مرکز":"لیسه نسوان تاجکان ","Polling_Center_Name":"Tajekan Girls High School","د_مرکز_ځای__موقعیت_مرکز":"تاجکان","Polling_Center_Location":"Tajekan","Verification_Note":"Building","PS_Male":2,"PS_Female":2,"Map_Accuracy":"تعمیر"},"geometry":{"x":7872184.9800555222,"y":4437885.8251552358}},{"attributes":{"OBJECTID":1862,"ولایت":"بدخشان","Province":"BADAKHSHAN","PC_Code":"1705078","ولسوالي":"خاش","District":"KHASH","د_مرکز_نوم__نام_مرکز":"مکتب متوسطه درخان ","Polling_Center_Name":"Durkhaan Secondary School","د_مرکز_ځای__موقعیت_مرکز":"درخان","Polling_Center_Location":"Durkhaan","Verification_Note":"Building","PS_Male":2,"PS_Female":2,"Map_Accuracy":"تعمیر"},"geometry":{"x":7875793.20431409,"y":4442763.847260274}},{"attributes":{"OBJECTID":1863,"ولایت":"بدخشان","Province":"BADAKHSHAN","PC_Code":"1706112","ولسوالي":"بهارک","District":"BAHARAK","د_مرکز_نوم__نام_مرکز":"مکتب علی مغل","Polling_Center_Name":"Ali Maghul School","د_مرکز_ځای__موقعیت_مرکز":"علی مغل","Polling_Center_Location":"Ali Maghul","Verification_Note":"Building","PS_Male":1,"PS_Female":1,"Map_Accuracy":"تعمیر"},"geometry":{"x":7899276.0297462307,"y":4433659.5283453092}},{"attributes":{"OBJECTID":1864,"ولایت":"بدخشان","Province":"BADAKHSHAN","PC_Code":"1707063","ولسوالي":"درایم","District":"DARAYIM","د_مرکز_نوم__نام_مرکز":"لیسه عالی مدینه ","Polling_Center_Name":"Madina High School","د_مرکز_ځای__موقعیت_مرکز":"قریه فاضلان","Polling_Center_Location":"Fazlan Village","Verification_Note":"Building","PS_Male":2,"PS_Female":1,"Map_Accuracy":"تعمیر"},"geometry":{"x":7831123.5980974622,"y":4429420.1238843352}},{"attributes":{"OBJECTID":1865,"ولایت":"بدخشان","Province":"BADAKHSHAN","PC_Code":"1707068","ولسوالي":"درایم","District":"DARAYIM","د_مرکز_نوم__نام_مرکز":"مسجد جامع نو آباد روی دشت ","Polling_Center_Name":"Naw Abaad Roy Dasht Mosque","د_مرکز_ځای__موقعیت_مرکز":"حویلی صاحب الدین","Polling_Center_Location":"Sahibuddin House","Verification_Note":"Building","PS_Male":2,"PS_Female":1,"Map_Accuracy":"تعمیر"},"geometry":{"x":7833803.5101979859,"y":4425612.458820641}},{"attributes":{"OBJECTID":1866,"ولایت":"بدخشان","Province":"BADAKHSHAN","PC_Code":"1707071","ولسوالي":"درایم","District":"DARAYIM","د_مرکز_نوم__نام_مرکز":"لیسه عارفان ","Polling_Center_Name":"Aarifan High School","د_مرکز_ځای__موقعیت_مرکز":" باغ صوفی","Polling_Center_Location":"Bagh Sufi","Verification_Note":"Building","PS_Male":2,"PS_Female":1,"Map_Accuracy":"تعمیر"},"geometry":{"x":7845714.39737663,"y":4419474.7283216342}},{"attributes":{"OBJECTID":1867,"ولایت":"بدخشان","Province":"BADAKHSHAN","PC_Code":"1707072","ولسوالي":"درایم","District":"DARAYIM","د_مرکز_نوم__نام_مرکز":"لیسه دو آب منجی ","Polling_Center_Name":"Do-Aab Manji High School","د_مرکز_ځای__موقعیت_مرکز":"دو آب","Polling_Center_Location":"Do-Aab","Verification_Note":"Building","PS_Male":2,"PS_Female":1,"Map_Accuracy":"تعمیر"},"geometry":{"x":7851300.7400435284,"y":4417412.6399723291}},{"attributes":{"OBJECTID":1868,"ولایت":"بدخشان","Province":"BADAKHSHAN","PC_Code":"1709134","ولسوالي":"یاوان","District":"YAWAN","د_مرکز_نوم__نام_مرکز":"مکتب زو ","Polling_Center_Name":"Zo School","د_مرکز_ځای__موقعیت_مرکز":"زو","Polling_Center_Location":"Zo","Verification_Note":"Building","PS_Male":2,"PS_Female":1,"Map_Accuracy":"تعمیر"},"geometry":{"x":7846444.14450616,"y":4509966.0978210419}},{"attributes":{"OBJECTID":1869,"ولایت":"بدخشان","Province":"BADAKHSHAN","PC_Code":"1709135","ولسوالي":"یاوان","District":"YAWAN","د_مرکز_نوم__نام_مرکز":"مکتب پیتاو ","Polling_Center_Name":"Petaaw School","د_مرکز_ځای__موقعیت_مرکز":"پیتاو","Polling_Center_Location":"Petaaw","Verification_Note":"Building","PS_Male":1,"PS_Female":1,"Map_Accuracy":"تعمیر"},"geometry":{"x":7849126.00581098,"y":4512051.7780605108}},{"attributes":{"OBJECTID":1870,"ولایت":"بدخشان","Province":"BADAKHSHAN","PC_Code":"1710083","ولسوالي":"جرم","District":"JURM","د_مرکز_نوم__نام_مرکز":"مکتب اسکان ","Polling_Center_Name":"Askaan School","د_مرکز_ځای__موقعیت_مرکز":"اسکان","Polling_Center_Location":"Askaan","Verification_Note":"Building","PS_Male":1,"PS_Female":1,"Map_Accuracy":"تعمیر"},"geometry":{"x":7887773.4747049548,"y":4389879.3605530709}},{"attributes":{"OBJECTID":1871,"ولایت":"بدخشان","Province":"BADAKHSHAN","PC_Code":"1710084","ولسوالي":"جرم","District":"JURM","د_مرکز_نوم__نام_مرکز":"لیسه غلام محمد خر انداب","Polling_Center_Name":"Ghulam Mohammad Khar Andab High School","د_مرکز_ځای__موقعیت_مرکز":"خر انداب","Polling_Center_Location":"Khar Andab","Verification_Note":"Building","PS_Male":2,"PS_Female":2,"Map_Accuracy":"تعمیر"},"geometry":{"x":7885768.0095505156,"y":4418675.3087736294}},{"attributes":{"OBJECTID":1872,"ولایت":"بدخشان","Province":"BADAKHSHAN","PC_Code":"1713137","ولسوالي":"شهر بزرگ","District":"SHAHR-E-BUZURG","د_مرکز_نوم__نام_مرکز":"لیسه خوردکان","Polling_Center_Name":"Khordakan High School","د_مرکز_ځای__موقعیت_مرکز":"خورده کان","Polling_Center_Location":"Khordakan","Verification_Note":"Building","PS_Male":2,"PS_Female":2,"Map_Accuracy":"تعمیر"},"geometry":{"x":7811083.0574117415,"y":4482555.3810400888}},{"attributes":{"OBJECTID":1873,"ولایت":"بدخشان","Province":"BADAKHSHAN","PC_Code":"1713138","ولسوالي":"شهر بزرگ","District":"SHAHR-E-BUZURG","د_مرکز_نوم__نام_مرکز":"مکتب کره مابین ","Polling_Center_Name":"Kura Been School","د_مرکز_ځای__موقعیت_مرکز":"کره بین","Polling_Center_Location":"Kura Been","Verification_Note":"Building","PS_Male":1,"PS_Female":1,"Map_Accuracy":"تعمیر"},"geometry":{"x":7811747.0926458538,"y":4492461.69438491}},{"attributes":{"OBJECTID":1874,"ولایت":"بدخشان","Province":"BADAKHSHAN","PC_Code":"1713143","ولسوالي":"شهر بزرگ","District":"SHAHR-E-BUZURG","د_مرکز_نوم__نام_مرکز":"باری خم ","Polling_Center_Name":"Baari Kham ","د_مرکز_ځای__موقعیت_مرکز":"بری خم ","Polling_Center_Location":"Baari Kham","Verification_Note":"Building","PS_Male":1,"PS_Female":1,"Map_Accuracy":"تعمیر"},"geometry":{"x":7797847.26569118,"y":4488817.4144311845}},{"attributes":{"OBJECTID":1875,"ولایت":"بدخشان","Province":"BADAKHSHAN","PC_Code":"1713144","ولسوالي":"شهر بزرگ","District":"SHAHR-E-BUZURG","د_مرکز_نوم__نام_مرکز":"لیسه چوگانی ","Polling_Center_Name":"Chawgani High School","د_مرکز_ځای__موقعیت_مرکز":"چوگانی ","Polling_Center_Location":"Chawgani","Verification_Note":"Building","PS_Male":2,"PS_Female":1,"Map_Accuracy":"تعمیر"},"geometry":{"x":7807653.99408124,"y":4496493.0817548558}},{"attributes":{"OBJECTID":1876,"ولایت":"بدخشان","Province":"BADAKHSHAN","PC_Code":"1715162","ولسوالي":"کشم","District":"KISHM","د_مرکز_نوم__نام_مرکز":"مکتب وخشی","Polling_Center_Name":"Wakhshi School","د_مرکز_ځای__موقعیت_مرکز":"وخشی","Polling_Center_Location":"Wakhshi","Verification_Note":"Building","PS_Male":1,"PS_Female":1,"Map_Accuracy":"تعمیر"},"geometry":{"x":7812245.7661159821,"y":4414946.8622211814}},{"attributes":{"OBJECTID":1877,"ولایت":"بدخشان","Province":"BADAKHSHAN","PC_Code":"1715163","ولسوالي":"کشم","District":"KISHM","د_مرکز_نوم__نام_مرکز":"مکتب خمبک","Polling_Center_Name":"Khumbak School","د_مرکز_ځای__موقعیت_مرکز":"خمبک","Polling_Center_Location":"Khumbak","Verification_Note":"Building","PS_Male":1,"PS_Female":1,"Map_Accuracy":"تعمیر"},"geometry":{"x":7811392.845083084,"y":4415639.0142312571}},{"attributes":{"OBJECTID":1878,"ولایت":"بدخشان","Province":"BADAKHSHAN","PC_Code":"1716098","ولسوالي":"وردوج","District":"WARDOOJ","د_مرکز_نوم__نام_مرکز":"لیسه نسوان تیر گران ","Polling_Center_Name":"Teer Garan Girls High School","د_مرکز_ځای__موقعیت_مرکز":"تیر گران","Polling_Center_Location":"Teer Garan","Verification_Note":"Building","PS_Male":1,"PS_Female":1,"Map_Accuracy":"تعمیر"},"geometry":{"x":7919283.0605935492,"y":4395826.893552117}},{"attributes":{"OBJECTID":1879,"ولایت":"بدخشان","Province":"BADAKHSHAN","PC_Code":"1719221","ولسوالي":"شغنان","District":"SHIGHNAN","د_مرکز_نوم__نام_مرکز":"لیسه چاسنور علیا ","Polling_Center_Name":"Chansoor Ulya High School","د_مرکز_ځای__موقعیت_مرکز":"چاسنور علیا","Polling_Center_Location":"Chansor Ulya","Verification_Note":"Building","PS_Male":1,"PS_Female":1,"Map_Accuracy":"تعمیر"},"geometry":{"x":7964087.7734950446,"y":4547621.6286439672}},{"attributes":{"OBJECTID":1880,"ولایت":"بدخشان","Province":"BADAKHSHAN","PC_Code":"1720238","ولسوالي":"خواهان","District":"KHWAHAN","د_مرکز_نوم__نام_مرکز":"مسجد جامع سنگ آب ","Polling_Center_Name":"Sang Aab Mosque","د_مرکز_ځای__موقعیت_مرکز":"سنگ آب ","Polling_Center_Location":"Sang Aab","Verification_Note":"Building","PS_Male":1,"PS_Female":1,"Map_Accuracy":"تعمیر"},"geometry":{"x":7817009.2083902545,"y":4563144.22273045}},{"attributes":{"OBJECTID":1881,"ولایت":"بدخشان","Province":"BADAKHSHAN","PC_Code":"1723199","ولسوالي":"اشکاشم","District":"ESHKASHIM","د_مرکز_نوم__نام_مرکز":"مکتب یخدرو ","Polling_Center_Name":"Yakhdaro School","د_مرکز_ځای__موقعیت_مرکز":"یخدرو","Polling_Center_Location":"Yakhdaro","Verification_Note":"Building","PS_Male":1,"PS_Female":1,"Map_Accuracy":"تعمیر"},"geometry":{"x":7961869.4309651665,"y":4418923.2302536741}},{"attributes":{"OBJECTID":1882,"ولایت":"بدخشان","Province":"BADAKHSHAN","PC_Code":"1723200","ولسوالي":"اشکاشم","District":"ESHKASHIM","د_مرکز_نوم__نام_مرکز":"مکتب زیچ","Polling_Center_Name":"Zeech School","د_مرکز_ځای__موقعیت_مرکز":"زیچ","Polling_Center_Location":"Zeech","Verification_Note":"Building","PS_Male":1,"PS_Female":1,"Map_Accuracy":"تعمیر"},"geometry":{"x":7951493.39688807,"y":4447475.5861648768}},{"attributes":{"OBJECTID":1883,"ولایت":"بدخشان","Province":"BADAKHSHAN","PC_Code":"1725193","ولسوالي":"زیباک","District":"ZEBAK","د_مرکز_نوم__نام_مرکز":"مکتب عاشور بیک ","Polling_Center_Name":"Aashor Bek School","د_مرکز_ځای__موقعیت_مرکز":"زرخان","Polling_Center_Location":"Zarkhan","Verification_Note":"Building","PS_Male":1,"PS_Female":1,"Map_Accuracy":"تعمیر"},"geometry":{"x":7947006.3642490245,"y":4383864.111661233}},{"attributes":{"OBJECTID":1884,"ولایت":"بدخشان","Province":"BADAKHSHAN","PC_Code":"1725194","ولسوالي":"زیباک","District":"ZEBAK","د_مرکز_نوم__نام_مرکز":"مکتب دند قریه دند","Polling_Center_Name":"Dand School","د_مرکز_ځای__موقعیت_مرکز":"دند","Polling_Center_Location":"Dand Village","Verification_Note":"Building","PS_Male":1,"PS_Female":1,"Map_Accuracy":"تعمیر"},"geometry":{"x":7947298.9563986249,"y":4379761.0600283444}},{"attributes":{"OBJECTID":1885,"ولایت":"بدخشان","Province":"BADAKHSHAN","PC_Code":"1726191","ولسوالي":"کران و منجان ","District":"KIRAN WA MENJAN","د_مرکز_نوم__نام_مرکز":"کلینیک شهران","Polling_Center_Name":"Shahran Clinic","د_مرکز_ځای__موقعیت_مرکز":"شهران","Polling_Center_Location":"Shahran","Verification_Note":"Building","PS_Male":1,"PS_Female":1,"Map_Accuracy":"تعمیر"},"geometry":{"x":7892636.1449469328,"y":4298135.311844632}},{"attributes":{"OBJECTID":1886,"ولایت":"بدخشان","Province":"BADAKHSHAN","PC_Code":"1727268","ولسوالي":"درواز بالا (نسی) ","District":"DARWAZ-E-BALA","د_مرکز_نوم__نام_مرکز":"مدرسه خرکد","Polling_Center_Name":"Khurkad Madrassa","د_مرکز_ځای__موقعیت_مرکز":"خرکد","Polling_Center_Location":"Khurkad","Verification_Note":"Village","PS_Male":3,"PS_Female":1,"Map_Accuracy":"قریه"},"geometry":{"x":7895680.858811155,"y":4618187.2835380584}},{"attributes":{"OBJECTID":1887,"ولایت":"بدخشان","Province":"BADAKHSHAN","PC_Code":"1708296","ولسوالي":"کوهستان","District":"KOHISTAN","د_مرکز_نوم__نام_مرکز":"مسجد زرنود ","Polling_Center_Name":"Zard noor Mosque","د_مرکز_ځای__موقعیت_مرکز":"زرنود بالا","Polling_Center_Location":"Zarnod bala","Verification_Note":"Building","PS_Male":2,"PS_Female":1,"Map_Accuracy":"تعمیر"},"geometry":{"x":7855536.3813236617,"y":4502444.7770994231}},{"attributes":{"OBJECTID":1888,"ولایت":"بدخشان","Province":"BADAKHSHAN","PC_Code":"1709297","ولسوالي":"یاوان","District":"YAWAN","د_مرکز_نوم__نام_مرکز":"مکتب ریمان","Polling_Center_Name":"Riman School","د_مرکز_ځای__موقعیت_مرکز":"ریمان","Polling_Center_Location":"Riman","Verification_Note":"Building","PS_Male":2,"PS_Female":1,"Map_Accuracy":"تعمیر"},"geometry":{"x":7816751.1872877553,"y":4515221.777186431}},{"attributes":{"OBJECTID":1889,"ولایت":"بدخشان","Province":"BADAKHSHAN","PC_Code":"1709298","ولسوالي":"یاوان","District":"YAWAN","د_مرکز_نوم__نام_مرکز":"مسجد جامع افچ","Polling_Center_Name":"Afch Mosque","د_مرکز_ځای__موقعیت_مرکز":"افچ","Polling_Center_Location":"Afch","Verification_Note":"Building","PS_Male":2,"PS_Female":1,"Map_Accuracy":"تعمیر"},"geometry":{"x":7825956.5166928992,"y":4521812.8062790856}},{"attributes":{"OBJECTID":1890,"ولایت":"بدخشان","Province":"BADAKHSHAN","PC_Code":"1702288","ولسوالي":"ارگو","District":"ARGO","د_مرکز_نوم__نام_مرکز":" مسجد جامع علی","Polling_Center_Name":"Ali Mosque","د_مرکز_ځای__موقعیت_مرکز":"علی منگو","Polling_Center_Location":"Ali mango","Verification_Note":"Building","PS_Male":2,"PS_Female":1,"Map_Accuracy":"تعمیر"},"geometry":{"x":7844305.5474746265,"y":4435865.5564116016}},{"attributes":{"OBJECTID":1891,"ولایت":"بدخشان","Province":"BADAKHSHAN","PC_Code":"1702289","ولسوالي":"ارگو","District":"ARGO","د_مرکز_نوم__نام_مرکز":"لیسه شهباز خان شهید ","Polling_Center_Name":"Shahbaz khan shaheed High school","د_مرکز_ځای__موقعیت_مرکز":"جته","Polling_Center_Location":"Juta","Verification_Note":"Building","PS_Male":2,"PS_Female":1,"Map_Accuracy":"تعمیر"},"geometry":{"x":7849810.5074674264,"y":4459714.4668762982}},{"attributes":{"OBJECTID":1892,"ولایت":"بدخشان","Province":"BADAKHSHAN","PC_Code":"1701004","ولسوالي":"فیض آباد","District":"FAIZ ABAD","د_مرکز_نوم__نام_مرکز":"مکتب سر قول","Polling_Center_Name":"Sar Qol School","د_مرکز_ځای__موقعیت_مرکز":"سر قول یفتل علیا","Polling_Center_Location":"Sar Qol Yaftal Ulya","Verification_Note":"Building","PS_Male":1,"PS_Female":1,"Map_Accuracy":"تعمیر"},"geometry":{"x":7857652.7693375573,"y":4466404.8642614633}},{"attributes":{"OBJECTID":1893,"ولایت":"بدخشان","Province":"BADAKHSHAN","PC_Code":"1701005","ولسوالي":"فیض آباد","District":"FAIZ ABAD","د_مرکز_نوم__نام_مرکز":"مکتب ده کلان ","Polling_Center_Name":"Deh Kalan School","د_مرکز_ځای__موقعیت_مرکز":"ده کلان یفتل علیا","Polling_Center_Location":"Deh Kalan Yaftal Ulya","Verification_Note":"Building","PS_Male":1,"PS_Female":1,"Map_Accuracy":"تعمیر"},"geometry":{"x":7849418.25064376,"y":4470472.7214894667}},{"attributes":{"OBJECTID":1894,"ولایت":"بدخشان","Province":"BADAKHSHAN","PC_Code":"1704034","ولسوالي":"یفتل سفلا","District":"YAFTAL-E-SUFLA","د_مرکز_نوم__نام_مرکز":"مکتب اناثت سپین ","Polling_Center_Name":"Speen Girls School","د_مرکز_ځای__موقعیت_مرکز":"قریه سپین","Polling_Center_Location":"Speen Village","Verification_Note":"Building","PS_Male":2,"PS_Female":1,"Map_Accuracy":"تعمیر"},"geometry":{"x":7836026.33333737,"y":4484854.9090140611}},{"attributes":{"OBJECTID":1895,"ولایت":"بدخشان","Province":"BADAKHSHAN","PC_Code":"1705073","ولسوالي":"خاش","District":"KHASH","د_مرکز_نوم__نام_مرکز":"لیسه نسوان سر لوله ","Polling_Center_Name":"Sar Lola High school","د_مرکز_ځای__موقعیت_مرکز":"ظلم آباد","Polling_Center_Location":"Zulm Abad","Verification_Note":"Building","PS_Male":2,"PS_Female":2,"Map_Accuracy":"تعمیر"},"geometry":{"x":7878935.4607689194,"y":4423465.7689250186}},{"attributes":{"OBJECTID":1896,"ولایت":"بدخشان","Province":"BADAKHSHAN","PC_Code":"1705074","ولسوالي":"خاش","District":"KHASH","د_مرکز_نوم__نام_مرکز":"لیسه غلام احمد ","Polling_Center_Name":"Ghulam Mohammad High School","د_مرکز_ځای__موقعیت_مرکز":"ده پاره","Polling_Center_Location":"Deh Para","Verification_Note":"Building","PS_Male":1,"PS_Female":1,"Map_Accuracy":"تعمیر"},"geometry":{"x":7875626.4577356391,"y":4426043.0870440677}},{"attributes":{"OBJECTID":1897,"ولایت":"بدخشان","Province":"BADAKHSHAN","PC_Code":"1712116","ولسوالي":"شهدا","District":"SHUHADA","د_مرکز_نوم__نام_مرکز":"مرکز ولسوالی میدان ","Polling_Center_Name":"Maidan District Office","د_مرکز_ځای__موقعیت_مرکز":"میدان","Polling_Center_Location":"Maidan","Verification_Note":"Building","PS_Male":1,"PS_Female":1,"Map_Accuracy":"تعمیر"},"geometry":{"x":7914981.7104236223,"y":4447215.3697234839}},{"attributes":{"OBJECTID":1898,"ولایت":"بدخشان","Province":"BADAKHSHAN","PC_Code":"1712117","ولسوالي":"شهدا","District":"SHUHADA","د_مرکز_نوم__نام_مرکز":"مکتب حامدی ","Polling_Center_Name":"Hamedi School","د_مرکز_ځای__موقعیت_مرکز":"شکران","Polling_Center_Location":"Shakran","Verification_Note":"Building","PS_Male":1,"PS_Female":1,"Map_Accuracy":"تعمیر"},"geometry":{"x":7918646.2044583857,"y":4449134.3152223751}},{"attributes":{"OBJECTID":1899,"ولایت":"بدخشان","Province":"BADAKHSHAN","PC_Code":"1713146","ولسوالي":"شهر بزرگ","District":"SHAHR-E-BUZURG","د_مرکز_نوم__نام_مرکز":"مکتب متوسطه آب گنده ","Polling_Center_Name":"Aab Gandah Secondary School","د_مرکز_ځای__موقعیت_مرکز":"آب گنده","Polling_Center_Location":"Aab Gandah","Verification_Note":"Building","PS_Male":1,"PS_Female":1,"Map_Accuracy":"تعمیر"},"geometry":{"x":7818884.7893024161,"y":4507562.0723814964}},{"attributes":{"OBJECTID":1900,"ولایت":"بدخشان","Province":"BADAKHSHAN","PC_Code":"1714234","ولسوالي":"راغستان ","District":"RAGHISTAN","د_مرکز_نوم__نام_مرکز":"مکتب آجرش","Polling_Center_Name":"Aajresh School","د_مرکز_ځای__موقعیت_مرکز":"آجرش ","Polling_Center_Location":"Aajresh","Verification_Note":"Building","PS_Male":2,"PS_Female":2,"Map_Accuracy":"تعمیر"},"geometry":{"x":7858980.8431453668,"y":4517160.490692988}},{"attributes":{"OBJECTID":1901,"ولایت":"بدخشان","Province":"BADAKHSHAN","PC_Code":"1714235","ولسوالي":"راغستان ","District":"RAGHISTAN","د_مرکز_نوم__نام_مرکز":"مسجد سلام ده","Polling_Center_Name":"Salam Deh Mosque","د_مرکز_ځای__موقعیت_مرکز":"سلام ده","Polling_Center_Location":"Salam Deh","Verification_Note":"Village","PS_Male":2,"PS_Female":2,"Map_Accuracy":"قریه"},"geometry":{"x":7836904.3736133575,"y":4537200.3057982251}},{"attributes":{"OBJECTID":1902,"ولایت":"بدخشان","Province":"BADAKHSHAN","PC_Code":"1715154","ولسوالي":"کشم","District":"KISHM","د_مرکز_نوم__نام_مرکز":"مکتب گندم قول ","Polling_Center_Name":"Gandum Qol School","د_مرکز_ځای__موقعیت_مرکز":"گندم قول","Polling_Center_Location":"Gandum Qol","Verification_Note":"Building","PS_Male":3,"PS_Female":2,"Map_Accuracy":"تعمیر"},"geometry":{"x":7815309.975362625,"y":4420194.2723333836}},{"attributes":{"OBJECTID":1903,"ولایت":"بدخشان","Province":"BADAKHSHAN","PC_Code":"1717168","ولسوالي":"تگاب","District":"TAGAB","د_مرکز_نوم__نام_مرکز":"مکتب کرسده","Polling_Center_Name":"Karsada School","د_مرکز_ځای__موقعیت_مرکز":"قریه کرسده ","Polling_Center_Location":"Karsada Village","Verification_Note":"Building","PS_Male":1,"PS_Female":1,"Map_Accuracy":"تعمیر"},"geometry":{"x":7819574.1786637641,"y":4387852.48350504}},{"attributes":{"OBJECTID":1904,"ولایت":"بدخشان","Province":"BADAKHSHAN","PC_Code":"1718258","ولسوالي":"یمگان","District":"YAMGAN","د_مرکز_نوم__نام_مرکز":"مکتب گوهر ","Polling_Center_Name":"Gawhar School","د_مرکز_ځای__موقعیت_مرکز":"گوهر ","Polling_Center_Location":"Gawhar","Verification_Note":"Building","PS_Male":2,"PS_Female":1,"Map_Accuracy":"تعمیر"},"geometry":{"x":7877033.916811917,"y":4356425.0864057317}},{"attributes":{"OBJECTID":1905,"ولایت":"بدخشان","Province":"BADAKHSHAN","PC_Code":"1718259","ولسوالي":"یمگان","District":"YAMGAN","د_مرکز_نوم__نام_مرکز":"مکتب لرکی ","Polling_Center_Name":"Larkai School","د_مرکز_ځای__موقعیت_مرکز":"لرکی","Polling_Center_Location":"Larkai","Verification_Note":"Building","PS_Male":2,"PS_Female":2,"Map_Accuracy":"تعمیر"},"geometry":{"x":7866798.5059683733,"y":4344308.002315551}},{"attributes":{"OBJECTID":1906,"ولایت":"بدخشان","Province":"BADAKHSHAN","PC_Code":"1721249","ولسوالي":"کوف آب","District":"KUFAB","د_مرکز_نوم__نام_مرکز":"لیسه دراج ","Polling_Center_Name":"Daraaj High School","د_مرکز_ځای__موقعیت_مرکز":"قریه دراج پایان","Polling_Center_Location":"Daraaj Payan Village","Verification_Note":"Building","PS_Male":2,"PS_Female":1,"Map_Accuracy":"تعمیر"},"geometry":{"x":7872528.1312914528,"y":4569743.1347759217}},{"attributes":{"OBJECTID":1907,"ولایت":"بدخشان","Province":"BADAKHSHAN","PC_Code":"1721250","ولسوالي":"کوف آب","District":"KUFAB","د_مرکز_نوم__نام_مرکز":"مکتب شخرو ","Polling_Center_Name":"Shakhro School","د_مرکز_ځای__موقعیت_مرکز":"شخرو ","Polling_Center_Location":"Shakhro","Verification_Note":"Building","PS_Male":2,"PS_Female":1,"Map_Accuracy":"تعمیر"},"geometry":{"x":7864794.3354596123,"y":4569696.4052180052}},{"attributes":{"OBJECTID":1908,"ولایت":"بدخشان","Province":"BADAKHSHAN","PC_Code":"1722263","ولسوالي":"درواز پائین (مایمی)","District":"DARWAZ-E-PAYIN","د_مرکز_نوم__نام_مرکز":"مکتب ورفد ","Polling_Center_Name":"Warfad School","د_مرکز_ځای__موقعیت_مرکز":"قریه ورفد","Polling_Center_Location":"Warfad Village","Verification_Note":"Village","PS_Male":2,"PS_Female":1,"Map_Accuracy":"قریه"},"geometry":{"x":7917064.4969831631,"y":4633285.7455529273}},{"attributes":{"OBJECTID":1909,"ولایت":"بدخشان","Province":"BADAKHSHAN","PC_Code":"1724276","ولسوالي":"شکی","District":"SHIKI","د_مرکز_نوم__نام_مرکز":"مکتب غمی","Polling_Center_Name":"Ghamai School","د_مرکز_ځای__موقعیت_مرکز":"غمی پایان","Polling_Center_Location":"Ghamai Payan","Verification_Note":"Village","PS_Male":2,"PS_Female":1,"Map_Accuracy":"قریه"},"geometry":{"x":7860002.1148705855,"y":4620041.590583384}},{"attributes":{"OBJECTID":1910,"ولایت":"بدخشان","Province":"BADAKHSHAN","PC_Code":"1724277","ولسوالي":"شکی","District":"SHIKI","د_مرکز_نوم__نام_مرکز":"ماه نو","Polling_Center_Name":"Maah Naw","د_مرکز_ځای__موقعیت_مرکز":"مناو","Polling_Center_Location":"Manaaw","Verification_Note":"Village","PS_Male":1,"PS_Female":2,"Map_Accuracy":"قریه"},"geometry":{"x":7869541.8390091956,"y":4636016.2067504823}},{"attributes":{"OBJECTID":1911,"ولایت":"بدخشان","Province":"BADAKHSHAN","PC_Code":"1724280","ولسوالي":"شکی","District":"SHIKI","د_مرکز_نوم__نام_مرکز":"مکتب سر ناظم","Polling_Center_Name":"Sar Naazem School","د_مرکز_ځای__موقعیت_مرکز":"سر ناظم","Polling_Center_Location":"Sar Naazem","Verification_Note":"Village","PS_Male":1,"PS_Female":1,"Map_Accuracy":"قریه"},"geometry":{"x":7856115.5417912677,"y":4605991.8581675887}},{"attributes":{"OBJECTID":1912,"ولایت":"بدخشان","Province":"BADAKHSHAN","PC_Code":"1724281","ولسوالي":"شکی","District":"SHIKI","د_مرکز_نوم__نام_مرکز":"مکتب خان دره","Polling_Center_Name":"Khan Dara School","د_مرکز_ځای__موقعیت_مرکز":"خان دره","Polling_Center_Location":"Khan Dara","Verification_Note":"Village","PS_Male":1,"PS_Female":1,"Map_Accuracy":"قریه"},"geometry":{"x":7873054.2027146593,"y":4625282.7463865951}},{"attributes":{"OBJECTID":1913,"ولایت":"بدخشان","Province":"BADAKHSHAN","PC_Code":"1728206","ولسوالي":"واخان","District":"WAKHAN","د_مرکز_نوم__نام_مرکز":"لیسه پنجه","Polling_Center_Name":"Panja High School","د_مرکز_ځای__موقعیت_مرکز":"پنجه","Polling_Center_Location":"Panja","Verification_Note":"Building","PS_Male":1,"PS_Female":1,"Map_Accuracy":"تعمیر"},"geometry":{"x":8079374.9458618239,"y":4438971.5826222673}},{"attributes":{"OBJECTID":1914,"ولایت":"بدخشان","Province":"BADAKHSHAN","PC_Code":"1728207","ولسوالي":"واخان","District":"WAKHAN","د_مرکز_نوم__نام_مرکز":"مکتب متوسطه کیپ کوت ","Polling_Center_Name":"Kep Kot Secondary School","د_مرکز_ځای__موقعیت_مرکز":"کیپ کوت ","Polling_Center_Location":"Kep Kot","Verification_Note":"Building","PS_Male":1,"PS_Female":1,"Map_Accuracy":"تعمیر"},"geometry":{"x":8114885.1320558265,"y":4434705.7015105039}},{"attributes":{"OBJECTID":1915,"ولایت":"بدخشان","Province":"BADAKHSHAN","PC_Code":"1701285","ولسوالي":"فیض آباد","District":"FAIZ ABAD","د_مرکز_نوم__نام_مرکز":"لیسه عالی مخفی","Polling_Center_Name":"Makhfi High school","د_مرکز_ځای__موقعیت_مرکز":"گذر محکمه","Polling_Center_Location":"Gozar mahkama","Verification_Note":"Building","PS_Male":2,"PS_Female":1,"Map_Accuracy":"تعمیر"},"geometry":{"x":7857532.785516832,"y":4456504.8857331648}},{"attributes":{"OBJECTID":1916,"ولایت":"بدخشان","Province":"BADAKHSHAN","PC_Code":"1702286","ولسوالي":"ارگو","District":"ARGO","د_مرکز_نوم__نام_مرکز":"مکتب متوسطه گنده چشمه","Polling_Center_Name":"Gnda chasma Secondary High school","د_مرکز_ځای__موقعیت_مرکز":"گنده چشمه","Polling_Center_Location":"Ganda cheshma","Verification_Note":"Building","PS_Male":2,"PS_Female":1,"Map_Accuracy":"تعمیر"},"geometry":{"x":7842379.6406904683,"y":4445959.9554908425}},{"attributes":{"OBJECTID":1917,"ولایت":"بدخشان","Province":"BADAKHSHAN","PC_Code":"1711303","ولسوالي":"تشکان","District":"TASHKAN","د_مرکز_نوم__نام_مرکز":" مکتب پسته خور","Polling_Center_Name":"Pista khor School","د_مرکز_ځای__موقعیت_مرکز":"پسته خور","Polling_Center_Location":"Pista khor","Verification_Note":"Building","PS_Male":2,"PS_Female":1,"Map_Accuracy":"تعمیر"},"geometry":{"x":7812352.9830382653,"y":4435035.194399111}},{"attributes":{"OBJECTID":1918,"ولایت":"بدخشان","Province":"BADAKHSHAN","PC_Code":"1711304","ولسوالي":"تشکان","District":"TASHKAN","د_مرکز_نوم__نام_مرکز":"مکتب حضرت عباس","Polling_Center_Name":"Hazrat abas School","د_مرکز_ځای__موقعیت_مرکز":"توتک","Polling_Center_Location":"Totak","Verification_Note":"Village","PS_Male":2,"PS_Female":1,"Map_Accuracy":"قریه"},"geometry":{"x":7821195.0352001451,"y":4428680.1478162929}},{"attributes":{"OBJECTID":1919,"ولایت":"بدخشان","Province":"BADAKHSHAN","PC_Code":"1713306","ولسوالي":"شهر بزرگ","District":"SHAHR-E-BUZURG","د_مرکز_نوم__نام_مرکز":"مکتب","Polling_Center_Name":"School","د_مرکز_ځای__موقعیت_مرکز":"اسپا خواه","Polling_Center_Location":"Aspa khwa","Verification_Note":"Building","PS_Male":2,"PS_Female":1,"Map_Accuracy":"تعمیر"},"geometry":{"x":7796396.8530988172,"y":4505682.7972585708}},{"attributes":{"OBJECTID":1920,"ولایت":"بدخشان","Province":"BADAKHSHAN","PC_Code":"1713307","ولسوالي":"شهر بزرگ","District":"SHAHR-E-BUZURG","د_مرکز_نوم__نام_مرکز":"مسجد بلبل دره","Polling_Center_Name":"Bul bul dara Mowque","د_مرکز_ځای__موقعیت_مرکز":"بل بل دره","Polling_Center_Location":"Bul bul dara!","Verification_Note":"Building","PS_Male":2,"PS_Female":1,"Map_Accuracy":"تعمیر"},"geometry":{"x":7806212.6798534989,"y":4488061.1879432127}},{"attributes":{"OBJECTID":1921,"ولایت":"بدخشان","Province":"BADAKHSHAN","PC_Code":"1716311","ولسوالي":"وردوج","District":"WARDOOJ","د_مرکز_نوم__نام_مرکز":"مسجد سر قلات","Polling_Center_Name":"Sar qalat Mosque","د_مرکز_ځای__موقعیت_مرکز":"قلات","Polling_Center_Location":"Qalat","Verification_Note":"Building","PS_Male":2,"PS_Female":1,"Map_Accuracy":"تعمیر"},"geometry":{"x":7910143.6370023675,"y":4421869.4664813578}},{"attributes":{"OBJECTID":1922,"ولایت":"بدخشان","Province":"BADAKHSHAN","PC_Code":"1718314","ولسوالي":"یمگان","District":"YAMGAN","د_مرکز_نوم__نام_مرکز":"مکتب ابتدایه","Polling_Center_Name":"Primary School","د_مرکز_ځای__موقعیت_مرکز":"ته لولیچ","Polling_Center_Location":"Ta lolich","Verification_Note":"Building","PS_Male":2,"PS_Female":1,"Map_Accuracy":"تعمیر"},"geometry":{"x":7885649.26315726,"y":4372871.6371605173}},{"attributes":{"OBJECTID":1923,"ولایت":"بدخشان","Province":"BADAKHSHAN","PC_Code":"1723315","ولسوالي":"اشکاشم","District":"ESHKASHIM","د_مرکز_نوم__نام_مرکز":"مکتب لیسه غاران بلا","Polling_Center_Name":"Gharan bala High school","د_مرکز_ځای__موقعیت_مرکز":"قاض ده","Polling_Center_Location":"Qaz deh","Verification_Note":"Village","PS_Male":2,"PS_Female":1,"Map_Accuracy":"قریه"},"geometry":{"x":7952597.46626943,"y":4469751.1930019334}},{"attributes":{"OBJECTID":1924,"ولایت":"تخار","Province":"TAKHAR","PC_Code":"1801002","ولسوالي":"تالقان","District":"TALUQAN","د_مرکز_نوم__نام_مرکز":"لیسه  خطايان","Polling_Center_Name":"Khatayan High School","د_مرکز_ځای__موقعیت_مرکز":"خطايان","Polling_Center_Location":"Khatayan","Verification_Note":"Building","PS_Male":3,"PS_Female":1,"Map_Accuracy":"تعمیر"},"geometry":{"x":7753281.842272792,"y":4393488.9922822267}},{"attributes":{"OBJECTID":1925,"ولایت":"تخار","Province":"TAKHAR","PC_Code":"1801003","ولسوالي":"تالقان","District":"TALUQAN","د_مرکز_نوم__نام_مرکز":"مکتب الفاروق","Polling_Center_Name":"Alfarooq School","د_مرکز_ځای__موقعیت_مرکز":"الفاروق","Polling_Center_Location":"Alfarooq","Verification_Note":"Building","PS_Male":4,"PS_Female":2,"Map_Accuracy":"تعمیر"},"geometry":{"x":7749400.3976824135,"y":4398779.94557105}},{"attributes":{"OBJECTID":1926,"ولایت":"تخار","Province":"TAKHAR","PC_Code":"1801005","ولسوالي":"تالقان","District":"TALUQAN","د_مرکز_نوم__نام_مرکز":"مکتب خواجه خلیل","Polling_Center_Name":"Khwaja Khalil School","د_مرکز_ځای__موقعیت_مرکز":" خواجه خلیل","Polling_Center_Location":"Khwaja Khalil","Verification_Note":"Building","PS_Male":2,"PS_Female":1,"Map_Accuracy":"تعمیر"},"geometry":{"x":7755606.7264609151,"y":4410716.341617763}},{"attributes":{"OBJECTID":1927,"ولایت":"تخار","Province":"TAKHAR","PC_Code":"1801006","ولسوالي":"تالقان","District":"TALUQAN","د_مرکز_نوم__نام_مرکز":"لیسه ذکور سید عبدالله","Polling_Center_Name":"Sayed Abdullah Boys High School","د_مرکز_ځای__موقعیت_مرکز":"ناحیه سوم","Polling_Center_Location":"D03 - Nahia 3","Verification_Note":"Building","PS_Male":4,"PS_Female":2,"Map_Accuracy":"تعمیر"},"geometry":{"x":7741095.5195044689,"y":4402813.0477378368}},{"attributes":{"OBJECTID":1928,"ولایت":"تخار","Province":"TAKHAR","PC_Code":"1801010","ولسوالي":"تالقان","District":"TALUQAN","د_مرکز_نوم__نام_مرکز":"لیسه داکتر سید حسین","Polling_Center_Name":"Doctar Sayed Hussain High School","د_مرکز_ځای__موقعیت_مرکز":"ناحیه سوم","Polling_Center_Location":"D03 - Nahia 3","Verification_Note":"Building","PS_Male":4,"PS_Female":2,"Map_Accuracy":"تعمیر"},"geometry":{"x":7740507.3351449892,"y":4402403.8304951638}},{"attributes":{"OBJECTID":1929,"ولایت":"تخار","Province":"TAKHAR","PC_Code":"1801011","ولسوالي":"تالقان","District":"TALUQAN","د_مرکز_نوم__نام_مرکز":"لیسه ذکور ابو عثمان","Polling_Center_Name":"Abu Usman Boys High School","د_مرکز_ځای__موقعیت_مرکز":"ناحیه اول","Polling_Center_Location":"D01 - Nahia 1","Verification_Note":"Building","PS_Male":5,"PS_Female":3,"Map_Accuracy":"تعمیر"},"geometry":{"x":7742180.471544385,"y":4401635.1388449892}},{"attributes":{"OBJECTID":1930,"ولایت":"تخار","Province":"TAKHAR","PC_Code":"1801021","ولسوالي":"تالقان","District":"TALUQAN","د_مرکز_نوم__نام_مرکز":"لیسه گل نظر","Polling_Center_Name":"Gul Nazar High School","د_مرکز_ځای__موقعیت_مرکز":"شهدا قلبرس","Polling_Center_Location":"Shuhada Qalbaras","Verification_Note":"Building","PS_Male":3,"PS_Female":2,"Map_Accuracy":"تعمیر"},"geometry":{"x":7721555.3855333477,"y":4403047.8949897662}},{"attributes":{"OBJECTID":1931,"ولایت":"تخار","Province":"TAKHAR","PC_Code":"1801022","ولسوالي":"تالقان","District":"TALUQAN","د_مرکز_نوم__نام_مرکز":"لیسه آق مسجد","Polling_Center_Name":"Aaq Masjid High School","د_مرکز_ځای__موقعیت_مرکز":"آق مسجد","Polling_Center_Location":"Aaq Masjid","Verification_Note":"Building","PS_Male":4,"PS_Female":2,"Map_Accuracy":"تعمیر"},"geometry":{"x":7728871.5284468457,"y":4400931.9781398624}},{"attributes":{"OBJECTID":1932,"ولایت":"تخار","Province":"TAKHAR","PC_Code":"1801032","ولسوالي":"تالقان","District":"TALUQAN","د_مرکز_نوم__نام_مرکز":"ليسه گنج علی بیگ","Polling_Center_Name":"Ganj Ali Beg High School","د_مرکز_ځای__موقعیت_مرکز":"گنج علی بیگ","Polling_Center_Location":"Ganj Ali Beg","Verification_Note":"Building","PS_Male":2,"PS_Female":2,"Map_Accuracy":"تعمیر"},"geometry":{"x":7746809.0558215417,"y":4403356.9646903723}},{"attributes":{"OBJECTID":1933,"ولایت":"تخار","Province":"TAKHAR","PC_Code":"1801033","ولسوالي":"تالقان","District":"TALUQAN","د_مرکز_نوم__نام_مرکز":"اوچقدق","Polling_Center_Name":"Ochqadaq ","د_مرکز_ځای__موقعیت_مرکز":"اوچقدق","Polling_Center_Location":"Ochqadaq","Verification_Note":"Building","PS_Male":2,"PS_Female":1,"Map_Accuracy":"تعمیر"},"geometry":{"x":7750682.2249209695,"y":4409146.1039794758}},{"attributes":{"OBJECTID":1934,"ولایت":"تخار","Province":"TAKHAR","PC_Code":"1802038","ولسوالي":"هزارسموچ","District":"HAZAR SUMUCH","د_مرکز_نوم__نام_مرکز":"مسجد خواجه لمتو","Polling_Center_Name":"Khwaja Lamtoo Mosque","د_مرکز_ځای__موقعیت_مرکز":"خواجه لمتو","Polling_Center_Location":"Khwaja Lamtoo","Verification_Note":"Building","PS_Male":1,"PS_Female":1,"Map_Accuracy":"تعمیر"},"geometry":{"x":7757341.3023136742,"y":4425576.3046690971}},{"attributes":{"OBJECTID":1935,"ولایت":"تخار","Province":"TAKHAR","PC_Code":"1802039","ولسوالي":"هزارسموچ","District":"HAZAR SUMUCH","د_مرکز_نوم__نام_مرکز":"مکتب قلعه مامه یی","Polling_Center_Name":"Qala Mama Ye School","د_مرکز_ځای__موقعیت_مرکز":"قلعه مامه یی","Polling_Center_Location":"Qala Mama Ye","Verification_Note":"Building","PS_Male":1,"PS_Female":1,"Map_Accuracy":"تعمیر"},"geometry":{"x":7749208.9871575758,"y":4437684.32440871}},{"attributes":{"OBJECTID":1936,"ولایت":"تخار","Province":"TAKHAR","PC_Code":"1804062","ولسوالي":"بنگی","District":"BANGI","د_مرکز_نوم__نام_مرکز":"لیسه اتحاد","Polling_Center_Name":"Etihad High School","د_مرکز_ځای__موقعیت_مرکز":"آفاقی","Polling_Center_Location":"Afaqi","Verification_Note":"Building","PS_Male":5,"PS_Female":3,"Map_Accuracy":"تعمیر"},"geometry":{"x":7719104.5422281921,"y":4392504.4370177537}},{"attributes":{"OBJECTID":1937,"ولایت":"تخار","Province":"TAKHAR","PC_Code":"1804063","ولسوالي":"بنگی","District":"BANGI","د_مرکز_نوم__نام_مرکز":"لیسه منصورشهید","Polling_Center_Name":"Mansoor Shaheed High School","د_مرکز_ځای__موقعیت_مرکز":"چله تاش","Polling_Center_Location":"Chala Tash","Verification_Note":"Building","PS_Male":2,"PS_Female":2,"Map_Accuracy":"تعمیر"},"geometry":{"x":7720976.6355007142,"y":4381540.3992037028}},{"attributes":{"OBJECTID":1938,"ولایت":"تخار","Province":"TAKHAR","PC_Code":"1807094","ولسوالي":"کلفگان","District":"KALAFGAN","د_مرکز_نوم__نام_مرکز":"مکتب متوسطۀ میرحسین ناوان","Polling_Center_Name":"Mir Hassan Nawan Secondary School","د_مرکز_ځای__موقعیت_مرکز":"ناوان","Polling_Center_Location":"Nawan","Verification_Note":"Building","PS_Male":2,"PS_Female":2,"Map_Accuracy":"تعمیر"},"geometry":{"x":7775238.8682175614,"y":4417501.0873297378}},{"attributes":{"OBJECTID":1939,"ولایت":"تخار","Province":"TAKHAR","PC_Code":"1807095","ولسوالي":"کلفگان","District":"KALAFGAN","د_مرکز_نوم__نام_مرکز":"لیسه حضرت خالد","Polling_Center_Name":"Hazrat Khalid High School","د_مرکز_ځای__موقعیت_مرکز":"چارتوت","Polling_Center_Location":"Char Toot","Verification_Note":"Building","PS_Male":3,"PS_Female":1,"Map_Accuracy":"تعمیر"},"geometry":{"x":7789080.4539278485,"y":4420170.6465610042}},{"attributes":{"OBJECTID":1940,"ولایت":"تخار","Province":"TAKHAR","PC_Code":"1807097","ولسوالي":"کلفگان","District":"KALAFGAN","د_مرکز_نوم__نام_مرکز":"لیسه نسوان کلفگان","Polling_Center_Name":"Kalafgaan Girls High School","د_مرکز_ځای__موقعیت_مرکز":"مرکزشهر","Polling_Center_Location":"Markaz Shahr","Verification_Note":"Building","PS_Male":3,"PS_Female":1,"Map_Accuracy":"تعمیر"},"geometry":{"x":7786239.7797846906,"y":4407664.1743923575}},{"attributes":{"OBJECTID":1941,"ولایت":"تخار","Province":"TAKHAR","PC_Code":"1807098","ولسوالي":"کلفگان","District":"KALAFGAN","د_مرکز_نوم__نام_مرکز":"لیسه ابوعبیده","Polling_Center_Name":"Abu Ubaida High School","د_مرکز_ځای__موقعیت_مرکز":"آق بلاق","Polling_Center_Location":"Aaq Balaq","Verification_Note":"Building","PS_Male":2,"PS_Female":2,"Map_Accuracy":"تعمیر"},"geometry":{"x":7776195.4978276677,"y":4401742.2064988539}},{"attributes":{"OBJECTID":1942,"ولایت":"تخار","Province":"TAKHAR","PC_Code":"1808084","ولسوالي":"فرخار","District":"FARKHAR","د_مرکز_نوم__نام_مرکز":"چمن خسده","Polling_Center_Name":"Chaman Khasdah","د_مرکز_ځای__موقعیت_مرکز":"خسده","Polling_Center_Location":"Khasdah","Verification_Note":"Building","PS_Male":2,"PS_Female":2,"Map_Accuracy":"تعمیر"},"geometry":{"x":7777334.2706150077,"y":4364711.3101980612}},{"attributes":{"OBJECTID":1943,"ولایت":"تخار","Province":"TAKHAR","PC_Code":"1808085","ولسوالي":"فرخار","District":"FARKHAR","د_مرکز_نوم__نام_مرکز":"لیسه قانعت شهید","Polling_Center_Name":"Qaneyat Shaheed High School","د_مرکز_ځای__موقعیت_مرکز":"آردیشان","Polling_Center_Location":"Aardeshan","Verification_Note":"Building","PS_Male":3,"PS_Female":1,"Map_Accuracy":"تعمیر"},"geometry":{"x":7784641.4656678364,"y":4379990.401209116}},{"attributes":{"OBJECTID":1944,"ولایت":"تخار","Province":"TAKHAR","PC_Code":"1808087","ولسوالي":"فرخار","District":"FARKHAR","د_مرکز_نوم__نام_مرکز":"ليسه لژده","Polling_Center_Name":"Lazhdah High School","د_مرکز_ځای__موقعیت_مرکز":"لژده","Polling_Center_Location":"Lazhdah","Verification_Note":"Building","PS_Male":2,"PS_Female":1,"Map_Accuracy":"تعمیر"},"geometry":{"x":7784445.3496681228,"y":4351451.6229593009}},{"attributes":{"OBJECTID":1945,"ولایت":"تخار","Province":"TAKHAR","PC_Code":"1808088","ولسوالي":"فرخار","District":"FARKHAR","د_مرکز_نوم__نام_مرکز":"مکتب مشتان","Polling_Center_Name":"Mushtan School","د_مرکز_ځای__موقعیت_مرکز":"مشتان","Polling_Center_Location":"Mushtan","Verification_Note":"Building","PS_Male":2,"PS_Female":1,"Map_Accuracy":"تعمیر"},"geometry":{"x":7798721.2984655052,"y":4348519.8133160844}},{"attributes":{"OBJECTID":1946,"ولایت":"تخار","Province":"TAKHAR","PC_Code":"1808090","ولسوالي":"فرخار","District":"FARKHAR","د_مرکز_نوم__نام_مرکز":"مکتب مخدوم عبدالله شهید","Polling_Center_Name":"Makhdoom Abdullah Shaheed School","د_مرکز_ځای__موقعیت_مرکز":"کورانی","Polling_Center_Location":"Koraani","Verification_Note":"Building","PS_Male":1,"PS_Female":1,"Map_Accuracy":"تعمیر"},"geometry":{"x":7771520.1315345131,"y":4387063.3654161617}},{"attributes":{"OBJECTID":1947,"ولایت":"تخار","Province":"TAKHAR","PC_Code":"1808091","ولسوالي":"فرخار","District":"FARKHAR","د_مرکز_نوم__نام_مرکز":"مدرسه نهر اب","Polling_Center_Name":"Nahr Aab Madrassa","د_مرکز_ځای__موقعیت_مرکز":"نهر اب","Polling_Center_Location":"Nahr Aab","Verification_Note":"Building","PS_Male":2,"PS_Female":1,"Map_Accuracy":"تعمیر"},"geometry":{"x":7766603.3422088921,"y":4380806.0172548667}},{"attributes":{"OBJECTID":1948,"ولایت":"تخار","Province":"TAKHAR","PC_Code":"1810108","ولسوالي":"رستاق","District":"RUSTAQ","د_مرکز_نوم__نام_مرکز":"مکتب ابتدائیه فیض آباد","Polling_Center_Name":"Faiz Abad Primary School","د_مرکز_ځای__موقعیت_مرکز":"سید آباد","Polling_Center_Location":"Sayed Abad","Verification_Note":"Building","PS_Male":3,"PS_Female":1,"Map_Accuracy":"تعمیر"},"geometry":{"x":7774277.5498305038,"y":4473358.5764759034}},{"attributes":{"OBJECTID":1949,"ولایت":"تخار","Province":"TAKHAR","PC_Code":"1810109","ولسوالي":"رستاق","District":"RUSTAQ","د_مرکز_نوم__نام_مرکز":"لیسه حضرت عبدالله ابن مسعود","Polling_Center_Name":"Hazrat Abdullah Bin Masood High School","د_مرکز_ځای__موقعیت_مرکز":"کیوان","Polling_Center_Location":"Kewan","Verification_Note":"Building","PS_Male":3,"PS_Female":1,"Map_Accuracy":"تعمیر"},"geometry":{"x":7761323.9029253349,"y":4484249.0604666322}},{"attributes":{"OBJECTID":1950,"ولایت":"تخار","Province":"TAKHAR","PC_Code":"1810111","ولسوالي":"رستاق","District":"RUSTAQ","د_مرکز_نوم__نام_مرکز":"مکتب ابتدائیه یامچی","Polling_Center_Name":"Yamchi Primary School","د_مرکز_ځای__موقعیت_مرکز":"یامچی","Polling_Center_Location":"Yamchi","Verification_Note":"Building","PS_Male":3,"PS_Female":1,"Map_Accuracy":"تعمیر"},"geometry":{"x":7753005.9925746061,"y":4446755.1950608715}},{"attributes":{"OBJECTID":1951,"ولایت":"تخار","Province":"TAKHAR","PC_Code":"1810112","ولسوالي":"رستاق","District":"RUSTAQ","د_مرکز_نوم__نام_مرکز":"لیسه حضرت خلالی","Polling_Center_Name":"Hazrat Khelali High School","د_مرکز_ځای__موقعیت_مرکز":"سر رستاق","Polling_Center_Location":"Sar Rostaq","Verification_Note":"Building","PS_Male":4,"PS_Female":2,"Map_Accuracy":"تعمیر"},"geometry":{"x":7781879.731515184,"y":4453962.3486532643}},{"attributes":{"OBJECTID":1952,"ولایت":"تخار","Province":"TAKHAR","PC_Code":"1810114","ولسوالي":"رستاق","District":"RUSTAQ","د_مرکز_نوم__نام_مرکز":"مکتب متوسطه هرازسموج","Polling_Center_Name":"Hazar Smooch Secondary School","د_مرکز_ځای__موقعیت_مرکز":"هرازسموج","Polling_Center_Location":"Hazar Smooch","Verification_Note":"Building","PS_Male":3,"PS_Female":2,"Map_Accuracy":"تعمیر"},"geometry":{"x":7781963.0975686423,"y":4464945.8233506382}},{"attributes":{"OBJECTID":1953,"ولایت":"تخار","Province":"TAKHAR","PC_Code":"1810115","ولسوالي":"رستاق","District":"RUSTAQ","د_مرکز_نوم__نام_مرکز":"مکتب متوسطه سرغار","Polling_Center_Name":"Sar Ghaar Secondary School","د_مرکز_ځای__موقعیت_مرکز":"سرغار","Polling_Center_Location":"Sar Ghaar","Verification_Note":"Building","PS_Male":2,"PS_Female":1,"Map_Accuracy":"تعمیر"},"geometry":{"x":7789396.1192683056,"y":4462788.0582643449}},{"attributes":{"OBJECTID":1954,"ولایت":"تخار","Province":"TAKHAR","PC_Code":"1810122","ولسوالي":"رستاق","District":"RUSTAQ","د_مرکز_نوم__نام_مرکز":"مکتب توحید اسلامی","Polling_Center_Name":"Tawheed Islami School","د_مرکز_ځای__موقعیت_مرکز":"کیشان","Polling_Center_Location":"Keshan","Verification_Note":"Building","PS_Male":1,"PS_Female":1,"Map_Accuracy":"تعمیر"},"geometry":{"x":7774490.7222025953,"y":4476595.1099811122}},{"attributes":{"OBJECTID":1955,"ولایت":"تخار","Province":"TAKHAR","PC_Code":"1810123","ولسوالي":"رستاق","District":"RUSTAQ","د_مرکز_نوم__نام_مرکز":"مسجد قدق تاجکان","Polling_Center_Name":"Qadaq Tajikan Mosque","د_مرکز_ځای__موقعیت_مرکز":"قدق تاجکان","Polling_Center_Location":"Qadaq Tajikan","Verification_Note":"Building","PS_Male":3,"PS_Female":1,"Map_Accuracy":"تعمیر"},"geometry":{"x":7754382.3189288974,"y":4458825.81831634}},{"attributes":{"OBJECTID":1956,"ولایت":"تخار","Province":"TAKHAR","PC_Code":"1811071","ولسوالي":"اشکمش","District":"ESHKAMESH","د_مرکز_نوم__نام_مرکز":"مسجد جامع قشلاق سای","Polling_Center_Name":"Qashlaq Say Mosque","د_مرکز_ځای__موقعیت_مرکز":"قشلاق سای","Polling_Center_Location":"Qashlaq Say","Verification_Note":"Building","PS_Male":1,"PS_Female":1,"Map_Accuracy":"تعمیر"},"geometry":{"x":7705035.751210805,"y":4370819.0355736464}},{"attributes":{"OBJECTID":1957,"ولایت":"تخار","Province":"TAKHAR","PC_Code":"1811072","ولسوالي":"اشکمش","District":"ESHKAMESH","د_مرکز_نوم__نام_مرکز":"مسجد جامع بویرک","Polling_Center_Name":"Boyerak Mosque","د_مرکز_ځای__موقعیت_مرکز":"بویرک","Polling_Center_Location":"Boyerak","Verification_Note":"Building","PS_Male":1,"PS_Female":1,"Map_Accuracy":"تعمیر"},"geometry":{"x":7705621.6791242063,"y":4361013.9700840935}},{"attributes":{"OBJECTID":1958,"ولایت":"تخار","Province":"TAKHAR","PC_Code":"1811074","ولسوالي":"اشکمش","District":"ESHKAMESH","د_مرکز_نوم__نام_مرکز":"مکتب ابتدائیه دره کلان","Polling_Center_Name":"Dara-e-Kalan Primary School","د_مرکز_ځای__موقعیت_مرکز":"دره کلان","Polling_Center_Location":"Dara-e-Kalan","Verification_Note":"Building","PS_Male":2,"PS_Female":1,"Map_Accuracy":"تعمیر"},"geometry":{"x":7724613.459962856,"y":4344157.67619022}},{"attributes":{"OBJECTID":1959,"ولایت":"تخار","Province":"TAKHAR","PC_Code":"1811075","ولسوالي":"اشکمش","District":"ESHKAMESH","د_مرکز_نوم__نام_مرکز":"مسجد قندهاری فخرک","Polling_Center_Name":"Qandahari Fakhrak Mosque","د_مرکز_ځای__موقعیت_مرکز":"فخرک","Polling_Center_Location":"Fakhrak","Verification_Note":"Building","PS_Male":1,"PS_Female":1,"Map_Accuracy":"تعمیر"},"geometry":{"x":7723170.2027647123,"y":4361129.7328098267}},{"attributes":{"OBJECTID":1960,"ولایت":"تخار","Province":"TAKHAR","PC_Code":"1812174","ولسوالي":"دشت قلعه","District":"DASHT-E-QALA","د_مرکز_نوم__نام_مرکز":"متوسطه نوآباد","Polling_Center_Name":"Nawabad Secondary School","د_مرکز_ځای__موقعیت_مرکز":"نوآباد","Polling_Center_Location":"Nawabad","Verification_Note":"Building","PS_Male":3,"PS_Female":1,"Map_Accuracy":"تعمیر"},"geometry":{"x":7738086.6638746224,"y":4462717.2937089577}},{"attributes":{"OBJECTID":1961,"ولایت":"تخار","Province":"TAKHAR","PC_Code":"1812175","ولسوالي":"دشت قلعه","District":"DASHT-E-QALA","د_مرکز_نوم__نام_مرکز":"ابتدائیه لایقه","Polling_Center_Name":"Laayeqa Primary School","د_مرکز_ځای__موقعیت_مرکز":"لایقه","Polling_Center_Location":"Laayeqa","Verification_Note":"Building","PS_Male":1,"PS_Female":1,"Map_Accuracy":"تعمیر"},"geometry":{"x":7737261.49256438,"y":4473491.6850338578}},{"attributes":{"OBJECTID":1962,"ولایت":"تخار","Province":"TAKHAR","PC_Code":"1816136","ولسوالي":"چا آب","District":"CHAH AB","د_مرکز_نوم__نام_مرکز":"مکتب متوسطه ارگ شاه","Polling_Center_Name":"Arg Shah Secondary School","د_مرکز_ځای__موقعیت_مرکز":"ارگ شاه","Polling_Center_Location":"Arg Shah","Verification_Note":"Building","PS_Male":2,"PS_Female":2,"Map_Accuracy":"تعمیر"},"geometry":{"x":7780243.8504097685,"y":4501311.2897394449}},{"attributes":{"OBJECTID":1963,"ولایت":"تخار","Province":"TAKHAR","PC_Code":"1816137","ولسوالي":"چا آب","District":"CHAH AB","د_مرکز_نوم__نام_مرکز":"مکتب متوسطه سمتی","Polling_Center_Name":"Samti Secondary School","د_مرکز_ځای__موقعیت_مرکز":"سمتی","Polling_Center_Location":"Samti","Verification_Note":"Building","PS_Male":2,"PS_Female":2,"Map_Accuracy":"تعمیر"},"geometry":{"x":7777645.444214005,"y":4522486.9036620483}},{"attributes":{"OBJECTID":1964,"ولایت":"تخار","Province":"TAKHAR","PC_Code":"1816139","ولسوالي":"چا آب","District":"CHAH AB","د_مرکز_نوم__نام_مرکز":"مکتب متوسطۀ هودی","Polling_Center_Name":"Hody Secondary School","د_مرکز_ځای__موقعیت_مرکز":"هودی","Polling_Center_Location":"Hody","Verification_Note":"Building","PS_Male":2,"PS_Female":2,"Map_Accuracy":"تعمیر"},"geometry":{"x":7763792.3525211513,"y":4513943.5748789907}},{"attributes":{"OBJECTID":1965,"ولایت":"تخار","Province":"TAKHAR","PC_Code":"1816140","ولسوالي":"چا آب","District":"CHAH AB","د_مرکز_نوم__نام_مرکز":"مکتب متوسطۀ ورنخواه","Polling_Center_Name":"Warankhwah Secondary School","د_مرکز_ځای__موقعیت_مرکز":"ورنخواه","Polling_Center_Location":"Warankhwah","Verification_Note":"Building","PS_Male":2,"PS_Female":2,"Map_Accuracy":"تعمیر"},"geometry":{"x":7778272.9644287489,"y":4490822.1178768426}},{"attributes":{"OBJECTID":1966,"ولایت":"تخار","Province":"TAKHAR","PC_Code":"1801186","ولسوالي":"تالقان","District":"TALUQAN","د_مرکز_نوم__نام_مرکز":"مكتب ابتدائيه باغك ","Polling_Center_Name":"Baghak Primary School","د_مرکز_ځای__موقعیت_مرکز":"قریه باغک ","Polling_Center_Location":"Baghak Village","Verification_Note":"Building","PS_Male":2,"PS_Female":1,"Map_Accuracy":"تعمیر"},"geometry":{"x":7738845.19822447,"y":4403731.6277761236}},{"attributes":{"OBJECTID":1967,"ولایت":"تخار","Province":"TAKHAR","PC_Code":"1802035","ولسوالي":"هزارسموچ","District":"HAZAR SUMUCH","د_مرکز_نوم__نام_مرکز":"مکتب متوسطه هزارسموچ","Polling_Center_Name":"Hazar Smooch Secondary School","د_مرکز_ځای__موقعیت_مرکز":"هزارسموچ","Polling_Center_Location":"Hazar Smooch","Verification_Note":"Building","PS_Male":2,"PS_Female":1,"Map_Accuracy":"تعمیر"},"geometry":{"x":7743707.0280042924,"y":4420331.5004283562}},{"attributes":{"OBJECTID":1968,"ولایت":"تخار","Province":"TAKHAR","PC_Code":"1802187","ولسوالي":"هزارسموچ","District":"HAZAR SUMUCH","د_مرکز_نوم__نام_مرکز":"مکتب متوسطه بی بی خدیجه","Polling_Center_Name":"Bibi Khadija Secondary School","د_مرکز_ځای__موقعیت_مرکز":"شلولوك","Polling_Center_Location":"Shololok","Verification_Note":"Building","PS_Male":1,"PS_Female":1,"Map_Accuracy":"تعمیر"},"geometry":{"x":7746680.3969842233,"y":4424765.6615353748}},{"attributes":{"OBJECTID":1969,"ولایت":"تخار","Province":"TAKHAR","PC_Code":"1803040","ولسوالي":"بهارک","District":"BAHARAK","د_مرکز_نوم__نام_مرکز":"مکتب ابتدائیه چاپله","Polling_Center_Name":"Chapla Primary Schoo","د_مرکز_ځای__موقعیت_مرکز":"چایله","Polling_Center_Location":"Chayla","Verification_Note":"Building","PS_Male":3,"PS_Female":3,"Map_Accuracy":"تعمیر"},"geometry":{"x":7729219.3884972334,"y":4410332.273476243}},{"attributes":{"OBJECTID":1970,"ولایت":"تخار","Province":"TAKHAR","PC_Code":"1803043","ولسوالي":"بهارک","District":"BAHARAK","د_مرکز_نوم__نام_مرکز":"لیسه حاجی پهلوان","Polling_Center_Name":"Haji Pahlawan High School","د_مرکز_ځای__موقعیت_مرکز":"حاجی پهلوان","Polling_Center_Location":"Haji Pahlawan","Verification_Note":"Building","PS_Male":2,"PS_Female":2,"Map_Accuracy":"تعمیر"},"geometry":{"x":7723023.90446353,"y":4416378.2177066877}},{"attributes":{"OBJECTID":1971,"ولایت":"تخار","Province":"TAKHAR","PC_Code":"1803044","ولسوالي":"بهارک","District":"BAHARAK","د_مرکز_نوم__نام_مرکز":"لیسه الحاج عبدالقیوم بیک","Polling_Center_Name":"Alhaj Abdul Qayum Bek High School","د_مرکز_ځای__موقعیت_مرکز":"مرکزشهر","Polling_Center_Location":"Markaz Shahr","Verification_Note":"Building","PS_Male":3,"PS_Female":3,"Map_Accuracy":"تعمیر"},"geometry":{"x":7727041.3068875931,"y":4414236.5743700266}},{"attributes":{"OBJECTID":1972,"ولایت":"تخار","Province":"TAKHAR","PC_Code":"1805078","ولسوالي":"چال","District":"CHAL","د_مرکز_نوم__نام_مرکز":"مکتب سنگ لشم","Polling_Center_Name":"Sang Lashem School","د_مرکز_ځای__موقعیت_مرکز":"سنگ لشم","Polling_Center_Location":"Sang Lashem","Verification_Note":"Building","PS_Male":2,"PS_Female":2,"Map_Accuracy":"تعمیر"},"geometry":{"x":7750348.0226589069,"y":4371694.8014431223}},{"attributes":{"OBJECTID":1973,"ولایت":"تخار","Province":"TAKHAR","PC_Code":"1805079","ولسوالي":"چال","District":"CHAL","د_مرکز_نوم__نام_مرکز":"لیسه سمنداب","Polling_Center_Name":"Samandab High School","د_مرکز_ځای__موقعیت_مرکز":"سمنداب","Polling_Center_Location":"Samandab","Verification_Note":"Building","PS_Male":2,"PS_Female":2,"Map_Accuracy":"تعمیر"},"geometry":{"x":7731348.5529830344,"y":4363612.4705780745}},{"attributes":{"OBJECTID":1974,"ولایت":"تخار","Province":"TAKHAR","PC_Code":"1809046","ولسوالي":"خواجه غار","District":"KHWAJA GHAR","د_مرکز_نوم__نام_مرکز":"لیسه نسوان خواجه غار","Polling_Center_Name":"Khwaja Ghaar Girls High School","د_مرکز_ځای__موقعیت_مرکز":"خواجه غار","Polling_Center_Location":"Khwaja Ghaar","Verification_Note":"Building","PS_Male":2,"PS_Female":2,"Map_Accuracy":"تعمیر"},"geometry":{"x":7728166.0322683826,"y":4448346.3905810788}},{"attributes":{"OBJECTID":1975,"ولایت":"تخار","Province":"TAKHAR","PC_Code":"1809047","ولسوالي":"خواجه غار","District":"KHWAJA GHAR","د_مرکز_نوم__نام_مرکز":"لیسه ذکور","Polling_Center_Name":"Boys High School","د_مرکز_ځای__موقعیت_مرکز":"خواجه غا ر","Polling_Center_Location":"Khwaja Ghaar","Verification_Note":"Building","PS_Male":4,"PS_Female":2,"Map_Accuracy":"تعمیر"},"geometry":{"x":7727811.3650311343,"y":4448605.4420055449}},{"attributes":{"OBJECTID":1976,"ولایت":"تخار","Province":"TAKHAR","PC_Code":"1809052","ولسوالي":"خواجه غار","District":"KHWAJA GHAR","د_مرکز_نوم__نام_مرکز":"لیسه سبحانی","Polling_Center_Name":"Subhani High School","د_مرکز_ځای__موقعیت_مرکز":"مینگ چقور","Polling_Center_Location":"Meng Chaqoor","Verification_Note":"Building","PS_Male":2,"PS_Female":2,"Map_Accuracy":"تعمیر"},"geometry":{"x":7717860.0671315752,"y":4453255.5428101495}},{"attributes":{"OBJECTID":1977,"ولایت":"تخار","Province":"TAKHAR","PC_Code":"1809053","ولسوالي":"خواجه غار","District":"KHWAJA GHAR","د_مرکز_نوم__نام_مرکز":"لیسه غلام سخی","Polling_Center_Name":"Ghulam Sakhi High School","د_مرکز_ځای__موقعیت_مرکز":"قلعه چه کاریز","Polling_Center_Location":"Qala Cha Kaarez","Verification_Note":"Building","PS_Male":3,"PS_Female":1,"Map_Accuracy":"تعمیر"},"geometry":{"x":7723636.8195610717,"y":4436212.6725698709}},{"attributes":{"OBJECTID":1978,"ولایت":"تخار","Province":"TAKHAR","PC_Code":"1810104","ولسوالي":"رستاق","District":"RUSTAQ","د_مرکز_نوم__نام_مرکز":"لیسه نسوان رستاق","Polling_Center_Name":"Rostaq Girls High School","د_مرکز_ځای__موقعیت_مرکز":"شهرجدید رستاق","Polling_Center_Location":"Shahr Jadid Rostaq","Verification_Note":"Building","PS_Male":4,"PS_Female":2,"Map_Accuracy":"تعمیر"},"geometry":{"x":7769733.2332946882,"y":4458709.2820450962}},{"attributes":{"OBJECTID":1979,"ولایت":"تخار","Province":"TAKHAR","PC_Code":"1810105","ولسوالي":"رستاق","District":"RUSTAQ","د_مرکز_نوم__نام_مرکز":"مکتب متوسطه تولکی وچپه خانه","Polling_Center_Name":"Tolkai Wa Chapa Khana Secondary School","د_مرکز_ځای__موقعیت_مرکز":"تولکی","Polling_Center_Location":"Tolakai","Verification_Note":"Building","PS_Male":3,"PS_Female":2,"Map_Accuracy":"تعمیر"},"geometry":{"x":7766201.2673400939,"y":4467667.4751757309}},{"attributes":{"OBJECTID":1980,"ولایت":"تخار","Province":"TAKHAR","PC_Code":"1810130","ولسوالي":"رستاق","District":"RUSTAQ","د_مرکز_نوم__نام_مرکز":"مکتب متوسطۀ چبدره وبتاش","Polling_Center_Name":"Chabdara Wabtash Secondary School","د_مرکز_ځای__موقعیت_مرکز":"چبدره وبتاش","Polling_Center_Location":"Chabdara Wabtash","Verification_Note":"Building","PS_Male":2,"PS_Female":2,"Map_Accuracy":"تعمیر"},"geometry":{"x":7774726.60820359,"y":4445592.5053888708}},{"attributes":{"OBJECTID":1981,"ولایت":"تخار","Province":"TAKHAR","PC_Code":"1810131","ولسوالي":"رستاق","District":"RUSTAQ","د_مرکز_نوم__نام_مرکز":"مکتب ابتدائیه قره دینگ","Polling_Center_Name":"Qara Deng Primary School","د_مرکز_ځای__موقعیت_مرکز":"قره دینگ","Polling_Center_Location":"Qara Deng","Verification_Note":"Building","PS_Male":1,"PS_Female":1,"Map_Accuracy":"تعمیر"},"geometry":{"x":7756609.0961365886,"y":4477774.5118959472}},{"attributes":{"OBJECTID":1982,"ولایت":"تخار","Province":"TAKHAR","PC_Code":"1811066","ولسوالي":"اشکمش","District":"ESHKAMESH","د_مرکز_نوم__نام_مرکز":"لیسه دهنه شیره","Polling_Center_Name":"Dahan Sheera High School","د_مرکز_ځای__موقعیت_مرکز":"شیره","Polling_Center_Location":"Sheera","Verification_Note":"Building","PS_Male":2,"PS_Female":2,"Map_Accuracy":"تعمیر"},"geometry":{"x":7741242.5269108117,"y":4350671.428605251}},{"attributes":{"OBJECTID":1983,"ولایت":"تخار","Province":"TAKHAR","PC_Code":"1811067","ولسوالي":"اشکمش","District":"ESHKAMESH","د_مرکز_نوم__نام_مرکز":"مکتب ابتدائیه ترسک","Polling_Center_Name":"Tarsak Primary School","د_مرکز_ځای__موقعیت_مرکز":"ترسک","Polling_Center_Location":"Tarsak","Verification_Note":"Building","PS_Male":2,"PS_Female":2,"Map_Accuracy":"تعمیر"},"geometry":{"x":7710456.2233836427,"y":4349368.64660196}},{"attributes":{"OBJECTID":1984,"ولایت":"تخار","Province":"TAKHAR","PC_Code":"1812169","ولسوالي":"دشت قلعه","District":"DASHT-E-QALA","د_مرکز_نوم__نام_مرکز":"لیسه ذکور شهر","Polling_Center_Name":"Shahr Boys High School","د_مرکز_ځای__موقعیت_مرکز":"شهرجدید","Polling_Center_Location":"Shahr Jadid","Verification_Note":"Building","PS_Male":3,"PS_Female":2,"Map_Accuracy":"تعمیر"},"geometry":{"x":7730980.5619159266,"y":4460651.4599264935}},{"attributes":{"OBJECTID":1985,"ولایت":"تخار","Province":"TAKHAR","PC_Code":"1812170","ولسوالي":"دشت قلعه","District":"DASHT-E-QALA","د_مرکز_نوم__نام_مرکز":"لیسه نسوان","Polling_Center_Name":"Girls High School","د_مرکز_ځای__موقعیت_مرکز":"شهرکهنه","Polling_Center_Location":"Shahr Kuhna","Verification_Note":"Building","PS_Male":2,"PS_Female":2,"Map_Accuracy":"تعمیر"},"geometry":{"x":7729632.4205435105,"y":4460092.5564445108}},{"attributes":{"OBJECTID":1986,"ولایت":"تخار","Province":"TAKHAR","PC_Code":"1813178","ولسوالي":"ورسج","District":"WARSAJ","د_مرکز_نوم__نام_مرکز":"لیسه سید ظهرالدین شهید","Polling_Center_Name":"Sayed Zafaruddin Shaheed High School","د_مرکز_ځای__موقعیت_مرکز":"خانقاه","Polling_Center_Location":"Khanqah","Verification_Note":"Building","PS_Male":4,"PS_Female":2,"Map_Accuracy":"تعمیر"},"geometry":{"x":7792915.3870085888,"y":4328596.8284086138}},{"attributes":{"OBJECTID":1987,"ولایت":"تخار","Province":"TAKHAR","PC_Code":"1813179","ولسوالي":"ورسج","District":"WARSAJ","د_مرکز_نوم__نام_مرکز":"لیسه انصاف شهید","Polling_Center_Name":"Insaf Shaheed High School","د_مرکز_ځای__موقعیت_مرکز":"سریاوار","Polling_Center_Location":"Sar Yawaar","Verification_Note":"Building","PS_Male":2,"PS_Female":2,"Map_Accuracy":"تعمیر"},"geometry":{"x":7800597.5495210029,"y":4327830.68235518}},{"attributes":{"OBJECTID":1988,"ولایت":"تخار","Province":"TAKHAR","PC_Code":"1813202","ولسوالي":"ورسج","District":"WARSAJ","د_مرکز_نوم__نام_مرکز":"مسجد جامع سرويغنان","Polling_Center_Name":"Sarweghnan Mosque","د_مرکز_ځای__موقعیت_مرکز":"سرويغنان","Polling_Center_Location":"Sarweghnan","Verification_Note":"Building","PS_Male":1,"PS_Female":1,"Map_Accuracy":"تعمیر"},"geometry":{"x":7795734.8481095769,"y":4298803.0685701072}},{"attributes":{"OBJECTID":1989,"ولایت":"تخار","Province":"TAKHAR","PC_Code":"1813203","ولسوالي":"ورسج","District":"WARSAJ","د_مرکز_نوم__نام_مرکز":"مسجد جامع اسكوان","Polling_Center_Name":"Iskowan Mosque","د_مرکز_ځای__موقعیت_مرکز":"اسكوان","Polling_Center_Location":"Iskowan","Verification_Note":"Building","PS_Male":1,"PS_Female":1,"Map_Accuracy":"تعمیر"},"geometry":{"x":7808598.3050765023,"y":4332470.9885778725}},{"attributes":{"OBJECTID":1990,"ولایت":"تخار","Province":"TAKHAR","PC_Code":"1814159","ولسوالي":"خواجه بهاوالدین","District":"KHWAJA BAHAWUDIN","د_مرکز_نوم__نام_مرکز":"مکتب لاله گزر","Polling_Center_Name":"Lala Guzar School","د_مرکز_ځای__موقعیت_مرکز":"لاله گذر","Polling_Center_Location":"Lala Guzar","Verification_Note":"Building","PS_Male":2,"PS_Female":1,"Map_Accuracy":"تعمیر"},"geometry":{"x":7744367.7269932665,"y":4490258.0146395862}},{"attributes":{"OBJECTID":1991,"ولایت":"تخار","Province":"TAKHAR","PC_Code":"1814160","ولسوالي":"خواجه بهاوالدین","District":"KHWAJA BAHAWUDIN","د_مرکز_نوم__نام_مرکز":"مسجد  شورتوغی","Polling_Center_Name":"Shortoghai Mosque","د_مرکز_ځای__موقعیت_مرکز":"شورتوغی","Polling_Center_Location":"Shortoghai","Verification_Note":"Building","PS_Male":2,"PS_Female":1,"Map_Accuracy":"تعمیر"},"geometry":{"x":7737998.9574742131,"y":4482081.9765725136}},{"attributes":{"OBJECTID":1992,"ولایت":"تخار","Province":"TAKHAR","PC_Code":"1815162","ولسوالي":"درقد","District":"DARQAD","د_مرکز_نوم__نام_مرکز":"لیسه ذکور قره تپه","Polling_Center_Name":"Qara Tapa Boys High School","د_مرکز_ځای__موقعیت_مرکز":"قره تپه","Polling_Center_Location":"Qara Tapa","Verification_Note":"Building","PS_Male":2,"PS_Female":1,"Map_Accuracy":"تعمیر"},"geometry":{"x":7728815.3978199959,"y":4497935.5326764286}},{"attributes":{"OBJECTID":1993,"ولایت":"تخار","Province":"TAKHAR","PC_Code":"1815163","ولسوالي":"درقد","District":"DARQAD","د_مرکز_نوم__نام_مرکز":"لیسه ذکور قغنی","Polling_Center_Name":"Qaghni Boys High School","د_مرکز_ځای__موقعیت_مرکز":"قغنی","Polling_Center_Location":"Qaghni","Verification_Note":"Building","PS_Male":2,"PS_Female":1,"Map_Accuracy":"تعمیر"},"geometry":{"x":7737913.4674448669,"y":4506285.9158307537}},{"attributes":{"OBJECTID":1994,"ولایت":"تخار","Province":"TAKHAR","PC_Code":"1815168","ولسوالي":"درقد","District":"DARQAD","د_مرکز_نوم__نام_مرکز":"مسجد جامع کل توت","Polling_Center_Name":"Kol Toot Mosque","د_مرکز_ځای__موقعیت_مرکز":"کل توت","Polling_Center_Location":"Kol Toot","Verification_Note":"Building","PS_Male":1,"PS_Female":1,"Map_Accuracy":"تعمیر"},"geometry":{"x":7739259.08297804,"y":4509667.1171542928}},{"attributes":{"OBJECTID":1995,"ولایت":"تخار","Province":"TAKHAR","PC_Code":"1816132","ولسوالي":"چا آب","District":"CHAH AB","د_مرکز_نوم__نام_مرکز":"مدرسه عیدگاه","Polling_Center_Name":"Eidgah Madrassa","د_مرکز_ځای__موقعیت_مرکز":"مرکز شهر","Polling_Center_Location":"Markaz Shahr","Verification_Note":"Building","PS_Male":3,"PS_Female":2,"Map_Accuracy":"تعمیر"},"geometry":{"x":7770740.2260688208,"y":4494527.6451725587}},{"attributes":{"OBJECTID":1996,"ولایت":"تخار","Province":"TAKHAR","PC_Code":"1816143","ولسوالي":"چا آب","District":"CHAH AB","د_مرکز_نوم__نام_مرکز":"مکتب ابتدائیه گزان","Polling_Center_Name":"Gazan Primary School","د_مرکز_ځای__موقعیت_مرکز":"گزان","Polling_Center_Location":"Gazan","Verification_Note":"Building","PS_Male":1,"PS_Female":1,"Map_Accuracy":"تعمیر"},"geometry":{"x":7780317.8845503144,"y":4495822.76084175}},{"attributes":{"OBJECTID":1997,"ولایت":"تخار","Province":"TAKHAR","PC_Code":"1816144","ولسوالي":"چا آب","District":"CHAH AB","د_مرکز_نوم__نام_مرکز":"مسجد رباط حمیدالدین","Polling_Center_Name":"Rabaat Hameeduddin Mosque","د_مرکز_ځای__موقعیت_مرکز":"رباط حمیدالدین","Polling_Center_Location":"Rabaat Hameeduddin","Verification_Note":"Building","PS_Male":1,"PS_Female":1,"Map_Accuracy":"تعمیر"},"geometry":{"x":7798234.0341299921,"y":4494238.2973344475}},{"attributes":{"OBJECTID":1998,"ولایت":"تخار","Province":"TAKHAR","PC_Code":"1817146","ولسوالي":"ینگی قلعه","District":"YANGI QALA","د_مرکز_نوم__نام_مرکز":"مکتب متوسطه کفتر علی","Polling_Center_Name":"Kaftar Ali Secondary School","د_مرکز_ځای__موقعیت_مرکز":"کفتر علی","Polling_Center_Location":"Kaftar Ali","Verification_Note":"Building","PS_Male":3,"PS_Female":3,"Map_Accuracy":"تعمیر"},"geometry":{"x":7748384.038486328,"y":4496419.81570024}},{"attributes":{"OBJECTID":1999,"ولایت":"تخار","Province":"TAKHAR","PC_Code":"1817147","ولسوالي":"ینگی قلعه","District":"YANGI QALA","د_مرکز_نوم__نام_مرکز":"مسجد ایرمجر","Polling_Center_Name":"Irmajar Mosque","د_مرکز_ځای__موقعیت_مرکز":"ایرمجر","Polling_Center_Location":"Irmajar","Verification_Note":"Building","PS_Male":2,"PS_Female":2,"Map_Accuracy":"تعمیر"},"geometry":{"x":7747602.94746805,"y":4501555.4855561256}}]}