{
 "displayFieldName": "Polling_Center_Name",
 "fieldAliases": {
  "OBJECTID": "OBJECTID",
  "ولایت": "ولایت",
  "Province": "Province",
  "PC_Code": "PC_Code",
  "District": "District",
  "د_مرکز_نوم__نام_مرکز": "د_مرکز_نوم__نام_مرکز",
  "Polling_Center_Name": "Polling_Center_Name",
  "د_مرکز_ځای__موقعیت_مرکز": "د_مرکز_ځای__موقعیت_مرکز",
  "Polling_Center_Location": "Polling_Center_Location",
  "Map_Accuracy": "Map_Accuracy",
  "Map_Accuracy_Dari": "Map_Accuracy_Dari",
  "Status": "Status",
  "Status_Dari": "Status_Dari",
  "PS_Male": "PS_Male",
  "PS_Female": "PS_Female",
  "PS_Total": "PS_Total",
  "ولسوالي": "ولسوالي",
  "Region": "Region"
 },
 "geometryType": "esriGeometryPoint",
 "spatialReference": {
  "wkid": 102100,
  "latestWkid": 3857
 },
 "fields": [
  {
   "name": "OBJECTID",
   "type": "esriFieldTypeOID",
   "alias": "OBJECTID"
  },
  {
   "name": "ولایت",
   "type": "esriFieldTypeString",
   "alias": "ولایت",
   "length": 255
  },
  {
   "name": "Province",
   "type": "esriFieldTypeString",
   "alias": "Province",
   "length": 255
  },
  {
   "name": "PC_Code",
   "type": "esriFieldTypeString",
   "alias": "PC_Code",
   "length": 255
  },
  {
   "name": "District",
   "type": "esriFieldTypeString",
   "alias": "District",
   "length": 255
  },
  {
   "name": "د_مرکز_نوم__نام_مرکز",
   "type": "esriFieldTypeString",
   "alias": "د_مرکز_نوم__نام_مرکز",
   "length": 255
  },
  {
   "name": "Polling_Center_Name",
   "type": "esriFieldTypeString",
   "alias": "Polling_Center_Name",
   "length": 255
  },
  {
   "name": "د_مرکز_ځای__موقعیت_مرکز",
   "type": "esriFieldTypeString",
   "alias": "د_مرکز_ځای__موقعیت_مرکز",
   "length": 255
  },
  {
   "name": "Polling_Center_Location",
   "type": "esriFieldTypeString",
   "alias": "Polling_Center_Location",
   "length": 255
  },
  {
   "name": "Map_Accuracy",
   "type": "esriFieldTypeString",
   "alias": "Map_Accuracy",
   "length": 10
  },
  {
   "name": "Map_Accuracy_Dari",
   "type": "esriFieldTypeString",
   "alias": "Map_Accuracy_Dari",
   "length": 50
  },
  {
   "name": "Status",
   "type": "esriFieldTypeString",
   "alias": "Status",
   "length": 6
  },
  {
   "name": "Status_Dari",
   "type": "esriFieldTypeString",
   "alias": "Status_Dari",
   "length": 8
  },
  {
   "name": "PS_Male",
   "type": "esriFieldTypeSmallInteger",
   "alias": "PS_Male"
  },
  {
   "name": "PS_Female",
   "type": "esriFieldTypeSmallInteger",
   "alias": "PS_Female"
  },
  {
   "name": "PS_Total",
   "type": "esriFieldTypeSmallInteger",
   "alias": "PS_Total"
  },
  {
   "name": "ولسوالي",
   "type": "esriFieldTypeString",
   "alias": "ولسوالي",
   "length": 255
  },
  {
   "name": "Region",
   "type": "esriFieldTypeString",
   "alias": "Region",
   "length": 50
  }
 ],
 "features": [
  {
   "attributes": {
    "OBJECTID": 2401,
    "ولایت": "کندهار",
    "Province": "کندهار",
    "PC_Code": "2701010",
    "District": "KANDAHAR",
    "د_مرکز_نوم__نام_مرکز": "د عينو منځني ښوونځي",
    "Polling_Center_Name": "Aino Secondary School",
    "د_مرکز_ځای__موقعیت_مرکز": "شپږمه ناحيه",
    "Polling_Center_Location": "D06 - Nahia 6",
    "Map_Accuracy": "Building",
    "Map_Accuracy_Dari": "تعمیر",
    "Status": "Open",
    "Status_Dari": null,
    "PS_Male": 1,
    "PS_Female": 6,
    "PS_Total": 7,
    "ولسوالي": "کندهار",
    "Region": "Southern Region"
   },
   "geometry": {
    "x": 7313302.1469619237,
    "y": 3714002.5545751662
   }
  },
  {
   "attributes": {
    "OBJECTID": 2402,
    "ولایت": "کندهار",
    "Province": "کندهار",
    "PC_Code": "2701012",
    "District": "KANDAHAR",
    "د_مرکز_نوم__نام_مرکز": "پخواني ولايت",
    "Polling_Center_Name": "Pakhwanai Walayat",
    "د_مرکز_ځای__موقعیت_مرکز": "څلورمه ناحيه",
    "Polling_Center_Location": "D04 - Nahia 4",
    "Map_Accuracy": "Building",
    "Map_Accuracy_Dari": "تعمیر",
    "Status": "Open",
    "Status_Dari": null,
    "PS_Male": 7,
    "PS_Female": 0,
    "PS_Total": 7,
    "ولسوالي": "کندهار",
    "Region": "Southern Region"
   },
   "geometry": {
    "x": 7315093.8274870673,
    "y": 3713286.3045132635
   }
  },
  {
   "attributes": {
    "OBJECTID": 2403,
    "ولایت": "کندهار",
    "Province": "کندهار",
    "PC_Code": "2701022",
    "District": "KANDAHAR",
    "د_مرکز_نوم__نام_مرکز": "د ميرويس ميني اناث مكتب",
    "Polling_Center_Name": "Mirwais Mena Girls School",
    "د_مرکز_ځای__موقعیت_مرکز": "شپږمه ناحيه",
    "Polling_Center_Location": "D06 - Nahia 6",
    "Map_Accuracy": "Building",
    "Map_Accuracy_Dari": "تعمیر",
    "Status": "Open",
    "Status_Dari": null,
    "PS_Male": 4,
    "PS_Female": 2,
    "PS_Total": 6,
    "ولسوالي": "کندهار",
    "Region": "Southern Region"
   },
   "geometry": {
    "x": 7307813.3925266303,
    "y": 3712967.053230823
   }
  },
  {
   "attributes": {
    "OBJECTID": 2404,
    "ولایت": "کندهار",
    "Province": "کندهار",
    "PC_Code": "2701023",
    "District": "KANDAHAR",
    "د_مرکز_نوم__نام_مرکز": "د سيد جمال الدين لیسه",
    "Polling_Center_Name": "Sayed Jamaluddin High School",
    "د_مرکز_ځای__موقعیت_مرکز": "عینو مینه",
    "Polling_Center_Location": "Aino Mena",
    "Map_Accuracy": "Building",
    "Map_Accuracy_Dari": "تعمیر",
    "Status": "Open",
    "Status_Dari": null,
    "PS_Male": 5,
    "PS_Female": 3,
    "PS_Total": 8,
    "ولسوالي": "کندهار",
    "Region": "Southern Region"
   },
   "geometry": {
    "x": 7320930.8816847373,
    "y": 3713681.551039692
   }
  },
  {
   "attributes": {
    "OBJECTID": 2405,
    "ولایت": "کندهار",
    "Province": "کندهار",
    "PC_Code": "2701061",
    "District": "KANDAHAR",
    "د_مرکز_نوم__نام_مرکز": "د يتیمانو مكتب",
    "Polling_Center_Name": "Yateemano School",
    "د_مرکز_ځای__موقعیت_مرکز": "كوكران",
    "Polling_Center_Location": "Kokaran",
    "Map_Accuracy": "Building",
    "Map_Accuracy_Dari": "تعمیر",
    "Status": "Open",
    "Status_Dari": null,
    "PS_Male": 4,
    "PS_Female": 1,
    "PS_Total": 5,
    "ولسوالي": "کندهار",
    "Region": "Southern Region"
   },
   "geometry": {
    "x": 7303754.0783142811,
    "y": 3713234.0594697883
   }
  },
  {
   "attributes": {
    "OBJECTID": 2406,
    "ولایت": "کندهار",
    "Province": "کندهار",
    "PC_Code": "2701062",
    "District": "KANDAHAR",
    "د_مرکز_نوم__نام_مرکز": "اميرلالي هوټل",
    "Polling_Center_Name": "Ameer Lalee Hotel",
    "د_مرکز_ځای__موقعیت_مرکز": "لسمه ناحيه",
    "Polling_Center_Location": "D10 - Nahia 10",
    "Map_Accuracy": "Building",
    "Map_Accuracy_Dari": "تعمیر",
    "Status": "Open",
    "Status_Dari": null,
    "PS_Male": 5,
    "PS_Female": 3,
    "PS_Total": 8,
    "ولسوالي": "کندهار",
    "Region": "Southern Region"
   },
   "geometry": {
    "x": 7328862.4354787767,
    "y": 3713316.514868225
   }
  },
  {
   "attributes": {
    "OBJECTID": 2407,
    "ولایت": "کندهار",
    "Province": "کندهار",
    "PC_Code": "2702109",
    "District": "ARGHANDAB",
    "د_مرکز_نوم__نام_مرکز": "مكتب محمد یعقوب قلعچه",
    "Polling_Center_Name": "Mohammad Yaqoob Qalacha School",
    "د_مرکز_ځای__موقعیت_مرکز": "محمد یعقوب قلعچه",
    "Polling_Center_Location": "Mohammad Yaqoob Qalacha",
    "Map_Accuracy": "Building",
    "Map_Accuracy_Dari": "تعمیر",
    "Status": "Open",
    "Status_Dari": null,
    "PS_Male": 1,
    "PS_Female": 2,
    "PS_Total": 3,
    "ولسوالي": "ارغنداب",
    "Region": "Southern Region"
   },
   "geometry": {
    "x": 7316544.7935599443,
    "y": 3728454.4906669473
   }
  },
  {
   "attributes": {
    "OBJECTID": 2408,
    "ولایت": "کندهار",
    "Province": "کندهار",
    "PC_Code": "2702110",
    "District": "ARGHANDAB",
    "د_مرکز_نوم__نام_مرکز": "پخواني ولسوالي بابا ولی صاحب",
    "Polling_Center_Name": "Baba Wali Sahib Old District Office",
    "د_مرکز_ځای__موقعیت_مرکز": "بابا ولی صاحب",
    "Polling_Center_Location": "Baba Wali Sahib",
    "Map_Accuracy": "Building",
    "Map_Accuracy_Dari": "تعمیر",
    "Status": "Open",
    "Status_Dari": null,
    "PS_Male": 3,
    "PS_Female": 0,
    "PS_Total": 3,
    "ولسوالي": "ارغنداب",
    "Region": "Southern Region"
   },
   "geometry": {
    "x": 7308992.647759988,
    "y": 3718528.1698301896
   }
  },
  {
   "attributes": {
    "OBJECTID": 2409,
    "ولایت": "کندهار",
    "Province": "کندهار",
    "PC_Code": "2702113",
    "District": "ARGHANDAB",
    "د_مرکز_نوم__نام_مرکز": "باغ پل هوټل پارک",
    "Polling_Center_Name": "Bagh Pul Hotel Park",
    "د_مرکز_ځای__موقعیت_مرکز": "باغ پل",
    "Polling_Center_Location": "Bagh Pul",
    "Map_Accuracy": "Building",
    "Map_Accuracy_Dari": "تعمیر",
    "Status": "Open",
    "Status_Dari": null,
    "PS_Male": 3,
    "PS_Female": 2,
    "PS_Total": 5,
    "ولسوالي": "ارغنداب",
    "Region": "Southern Region"
   },
   "geometry": {
    "x": 7300077.0363465073,
    "y": 3712673.4465984725
   }
  },
  {
   "attributes": {
    "OBJECTID": 2410,
    "ولایت": "کندهار",
    "Province": "کندهار",
    "PC_Code": "2702114",
    "District": "ARGHANDAB",
    "د_مرکز_نوم__نام_مرکز": "مدرسه خانه ګرداب",
    "Polling_Center_Name": "Khana Gardab Madrassa",
    "د_مرکز_ځای__موقعیت_مرکز": "خانه ګرداب",
    "Polling_Center_Location": "Khana Gardab",
    "Map_Accuracy": "Building",
    "Map_Accuracy_Dari": "تعمیر",
    "Status": "Open",
    "Status_Dari": null,
    "PS_Male": 2,
    "PS_Female": 1,
    "PS_Total": 3,
    "ولسوالي": "ارغنداب",
    "Region": "Southern Region"
   },
   "geometry": {
    "x": 7318887.7293166919,
    "y": 3734485.185830479
   }
  },
  {
   "attributes": {
    "OBJECTID": 2411,
    "ولایت": "کندهار",
    "Province": "کندهار",
    "PC_Code": "2703083",
    "District": "DAMAN",
    "د_مرکز_نوم__نام_مرکز": "مكتب اعظم قلعه",
    "Polling_Center_Name": "Azam Qala School",
    "د_مرکز_ځای__موقعیت_مرکز": "اعظم قلعه",
    "Polling_Center_Location": "Azam Qala",
    "Map_Accuracy": "Building",
    "Map_Accuracy_Dari": "تعمیر",
    "Status": "Open",
    "Status_Dari": null,
    "PS_Male": 3,
    "PS_Female": 2,
    "PS_Total": 5,
    "ولسوالي": "دامان",
    "Region": "Southern Region"
   },
   "geometry": {
    "x": 7341223.8738248711,
    "y": 3716891.9964928618
   }
  },
  {
   "attributes": {
    "OBJECTID": 2412,
    "ولایت": "کندهار",
    "Province": "کندهار",
    "PC_Code": "2703084",
    "District": "DAMAN",
    "د_مرکز_نوم__نام_مرکز": "فارم ترنك مكتب ",
    "Polling_Center_Name": "Faram Tarank School",
    "د_مرکز_ځای__موقعیت_مرکز": "حکیم جان کلاچه",
    "Polling_Center_Location": "Hakeem Jana Kalacha",
    "Map_Accuracy": "Building",
    "Map_Accuracy_Dari": "تعمیر",
    "Status": "Open",
    "Status_Dari": null,
    "PS_Male": 3,
    "PS_Female": 2,
    "PS_Total": 5,
    "ولسوالي": "دامان",
    "Region": "Southern Region"
   },
   "geometry": {
    "x": 7333201.9961752445,
    "y": 3696573.8417390957
   }
  },
  {
   "attributes": {
    "OBJECTID": 2413,
    "ولایت": "کندهار",
    "Province": "کندهار",
    "PC_Code": "2704193",
    "District": "PANJWAYEE",
    "د_مرکز_نوم__نام_مرکز": "د تربيوي مركز منطقه",
    "Polling_Center_Name": "Tranining Center Place",
    "د_مرکز_ځای__موقعیت_مرکز": "مارغر",
    "Polling_Center_Location": "Marghar",
    "Map_Accuracy": "Village",
    "Map_Accuracy_Dari": "قریه",
    "Status": "Open",
    "Status_Dari": null,
    "PS_Male": 4,
    "PS_Female": 4,
    "PS_Total": 8,
    "ولسوالي": "پنجوایې",
    "Region": "Southern Region"
   },
   "geometry": {
    "x": 7285651.8548661545,
    "y": 3679734.4810611522
   }
  },
  {
   "attributes": {
    "OBJECTID": 2414,
    "ولایت": "کندهار",
    "Province": "کندهار",
    "PC_Code": "2704194",
    "District": "PANJWAYEE",
    "د_مرکز_نوم__نام_مرکز": "مسجد صالحان",
    "Polling_Center_Name": "Salihan Mosque",
    "د_مرکز_ځای__موقعیت_مرکز": "كاريز كلي",
    "Polling_Center_Location": "Karez Village",
    "Map_Accuracy": "Building",
    "Map_Accuracy_Dari": "تعمیر",
    "Status": "Open",
    "Status_Dari": null,
    "PS_Male": 2,
    "PS_Female": 2,
    "PS_Total": 4,
    "ولسوالي": "پنجوایې",
    "Region": "Southern Region"
   },
   "geometry": {
    "x": 7295736.0181439463,
    "y": 3705784.7879621522
   }
  },
  {
   "attributes": {
    "OBJECTID": 2415,
    "ولایت": "کندهار",
    "Province": "کندهار",
    "PC_Code": "2705163",
    "District": "ZHIRE",
    "د_مرکز_نوم__نام_مرکز": "زوړ كلينيك",
    "Polling_Center_Name": "Old Clinic",
    "د_مرکز_ځای__موقعیت_مرکز": "حوض مدد",
    "Polling_Center_Location": "Hawz Madad",
    "Map_Accuracy": "Village",
    "Map_Accuracy_Dari": "قریه",
    "Status": "Open",
    "Status_Dari": null,
    "PS_Male": 2,
    "PS_Female": 1,
    "PS_Total": 3,
    "ولسوالي": "ژیړی",
    "Region": "Southern Region"
   },
   "geometry": {
    "x": 7271206.7015559524,
    "y": 3704257.1021441948
   }
  },
  {
   "attributes": {
    "OBJECTID": 2416,
    "ولایت": "کندهار",
    "Province": "کندهار",
    "PC_Code": "2705164",
    "District": "ZHIRE",
    "د_مرکز_نوم__نام_مرکز": "اسد سور مكتب",
    "Polling_Center_Name": "Asad Soor School",
    "د_مرکز_ځای__موقعیت_مرکز": "پاشمول",
    "Polling_Center_Location": "Pashmol",
    "Map_Accuracy": "Village",
    "Map_Accuracy_Dari": "قریه",
    "Status": "Open",
    "Status_Dari": null,
    "PS_Male": 1,
    "PS_Female": 1,
    "PS_Total": 2,
    "ولسوالي": "ژیړی",
    "Region": "Southern Region"
   },
   "geometry": {
    "x": 7281316.7043139488,
    "y": 3705328.6429905612
   }
  },
  {
   "attributes": {
    "OBJECTID": 2417,
    "ولایت": "کندهار",
    "Province": "کندهار",
    "PC_Code": "2706089",
    "District": "SHAH WALI KOT",
    "د_مرکز_نوم__نام_مرکز": "كلينيك ويان",
    "Polling_Center_Name": "Wiyan Clinic",
    "د_مرکز_ځای__موقعیت_مرکز": "ويان",
    "Polling_Center_Location": "Wiyan",
    "Map_Accuracy": "Village",
    "Map_Accuracy_Dari": "قریه",
    "Status": "Open",
    "Status_Dari": null,
    "PS_Male": 3,
    "PS_Female": 3,
    "PS_Total": 6,
    "ولسوالي": "شاه ولي كوټ",
    "Region": "Southern Region"
   },
   "geometry": {
    "x": 7343525.3653352046,
    "y": 3759215.1550749494
   }
  },
  {
   "attributes": {
    "OBJECTID": 2418,
    "ولایت": "کندهار",
    "Province": "کندهار",
    "PC_Code": "2706090",
    "District": "SHAH WALI KOT",
    "د_مرکز_نوم__نام_مرکز": "د حاجي فاياب كور",
    "Polling_Center_Name": "Haji Fayab Private House",
    "د_مرکز_ځای__موقعیت_مرکز": "باغتو",
    "Polling_Center_Location": "Baghto",
    "Map_Accuracy": "Village",
    "Map_Accuracy_Dari": "قریه",
    "Status": "Open",
    "Status_Dari": null,
    "PS_Male": 2,
    "PS_Female": 0,
    "PS_Total": 2,
    "ولسوالي": "شاه ولي كوټ",
    "Region": "Southern Region"
   },
   "geometry": {
    "x": 7350078.4799310062,
    "y": 3773257.6141567528
   }
  },
  {
   "attributes": {
    "OBJECTID": 2419,
    "ولایت": "کندهار",
    "Province": "کندهار",
    "PC_Code": "2706091",
    "District": "SHAH WALI KOT",
    "د_مرکز_نوم__نام_مرکز": "د سفع الله كور",
    "Polling_Center_Name": "Safullah Private House",
    "د_مرکز_ځای__موقعیت_مرکز": "داڅكزو سوزني",
    "Polling_Center_Location": "Asakzo Sozni",
    "Map_Accuracy": "District",
    "Map_Accuracy_Dari": "ولسوالی",
    "Status": "Open",
    "Status_Dari": null,
    "PS_Male": 2,
    "PS_Female": 0,
    "PS_Total": 2,
    "ولسوالي": "شاه ولي كوټ",
    "Region": "Southern Region"
   },
   "geometry": {
    "x": 7354482.6563598635,
    "y": 3766130.2288237019
   }
  },
  {
   "attributes": {
    "OBJECTID": 2420,
    "ولایت": "کندهار",
    "Province": "کندهار",
    "PC_Code": "2706092",
    "District": "SHAH WALI KOT",
    "د_مرکز_نوم__نام_مرکز": "د ملك سلام كور",
    "Polling_Center_Name": "Malak Salam Private House",
    "د_مرکز_ځای__موقعیت_مرکز": "بورګي",
    "Polling_Center_Location": "Borgi",
    "Map_Accuracy": "Village",
    "Map_Accuracy_Dari": "قریه",
    "Status": "Open",
    "Status_Dari": null,
    "PS_Male": 2,
    "PS_Female": 2,
    "PS_Total": 4,
    "ولسوالي": "شاه ولي كوټ",
    "Region": "Southern Region"
   },
   "geometry": {
    "x": 7350202.8950466989,
    "y": 3756521.905662341
   }
  },
  {
   "attributes": {
    "OBJECTID": 2421,
    "ولایت": "کندهار",
    "Province": "کندهار",
    "PC_Code": "2706095",
    "District": "SHAH WALI KOT",
    "د_مرکز_نوم__نام_مرکز": "د فضل كرم مسجد",
    "Polling_Center_Name": "Fazal karam Mosque",
    "د_مرکز_ځای__موقعیت_مرکز": " شاه توت",
    "Polling_Center_Location": "Shah Toot",
    "Map_Accuracy": "Village",
    "Map_Accuracy_Dari": "قریه",
    "Status": "Open",
    "Status_Dari": null,
    "PS_Male": 2,
    "PS_Female": 0,
    "PS_Total": 2,
    "ولسوالي": "شاه ولي كوټ",
    "Region": "Southern Region"
   },
   "geometry": {
    "x": 7352235.6935889069,
    "y": 3785557.5988235092
   }
  },
  {
   "attributes": {
    "OBJECTID": 2422,
    "ولایت": "کندهار",
    "Province": "کندهار",
    "PC_Code": "2707118",
    "District": "KHAKREZ",
    "د_مرکز_نوم__نام_مرکز": "مكتب ناصر",
    "Polling_Center_Name": "Naasir School",
    "د_مرکز_ځای__موقعیت_مرکز": "ناصر",
    "Polling_Center_Location": "Naasir",
    "Map_Accuracy": "Village",
    "Map_Accuracy_Dari": "قریه",
    "Status": "Open",
    "Status_Dari": null,
    "PS_Male": 2,
    "PS_Female": 0,
    "PS_Total": 2,
    "ولسوالي": "خاک ریز",
    "Region": "Southern Region"
   },
   "geometry": {
    "x": 7302780.8531944836,
    "y": 3761566.6059518708
   }
  },
  {
   "attributes": {
    "OBJECTID": 2423,
    "ولایت": "کندهار",
    "Province": "کندهار",
    "PC_Code": "2707124",
    "District": "KHAKREZ",
    "د_مرکز_نوم__نام_مرکز": "د خاکریز کلی كلينيك ",
    "Polling_Center_Name": "Khakrez Village Clinic",
    "د_مرکز_ځای__موقعیت_مرکز": "خاک ریز کلی",
    "Polling_Center_Location": "Khak Rez Village",
    "Map_Accuracy": "Building",
    "Map_Accuracy_Dari": "تعمیر",
    "Status": "Open",
    "Status_Dari": null,
    "PS_Male": 1,
    "PS_Female": 3,
    "PS_Total": 4,
    "ولسوالي": "خاک ریز",
    "Region": "Southern Region"
   },
   "geometry": {
    "x": 7288273.6949279141,
    "y": 3761473.9856361351
   }
  },
  {
   "attributes": {
    "OBJECTID": 2424,
    "ولایت": "کندهار",
    "Province": "کندهار",
    "PC_Code": "2708246",
    "District": "ARGHISTAN",
    "د_مرکز_نوم__نام_مرکز": "محمد نيكه مكتب",
    "Polling_Center_Name": "Mohamamd Neeka School",
    "د_مرکز_ځای__موقعیت_مرکز": "خوګياڼي",
    "Polling_Center_Location": "Khogyani",
    "Map_Accuracy": "Village",
    "Map_Accuracy_Dari": "قریه",
    "Status": "Open",
    "Status_Dari": null,
    "PS_Male": 3,
    "PS_Female": 2,
    "PS_Total": 5,
    "ولسوالي": "ارغستان",
    "Region": "Southern Region"
   },
   "geometry": {
    "x": 7412218.1184151908,
    "y": 3706076.7247924865
   }
  },
  {
   "attributes": {
    "OBJECTID": 2425,
    "ولایت": "کندهار",
    "Province": "کندهار",
    "PC_Code": "2708247",
    "District": "ARGHISTAN",
    "د_مرکز_نوم__نام_مرکز": "مسجد سپين اګره",
    "Polling_Center_Name": "Speen Agra Mosque",
    "د_مرکز_ځای__موقعیت_مرکز": "سپين اګره",
    "Polling_Center_Location": "Speen Agra",
    "Map_Accuracy": "Village",
    "Map_Accuracy_Dari": "قریه",
    "Status": "Open",
    "Status_Dari": null,
    "PS_Male": 2,
    "PS_Female": 1,
    "PS_Total": 3,
    "ولسوالي": "ارغستان",
    "Region": "Southern Region"
   },
   "geometry": {
    "x": 7428673.9499715772,
    "y": 3723214.6624003369
   }
  },
  {
   "attributes": {
    "OBJECTID": 2426,
    "ولایت": "کندهار",
    "Province": "کندهار",
    "PC_Code": "2708252",
    "District": "ARGHISTAN",
    "د_مرکز_نوم__نام_مرکز": "مكتب تيسان كلي",
    "Polling_Center_Name": "Taisan Village School",
    "د_مرکز_ځای__موقعیت_مرکز": "تيسان كلي",
    "Polling_Center_Location": "Taisan Village",
    "Map_Accuracy": "Village",
    "Map_Accuracy_Dari": "قریه",
    "Status": "Open",
    "Status_Dari": null,
    "PS_Male": 2,
    "PS_Female": 2,
    "PS_Total": 4,
    "ولسوالي": "ارغستان",
    "Region": "Southern Region"
   },
   "geometry": {
    "x": 7407957.6966371583,
    "y": 3682819.3671001629
   }
  },
  {
   "attributes": {
    "OBJECTID": 2427,
    "ولایت": "کندهار",
    "Province": "کندهار",
    "PC_Code": "2708253",
    "District": "ARGHISTAN",
    "د_مرکز_نوم__نام_مرکز": "دټيسن كلي مكتب",
    "Polling_Center_Name": "Tesan Village School",
    "د_مرکز_ځای__موقعیت_مرکز": "بالا ژړه",
    "Polling_Center_Location": "Bala Zhara",
    "Map_Accuracy": "Village",
    "Map_Accuracy_Dari": "قریه",
    "Status": "Open",
    "Status_Dari": null,
    "PS_Male": 2,
    "PS_Female": 1,
    "PS_Total": 3,
    "ولسوالي": "ارغستان",
    "Region": "Southern Region"
   },
   "geometry": {
    "x": 7411797.99977013,
    "y": 3676061.4702188894
   }
  },
  {
   "attributes": {
    "OBJECTID": 2428,
    "ولایت": "کندهار",
    "Province": "کندهار",
    "PC_Code": "2710137",
    "District": "MAIWAND",
    "د_مرکز_نوم__نام_مرکز": "د شهيدانو مكتب",
    "Polling_Center_Name": "Shahidano School",
    "د_مرکز_ځای__موقعیت_مرکز": "ميوند چنه",
    "Polling_Center_Location": "Maiwand Chana",
    "Map_Accuracy": "Village",
    "Map_Accuracy_Dari": "قریه",
    "Status": "Open",
    "Status_Dari": null,
    "PS_Male": 2,
    "PS_Female": 0,
    "PS_Total": 2,
    "ولسوالي": "میوند",
    "Region": "Southern Region"
   },
   "geometry": {
    "x": 7250232.0367215825,
    "y": 3730250.6809440232
   }
  },
  {
   "attributes": {
    "OBJECTID": 2429,
    "ولایت": "کندهار",
    "Province": "کندهار",
    "PC_Code": "2710138",
    "District": "MAIWAND",
    "د_مرکز_نوم__نام_مرکز": "د محمد يوسف كور",
    "Polling_Center_Name": "Mohammad Yousuf Private House",
    "د_مرکز_ځای__موقعیت_مرکز": "سفوزي انجران",
    "Polling_Center_Location": "Safozi Enjaran",
    "Map_Accuracy": "Building",
    "Map_Accuracy_Dari": "تعمیر",
    "Status": "Open",
    "Status_Dari": null,
    "PS_Male": 3,
    "PS_Female": 0,
    "PS_Total": 3,
    "ولسوالي": "میوند",
    "Region": "Southern Region"
   },
   "geometry": {
    "x": 7239197.5511960294,
    "y": 3715814.0556335035
   }
  },
  {
   "attributes": {
    "OBJECTID": 2430,
    "ولایت": "کندهار",
    "Province": "کندهار",
    "PC_Code": "2710144",
    "District": "MAIWAND",
    "د_مرکز_نوم__نام_مرکز": "د سردار اسد كور",
    "Polling_Center_Name": "Sardar Asad Private House",
    "د_مرکز_ځای__موقعیت_مرکز": "ميراب خور",
    "Polling_Center_Location": "Mirab Khor",
    "Map_Accuracy": "Village",
    "Map_Accuracy_Dari": "قریه",
    "Status": "Open",
    "Status_Dari": null,
    "PS_Male": 1,
    "PS_Female": 1,
    "PS_Total": 2,
    "ولسوالي": "میوند",
    "Region": "Southern Region"
   },
   "geometry": {
    "x": 7261664.295730805,
    "y": 3698874.3147116248
   }
  },
  {
   "attributes": {
    "OBJECTID": 2431,
    "ولایت": "کندهار",
    "Province": "کندهار",
    "PC_Code": "2710145",
    "District": "MAIWAND",
    "د_مرکز_نوم__نام_مرکز": "د ولسوالي مركز",
    "Polling_Center_Name": "District Building Office",
    "د_مرکز_ځای__موقعیت_مرکز": "د ولسوالي مركز",
    "Polling_Center_Location": "District Compound",
    "Map_Accuracy": "Building",
    "Map_Accuracy_Dari": "تعمیر",
    "Status": "Open",
    "Status_Dari": null,
    "PS_Male": 0,
    "PS_Female": 3,
    "PS_Total": 3,
    "ولسوالي": "میوند",
    "Region": "Southern Region"
   },
   "geometry": {
    "x": 7242012.8556272341,
    "y": 3713876.5638576918
   }
  },
  {
   "attributes": {
    "OBJECTID": 2432,
    "ولایت": "کندهار",
    "Province": "کندهار",
    "PC_Code": "2710148",
    "District": "MAIWAND",
    "د_مرکز_نوم__نام_مرکز": "د بلوڅ حاجي امان الله كلي د باوړي سره",
    "Polling_Center_Name": "Balos Haji Amanullah Village ",
    "د_مرکز_ځای__موقعیت_مرکز": "د بلوڅ حاجي امان الله كلي ",
    "Polling_Center_Location": "Balos Haji Amanullah Village",
    "Map_Accuracy": "Village",
    "Map_Accuracy_Dari": "قریه",
    "Status": "Open",
    "Status_Dari": null,
    "PS_Male": 2,
    "PS_Female": 0,
    "PS_Total": 2,
    "ولسوالي": "میوند",
    "Region": "Southern Region"
   },
   "geometry": {
    "x": 7242666.1863791142,
    "y": 3737272.7430766048
   }
  },
  {
   "attributes": {
    "OBJECTID": 2433,
    "ولایت": "کندهار",
    "Province": "کندهار",
    "PC_Code": "2711203",
    "District": "SPIN BOLDAK",
    "د_مرکز_نوم__نام_مرکز": "د حاجي رازق ميلمستون",
    "Polling_Center_Name": "Haji Raziq Guest House",
    "د_مرکز_ځای__موقعیت_مرکز": "د حاجي رازق كلي",
    "Polling_Center_Location": "Haji Raziq Village",
    "Map_Accuracy": "Building",
    "Map_Accuracy_Dari": "تعمیر",
    "Status": "Open",
    "Status_Dari": null,
    "PS_Male": 6,
    "PS_Female": 1,
    "PS_Total": 7,
    "ولسوالي": "سپین بولدک",
    "Region": "Southern Region"
   },
   "geometry": {
    "x": 7393182.4431881346,
    "y": 3631583.869062419
   }
  },
  {
   "attributes": {
    "OBJECTID": 2434,
    "ولایت": "کندهار",
    "Province": "کندهار",
    "PC_Code": "2711208",
    "District": "SPIN BOLDAK",
    "د_مرکز_نوم__نام_مرکز": "د حاجي احمد شاه ماركيټ مکتب",
    "Polling_Center_Name": "Haji Ahmad Shah Market School",
    "د_مرکز_ځای__موقعیت_مرکز": "بولدک ويش",
    "Polling_Center_Location": "Boldak Wesh",
    "Map_Accuracy": "Building",
    "Map_Accuracy_Dari": "تعمیر",
    "Status": "Open",
    "Status_Dari": null,
    "PS_Male": 3,
    "PS_Female": 3,
    "PS_Total": 6,
    "ولسوالي": "سپین بولدک",
    "Region": "Southern Region"
   },
   "geometry": {
    "x": 7393497.220199055,
    "y": 3629030.5290365373
   }
  },
  {
   "attributes": {
    "OBJECTID": 2435,
    "ولایت": "کندهار",
    "Province": "کندهار",
    "PC_Code": "2711209",
    "District": "SPIN BOLDAK",
    "د_مرکز_نوم__نام_مرکز": "مدرسه بامبول",
    "Polling_Center_Name": "Bambol Madrassa",
    "د_مرکز_ځای__موقعیت_مرکز": "بامبول",
    "Polling_Center_Location": "Bambol",
    "Map_Accuracy": "Village",
    "Map_Accuracy_Dari": "قریه",
    "Status": "Open",
    "Status_Dari": null,
    "PS_Male": 4,
    "PS_Female": 1,
    "PS_Total": 5,
    "ولسوالي": "سپین بولدک",
    "Region": "Southern Region"
   },
   "geometry": {
    "x": 7396304.4172317423,
    "y": 3644806.7918727263
   }
  },
  {
   "attributes": {
    "OBJECTID": 2436,
    "ولایت": "کندهار",
    "Province": "کندهار",
    "PC_Code": "2711212",
    "District": "SPIN BOLDAK",
    "د_مرکز_نوم__نام_مرکز": "قاضي مدرسه",
    "Polling_Center_Name": "Qazi Madrassa",
    "د_مرکز_ځای__موقعیت_مرکز": "سپين بولدك",
    "Polling_Center_Location": "Speen Boldak",
    "Map_Accuracy": "Village",
    "Map_Accuracy_Dari": "قریه",
    "Status": "Open",
    "Status_Dari": null,
    "PS_Male": 4,
    "PS_Female": 2,
    "PS_Total": 6,
    "ولسوالي": "سپین بولدک",
    "Region": "Southern Region"
   },
   "geometry": {
    "x": 7391599.4210297242,
    "y": 3633923.5372312865
   }
  },
  {
   "attributes": {
    "OBJECTID": 2437,
    "ولایت": "کندهار",
    "Province": "کندهار",
    "PC_Code": "2711213",
    "District": "SPIN BOLDAK",
    "د_مرکز_نوم__نام_مرکز": "ملياد عليزي",
    "Polling_Center_Name": "Malyad Alizai",
    "د_مرکز_ځای__موقعیت_مرکز": "حاجي افضل كلي",
    "Polling_Center_Location": "Haji Afzal Village",
    "Map_Accuracy": "Building",
    "Map_Accuracy_Dari": "تعمیر",
    "Status": "Open",
    "Status_Dari": null,
    "PS_Male": 2,
    "PS_Female": 2,
    "PS_Total": 4,
    "ولسوالي": "سپین بولدک",
    "Region": "Southern Region"
   },
   "geometry": {
    "x": 7390695.6637249608,
    "y": 3633133.3019506969
   }
  },
  {
   "attributes": {
    "OBJECTID": 2438,
    "ولایت": "کندهار",
    "Province": "کندهار",
    "PC_Code": "2712267",
    "District": "NISH",
    "د_مرکز_نوم__نام_مرکز": "د حاجي ميرزا جمال كور",
    "Polling_Center_Name": "Haji Mirza Jamal Private House",
    "د_مرکز_ځای__موقعیت_مرکز": "ګوردنګ",
    "Polling_Center_Location": "Gordang",
    "Map_Accuracy": "Village",
    "Map_Accuracy_Dari": "قریه",
    "Status": "Open",
    "Status_Dari": null,
    "PS_Male": 2,
    "PS_Female": 1,
    "PS_Total": 3,
    "ولسوالي": "نيش",
    "Region": "Southern Region"
   },
   "geometry": {
    "x": 7308361.9393550269,
    "y": 3817753.7154991603
   }
  },
  {
   "attributes": {
    "OBJECTID": 2439,
    "ولایت": "کندهار",
    "Province": "کندهار",
    "PC_Code": "2712268",
    "District": "NISH",
    "د_مرکز_نوم__نام_مرکز": "وهاب خيل مكتب",
    "Polling_Center_Name": "Wahab Khel School",
    "د_مرکز_ځای__موقعیت_مرکز": "قريه كنده",
    "Polling_Center_Location": "Kanda Village",
    "Map_Accuracy": "Village",
    "Map_Accuracy_Dari": "قریه",
    "Status": "Open",
    "Status_Dari": null,
    "PS_Male": 3,
    "PS_Female": 0,
    "PS_Total": 3,
    "ولسوالي": "نيش",
    "Region": "Southern Region"
   },
   "geometry": {
    "x": 7319866.1797733875,
    "y": 3817776.2260386688
   }
  },
  {
   "attributes": {
    "OBJECTID": 2440,
    "ولایت": "کندهار",
    "Province": "کندهار",
    "PC_Code": "2714199",
    "District": "SHORABAK",
    "د_مرکز_نوم__نام_مرکز": "د ولي محمد خان كور",
    "Polling_Center_Name": "Wali Mohammad Khan Private House",
    "د_مرکز_ځای__موقعیت_مرکز": "تورزي",
    "Polling_Center_Location": "Torzi",
    "Map_Accuracy": "Village",
    "Map_Accuracy_Dari": "قریه",
    "Status": "Open",
    "Status_Dari": null,
    "PS_Male": 4,
    "PS_Female": 2,
    "PS_Total": 6,
    "ولسوالي": "شورابك",
    "Region": "Southern Region"
   },
   "geometry": {
    "x": 7346458.4368821094,
    "y": 3526649.2138832579
   }
  },
  {
   "attributes": {
    "OBJECTID": 2441,
    "ولایت": "کندهار",
    "Province": "کندهار",
    "PC_Code": "2714200",
    "District": "SHORABAK",
    "د_مرکز_نوم__نام_مرکز": "د فيض محمد كور",
    "Polling_Center_Name": "Faiz Mohammad Private House",
    "د_مرکز_ځای__موقعیت_مرکز": "ابوزي",
    "Polling_Center_Location": "Abozi",
    "Map_Accuracy": "Village",
    "Map_Accuracy_Dari": "قریه",
    "Status": "Open",
    "Status_Dari": null,
    "PS_Male": 3,
    "PS_Female": 2,
    "PS_Total": 5,
    "ولسوالي": "شورابك",
    "Region": "Southern Region"
   },
   "geometry": {
    "x": 7347440.9415946547,
    "y": 3521239.9396016109
   }
  },
  {
   "attributes": {
    "OBJECTID": 2442,
    "ولایت": "کندهار",
    "Province": "کندهار",
    "PC_Code": "2717004",
    "District": "DAND",
    "د_مرکز_نوم__نام_مرکز": "د حاجي بابا ميلمستون",
    "Polling_Center_Name": "Haji Baba Guest House",
    "د_مرکز_ځای__موقعیت_مرکز": "ډنډ ولسوالي",
    "Polling_Center_Location": "Dand District ",
    "Map_Accuracy": "Village",
    "Map_Accuracy_Dari": "قریه",
    "Status": "Open",
    "Status_Dari": null,
    "PS_Male": 3,
    "PS_Female": 3,
    "PS_Total": 6,
    "ولسوالي": "ډند",
    "Region": "Southern Region"
   },
   "geometry": {
    "x": 7314753.6451419573,
    "y": 3707462.9055062965
   }
  },
  {
   "attributes": {
    "OBJECTID": 2443,
    "ولایت": "کندهار",
    "Province": "کندهار",
    "PC_Code": "2717011",
    "District": "DAND",
    "د_مرکز_نوم__نام_مرکز": "د رواڼي منځني ښوونځي",
    "Polling_Center_Name": "Rwani Secondary School",
    "د_مرکز_ځای__موقعیت_مرکز": "ډنډ ولسوالي",
    "Polling_Center_Location": "Dand District ",
    "Map_Accuracy": "Village",
    "Map_Accuracy_Dari": "قریه",
    "Status": "Open",
    "Status_Dari": null,
    "PS_Male": 3,
    "PS_Female": 3,
    "PS_Total": 6,
    "ولسوالي": "ډند",
    "Region": "Southern Region"
   },
   "geometry": {
    "x": 7307676.1300285077,
    "y": 3708554.6206991714
   }
  },
  {
   "attributes": {
    "OBJECTID": 2444,
    "ولایت": "کندهار",
    "Province": "کندهار",
    "PC_Code": "2717021",
    "District": "DAND",
    "د_مرکز_نوم__نام_مرکز": "بلدي منځني ښوونځي",
    "Polling_Center_Name": "Baldi Secondary School",
    "د_مرکز_ځای__موقعیت_مرکز": "ډنډ ولسوالي",
    "Polling_Center_Location": "Dand District ",
    "Map_Accuracy": "Village",
    "Map_Accuracy_Dari": "قریه",
    "Status": "Open",
    "Status_Dari": null,
    "PS_Male": 3,
    "PS_Female": 3,
    "PS_Total": 6,
    "ولسوالي": "ډند",
    "Region": "Southern Region"
   },
   "geometry": {
    "x": 7311668.5824151076,
    "y": 3708676.5250297394
   }
  },
  {
   "attributes": {
    "OBJECTID": 2445,
    "ولایت": "کندهار",
    "Province": "کندهار",
    "PC_Code": "2717051",
    "District": "DAND",
    "د_مرکز_نوم__نام_مرکز": "مکتب چپلاني",
    "Polling_Center_Name": "Chaplani School",
    "د_مرکز_ځای__موقعیت_مرکز": "چپلاني",
    "Polling_Center_Location": "Chaplani",
    "Map_Accuracy": "District",
    "Map_Accuracy_Dari": "ولسوالی",
    "Status": "Open",
    "Status_Dari": null,
    "PS_Male": 4,
    "PS_Female": 1,
    "PS_Total": 5,
    "ولسوالي": "ډند",
    "Region": "Southern Region"
   },
   "geometry": {
    "x": 7316115.9252029071,
    "y": 3704251.0580289783
   }
  },
  {
   "attributes": {
    "OBJECTID": 2446,
    "ولایت": "کندهار",
    "Province": "کندهار",
    "PC_Code": "2718231",
    "District": "TAKHTA PUL",
    "د_مرکز_نوم__نام_مرکز": "د ولسوالي مرکز",
    "Polling_Center_Name": "District Building Office",
    "د_مرکز_ځای__موقعیت_مرکز": "شګه",
    "Polling_Center_Location": "Shaga",
    "Map_Accuracy": "Village",
    "Map_Accuracy_Dari": "قریه",
    "Status": "Open",
    "Status_Dari": null,
    "PS_Male": 2,
    "PS_Female": 3,
    "PS_Total": 5,
    "ولسوالي": "تخته پل",
    "Region": "Southern Region"
   },
   "geometry": {
    "x": 7342959.9993562661,
    "y": 3674397.7899148958
   }
  },
  {
   "attributes": {
    "OBJECTID": 2447,
    "ولایت": "کندهار",
    "Province": "کندهار",
    "PC_Code": "2718232",
    "District": "TAKHTA PUL",
    "د_مرکز_نوم__نام_مرکز": "مدد خان مكتب",
    "Polling_Center_Name": "Madad Khan School",
    "د_مرکز_ځای__موقعیت_مرکز": "مددخان كلي",
    "Polling_Center_Location": "Madad Khan Village",
    "Map_Accuracy": "Village",
    "Map_Accuracy_Dari": "قریه",
    "Status": "Open",
    "Status_Dari": null,
    "PS_Male": 1,
    "PS_Female": 1,
    "PS_Total": 2,
    "ولسوالي": "تخته پل",
    "Region": "Southern Region"
   },
   "geometry": {
    "x": 7369509.3404635778,
    "y": 3674811.744635554
   }
  },
  {
   "attributes": {
    "OBJECTID": 2448,
    "ولایت": "کندهار",
    "Province": "کندهار",
    "PC_Code": "2718233",
    "District": "TAKHTA PUL",
    "د_مرکز_نوم__نام_مرکز": "كلينيك مددخان كلي",
    "Polling_Center_Name": "Madad Khan Village Clinic",
    "د_مرکز_ځای__موقعیت_مرکز": "مددخان كلي",
    "Polling_Center_Location": "Madad Khan Village",
    "Map_Accuracy": "Village",
    "Map_Accuracy_Dari": "قریه",
    "Status": "Open",
    "Status_Dari": null,
    "PS_Male": 2,
    "PS_Female": 0,
    "PS_Total": 2,
    "ولسوالي": "تخته پل",
    "Region": "Southern Region"
   },
   "geometry": {
    "x": 7365716.7703490248,
    "y": 3675493.0015935106
   }
  },
  {
   "attributes": {
    "OBJECTID": 2449,
    "ولایت": "کندهار",
    "Province": "کندهار",
    "PC_Code": "2718234",
    "District": "TAKHTA PUL",
    "د_مرکز_نوم__نام_مرکز": "مكتب د سړك پرهغه غاړه",
    "Polling_Center_Name": "Road Side School",
    "د_مرکز_ځای__موقعیت_مرکز": "حسن زي",
    "Polling_Center_Location": "Hassanzai",
    "Map_Accuracy": "Building",
    "Map_Accuracy_Dari": "تعمیر",
    "Status": "Open",
    "Status_Dari": null,
    "PS_Male": 2,
    "PS_Female": 2,
    "PS_Total": 4,
    "ولسوالي": "تخته پل",
    "Region": "Southern Region"
   },
   "geometry": {
    "x": 7344816.8434170168,
    "y": 3656366.6901919292
   }
  },
  {
   "attributes": {
    "OBJECTID": 2450,
    "ولایت": "کندهار",
    "Province": "کندهار",
    "PC_Code": "2718235",
    "District": "TAKHTA PUL",
    "د_مرکز_نوم__نام_مرکز": "د حاجي محمد خان کلي مكتب",
    "Polling_Center_Name": "Haji Mohammad Khan Village School",
    "د_مرکز_ځای__موقعیت_مرکز": "حاجي محمد خان كلي",
    "Polling_Center_Location": "Haji Mohammad Khan Village",
    "Map_Accuracy": "Village",
    "Map_Accuracy_Dari": "قریه",
    "Status": "Open",
    "Status_Dari": null,
    "PS_Male": 3,
    "PS_Female": 2,
    "PS_Total": 5,
    "ولسوالي": "تخته پل",
    "Region": "Southern Region"
   },
   "geometry": {
    "x": 7352256.8455166742,
    "y": 3647557.0757489959
   }
  },
  {
   "attributes": {
    "OBJECTID": 2451,
    "ولایت": "کندهار",
    "Province": "کندهار",
    "PC_Code": "2718236",
    "District": "TAKHTA PUL",
    "د_مرکز_نوم__نام_مرکز": "د حاجي مهمند د كلي مكتب",
    "Polling_Center_Name": "Haji Mohmand Village School",
    "د_مرکز_ځای__موقعیت_مرکز": "حاجي مهمند كلي",
    "Polling_Center_Location": "Haji Mohmand Village",
    "Map_Accuracy": "Village",
    "Map_Accuracy_Dari": "قریه",
    "Status": "Open",
    "Status_Dari": null,
    "PS_Male": 4,
    "PS_Female": 2,
    "PS_Total": 6,
    "ولسوالي": "تخته پل",
    "Region": "Southern Region"
   },
   "geometry": {
    "x": 7344748.8322175238,
    "y": 3671019.6557930866
   }
  },
  {
   "attributes": {
    "OBJECTID": 2452,
    "ولایت": "کندهار",
    "Province": "کندهار",
    "PC_Code": "2718239",
    "District": "TAKHTA PUL",
    "د_مرکز_نوم__نام_مرکز": "د معلم سعدالله د مکتب په خيمه كي",
    "Polling_Center_Name": "Maalem Sadullah School Tent",
    "د_مرکز_ځای__موقعیت_مرکز": "امير خان كلي",
    "Polling_Center_Location": "Ameer Khan Village",
    "Map_Accuracy": "Village",
    "Map_Accuracy_Dari": "قریه",
    "Status": "Open",
    "Status_Dari": null,
    "PS_Male": 4,
    "PS_Female": 4,
    "PS_Total": 8,
    "ولسوالي": "تخته پل",
    "Region": "Southern Region"
   },
   "geometry": {
    "x": 7349251.4440193055,
    "y": 3640136.6451660339
   }
  },
  {
   "attributes": {
    "OBJECTID": 2453,
    "ولایت": "کندهار",
    "Province": "کندهار",
    "PC_Code": "2718240",
    "District": "TAKHTA PUL",
    "د_مرکز_نوم__نام_مرکز": "د تنګی کلی روزد ته نژدي خیمه ",
    "Polling_Center_Name": "Tangai Village Tent",
    "د_مرکز_ځای__موقعیت_مرکز": "تنګي کلی",
    "Polling_Center_Location": "Tangai Village",
    "Map_Accuracy": "Village",
    "Map_Accuracy_Dari": "قریه",
    "Status": "Open",
    "Status_Dari": null,
    "PS_Male": 5,
    "PS_Female": 3,
    "PS_Total": 8,
    "ولسوالي": "تخته پل",
    "Region": "Southern Region"
   },
   "geometry": {
    "x": 7297095.1253767675,
    "y": 3692430.6691502505
   }
  },
  {
   "attributes": {
    "OBJECTID": 2454,
    "ولایت": "کندهار",
    "Province": "کندهار",
    "PC_Code": "2701058",
    "District": "KANDAHAR",
    "د_مرکز_نوم__نام_مرکز": "شهيد عبدالاحد خان كرزي لیسه",
    "Polling_Center_Name": "Shaheed Abdul Ahad Khan Karzai High School",
    "د_مرکز_ځای__موقعیت_مرکز": "كارته معلمين",
    "Polling_Center_Location": "Karta-e-Malemeen",
    "Map_Accuracy": "Building",
    "Map_Accuracy_Dari": "تعمیر",
    "Status": "Open",
    "Status_Dari": null,
    "PS_Male": 4,
    "PS_Female": 2,
    "PS_Total": 6,
    "ولسوالي": "کندهار",
    "Region": "Southern Region"
   },
   "geometry": {
    "x": 7318872.1969081452,
    "y": 3713699.2385850074
   }
  },
  {
   "attributes": {
    "OBJECTID": 2455,
    "ولایت": "کندهار",
    "Province": "کندهار",
    "PC_Code": "2701063",
    "District": "KANDAHAR",
    "د_مرکز_نوم__نام_مرکز": "د عبدالهادي داوي منځني ښوونځي",
    "Polling_Center_Name": "Abdul Hadi Dawi Secondary School",
    "د_مرکز_ځای__موقعیت_مرکز": "اوومه ناحيه",
    "Polling_Center_Location": "D07 - Nahia 7",
    "Map_Accuracy": "Building",
    "Map_Accuracy_Dari": "تعمیر",
    "Status": "Open",
    "Status_Dari": null,
    "PS_Male": 2,
    "PS_Female": 6,
    "PS_Total": 8,
    "ولسوالي": "کندهار",
    "Region": "Southern Region"
   },
   "geometry": {
    "x": 7311130.0855103461,
    "y": 3711045.562828525
   }
  },
  {
   "attributes": {
    "OBJECTID": 2456,
    "ولایت": "کندهار",
    "Province": "کندهار",
    "PC_Code": "2702099",
    "District": "ARGHANDAB",
    "د_مرکز_نوم__نام_مرکز": "د غازي محمد اكبر خان مكتب",
    "Polling_Center_Name": "Ghazi Mohammad Akbar Khan School",
    "د_مرکز_ځای__موقعیت_مرکز": "بابر",
    "Polling_Center_Location": "Babar",
    "Map_Accuracy": "Building",
    "Map_Accuracy_Dari": "تعمیر",
    "Status": "Open",
    "Status_Dari": null,
    "PS_Male": 1,
    "PS_Female": 3,
    "PS_Total": 4,
    "ولسوالي": "ارغنداب",
    "Region": "Southern Region"
   },
   "geometry": {
    "x": 7310691.4176985323,
    "y": 3726929.4923192421
   }
  },
  {
   "attributes": {
    "OBJECTID": 2457,
    "ولایت": "کندهار",
    "Province": "کندهار",
    "PC_Code": "2703070",
    "District": "DAMAN",
    "د_مرکز_نوم__نام_مرکز": "د حاجي سيف الله تیلو پمپ ډالی مکتب",
    "Polling_Center_Name": "Haji Saifullah Oil Station School",
    "د_مرکز_ځای__موقعیت_مرکز": "ډالی کلی",
    "Polling_Center_Location": "Dalai Village",
    "Map_Accuracy": "Building",
    "Map_Accuracy_Dari": "تعمیر",
    "Status": "Open",
    "Status_Dari": null,
    "PS_Male": 3,
    "PS_Female": 1,
    "PS_Total": 4,
    "ولسوالي": "دامان",
    "Region": "Southern Region"
   },
   "geometry": {
    "x": 7337296.2082687244,
    "y": 3691031.7987115989
   }
  },
  {
   "attributes": {
    "OBJECTID": 2458,
    "ولایت": "کندهار",
    "Province": "کندهار",
    "PC_Code": "2703072",
    "District": "DAMAN",
    "د_مرکز_نوم__نام_مرکز": "د لطیف آغا مکتب",
    "Polling_Center_Name": "Latif Agha School",
    "د_مرکز_ځای__موقعیت_مرکز": "نجوي کلی",
    "Polling_Center_Location": "Najwi Village",
    "Map_Accuracy": "Building",
    "Map_Accuracy_Dari": "تعمیر",
    "Status": "Open",
    "Status_Dari": null,
    "PS_Male": 2,
    "PS_Female": 1,
    "PS_Total": 3,
    "ولسوالي": "دامان",
    "Region": "Southern Region"
   },
   "geometry": {
    "x": 7344708.3230548212,
    "y": 3713068.9869473027
   }
  },
  {
   "attributes": {
    "OBJECTID": 2459,
    "ولایت": "کندهار",
    "Province": "کندهار",
    "PC_Code": "2703085",
    "District": "DAMAN",
    "د_مرکز_نوم__نام_مرکز": "د حاجی انفیا کلاچه/ښوراندام مرکز",
    "Polling_Center_Name": "Haji Anfiya Kalacha/Shorandam Markaz",
    "د_مرکز_ځای__موقعیت_مرکز": "پنځمه ناحيه",
    "Polling_Center_Location": "D05 - Nahia 5",
    "Map_Accuracy": "Building",
    "Map_Accuracy_Dari": "تعمیر",
    "Status": "Open",
    "Status_Dari": null,
    "PS_Male": 2,
    "PS_Female": 1,
    "PS_Total": 3,
    "ولسوالي": "دامان",
    "Region": "Southern Region"
   },
   "geometry": {
    "x": 7325675.7881505974,
    "y": 3708725.5424426505
   }
  },
  {
   "attributes": {
    "OBJECTID": 2460,
    "ولایت": "فارياب",
    "Province": "FARYAB",
    "PC_Code": "2902023",
    "District": "PASHTUN KOT",
    "د_مرکز_نوم__نام_مرکز": "مکتب اناث خواجه ناموسی",
    "Polling_Center_Name": "Khwaja Namosi Girls School",
    "د_مرکز_ځای__موقعیت_مرکز": "خواجه ناموسی",
    "Polling_Center_Location": "Khwaja Namosi",
    "Map_Accuracy": "Village",
    "Map_Accuracy_Dari": "قریه",
    "Status": "Open",
    "Status_Dari": null,
    "PS_Male": 0,
    "PS_Female": 3,
    "PS_Total": 3,
    "ولسوالي": "پشتون کوت",
    "Region": "Northern Region"
   },
   "geometry": {
    "x": 7197286.0913048582,
    "y": 4306806.4437509384
   }
  },
  {
   "attributes": {
    "OBJECTID": 2461,
    "ولایت": "فارياب",
    "Province": "FARYAB",
    "PC_Code": "2902024",
    "District": "PASHTUN KOT",
    "د_مرکز_نوم__نام_مرکز": "مسجد تیلان",
    "Polling_Center_Name": "Telaan Mosque",
    "د_مرکز_ځای__موقعیت_مرکز": "تیلان",
    "Polling_Center_Location": "Telaan",
    "Map_Accuracy": "Village",
    "Map_Accuracy_Dari": "قریه",
    "Status": "Open",
    "Status_Dari": null,
    "PS_Male": 1,
    "PS_Female": 1,
    "PS_Total": 2,
    "ولسوالي": "پشتون کوت",
    "Region": "Northern Region"
   },
   "geometry": {
    "x": 7214165.633786276,
    "y": 4236903.6524021048
   }
  },
  {
   "attributes": {
    "OBJECTID": 2462,
    "ولایت": "فارياب",
    "Province": "FARYAB",
    "PC_Code": "2902028",
    "District": "PASHTUN KOT",
    "د_مرکز_نوم__نام_مرکز": "مدرسه میر قاسم",
    "Polling_Center_Name": "Mir Qasim Madrassa",
    "د_مرکز_ځای__موقعیت_مرکز": "میرقاسم گلیم بافت",
    "Polling_Center_Location": "Mir Qasim Gleem Baft",
    "Map_Accuracy": "Village",
    "Map_Accuracy_Dari": "قریه",
    "Status": "Open",
    "Status_Dari": null,
    "PS_Male": 1,
    "PS_Female": 1,
    "PS_Total": 2,
    "ولسوالي": "پشتون کوت",
    "Region": "Northern Region"
   },
   "geometry": {
    "x": 7233369.2945777168,
    "y": 4251284.3378707841
   }
  },
  {
   "attributes": {
    "OBJECTID": 2463,
    "ولایت": "نيمروز",
    "Province": "NIMROZ",
    "PC_Code": "3404064",
    "District": "CHAR BURJAK",
    "د_مرکز_نوم__نام_مرکز": "مکتب اشکنک",
    "Polling_Center_Name": "Ashkanak School",
    "د_مرکز_ځای__موقعیت_مرکز": "اشکنک حاجی جمعه خان",
    "Polling_Center_Location": "Eshkanak haji joma khan",
    "Map_Accuracy": "Building",
    "Map_Accuracy_Dari": "تعمیر",
    "Status": "Open",
    "Status_Dari": null,
    "PS_Male": 2,
    "PS_Female": 1,
    "PS_Total": 3,
    "ولسوالي": "چاربرجک",
    "Region": "Southern Region"
   },
   "geometry": {
    "x": 6920052.7782324944,
    "y": 3535208.9620465944
   }
  },
  {
   "attributes": {
    "OBJECTID": 2464,
    "ولایت": "کابل",
    "Province": "KABUL",
    "PC_Code": "0101304",
    "District": "KABUL-D15",
    "د_مرکز_نوم__نام_مرکز": "مدرسه تعلیم القران بی بی فاطمه زهرا",
    "Polling_Center_Name": "Bi Bi Fatima Zahra Talemul Quran Madrassa",
    "د_مرکز_ځای__موقعیت_مرکز": "پسته کچالو",
    "Polling_Center_Location": "Posta-e-Kachalu",
    "Map_Accuracy": "Building",
    "Map_Accuracy_Dari": "تعمیر",
    "Status": "Open",
    "Status_Dari": null,
    "PS_Male": 3,
    "PS_Female": 2,
    "PS_Total": 5,
    "ولسوالي": "کابل - ناحیه 15",
    "Region": "Central Region"
   },
   "geometry": {
    "x": 7698623.3824113095,
    "y": 4108231.8097495819
   }
  },
  {
   "attributes": {
    "OBJECTID": 2465,
    "ولایت": "پکتيکا",
    "Province": "PAKTIKA",
    "PC_Code": "1201019",
    "District": "SHARAN",
    "د_مرکز_نوم__نام_مرکز": "ښوونځی",
    "Polling_Center_Name": "School",
    "د_مرکز_ځای__موقعیت_مرکز": "کوتوال",
    "Polling_Center_Location": "Kotwal",
    "Map_Accuracy": "Village",
    "Map_Accuracy_Dari": "قریه",
    "Status": "Open",
    "Status_Dari": null,
    "PS_Male": 4,
    "PS_Female": 0,
    "PS_Total": 4,
    "ولسوالي": "شرن",
    "Region": "South Eastern Region"
   },
   "geometry": {
    "x": 7653827.3082362581,
    "y": 3914761.0165506769
   }
  },
  {
   "attributes": {
    "OBJECTID": 2466,
    "ولایت": "پکتيکا",
    "Province": "PAKTIKA",
    "PC_Code": "1202028",
    "District": "MATA KHAN",
    "د_مرکز_نوم__نام_مرکز": "زړه قلعه مرکز ولسوالی ",
    "Polling_Center_Name": "District Center",
    "د_مرکز_ځای__موقعیت_مرکز": "زړه قلعه",
    "Polling_Center_Location": "Zarra Qala",
    "Map_Accuracy": "Building",
    "Map_Accuracy_Dari": "تعمیر",
    "Status": "Open",
    "Status_Dari": null,
    "PS_Male": 0,
    "PS_Female": 4,
    "PS_Total": 4,
    "ولسوالي": "مټا خان",
    "Region": "South Eastern Region"
   },
   "geometry": {
    "x": 7665365.5088916784,
    "y": 3931294.7777049271
   }
  },
  {
   "attributes": {
    "OBJECTID": 2467,
    "ولایت": "پکتيکا",
    "Province": "PAKTIKA",
    "PC_Code": "1207086",
    "District": "ZARGHUN SHAHR",
    "د_مرکز_نوم__نام_مرکز": "حاجی میر احمد میلمستون",
    "Polling_Center_Name": "Haji Mir Ahmad Guest House",
    "د_مرکز_ځای__موقعیت_مرکز": "خیر کوث",
    "Polling_Center_Location": "Khair Kot",
    "Map_Accuracy": "Building",
    "Map_Accuracy_Dari": "تعمیر",
    "Status": "Open",
    "Status_Dari": null,
    "PS_Male": 0,
    "PS_Female": 2,
    "PS_Total": 2,
    "ولسوالي": "زرغون شهر ",
    "Region": "South Eastern Region"
   },
   "geometry": {
    "x": 7621186.4375771983,
    "y": 3875748.5009293021
   }
  },
  {
   "attributes": {
    "OBJECTID": 2468,
    "ولایت": "پکتيکا",
    "Province": "PAKTIKA",
    "PC_Code": "1205076",
    "District": "SAR RAWZA",
    "د_مرکز_نوم__نام_مرکز": "مارزک انجونو ښوونځی ",
    "Polling_Center_Name": "Marzak Girls School",
    "د_مرکز_ځای__موقعیت_مرکز": "مارزک ",
    "Polling_Center_Location": "Marzak",
    "Map_Accuracy": "Village",
    "Map_Accuracy_Dari": "قریه",
    "Status": "Open",
    "Status_Dari": null,
    "PS_Male": 0,
    "PS_Female": 3,
    "PS_Total": 3,
    "ولسوالي": "سروضه ",
    "Region": "South Eastern Region"
   },
   "geometry": {
    "x": 7690473.5309845069,
    "y": 3914926.1098871394
   }
  },
  {
   "attributes": {
    "OBJECTID": 2469,
    "ولایت": "پکتيکا",
    "Province": "PAKTIKA",
    "PC_Code": "1205077",
    "District": "SAR RAWZA",
    "د_مرکز_نوم__نام_مرکز": "ستر جومات",
    "Polling_Center_Name": "Big Mosque",
    "د_مرکز_ځای__موقعیت_مرکز": "سلطانی",
    "Polling_Center_Location": "Sultani",
    "Map_Accuracy": "Village",
    "Map_Accuracy_Dari": "قریه",
    "Status": "Open",
    "Status_Dari": null,
    "PS_Male": 3,
    "PS_Female": 0,
    "PS_Total": 3,
    "ولسوالي": "سروضه ",
    "Region": "South Eastern Region"
   },
   "geometry": {
    "x": 7677778.1208076905,
    "y": 3903832.1522824564
   }
  },
  {
   "attributes": {
    "OBJECTID": 2470,
    "ولایت": "پکتيکا",
    "Province": "PAKTIKA",
    "PC_Code": "1208128",
    "District": "GOMAL",
    "د_مرکز_نوم__نام_مرکز": "زریف خان میلمستون",
    "Polling_Center_Name": "Zarif Khan Guest House",
    "د_مرکز_ځای__موقعیت_مرکز": "شکین ",
    "Polling_Center_Location": "Shekin",
    "Map_Accuracy": "Village",
    "Map_Accuracy_Dari": "قریه",
    "Status": "Open",
    "Status_Dari": null,
    "PS_Male": 0,
    "PS_Female": 3,
    "PS_Total": 3,
    "ولسوالي": "گومل",
    "Region": "South Eastern Region"
   },
   "geometry": {
    "x": 7664535.5931447437,
    "y": 3822170.7890303941
   }
  },
  {
   "attributes": {
    "OBJECTID": 2471,
    "ولایت": "پکتيکا",
    "Province": "PAKTIKA",
    "PC_Code": "1208129",
    "District": "GOMAL",
    "د_مرکز_نوم__نام_مرکز": "حاجی عمر جومات",
    "Polling_Center_Name": "Haji Omar Mosque",
    "د_مرکز_ځای__موقعیت_مرکز": "عموواز",
    "Polling_Center_Location": "Amovaz",
    "Map_Accuracy": "Village",
    "Map_Accuracy_Dari": "قریه",
    "Status": "Open",
    "Status_Dari": null,
    "PS_Male": 3,
    "PS_Female": 0,
    "PS_Total": 3,
    "ولسوالي": "گومل",
    "Region": "South Eastern Region"
   },
   "geometry": {
    "x": 7690538.1408169614,
    "y": 3779834.6446152646
   }
  },
  {
   "attributes": {
    "OBJECTID": 2472,
    "ولایت": "پکتيکا",
    "Province": "PAKTIKA",
    "PC_Code": "1207094",
    "District": "ZARGHUN SHAHR",
    "د_مرکز_نوم__نام_مرکز": "شریف میلمستون",
    "Polling_Center_Name": "Sharif Guest House",
    "د_مرکز_ځای__موقعیت_مرکز": "ملی زی ",
    "Polling_Center_Location": "Meli Zai",
    "Map_Accuracy": "Village",
    "Map_Accuracy_Dari": "قریه",
    "Status": "Open",
    "Status_Dari": null,
    "PS_Male": 0,
    "PS_Female": 2,
    "PS_Total": 2,
    "ولسوالي": "زرغون شهر ",
    "Region": "South Eastern Region"
   },
   "geometry": {
    "x": 7624752.0342631573,
    "y": 3868739.256484767
   }
  },
  {
   "attributes": {
    "OBJECTID": 2473,
    "ولایت": "پکتيکا",
    "Province": "PAKTIKA",
    "PC_Code": "1207104",
    "District": "ZARGHUN SHAHR",
    "د_مرکز_نوم__نام_مرکز": "عجب خان میلمستون",
    "Polling_Center_Name": "Ajab Khan Guest House",
    "د_مرکز_ځای__موقعیت_مرکز": "شاه خیل",
    "Polling_Center_Location": "Shah Khel",
    "Map_Accuracy": "Village",
    "Map_Accuracy_Dari": "قریه",
    "Status": "Open",
    "Status_Dari": null,
    "PS_Male": 0,
    "PS_Female": 2,
    "PS_Total": 2,
    "ولسوالي": "زرغون شهر ",
    "Region": "South Eastern Region"
   },
   "geometry": {
    "x": 7630415.1606620187,
    "y": 3871423.0629811669
   }
  },
  {
   "attributes": {
    "OBJECTID": 2474,
    "ولایت": "پکتيکا",
    "Province": "PAKTIKA",
    "PC_Code": "1208136",
    "District": "GOMAL",
    "د_مرکز_نوم__نام_مرکز": "سعید احمد مدرسه",
    "Polling_Center_Name": "Saied Ahmad Madrassa",
    "د_مرکز_ځای__موقعیت_مرکز": "تابوت",
    "Polling_Center_Location": "Tabot",
    "Map_Accuracy": "Village",
    "Map_Accuracy_Dari": "قریه",
    "Status": "Open",
    "Status_Dari": null,
    "PS_Male": 0,
    "PS_Female": 2,
    "PS_Total": 2,
    "ولسوالي": "گومل",
    "Region": "South Eastern Region"
   },
   "geometry": {
    "x": 7674370.9261911567,
    "y": 3861173.7160387607
   }
  },
  {
   "attributes": {
    "OBJECTID": 2475,
    "ولایت": "پکتيکا",
    "Province": "PAKTIKA",
    "PC_Code": "1209110",
    "District": "JANI KHEL",
    "د_مرکز_نوم__نام_مرکز": "د جانی خیلو بازار جومات",
    "Polling_Center_Name": "Jani Khel Bazaar Mosque",
    "د_مرکز_ځای__موقعیت_مرکز": "د ولسوالی مرکز",
    "Polling_Center_Location": "District Center",
    "Map_Accuracy": "Building",
    "Map_Accuracy_Dari": "تعمیر",
    "Status": "Open",
    "Status_Dari": null,
    "PS_Male": 0,
    "PS_Female": 3,
    "PS_Total": 3,
    "ولسوالي": "جانی خیل",
    "Region": "South Eastern Region"
   },
   "geometry": {
    "x": 7614324.9412752185,
    "y": 3864043.9886465729
   }
  },
  {
   "attributes": {
    "OBJECTID": 2476,
    "ولایت": "پکتيکا",
    "Province": "PAKTIKA",
    "PC_Code": "1209111",
    "District": "JANI KHEL",
    "د_مرکز_نوم__نام_مرکز": "ملاح غنی میلمستون",
    "Polling_Center_Name": "Molla Ghani Guest House",
    "د_مرکز_ځای__موقعیت_مرکز": "جلالزو",
    "Polling_Center_Location": "Jalalzo",
    "Map_Accuracy": "Village",
    "Map_Accuracy_Dari": "قریه",
    "Status": "Open",
    "Status_Dari": null,
    "PS_Male": 3,
    "PS_Female": 0,
    "PS_Total": 3,
    "ولسوالي": "جانی خیل",
    "Region": "South Eastern Region"
   },
   "geometry": {
    "x": 7614097.3441235144,
    "y": 3861939.7505587507
   }
  },
  {
   "attributes": {
    "OBJECTID": 2477,
    "ولایت": "پکتيکا",
    "Province": "PAKTIKA",
    "PC_Code": "1209117",
    "District": "JANI KHEL",
    "د_مرکز_نوم__نام_مرکز": "احمد میلمستون",
    "Polling_Center_Name": "Ahmad Guest House",
    "د_مرکز_ځای__موقعیت_مرکز": "جفر",
    "Polling_Center_Location": "Jafar",
    "Map_Accuracy": "Village",
    "Map_Accuracy_Dari": "قریه",
    "Status": "Open",
    "Status_Dari": null,
    "PS_Male": 2,
    "PS_Female": 0,
    "PS_Total": 2,
    "ولسوالي": "جانی خیل",
    "Region": "South Eastern Region"
   },
   "geometry": {
    "x": 7613930.6465256345,
    "y": 3863881.5323461788
   }
  },
  {
   "attributes": {
    "OBJECTID": 2478,
    "ولایت": "پکتيکا",
    "Province": "PAKTIKA",
    "PC_Code": "1209118",
    "District": "JANI KHEL",
    "د_مرکز_نوم__نام_مرکز": "زکریا میلمستون",
    "Polling_Center_Name": "Zekria Guest House",
    "د_مرکز_ځای__موقعیت_مرکز": "جفر",
    "Polling_Center_Location": "Jafar",
    "Map_Accuracy": "Village",
    "Map_Accuracy_Dari": "قریه",
    "Status": "Open",
    "Status_Dari": null,
    "PS_Male": 0,
    "PS_Female": 2,
    "PS_Total": 2,
    "ولسوالي": "جانی خیل",
    "Region": "South Eastern Region"
   },
   "geometry": {
    "x": 7613920.4285095762,
    "y": 3863861.7880747332
   }
  },
  {
   "attributes": {
    "OBJECTID": 2479,
    "ولایت": "پکتيکا",
    "Province": "PAKTIKA",
    "PC_Code": "1211177",
    "District": "URGOON",
    "د_مرکز_نوم__نام_مرکز": "بی بی کوت جومات",
    "Polling_Center_Name": "Bebi Kot Mosque",
    "د_مرکز_ځای__موقعیت_مرکز": "بیبی کوت کلی",
    "Polling_Center_Location": "Bebi Kot Village",
    "Map_Accuracy": "Village",
    "Map_Accuracy_Dari": "قریه",
    "Status": "Open",
    "Status_Dari": null,
    "PS_Male": 2,
    "PS_Female": 0,
    "PS_Total": 2,
    "ولسوالي": "اورگون",
    "Region": "South Eastern Region"
   },
   "geometry": {
    "x": 7707971.9263451137,
    "y": 3887201.9559401004
   }
  },
  {
   "attributes": {
    "OBJECTID": 2480,
    "ولایت": "پکتيکا",
    "Province": "PAKTIKA",
    "PC_Code": "1213201",
    "District": "NIKA",
    "د_مرکز_نوم__نام_مرکز": "توری خیل جومات",
    "Polling_Center_Name": "Tori Khel Mosque",
    "د_مرکز_ځای__موقعیت_مرکز": "طوری خیل",
    "Polling_Center_Location": "Tori Khel",
    "Map_Accuracy": "Village",
    "Map_Accuracy_Dari": "قریه",
    "Status": "Open",
    "Status_Dari": null,
    "PS_Male": 3,
    "PS_Female": 0,
    "PS_Total": 3,
    "ولسوالي": "نیکه",
    "Region": "South Eastern Region"
   },
   "geometry": {
    "x": 7708693.2699662866,
    "y": 3918252.8107513771
   }
  },
  {
   "attributes": {
    "OBJECTID": 2481,
    "ولایت": "پکتيکا",
    "Province": "PAKTIKA",
    "PC_Code": "1213202",
    "District": "NIKA",
    "د_مرکز_نوم__نام_مرکز": "ظفر جان میلمستون",
    "Polling_Center_Name": "Zafar Jan Guest House",
    "د_مرکز_ځای__موقعیت_مرکز": "طوری خیل",
    "Polling_Center_Location": "Tori Khel",
    "Map_Accuracy": "Village",
    "Map_Accuracy_Dari": "قریه",
    "Status": "Open",
    "Status_Dari": null,
    "PS_Male": 0,
    "PS_Female": 3,
    "PS_Total": 3,
    "ولسوالي": "نیکه",
    "Region": "South Eastern Region"
   },
   "geometry": {
    "x": 7707249.8758451762,
    "y": 3914954.6263905936
   }
  },
  {
   "attributes": {
    "OBJECTID": 2482,
    "ولایت": "پکتيکا",
    "Province": "PAKTIKA",
    "PC_Code": "1211186",
    "District": "URGOON",
    "د_مرکز_نوم__نام_مرکز": "ظریف میلمستون ",
    "Polling_Center_Name": "Zarif Guest House",
    "د_مرکز_ځای__موقعیت_مرکز": "شیخان کلی",
    "Polling_Center_Location": "Shaikhan Village",
    "Map_Accuracy": "Village",
    "Map_Accuracy_Dari": "قریه",
    "Status": "Open",
    "Status_Dari": null,
    "PS_Male": 3,
    "PS_Female": 1,
    "PS_Total": 4,
    "ولسوالي": "اورگون",
    "Region": "South Eastern Region"
   },
   "geometry": {
    "x": 7711075.1716636373,
    "y": 3882168.6169341784
   }
  },
  {
   "attributes": {
    "OBJECTID": 2483,
    "ولایت": "پکتيکا",
    "Province": "PAKTIKA",
    "PC_Code": "1211296",
    "District": "URGOON",
    "د_مرکز_نوم__نام_مرکز": "پيركوتي  كلينیك",
    "Polling_Center_Name": "Per Koti Clinic",
    "د_مرکز_ځای__موقعیت_مرکز": "پيركوتي",
    "Polling_Center_Location": "Peer Koti",
    "Map_Accuracy": "Village",
    "Map_Accuracy_Dari": "قریه",
    "Status": "Open",
    "Status_Dari": null,
    "PS_Male": 2,
    "PS_Female": 0,
    "PS_Total": 2,
    "ولسوالي": "اورگون",
    "Region": "South Eastern Region"
   },
   "geometry": {
    "x": 7709654.2031879043,
    "y": 3885405.7514786487
   }
  },
  {
   "attributes": {
    "OBJECTID": 2484,
    "ولایت": "پکتيکا",
    "Province": "PAKTIKA",
    "PC_Code": "1214248",
    "District": "BARMAL",
    "د_مرکز_نوم__نام_مرکز": "مدرسه ملک شاهی",
    "Polling_Center_Name": "Malik Shahi Madrassa",
    "د_مرکز_ځای__موقعیت_مرکز": "ملک شاهی",
    "Polling_Center_Location": "Malik Shahi",
    "Map_Accuracy": "Village",
    "Map_Accuracy_Dari": "قریه",
    "Status": "Open",
    "Status_Dari": null,
    "PS_Male": 0,
    "PS_Female": 2,
    "PS_Total": 2,
    "ولسوالي": "برمل",
    "Region": "South Eastern Region"
   },
   "geometry": {
    "x": 7708256.052647436,
    "y": 3845685.502163935
   }
  },
  {
   "attributes": {
    "OBJECTID": 2485,
    "ولایت": "پکتيکا",
    "Province": "PAKTIKA",
    "PC_Code": "1215269",
    "District": "GIYAN",
    "د_مرکز_نوم__نام_مرکز": "جانگیر جومات",
    "Polling_Center_Name": "Jangir Mosque",
    "د_مرکز_ځای__موقعیت_مرکز": "اوگوحاست",
    "Polling_Center_Location": "Ogo Hast",
    "Map_Accuracy": "Village",
    "Map_Accuracy_Dari": "قریه",
    "Status": "Open",
    "Status_Dari": null,
    "PS_Male": 3,
    "PS_Female": 0,
    "PS_Total": 3,
    "ولسوالي": "گیان",
    "Region": "South Eastern Region"
   },
   "geometry": {
    "x": 7718858.7153966706,
    "y": 3890891.812559301
   }
  },
  {
   "attributes": {
    "OBJECTID": 2486,
    "ولایت": "پکتيکا",
    "Province": "PAKTIKA",
    "PC_Code": "1215270",
    "District": "GIYAN",
    "د_مرکز_نوم__نام_مرکز": "نذرگل میلمستون",
    "Polling_Center_Name": "Nazar Gul Guest House",
    "د_مرکز_ځای__موقعیت_مرکز": "اوگوحاست",
    "Polling_Center_Location": "Ogo Hast",
    "Map_Accuracy": "Village",
    "Map_Accuracy_Dari": "قریه",
    "Status": "Open",
    "Status_Dari": null,
    "PS_Male": 0,
    "PS_Female": 3,
    "PS_Total": 3,
    "ولسوالي": "گیان",
    "Region": "South Eastern Region"
   },
   "geometry": {
    "x": 7718975.7956711119,
    "y": 3891077.8811318995
   }
  },
  {
   "attributes": {
    "OBJECTID": 2487,
    "ولایت": "پکتيکا",
    "Province": "PAKTIKA",
    "PC_Code": "1217299",
    "District": "WAZAKHWAH",
    "د_مرکز_نوم__نام_مرکز": "مرجان کلی خیمه",
    "Polling_Center_Name": "Marjan Village Tent",
    "د_مرکز_ځای__موقعیت_مرکز": "مرجان",
    "Polling_Center_Location": "Marjan Village",
    "Map_Accuracy": "Village",
    "Map_Accuracy_Dari": "قریه",
    "Status": "Open",
    "Status_Dari": null,
    "PS_Male": 0,
    "PS_Female": 3,
    "PS_Total": 3,
    "ولسوالي": "وازه خواه",
    "Region": "South Eastern Region"
   },
   "geometry": {
    "x": 7598249.5073431842,
    "y": 3787661.9691869644
   }
  },
  {
   "attributes": {
    "OBJECTID": 2488,
    "ولایت": "پکتيکا",
    "Province": "PAKTIKA",
    "PC_Code": "1216210",
    "District": "DILA WA KHUSHAMAND",
    "د_مرکز_نوم__نام_مرکز": "روغتیائی کلینیک",
    "Polling_Center_Name": "Health Clinic",
    "د_مرکز_ځای__موقعیت_مرکز": "مرکز ولسوالی",
    "Polling_Center_Location": "District Center",
    "Map_Accuracy": "Village",
    "Map_Accuracy_Dari": "قریه",
    "Status": "Open",
    "Status_Dari": null,
    "PS_Male": 3,
    "PS_Female": 1,
    "PS_Total": 4,
    "ولسوالي": "دیله و خوش امند",
    "Region": "South Eastern Region"
   },
   "geometry": {
    "x": 7574662.9332588203,
    "y": 3841944.8843771918
   }
  },
  {
   "attributes": {
    "OBJECTID": 2489,
    "ولایت": "پکتيکا",
    "Province": "PAKTIKA",
    "PC_Code": "1216212",
    "District": "DILA WA KHUSHAMAND",
    "د_مرکز_نوم__نام_مرکز": "گل صادین میلمستون",
    "Polling_Center_Name": "Gul Sadin Guest House",
    "د_مرکز_ځای__موقعیت_مرکز": "عطر گی\u0651",
    "Polling_Center_Location": "Atargai",
    "Map_Accuracy": "Village",
    "Map_Accuracy_Dari": "قریه",
    "Status": "Open",
    "Status_Dari": null,
    "PS_Male": 1,
    "PS_Female": 1,
    "PS_Total": 2,
    "ولسوالي": "دیله و خوش امند",
    "Region": "South Eastern Region"
   },
   "geometry": {
    "x": 7579506.7916200468,
    "y": 3845242.576521683
   }
  },
  {
   "attributes": {
    "OBJECTID": 2490,
    "ولایت": "پکتيکا",
    "Province": "PAKTIKA",
    "PC_Code": "1218302",
    "District": "WOR MAMY",
    "د_مرکز_نوم__نام_مرکز": "دكلي جومات دوچينه",
    "Polling_Center_Name": "2 Cheena Village Mosque",
    "د_مرکز_ځای__موقعیت_مرکز": "دوچینه",
    "Polling_Center_Location": "Do Cheena Village ",
    "Map_Accuracy": "Village",
    "Map_Accuracy_Dari": "قریه",
    "Status": "Open",
    "Status_Dari": null,
    "PS_Male": 0,
    "PS_Female": 2,
    "PS_Total": 2,
    "ولسوالي": "وړممی",
    "Region": "South Eastern Region"
   },
   "geometry": {
    "x": 7666534.9290480167,
    "y": 3733749.8535127593
   }
  },
  {
   "attributes": {
    "OBJECTID": 2491,
    "ولایت": "پکتيا",
    "Province": "PAKTYA",
    "PC_Code": "1305122",
    "District": "WUZA ZADRAN",
    "د_مرکز_نوم__نام_مرکز": "د قادر جان هجره",
    "Polling_Center_Name": "Qadir Jan Hojra",
    "د_مرکز_ځای__موقعیت_مرکز": "شلم",
    "Polling_Center_Location": "Shelm",
    "Map_Accuracy": "Village",
    "Map_Accuracy_Dari": "قریه",
    "Status": "Open",
    "Status_Dari": null,
    "PS_Male": 0,
    "PS_Female": 2,
    "PS_Total": 2,
    "ولسوالي": "وزه ځدراڼ",
    "Region": "South Eastern Region"
   },
   "geometry": {
    "x": 7735992.1976740966,
    "y": 3956846.8164083487
   }
  },
  {
   "attributes": {
    "OBJECTID": 2492,
    "ولایت": "پکتيا",
    "Province": "PAKTYA",
    "PC_Code": "1312154",
    "District": "LAJA MANGAL",
    "د_مرکز_نوم__نام_مرکز": "شرابک ابتدائیه مکتب",
    "Polling_Center_Name": "Sharabak Primary School",
    "د_مرکز_ځای__موقعیت_مرکز": "شرابک، لجه منګل",
    "Polling_Center_Location": "Sharabak, Laja Mangal",
    "Map_Accuracy": "Village",
    "Map_Accuracy_Dari": "قریه",
    "Status": "Open",
    "Status_Dari": null,
    "PS_Male": 2,
    "PS_Female": 0,
    "PS_Total": 2,
    "ولسوالي": "لجه منګل",
    "Region": "South Eastern Region"
   },
   "geometry": {
    "x": 7750417.3702488914,
    "y": 3988912.3415828883
   }
  },
  {
   "attributes": {
    "OBJECTID": 2493,
    "ولایت": "پکتيا",
    "Province": "PAKTYA",
    "PC_Code": "1311185",
    "District": "DAND PATAN",
    "د_مرکز_نوم__نام_مرکز": "متوسطه مکتب",
    "Polling_Center_Name": "Secondary School",
    "د_مرکز_ځای__موقعیت_مرکز": "نری زاور",
    "Polling_Center_Location": "Narai Zawar",
    "Map_Accuracy": "Village",
    "Map_Accuracy_Dari": "قریه",
    "Status": "Open",
    "Status_Dari": null,
    "PS_Male": 2,
    "PS_Female": 0,
    "PS_Total": 2,
    "ولسوالي": "ډنډ پټان",
    "Region": "South Eastern Region"
   },
   "geometry": {
    "x": 7781479.7806222681,
    "y": 4006258.5255860733
   }
  },
  {
   "attributes": {
    "OBJECTID": 2494,
    "ولایت": "پکتيا",
    "Province": "PAKTYA",
    "PC_Code": "1312146",
    "District": "LAJA MANGAL",
    "د_مرکز_نوم__نام_مرکز": "مکتب لجه منګل ",
    "Polling_Center_Name": "Laja Mangal School",
    "د_مرکز_ځای__موقعیت_مرکز": "چرګو کلی، لجه منګل",
    "Polling_Center_Location": "Chargo Village, Laja Mangal ",
    "Map_Accuracy": "Village",
    "Map_Accuracy_Dari": "قریه",
    "Status": "Open",
    "Status_Dari": null,
    "PS_Male": 2,
    "PS_Female": 0,
    "PS_Total": 2,
    "ولسوالي": "لجه منګل",
    "Region": "South Eastern Region"
   },
   "geometry": {
    "x": 7751156.0574467257,
    "y": 4003486.5683487374
   }
  },
  {
   "attributes": {
    "OBJECTID": 2495,
    "ولایت": "خوست",
    "Province": "KHOST",
    "PC_Code": "1408055",
    "District": "ALI SHER",
    "د_مرکز_نوم__نام_مرکز": "خیمه په ببرک تانه کی",
    "Polling_Center_Name": "Babrak Tana Village Tent",
    "د_مرکز_ځای__موقعیت_مرکز": "ببرک تانه کلی",
    "Polling_Center_Location": "Babrak Tana Village",
    "Map_Accuracy": "Village",
    "Map_Accuracy_Dari": "قریه",
    "Status": "Open",
    "Status_Dari": null,
    "PS_Male": 1,
    "PS_Female": 1,
    "PS_Total": 2,
    "ولسوالي": "علی شیر",
    "Region": "South Eastern Region"
   },
   "geometry": {
    "x": 7816792.3301923126,
    "y": 3956505.8338307887
   }
  },
  {
   "attributes": {
    "OBJECTID": 2496,
    "ولایت": "هلمند",
    "Province": "HELMAND",
    "PC_Code": "3006119",
    "District": "GARM SER",
    "د_مرکز_نوم__نام_مرکز": "مكتب هزار جفت",
    "Polling_Center_Name": "Hazar Joft School",
    "د_مرکز_ځای__موقعیت_مرکز": "د حاجی سید میر خان",
    "Polling_Center_Location": "Haji Sayed Mir Khan",
    "Map_Accuracy": "Building",
    "Map_Accuracy_Dari": "تعمیر",
    "Status": "Open",
    "Status_Dari": null,
    "PS_Male": 4,
    "PS_Female": 1,
    "PS_Total": 5,
    "ولسوالي": "گرم سیر",
    "Region": "Southern Region"
   },
   "geometry": {
    "x": 7145882.4685275201,
    "y": 3649682.5067722192
   }
  },
  {
   "attributes": {
    "OBJECTID": 2497,
    "ولایت": "کندهار",
    "Province": "کندهار",
    "PC_Code": "2704191",
    "District": "PANJWAYEE",
    "د_مرکز_نوم__نام_مرکز": "د ملا عطا محمد منطقه",
    "Polling_Center_Name": "Mullah Atta Mohamamd Place",
    "د_مرکز_ځای__موقعیت_مرکز": "ټالكان",
    "Polling_Center_Location": "Talgan",
    "Map_Accuracy": "Village",
    "Map_Accuracy_Dari": "قریه",
    "Status": "Open",
    "Status_Dari": null,
    "PS_Male": 5,
    "PS_Female": 4,
    "PS_Total": 9,
    "ولسوالي": "پنجوایې",
    "Region": "Southern Region"
   },
   "geometry": {
    "x": 7272437.7470692052,
    "y": 3695016.1510119126
   }
  },
  {
   "attributes": {
    "OBJECTID": 2498,
    "ولایت": "بلخ",
    "Province": "BALKH",
    "PC_Code": "2107271",
    "District": "SHOLGARA",
    "د_مرکز_نوم__نام_مرکز": "منزل طلا قریه دار",
    "Polling_Center_Name": "Tila Qarya Dar Private House ",
    "د_مرکز_ځای__موقعیت_مرکز": "پل برق",
    "Polling_Center_Location": "Pul Barq",
    "Map_Accuracy": "Village",
    "Map_Accuracy_Dari": "قریه",
    "Status": "Open",
    "Status_Dari": null,
    "PS_Male": 1,
    "PS_Female": 1,
    "PS_Total": 2,
    "ولسوالي": "شولگره",
    "Region": "Northern Region"
   },
   "geometry": {
    "x": 7448215.6613398856,
    "y": 4331036.2641625591
   }
  },
  {
   "attributes": {
    "OBJECTID": 2499,
    "ولایت": "هرات",
    "Province": "HERAT",
    "PC_Code": "3205272",
    "District": "ZENDAJAN",
    "د_مرکز_نوم__نام_مرکز": "مكتب ابتدايي اميرمعاويه",
    "Polling_Center_Name": "Amir Maawia Primary School ",
    "د_مرکز_ځای__موقعیت_مرکز": "قلعه ریگ",
    "Polling_Center_Location": "Qala-e Rig ",
    "Map_Accuracy": "Building",
    "Map_Accuracy_Dari": "تعمیر",
    "Status": "Open",
    "Status_Dari": null,
    "PS_Male": 0,
    "PS_Female": 3,
    "PS_Total": 3,
    "ولسوالي": "زنده جان ",
    "Region": "Western Region"
   },
   "geometry": {
    "x": 6875967.9081427958,
    "y": 4074131.1104634604
   }
  },
  {
   "attributes": {
    "OBJECTID": 2500,
    "ولایت": "کاپيسا",
    "Province": "KAPISA",
    "PC_Code": "0205041",
    "District": "NIJRAB",
    "د_مرکز_نوم__نام_مرکز": "مکتب متوسطه محمدایوب شهید",
    "Polling_Center_Name": "Mohammad Ayoub Secondary School",
    "د_مرکز_ځای__موقعیت_مرکز": "حسین خیل ",
    "Polling_Center_Location": "Husain Khel",
    "Map_Accuracy": "Village",
    "Map_Accuracy_Dari": "قریه",
    "Status": "Open",
    "Status_Dari": null,
    "PS_Male": 1,
    "PS_Female": 1,
    "PS_Total": 2,
    "ولسوالي": "نجراب ",
    "Region": "Central Region"
   },
   "geometry": {
    "x": 7757151.6985041751,
    "y": 4163422.8455884368
   }
  },
  {
   "attributes": {
    "OBJECTID": 2501,
    "ولایت": "کابل",
    "Province": "KABUL",
    "PC_Code": "0101021",
    "District": "KABUL-D02",
    "د_مرکز_نوم__نام_مرکز": " ليسه انصاري",
    "Polling_Center_Name": "Ansari High School",
    "د_مرکز_ځای__موقعیت_مرکز": "جوي شير",
    "Polling_Center_Location": "Joy Sher",
    "Map_Accuracy": "Building",
    "Map_Accuracy_Dari": "تعمیر",
    "Status": "Open",
    "Status_Dari": null,
    "PS_Male": 4,
    "PS_Female": 4,
    "PS_Total": 8,
    "ولسوالي": "کابل - ناحیه 02",
    "Region": "Central Region"
   },
   "geometry": {
    "x": 7699953.0502029164,
    "y": 4098264.4991184869
   }
  },
  {
   "attributes": {
    "OBJECTID": 2502,
    "ولایت": "کابل",
    "Province": "KABUL",
    "PC_Code": "0101040",
    "District": "KABUL-D03",
    "د_مرکز_نوم__نام_مرکز": "مکتب متوسطه امير حمزه",
    "Polling_Center_Name": "Amir Hamza Secondary School",
    "د_مرکز_ځای__موقعیت_مرکز": "نو آباد دهمزنگ",
    "Polling_Center_Location": "Naw Abad, Dehmazang",
    "Map_Accuracy": "Building",
    "Map_Accuracy_Dari": "تعمیر",
    "Status": "Open",
    "Status_Dari": null,
    "PS_Male": 3,
    "PS_Female": 2,
    "PS_Total": 5,
    "ولسوالي": "کابل - ناحیه 03",
    "Region": "Central Region"
   },
   "geometry": {
    "x": 7697827.3911678763,
    "y": 4097828.965314135
   }
  },
  {
   "attributes": {
    "OBJECTID": 2503,
    "ولایت": "کابل",
    "Province": "KABUL",
    "PC_Code": "0101059",
    "District": "KABUL-D04",
    "د_مرکز_نوم__نام_مرکز": " مسجد امام رضاي غريب",
    "Polling_Center_Name": "Imam Reza e Ghareeb Mosque",
    "د_مرکز_ځای__موقعیت_مرکز": "کلوله پشته",
    "Polling_Center_Location": "Kolula Pushta",
    "Map_Accuracy": "Building",
    "Map_Accuracy_Dari": "تعمیر",
    "Status": "Open",
    "Status_Dari": null,
    "PS_Male": 3,
    "PS_Female": 3,
    "PS_Total": 6,
    "ولسوالي": "کابل - ناحیه 04",
    "Region": "Central Region"
   },
   "geometry": {
    "x": 7698545.0400951477,
    "y": 4101418.5360822394
   }
  },
  {
   "attributes": {
    "OBJECTID": 2504,
    "ولایت": "کابل",
    "Province": "KABUL",
    "PC_Code": "0101079",
    "District": "KABUL-D05",
    "د_مرکز_نوم__نام_مرکز": "مسجد اتفاق",
    "Polling_Center_Name": "Itifaq Mosque",
    "د_مرکز_ځای__موقعیت_مرکز": "قلعه طوفان",
    "Polling_Center_Location": "Qala-e-Tufan",
    "Map_Accuracy": "Building",
    "Map_Accuracy_Dari": "تعمیر",
    "Status": "Open",
    "Status_Dari": null,
    "PS_Male": 2,
    "PS_Female": 1,
    "PS_Total": 3,
    "ولسوالي": "کابل - ناحیه 05",
    "Region": "Central Region"
   },
   "geometry": {
    "x": 7690497.0505665187,
    "y": 4099179.5097744181
   }
  },
  {
   "attributes": {
    "OBJECTID": 2505,
    "ولایت": "کابل",
    "Province": "KABUL",
    "PC_Code": "0101098",
    "District": "KABUL-D06",
    "د_مرکز_نوم__نام_مرکز": " ليسه محمد آصف مايل",
    "Polling_Center_Name": "Mohammad Asif Mayel High School",
    "د_مرکز_ځای__موقعیت_مرکز": "قلعه ناظر",
    "Polling_Center_Location": "Qala-e-Nazer",
    "Map_Accuracy": "Building",
    "Map_Accuracy_Dari": "تعمیر",
    "Status": "Open",
    "Status_Dari": null,
    "PS_Male": 4,
    "PS_Female": 5,
    "PS_Total": 9,
    "ولسوالي": "کابل - ناحیه 06",
    "Region": "Central Region"
   },
   "geometry": {
    "x": 7692850.9145576842,
    "y": 4096896.9910371061
   }
  },
  {
   "attributes": {
    "OBJECTID": 2506,
    "ولایت": "کابل",
    "Province": "KABUL",
    "PC_Code": "0101099",
    "District": "KABUL-D06",
    "د_مرکز_نوم__نام_مرکز": " مسجد علي نقی",
    "Polling_Center_Name": "Ali Naqi Mosque",
    "د_مرکز_ځای__موقعیت_مرکز": "قریه ده قابل",
    "Polling_Center_Location": "Deh Qabil Village",
    "Map_Accuracy": "Building",
    "Map_Accuracy_Dari": "تعمیر",
    "Status": "Open",
    "Status_Dari": null,
    "PS_Male": 2,
    "PS_Female": 2,
    "PS_Total": 4,
    "ولسوالي": "کابل - ناحیه 06",
    "Region": "Central Region"
   },
   "geometry": {
    "x": 7692065.7403404899,
    "y": 4095970.4455191568
   }
  },
  {
   "attributes": {
    "OBJECTID": 2507,
    "ولایت": "کابل",
    "Province": "KABUL",
    "PC_Code": "0101118",
    "District": "KABUL-D06",
    "د_مرکز_نوم__نام_مرکز": " لیسه ام البنین",
    "Polling_Center_Name": "Ummulbanin High School",
    "د_مرکز_ځای__موقعیت_مرکز": "قلعه شهاده",
    "Polling_Center_Location": "Qala-e-Shahada",
    "Map_Accuracy": "Building",
    "Map_Accuracy_Dari": "تعمیر",
    "Status": "Open",
    "Status_Dari": null,
    "PS_Male": 4,
    "PS_Female": 5,
    "PS_Total": 9,
    "ولسوالي": "کابل - ناحیه 06",
    "Region": "Central Region"
   },
   "geometry": {
    "x": 7694568.9115986815,
    "y": 4096471.6883885609
   }
  },
  {
   "attributes": {
    "OBJECTID": 2508,
    "ولایت": "کابل",
    "Province": "KABUL",
    "PC_Code": "0101139",
    "District": "KABUL-D07",
    "د_مرکز_نوم__نام_مرکز": " ليسه عمرا خان",
    "Polling_Center_Name": "Omra Khan High School",
    "د_مرکز_ځای__موقعیت_مرکز": "واصل آباد",
    "Polling_Center_Location": "Wasil Abad",
    "Map_Accuracy": "Building",
    "Map_Accuracy_Dari": "تعمیر",
    "Status": "Open",
    "Status_Dari": null,
    "PS_Male": 4,
    "PS_Female": 3,
    "PS_Total": 7,
    "ولسوالي": "کابل - ناحیه 07",
    "Region": "Central Region"
   },
   "geometry": {
    "x": 7699476.1196557274,
    "y": 4093958.3706545494
   }
  },
  {
   "attributes": {
    "OBJECTID": 2509,
    "ولایت": "کابل",
    "Province": "KABUL",
    "PC_Code": "0101155",
    "District": "KABUL-D08",
    "د_مرکز_نوم__نام_مرکز": " ليسه نسوان آمينه فدوي",
    "Polling_Center_Name": "Amina Fidawi Girls High School",
    "د_مرکز_ځای__موقعیت_مرکز": "مسجد اتفاق",
    "Polling_Center_Location": "Itifaq Mosque",
    "Map_Accuracy": "Building",
    "Map_Accuracy_Dari": "تعمیر",
    "Status": "Open",
    "Status_Dari": null,
    "PS_Male": 3,
    "PS_Female": 3,
    "PS_Total": 6,
    "ولسوالي": "کابل - ناحیه 08",
    "Region": "Central Region"
   },
   "geometry": {
    "x": 7704052.2379436707,
    "y": 4096844.5012289896
   }
  },
  {
   "attributes": {
    "OBJECTID": 2510,
    "ولایت": "کابل",
    "Province": "KABUL",
    "PC_Code": "0101174",
    "District": "KABUL-D08",
    "د_مرکز_نوم__نام_مرکز": " مسجد شيخ نجم الدين اخوندزاده",
    "Polling_Center_Name": "Shaikh Najmuddin Akhundzada Mosque",
    "د_مرکز_ځای__موقعیت_مرکز": "قسمت ب رحمن مينه",
    "Polling_Center_Location": "Rahman Mina, Phase B",
    "Map_Accuracy": "Building",
    "Map_Accuracy_Dari": "تعمیر",
    "Status": "Open",
    "Status_Dari": null,
    "PS_Male": 1,
    "PS_Female": 1,
    "PS_Total": 2,
    "ولسوالي": "کابل - ناحیه 08",
    "Region": "Central Region"
   },
   "geometry": {
    "x": 7705769.9188373163,
    "y": 4096534.6911222599
   }
  },
  {
   "attributes": {
    "OBJECTID": 2511,
    "ولایت": "کابل",
    "Province": "KABUL",
    "PC_Code": "0101190",
    "District": "KABUL-D09",
    "د_مرکز_نوم__نام_مرکز": " مسجد جامع شرقی شش درک ",
    "Polling_Center_Name": "Shah Darak Estern Mosque",
    "د_مرکز_ځای__موقعیت_مرکز": "شش درک",
    "Polling_Center_Location": "Shashdarak",
    "Map_Accuracy": "Building",
    "Map_Accuracy_Dari": "تعمیر",
    "Status": "Open",
    "Status_Dari": null,
    "PS_Male": 1,
    "PS_Female": 1,
    "PS_Total": 2,
    "ولسوالي": "کابل - ناحیه 09",
    "Region": "Central Region"
   },
   "geometry": {
    "x": 7702307.4574331902,
    "y": 4099226.8261909923
   }
  },
  {
   "attributes": {
    "OBJECTID": 2512,
    "ولایت": "کابل",
    "Province": "KABUL",
    "PC_Code": "0101191",
    "District": "KABUL-D09",
    "د_مرکز_نوم__نام_مرکز": " لیسه ستاره",
    "Polling_Center_Name": "Setara High School",
    "د_مرکز_ځای__موقعیت_مرکز": "شش درک",
    "Polling_Center_Location": "Shashdarak",
    "Map_Accuracy": "Building",
    "Map_Accuracy_Dari": "تعمیر",
    "Status": "Open",
    "Status_Dari": null,
    "PS_Male": 2,
    "PS_Female": 3,
    "PS_Total": 5,
    "ولسوالي": "کابل - ناحیه 09",
    "Region": "Central Region"
   },
   "geometry": {
    "x": 7702213.0006188648,
    "y": 4099619.3358316361
   }
  },
  {
   "attributes": {
    "OBJECTID": 2513,
    "ولایت": "کابل",
    "Province": "KABUL",
    "PC_Code": "0101206",
    "District": "KABUL-D10",
    "د_مرکز_نوم__نام_مرکز": " مسجد حضرت عمر فاروق",
    "Polling_Center_Name": "Hazrat Omer Farooq Mosque",
    "د_مرکز_ځای__موقعیت_مرکز": "نو آباد چهار قلعه",
    "Polling_Center_Location": "Naw Abad Chahar Qala",
    "Map_Accuracy": "Building",
    "Map_Accuracy_Dari": "تعمیر",
    "Status": "Open",
    "Status_Dari": null,
    "PS_Male": 1,
    "PS_Female": 2,
    "PS_Total": 3,
    "ولسوالي": "کابل - ناحیه 10",
    "Region": "Central Region"
   },
   "geometry": {
    "x": 7699950.2160086781,
    "y": 4101832.3735845098
   }
  },
  {
   "attributes": {
    "OBJECTID": 2514,
    "ولایت": "کابل",
    "Province": "KABUL",
    "PC_Code": "0101226",
    "District": "KABUL-D10",
    "د_مرکز_نوم__نام_مرکز": " ليسه عالي اماني",
    "Polling_Center_Name": "Amani High School",
    "د_مرکز_ځای__موقعیت_مرکز": "وزیر اکبر خان",
    "Polling_Center_Location": "Wazir Akbar Khan",
    "Map_Accuracy": "Building",
    "Map_Accuracy_Dari": "تعمیر",
    "Status": "Open",
    "Status_Dari": null,
    "PS_Male": 3,
    "PS_Female": 2,
    "PS_Total": 5,
    "ولسوالي": "کابل - ناحیه 10",
    "Region": "Central Region"
   },
   "geometry": {
    "x": 7701470.5931236465,
    "y": 4100101.2226275704
   }
  },
  {
   "attributes": {
    "OBJECTID": 2515,
    "ولایت": "کابل",
    "Province": "KABUL",
    "PC_Code": "0101227",
    "District": "KABUL-D10",
    "د_مرکز_نوم__نام_مرکز": " مسجد وزير اکبر خان",
    "Polling_Center_Name": "Wazir Akbar Khan Mosque",
    "د_مرکز_ځای__موقعیت_مرکز": "وزیر اکبر خان",
    "Polling_Center_Location": "Wazir Akbar Khan",
    "Map_Accuracy": "Building",
    "Map_Accuracy_Dari": "تعمیر",
    "Status": "Open",
    "Status_Dari": null,
    "PS_Male": 2,
    "PS_Female": 1,
    "PS_Total": 3,
    "ولسوالي": "کابل - ناحیه 10",
    "Region": "Central Region"
   },
   "geometry": {
    "x": 7701356.3425906599,
    "y": 4100950.6413390907
   }
  },
  {
   "attributes": {
    "OBJECTID": 2516,
    "ولایت": "کابل",
    "Province": "KABUL",
    "PC_Code": "0101245",
    "District": "KABUL-D11",
    "د_مرکز_نوم__نام_مرکز": " مسجد جامع امام زمان",
    "Polling_Center_Name": "Imam-e-Zaman Mosque",
    "د_مرکز_ځای__موقعیت_مرکز": "قلعه نجارها",
    "Polling_Center_Location": "Qala-e-Najarha",
    "Map_Accuracy": "Building",
    "Map_Accuracy_Dari": "تعمیر",
    "Status": "Open",
    "Status_Dari": null,
    "PS_Male": 3,
    "PS_Female": 3,
    "PS_Total": 6,
    "ولسوالي": "کابل - ناحیه 11",
    "Region": "Central Region"
   },
   "geometry": {
    "x": 7695812.9403041415,
    "y": 4105967.8428767817
   }
  },
  {
   "attributes": {
    "OBJECTID": 2517,
    "ولایت": "کابل",
    "Province": "KABUL",
    "PC_Code": "0101259",
    "District": "KABUL-D13",
    "د_مرکز_نوم__نام_مرکز": "مسجد کاظميه",
    "Polling_Center_Name": "Kazimia Mosque",
    "د_مرکز_ځای__موقعیت_مرکز": "دشت بيست هزاري",
    "Polling_Center_Location": "Dasht-e-Best Hazari",
    "Map_Accuracy": "Building",
    "Map_Accuracy_Dari": "تعمیر",
    "Status": "Open",
    "Status_Dari": null,
    "PS_Male": 4,
    "PS_Female": 2,
    "PS_Total": 6,
    "ولسوالي": "کابل - ناحیه 13",
    "Region": "Central Region"
   },
   "geometry": {
    "x": 7690273.4219546635,
    "y": 4095497.4176863348
   }
  },
  {
   "attributes": {
    "OBJECTID": 2518,
    "ولایت": "کاپيسا",
    "Province": "KAPISA",
    "PC_Code": "0205064",
    "District": "NIJRAB",
    "د_مرکز_نوم__نام_مرکز": "مکتب متوسطه محمد ایوب شهید (کوچی)",
    "Polling_Center_Name": "Mohammad Ayoub Secondary School (Kuchi)",
    "د_مرکز_ځای__موقعیت_مرکز": "حسین خیل ",
    "Polling_Center_Location": "Husain Khel",
    "Map_Accuracy": "Village",
    "Map_Accuracy_Dari": "قریه",
    "Status": "Open",
    "Status_Dari": null,
    "PS_Male": 1,
    "PS_Female": 1,
    "PS_Total": 2,
    "ولسوالي": "نجراب ",
    "Region": "Central Region"
   },
   "geometry": {
    "x": 7757138.4359000381,
    "y": 4163420.9961201791
   }
  },
  {
   "attributes": {
    "OBJECTID": 2519,
    "ولایت": "کاپيسا",
    "Province": "KAPISA",
    "PC_Code": "0205062",
    "District": "NIJRAB",
    "د_مرکز_نوم__نام_مرکز": "منزل ملک روضا خیل ",
    "Polling_Center_Name": "Malik Rozakhel House",
    "د_مرکز_ځای__موقعیت_مرکز": "روضا خیل ",
    "Polling_Center_Location": "RozaKhel ",
    "Map_Accuracy": "Building",
    "Map_Accuracy_Dari": "تعمیر",
    "Status": "Open",
    "Status_Dari": null,
    "PS_Male": 1,
    "PS_Female": 1,
    "PS_Total": 2,
    "ولسوالي": "نجراب ",
    "Region": "Central Region"
   },
   "geometry": {
    "x": 7749268.7913276153,
    "y": 4169110.0674088839
   }
  },
  {
   "attributes": {
    "OBJECTID": 2520,
    "ولایت": "ننگرهار",
    "Province": "NANGARHAR",
    "PC_Code": "0605149",
    "District": "KAMA",
    "د_مرکز_نوم__نام_مرکز": "قلعه اخند جومات",
    "Polling_Center_Name": "Qala-e- Akhund Mosque",
    "د_مرکز_ځای__موقعیت_مرکز": "قلعه اخند",
    "Polling_Center_Location": "Qala-e- Akhund ",
    "Map_Accuracy": "Building",
    "Map_Accuracy_Dari": "تعمیر",
    "Status": "Open",
    "Status_Dari": null,
    "PS_Male": 3,
    "PS_Female": 0,
    "PS_Total": 3,
    "ولسوالي": "کامه",
    "Region": "Eastern Region"
   },
   "geometry": {
    "x": 7856921.6440727217,
    "y": 4084632.7090347949
   }
  },
  {
   "attributes": {
    "OBJECTID": 2521,
    "ولایت": "پروان",
    "Province": "PARWAN",
    "PC_Code": "0301006",
    "District": "CHARIKAR",
    "د_مرکز_نوم__نام_مرکز": "لیسه میانشاخ",
    "Polling_Center_Name": "Meyan Shakh High School ",
    "د_مرکز_ځای__موقعیت_مرکز": "میانشاخ ",
    "Polling_Center_Location": "Mian Shakh",
    "Map_Accuracy": "Building",
    "Map_Accuracy_Dari": "تعمیر",
    "Status": "Open",
    "Status_Dari": null,
    "PS_Male": 4,
    "PS_Female": 1,
    "PS_Total": 5,
    "ولسوالي": "چاریکار",
    "Region": "Central Region"
   },
   "geometry": {
    "x": 7703014.0979760177,
    "y": 4161574.8053694088
   }
  },
  {
   "attributes": {
    "OBJECTID": 2522,
    "ولایت": "پروان",
    "Province": "PARWAN",
    "PC_Code": "0301027",
    "District": "CHARIKAR",
    "د_مرکز_نوم__نام_مرکز": "مکتب توب دره",
    "Polling_Center_Name": "Toop Dara School",
    "د_مرکز_ځای__موقعیت_مرکز": "توب دره",
    "Polling_Center_Location": "Toop Dara",
    "Map_Accuracy": "Building",
    "Map_Accuracy_Dari": "تعمیر",
    "Status": "Open",
    "Status_Dari": null,
    "PS_Male": 2,
    "PS_Female": 1,
    "PS_Total": 3,
    "ولسوالي": "چاریکار",
    "Region": "Central Region"
   },
   "geometry": {
    "x": 7694997.1131519629,
    "y": 4161735.894151004
   }
  },
  {
   "attributes": {
    "OBJECTID": 2523,
    "ولایت": "پروان",
    "Province": "PARWAN",
    "PC_Code": "0302111",
    "District": "BAGRAM",
    "د_مرکز_نوم__نام_مرکز": "لیسه عبدالستار شهید",
    "Polling_Center_Name": "Abdul Sattar Shaheed High School ",
    "د_مرکز_ځای__موقعیت_مرکز": "دولت شاهی ",
    "Polling_Center_Location": "Dowlat Shahi ",
    "Map_Accuracy": "Building",
    "Map_Accuracy_Dari": "تعمیر",
    "Status": "Open",
    "Status_Dari": null,
    "PS_Male": 2,
    "PS_Female": 2,
    "PS_Total": 4,
    "ولسوالي": "بگرام ",
    "Region": "Central Region"
   },
   "geometry": {
    "x": 7703188.1771693267,
    "y": 4158956.6754212086
   }
  },
  {
   "attributes": {
    "OBJECTID": 2524,
    "ولایت": "پروان",
    "Province": "PARWAN",
    "PC_Code": "0304037",
    "District": "SAYID KHIAL",
    "د_مرکز_نوم__نام_مرکز": "لیسه امام اعظم آقتاش ",
    "Polling_Center_Name": "Imam-e-Azaam Uqtash High School, ",
    "د_مرکز_ځای__موقعیت_مرکز": "آقتاش ",
    "Polling_Center_Location": "Uqtash",
    "Map_Accuracy": "Building",
    "Map_Accuracy_Dari": "تعمیر",
    "Status": "Open",
    "Status_Dari": null,
    "PS_Male": 3,
    "PS_Female": 1,
    "PS_Total": 4,
    "ولسوالي": "سیدخیل ",
    "Region": "Central Region"
   },
   "geometry": {
    "x": 7710570.3670499129,
    "y": 4170882.7105986411
   }
  },
  {
   "attributes": {
    "OBJECTID": 2525,
    "ولایت": "پروان",
    "Province": "PARWAN",
    "PC_Code": "0305057",
    "District": "JABULUSSARAJ",
    "د_مرکز_نوم__نام_مرکز": "مسجد جامع دو بندی",
    "Polling_Center_Name": "Du Bandi Mosque",
    "د_مرکز_ځای__موقعیت_مرکز": "دو بندی",
    "Polling_Center_Location": "Dubandi",
    "Map_Accuracy": "Building",
    "Map_Accuracy_Dari": "تعمیر",
    "Status": "Open",
    "Status_Dari": null,
    "PS_Male": 3,
    "PS_Female": 1,
    "PS_Total": 4,
    "ولسوالي": "جبل السراج",
    "Region": "Central Region"
   },
   "geometry": {
    "x": 7712040.4400001839,
    "y": 4181043.1128945677
   }
  },
  {
   "attributes": {
    "OBJECTID": 2526,
    "ولایت": "پروان",
    "Province": "PARWAN",
    "PC_Code": "0305058",
    "District": "JABULUSSARAJ",
    "د_مرکز_نوم__نام_مرکز": "مسجد آشابه ",
    "Polling_Center_Name": "Aushaba Mosque",
    "د_مرکز_ځای__موقعیت_مرکز": "مرکز آشابه ",
    "Polling_Center_Location": "Ashaba Center ",
    "Map_Accuracy": "Building",
    "Map_Accuracy_Dari": "تعمیر",
    "Status": "Open",
    "Status_Dari": null,
    "PS_Male": 2,
    "PS_Female": 1,
    "PS_Total": 3,
    "ولسوالي": "جبل السراج",
    "Region": "Central Region"
   },
   "geometry": {
    "x": 7693320.1751919528,
    "y": 4179549.6367774797
   }
  },
  {
   "attributes": {
    "OBJECTID": 2527,
    "ولایت": "پروان",
    "Province": "PARWAN",
    "PC_Code": "0309132",
    "District": "SURKHI PARSA",
    "د_مرکز_نوم__نام_مرکز": "لیسه نسوان بازار لولنج ",
    "Polling_Center_Name": "Female high school_Bazar Lolegn",
    "د_مرکز_ځای__موقعیت_مرکز": "بازار لولنج",
    "Polling_Center_Location": "Bazar Lolenj",
    "Map_Accuracy": "Building",
    "Map_Accuracy_Dari": "تعمیر",
    "Status": "Open",
    "Status_Dari": null,
    "PS_Male": 2,
    "PS_Female": 1,
    "PS_Total": 3,
    "ولسوالي": "سرخ پارسا ",
    "Region": "Central Region"
   },
   "geometry": {
    "x": 7641845.6285406379,
    "y": 4153564.6278257915
   }
  },
  {
   "attributes": {
    "OBJECTID": 2528,
    "ولایت": "وردک",
    "Province": "WARDAK",
    "PC_Code": "0401001",
    "District": "MAYDAN SHAHR",
    "د_مرکز_نوم__نام_مرکز": "تعمیر شاروالی ",
    "Polling_Center_Name": "Municipality Building",
    "د_مرکز_ځای__موقعیت_مرکز": "تعمیرشاروالی میدان شهر",
    "Polling_Center_Location": "Maidan Shahr Municipality Building",
    "Map_Accuracy": "Building",
    "Map_Accuracy_Dari": "تعمیر",
    "Status": "Open",
    "Status_Dari": null,
    "PS_Male": 5,
    "PS_Female": 2,
    "PS_Total": 7,
    "ولسوالي": "میدان شهر",
    "Region": "Central Region"
   },
   "geometry": {
    "x": 7666107.8406896396,
    "y": 4081923.1908447398
   }
  },
  {
   "attributes": {
    "OBJECTID": 2529,
    "ولایت": "وردک",
    "Province": "WARDAK",
    "PC_Code": "0404084",
    "District": "CHAKI WARDAK",
    "د_مرکز_نوم__نام_مرکز": "مدرسه لنگر",
    "Polling_Center_Name": "Langar Madrassa",
    "د_مرکز_ځای__موقعیت_مرکز": "لنگر",
    "Polling_Center_Location": "Langar",
    "Map_Accuracy": "Building",
    "Map_Accuracy_Dari": "تعمیر",
    "Status": "Open",
    "Status_Dari": null,
    "PS_Male": 2,
    "PS_Female": 2,
    "PS_Total": 4,
    "ولسوالي": "چک وردک",
    "Region": "Central Region"
   },
   "geometry": {
    "x": 7645856.1436278103,
    "y": 4050129.739855242
   }
  },
  {
   "attributes": {
    "OBJECTID": 2530,
    "ولایت": "وردک",
    "Province": "WARDAK",
    "PC_Code": "0405127",
    "District": "SAYYD ABAD",
    "د_مرکز_نوم__نام_مرکز": "مسجد قریه سلطان خیل ",
    "Polling_Center_Name": "Sultan Khel Mosque",
    "د_مرکز_ځای__موقعیت_مرکز": "سلطان خیل",
    "Polling_Center_Location": "Sultan Khel",
    "Map_Accuracy": "Village",
    "Map_Accuracy_Dari": "قریه",
    "Status": "Open",
    "Status_Dari": null,
    "PS_Male": 1,
    "PS_Female": 1,
    "PS_Total": 2,
    "ولسوالي": "سید آباد",
    "Region": "Central Region"
   },
   "geometry": {
    "x": 7640689.2160667963,
    "y": 4012345.831359786
   }
  },
  {
   "attributes": {
    "OBJECTID": 2531,
    "ولایت": "وردک",
    "Province": "WARDAK",
    "PC_Code": "0405128",
    "District": "SAYYD ABAD",
    "د_مرکز_نوم__نام_مرکز": "مکتب المار",
    "Polling_Center_Name": "Almar School",
    "د_مرکز_ځای__موقعیت_مرکز": "بهادرخیل",
    "Polling_Center_Location": "Bahadur Khel",
    "Map_Accuracy": "Village",
    "Map_Accuracy_Dari": "قریه",
    "Status": "Open",
    "Status_Dari": null,
    "PS_Male": 1,
    "PS_Female": 1,
    "PS_Total": 2,
    "ولسوالي": "سید آباد",
    "Region": "Central Region"
   },
   "geometry": {
    "x": 7639853.2879541647,
    "y": 4016224.6420119232
   }
  },
  {
   "attributes": {
    "OBJECTID": 2532,
    "ولایت": "وردک",
    "Province": "WARDAK",
    "PC_Code": "0406070",
    "District": "DAYMIRDAD",
    "د_مرکز_نوم__نام_مرکز": "کلینیک تنگی سیدان",
    "Polling_Center_Name": "Tangi Saiedan Clinic",
    "د_مرکز_ځای__موقعیت_مرکز": "تنگی سیدان",
    "Polling_Center_Location": "Tangi Saiedan",
    "Map_Accuracy": "Village",
    "Map_Accuracy_Dari": "قریه",
    "Status": "Open",
    "Status_Dari": null,
    "PS_Male": 3,
    "PS_Female": 2,
    "PS_Total": 5,
    "ولسوالي": "دایمیرداد",
    "Region": "Central Region"
   },
   "geometry": {
    "x": 7623959.4639789928,
    "y": 4060738.1109890863
   }
  },
  {
   "attributes": {
    "OBJECTID": 2533,
    "ولایت": "وردک",
    "Province": "WARDAK",
    "PC_Code": "0409034",
    "District": "MARKAZ-E-BEHSUD",
    "د_مرکز_نوم__نام_مرکز": "مسجد درنجوی",
    "Polling_Center_Name": "DarunJoi Mosque",
    "د_مرکز_ځای__موقعیت_مرکز": "قریه درنجوی",
    "Polling_Center_Location": "Darun Joi Village",
    "Map_Accuracy": "Village",
    "Map_Accuracy_Dari": "قریه",
    "Status": "Open",
    "Status_Dari": null,
    "PS_Male": 3,
    "PS_Female": 1,
    "PS_Total": 4,
    "ولسوالي": "مرکز بهسود",
    "Region": "Central Region"
   },
   "geometry": {
    "x": 7558504.3492331365,
    "y": 4078854.1669928026
   }
  },
  {
   "attributes": {
    "OBJECTID": 2534,
    "ولایت": "وردک",
    "Province": "WARDAK",
    "PC_Code": "0409055",
    "District": "MARKAZ-E-BEHSUD",
    "د_مرکز_نوم__نام_مرکز": "مکتب باد آسیاب",
    "Polling_Center_Name": "Bad-e-Asyab School",
    "د_مرکز_ځای__موقعیت_مرکز": "کوته مکتب",
    "Polling_Center_Location": "Kuta Maktab",
    "Map_Accuracy": "Building",
    "Map_Accuracy_Dari": "تعمیر",
    "Status": "Open",
    "Status_Dari": null,
    "PS_Male": 1,
    "PS_Female": 1,
    "PS_Total": 2,
    "ولسوالي": "مرکز بهسود",
    "Region": "Central Region"
   },
   "geometry": {
    "x": 7566550.3316713497,
    "y": 4078871.7390809078
   }
  },
  {
   "attributes": {
    "OBJECTID": 2535,
    "ولایت": "لوگر",
    "Province": "LOGAR",
    "PC_Code": "0501014",
    "District": "PULI ALAM",
    "د_مرکز_نوم__نام_مرکز": "مکتب چوڼى",
    "Polling_Center_Name": "Choni School",
    "د_مرکز_ځای__موقعیت_مرکز": "چوڼى",
    "Polling_Center_Location": "Choni",
    "Map_Accuracy": "Building",
    "Map_Accuracy_Dari": "تعمیر",
    "Status": "Open",
    "Status_Dari": null,
    "PS_Male": 1,
    "PS_Female": 2,
    "PS_Total": 3,
    "ولسوالي": "پل علم",
    "Region": "Central Region"
   },
   "geometry": {
    "x": 7695545.538642114,
    "y": 4012296.237111425
   }
  },
  {
   "attributes": {
    "OBJECTID": 2536,
    "ولایت": "لوگر",
    "Province": "LOGAR",
    "PC_Code": "0502036",
    "District": "BARAKI BARAK",
    "د_مرکز_نوم__نام_مرکز": "مسجد قلعه بادى ",
    "Polling_Center_Name": "Qala-e-Badi Mosque",
    "د_مرکز_ځای__موقعیت_مرکز": "قلعه بادى",
    "Polling_Center_Location": "Qala-e-Badi",
    "Map_Accuracy": "Building",
    "Map_Accuracy_Dari": "تعمیر",
    "Status": "Open",
    "Status_Dari": null,
    "PS_Male": 2,
    "PS_Female": 1,
    "PS_Total": 3,
    "ولسوالي": "برکی برک",
    "Region": "Central Region"
   },
   "geometry": {
    "x": 7678606.4380067354,
    "y": 4024896.268042427
   }
  },
  {
   "attributes": {
    "OBJECTID": 2537,
    "ولایت": "لوگر",
    "Province": "LOGAR",
    "PC_Code": "0505058",
    "District": "MOHAMMAD AGHA",
    "د_مرکز_نوم__نام_مرکز": "مکتب اناث و ذکور زرغون شهر",
    "Polling_Center_Name": "Zarghon Shahr Boys & Girls School",
    "د_مرکز_ځای__موقعیت_مرکز": "زرغون شهر",
    "Polling_Center_Location": "Zarghon Shahr",
    "Map_Accuracy": "Building",
    "Map_Accuracy_Dari": "تعمیر",
    "Status": "Open",
    "Status_Dari": null,
    "PS_Male": 3,
    "PS_Female": 3,
    "PS_Total": 6,
    "ولسوالي": "محمد آغه",
    "Region": "Central Region"
   },
   "geometry": {
    "x": 7695448.3155384371,
    "y": 4044300.1131166862
   }
  },
  {
   "attributes": {
    "OBJECTID": 2538,
    "ولایت": "لوگر",
    "Province": "LOGAR",
    "PC_Code": "0505059",
    "District": "MOHAMMAD AGHA",
    "د_مرکز_نوم__نام_مرکز": "مکتب گماران",
    "Polling_Center_Name": "Gumaran School",
    "د_مرکز_ځای__موقعیت_مرکز": "گماران",
    "Polling_Center_Location": "Gomaran",
    "Map_Accuracy": "Building",
    "Map_Accuracy_Dari": "تعمیر",
    "Status": "Open",
    "Status_Dari": null,
    "PS_Male": 2,
    "PS_Female": 1,
    "PS_Total": 3,
    "ولسوالي": "محمد آغه",
    "Region": "Central Region"
   },
   "geometry": {
    "x": 7697682.3440977624,
    "y": 4066886.1241733399
   }
  },
  {
   "attributes": {
    "OBJECTID": 2539,
    "ولایت": "ننگرهار",
    "Province": "NANGARHAR",
    "PC_Code": "0601020",
    "District": "JALALABAD",
    "د_مرکز_نوم__نام_مرکز": "د ښځو چارو رياست",
    "Polling_Center_Name": "Women Affairs Directorate",
    "د_مرکز_ځای__موقعیت_مرکز": "دریمه ناحیه",
    "Polling_Center_Location": "D03-Nahia 3",
    "Map_Accuracy": "Building",
    "Map_Accuracy_Dari": "تعمیر",
    "Status": "Open",
    "Status_Dari": null,
    "PS_Male": 0,
    "PS_Female": 7,
    "PS_Total": 7,
    "ولسوالي": "جلال آباد",
    "Region": "Eastern Region"
   },
   "geometry": {
    "x": 7840587.1101296833,
    "y": 4087052.8112360276
   }
  },
  {
   "attributes": {
    "OBJECTID": 2540,
    "ولایت": "ننگرهار",
    "Province": "NANGARHAR",
    "PC_Code": "0601041",
    "District": "JALALABAD",
    "د_مرکز_نوم__نام_مرکز": "مجبور آباد مکتب",
    "Polling_Center_Name": "Majboor Abad School",
    "د_مرکز_ځای__موقعیت_مرکز": "څلورمه ناحیه",
    "Polling_Center_Location": "D04-Nahia 4",
    "Map_Accuracy": "Building",
    "Map_Accuracy_Dari": "تعمیر",
    "Status": "Open",
    "Status_Dari": null,
    "PS_Male": 0,
    "PS_Female": 5,
    "PS_Total": 5,
    "ولسوالي": "جلال آباد",
    "Region": "Eastern Region"
   },
   "geometry": {
    "x": 7844723.0535625564,
    "y": 4084314.7082781042
   }
  },
  {
   "attributes": {
    "OBJECTID": 2541,
    "ولایت": "ننگرهار",
    "Province": "NANGARHAR",
    "PC_Code": "0602067",
    "District": "BEHSUD",
    "د_مرکز_نوم__نام_مرکز": "هډه  مکتب",
    "Polling_Center_Name": "Hada School",
    "د_مرکز_ځای__موقعیت_مرکز": "هډه",
    "Polling_Center_Location": "Hada",
    "Map_Accuracy": "Building",
    "Map_Accuracy_Dari": "تعمیر",
    "Status": "Open",
    "Status_Dari": null,
    "PS_Male": 4,
    "PS_Female": 0,
    "PS_Total": 4,
    "ولسوالي": "بهسود",
    "Region": "Eastern Region"
   },
   "geometry": {
    "x": 7844863.0181186795,
    "y": 4077668.3401051853
   }
  },
  {
   "attributes": {
    "OBJECTID": 2542,
    "ولایت": "ننگرهار",
    "Province": "NANGARHAR",
    "PC_Code": "0602068",
    "District": "BEHSUD",
    "د_مرکز_نوم__نام_مرکز": "نجم القرا کلینيک",
    "Polling_Center_Name": "Najmul Qura Clinic ",
    "د_مرکز_ځای__موقعیت_مرکز": "هډه",
    "Polling_Center_Location": "Hada",
    "Map_Accuracy": "Building",
    "Map_Accuracy_Dari": "تعمیر",
    "Status": "Open",
    "Status_Dari": null,
    "PS_Male": 0,
    "PS_Female": 3,
    "PS_Total": 3,
    "ولسوالي": "بهسود",
    "Region": "Eastern Region"
   },
   "geometry": {
    "x": 7844715.5899246549,
    "y": 4077597.3311911672
   }
  },
  {
   "attributes": {
    "OBJECTID": 2543,
    "ولایت": "ننگرهار",
    "Province": "NANGARHAR",
    "PC_Code": "0603090",
    "District": "SURKH RUD",
    "د_مرکز_نوم__نام_مرکز": "بالاباغ کلینيک",
    "Polling_Center_Name": "Bala Bagh Clinic",
    "د_مرکز_ځای__موقعیت_مرکز": "بالا باغ",
    "Polling_Center_Location": "Bala Bagh",
    "Map_Accuracy": "Building",
    "Map_Accuracy_Dari": "تعمیر",
    "Status": "Open",
    "Status_Dari": null,
    "PS_Male": 0,
    "PS_Female": 2,
    "PS_Total": 2,
    "ولسوالي": "سرخرود",
    "Region": "Eastern Region"
   },
   "geometry": {
    "x": 7817049.5706112217,
    "y": 4081952.3453306123
   }
  },
  {
   "attributes": {
    "OBJECTID": 2544,
    "ولایت": "باميان",
    "Province": "BAMYAN",
    "PC_Code": "1005072",
    "District": "YAKAWLANG",
    "د_مرکز_نوم__نام_مرکز": "منبر سر کنک",
    "Polling_Center_Name": "Munbar-e-Sarkanak ",
    "د_مرکز_ځای__موقعیت_مرکز": "سر کنک",
    "Polling_Center_Location": "Sarkanak",
    "Map_Accuracy": "Building",
    "Map_Accuracy_Dari": "تعمیر",
    "Status": "Open",
    "Status_Dari": null,
    "PS_Male": 1,
    "PS_Female": 1,
    "PS_Total": 2,
    "ولسوالي": "یکاولنگ",
    "Region": "Central Highlands Region"
   },
   "geometry": {
    "x": 7440866.586781418,
    "y": 4119438.6730454601
   }
  },
  {
   "attributes": {
    "OBJECTID": 2545,
    "ولایت": "باميان",
    "Province": "BAMYAN",
    "PC_Code": "1005073",
    "District": "YAKAWLANG",
    "د_مرکز_نوم__نام_مرکز": "منبرسرخک پایین",
    "Polling_Center_Name": "Munbar-e-Surkhake Payeen ",
    "د_مرکز_ځای__موقعیت_مرکز": "سرخک ",
    "Polling_Center_Location": "Surkhak",
    "Map_Accuracy": "Building",
    "Map_Accuracy_Dari": "تعمیر",
    "Status": "Open",
    "Status_Dari": null,
    "PS_Male": 1,
    "PS_Female": 1,
    "PS_Total": 2,
    "ولسوالي": "یکاولنگ",
    "Region": "Central Highlands Region"
   },
   "geometry": {
    "x": 7430298.1915110396,
    "y": 4111986.8854708755
   }
  },
  {
   "attributes": {
    "OBJECTID": 2546,
    "ولایت": "باميان",
    "Province": "BAMYAN",
    "PC_Code": "1005093",
    "District": "YAKAWLANG",
    "د_مرکز_نوم__نام_مرکز": "منبرشینیه سر مرغی",
    "Polling_Center_Name": "Munbar-e-Shenia Sare Murghi ",
    "د_مرکز_ځای__موقعیت_مرکز": "شینیه سر مرغی",
    "Polling_Center_Location": "Shenia Sare Murghi",
    "Map_Accuracy": "Building",
    "Map_Accuracy_Dari": "تعمیر",
    "Status": "Open",
    "Status_Dari": null,
    "PS_Male": 1,
    "PS_Female": 1,
    "PS_Total": 2,
    "ولسوالي": "یکاولنگ",
    "Region": "Central Highlands Region"
   },
   "geometry": {
    "x": 7398459.8108159658,
    "y": 4154688.1902555008
   }
  },
  {
   "attributes": {
    "OBJECTID": 2547,
    "ولایت": "باميان",
    "Province": "BAMYAN",
    "PC_Code": "1006111",
    "District": "PANJAB",
    "د_مرکز_نوم__نام_مرکز": "مسجد گرد نی",
    "Polling_Center_Name": "Girdenay Mosque",
    "د_مرکز_ځای__موقعیت_مرکز": "ینقول",
    "Polling_Center_Location": "Yanqol",
    "Map_Accuracy": "Building",
    "Map_Accuracy_Dari": "تعمیر",
    "Status": "Open",
    "Status_Dari": null,
    "PS_Male": 2,
    "PS_Female": 1,
    "PS_Total": 3,
    "ولسوالي": "پنجاب",
    "Region": "Central Highlands Region"
   },
   "geometry": {
    "x": 7447257.5478409659,
    "y": 4072803.9313834277
   }
  },
  {
   "attributes": {
    "OBJECTID": 2548,
    "ولایت": "باميان",
    "Province": "BAMYAN",
    "PC_Code": "1006112",
    "District": "PANJAB",
    "د_مرکز_نوم__نام_مرکز": "مسجد چارده",
    "Polling_Center_Name": "Char Deh Mosque",
    "د_مرکز_ځای__موقعیت_مرکز": "چارده",
    "Polling_Center_Location": "Char Deh",
    "Map_Accuracy": "Building",
    "Map_Accuracy_Dari": "تعمیر",
    "Status": "Open",
    "Status_Dari": null,
    "PS_Male": 2,
    "PS_Female": 1,
    "PS_Total": 3,
    "ولسوالي": "پنجاب",
    "Region": "Central Highlands Region"
   },
   "geometry": {
    "x": 7420040.7060124688,
    "y": 4069954.0974906646
   }
  },
  {
   "attributes": {
    "OBJECTID": 2549,
    "ولایت": "باميان",
    "Province": "BAMYAN",
    "PC_Code": "1007133",
    "District": "WARAS",
    "د_مرکز_نوم__نام_مرکز": "مسجد زردک بیرانه قول مسوت",
    "Polling_Center_Name": "Zardak Berana Qol-e-Masot Mosque",
    "د_مرکز_ځای__موقعیت_مرکز": "دهن نو شدی قول مسوت",
    "Polling_Center_Location": "Dahan-e-Naw Shadi Qol-e-Masot",
    "Map_Accuracy": "Building",
    "Map_Accuracy_Dari": "تعمیر",
    "Status": "Open",
    "Status_Dari": null,
    "PS_Male": 2,
    "PS_Female": 1,
    "PS_Total": 3,
    "ولسوالي": "ورس",
    "Region": "Central Highlands Region"
   },
   "geometry": {
    "x": 7415787.4331721375,
    "y": 4035780.6111300425
   }
  },
  {
   "attributes": {
    "OBJECTID": 2550,
    "ولایت": "باميان",
    "Province": "BAMYAN",
    "PC_Code": "1007137",
    "District": "WARAS",
    "د_مرکز_نوم__نام_مرکز": "مسجد دهن منگوس شینیه اوبه",
    "Polling_Center_Name": "Dahan-e-Mangos Shenia Awba Mosque",
    "د_مرکز_ځای__موقعیت_مرکز": "دهن منگوس شینیه اوبه",
    "Polling_Center_Location": "Dahan-e-Mangos Shenia Awba ",
    "Map_Accuracy": "Building",
    "Map_Accuracy_Dari": "تعمیر",
    "Status": "Open",
    "Status_Dari": null,
    "PS_Male": 1,
    "PS_Female": 1,
    "PS_Total": 2,
    "ولسوالي": "ورس",
    "Region": "Central Highlands Region"
   },
   "geometry": {
    "x": 7480302.3924793303,
    "y": 4063467.58292699
   }
  },
  {
   "attributes": {
    "OBJECTID": 2551,
    "ولایت": "باميان",
    "Province": "BAMYAN",
    "PC_Code": "1007155",
    "District": "WARAS",
    "د_مرکز_نوم__نام_مرکز": "مسجد پیش ده",
    "Polling_Center_Name": "Pesh Deh Mosque",
    "د_مرکز_ځای__موقعیت_مرکز": "التر غنه گک",
    "Polling_Center_Location": "Altar Ghana Gak",
    "Map_Accuracy": "Building",
    "Map_Accuracy_Dari": "تعمیر",
    "Status": "Open",
    "Status_Dari": null,
    "PS_Male": 2,
    "PS_Female": 1,
    "PS_Total": 3,
    "ولسوالي": "ورس",
    "Region": "Central Highlands Region"
   },
   "geometry": {
    "x": 7443485.7585149938,
    "y": 4044987.1491368958
   }
  },
  {
   "attributes": {
    "OBJECTID": 2552,
    "ولایت": "فارياب",
    "Province": "FARYAB",
    "PC_Code": "2902029",
    "District": "PASHTUN KOT",
    "د_مرکز_نوم__نام_مرکز": "مسجد چهک گلیم بافت",
    "Polling_Center_Name": "Chehak Gleem Baft Mosque",
    "د_مرکز_ځای__موقعیت_مرکز": "چهک گلیم بافت",
    "Polling_Center_Location": "Chehak Gleem Baft",
    "Map_Accuracy": "Village",
    "Map_Accuracy_Dari": "قریه",
    "Status": "Open",
    "Status_Dari": null,
    "PS_Male": 2,
    "PS_Female": 1,
    "PS_Total": 3,
    "ولسوالي": "پشتون کوت",
    "Region": "Northern Region"
   },
   "geometry": {
    "x": 7228298.1329482403,
    "y": 4254432.3153623091
   }
  },
  {
   "attributes": {
    "OBJECTID": 2553,
    "ولایت": "فارياب",
    "Province": "FARYAB",
    "PC_Code": "2902049",
    "District": "PASHTUN KOT",
    "د_مرکز_نوم__نام_مرکز": "مکتب متوسطه ذکور عرب آقسای",
    "Polling_Center_Name": "Arab Aqsai Boys Secondary School",
    "د_مرکز_ځای__موقعیت_مرکز": "عرب آقسای",
    "Polling_Center_Location": "Arab Aqsai",
    "Map_Accuracy": "Village",
    "Map_Accuracy_Dari": "قریه",
    "Status": "Open",
    "Status_Dari": null,
    "PS_Male": 1,
    "PS_Female": 1,
    "PS_Total": 2,
    "ولسوالي": "پشتون کوت",
    "Region": "Northern Region"
   },
   "geometry": {
    "x": 7196275.2424235707,
    "y": 4288363.7845706902
   }
  },
  {
   "attributes": {
    "OBJECTID": 2554,
    "ولایت": "فارياب",
    "Province": "FARYAB",
    "PC_Code": "2902051",
    "District": "PASHTUN KOT",
    "د_مرکز_نوم__نام_مرکز": "مکتب متوسطه جمشیدی",
    "Polling_Center_Name": "Jamshidi Secondary School",
    "د_مرکز_ځای__موقعیت_مرکز": "جمشیدی",
    "Polling_Center_Location": "Jamshidi",
    "Map_Accuracy": "Village",
    "Map_Accuracy_Dari": "قریه",
    "Status": "Open",
    "Status_Dari": null,
    "PS_Male": 3,
    "PS_Female": 2,
    "PS_Total": 5,
    "ولسوالي": "پشتون کوت",
    "Region": "Northern Region"
   },
   "geometry": {
    "x": 7216228.0533317849,
    "y": 4285254.1378966039
   }
  },
  {
   "attributes": {
    "OBJECTID": 2555,
    "ولایت": "فارياب",
    "Province": "FARYAB",
    "PC_Code": "2902052",
    "District": "PASHTUN KOT",
    "د_مرکز_نوم__نام_مرکز": "مکتب دهندره",
    "Polling_Center_Name": "Dahendara School",
    "د_مرکز_ځای__موقعیت_مرکز": "دهندره",
    "Polling_Center_Location": "Dahendra",
    "Map_Accuracy": "Village",
    "Map_Accuracy_Dari": "قریه",
    "Status": "Open",
    "Status_Dari": null,
    "PS_Male": 2,
    "PS_Female": 1,
    "PS_Total": 3,
    "ولسوالي": "پشتون کوت",
    "Region": "Northern Region"
   },
   "geometry": {
    "x": 7220988.167153284,
    "y": 4277735.8724296987
   }
  },
  {
   "attributes": {
    "OBJECTID": 2556,
    "ولایت": "فارياب",
    "Province": "FARYAB",
    "PC_Code": "2902201",
    "District": "PASHTUN KOT",
    "د_مرکز_نوم__نام_مرکز": "مسجد جرقعله خواجه موسی",
    "Polling_Center_Name": "Jar Qala Khwaja Musa Mosque",
    "د_مرکز_ځای__موقعیت_مرکز": "خواجه موسی",
    "Polling_Center_Location": "Khwaja Musa",
    "Map_Accuracy": "Village",
    "Map_Accuracy_Dari": "قریه",
    "Status": "Open",
    "Status_Dari": null,
    "PS_Male": 1,
    "PS_Female": 1,
    "PS_Total": 2,
    "ولسوالي": "پشتون کوت",
    "Region": "Northern Region"
   },
   "geometry": {
    "x": 7200821.4903525449,
    "y": 4302084.4367487151
   }
  },
  {
   "attributes": {
    "OBJECTID": 2557,
    "ولایت": "فارياب",
    "Province": "FARYAB",
    "PC_Code": "2902202",
    "District": "PASHTUN KOT",
    "د_مرکز_نوم__نام_مرکز": "مسجد عرب کاوان باشی",
    "Polling_Center_Name": "Arab Kawan Bashi Mosque",
    "د_مرکز_ځای__موقعیت_مرکز": "عرب کاوان باشی",
    "Polling_Center_Location": "Arab Kawan Bashi",
    "Map_Accuracy": "Village",
    "Map_Accuracy_Dari": "قریه",
    "Status": "Open",
    "Status_Dari": null,
    "PS_Male": 1,
    "PS_Female": 1,
    "PS_Total": 2,
    "ولسوالي": "پشتون کوت",
    "Region": "Northern Region"
   },
   "geometry": {
    "x": 7197891.6993910363,
    "y": 4278734.1364048105
   }
  },
  {
   "attributes": {
    "OBJECTID": 2558,
    "ولایت": "فارياب",
    "Province": "FARYAB",
    "PC_Code": "2904065",
    "District": "ALMAR",
    "د_مرکز_نوم__نام_مرکز": "مسجد جامع چغاتک ",
    "Polling_Center_Name": "Chaghatak Mosque",
    "د_مرکز_ځای__موقعیت_مرکز": "چغاتک ",
    "Polling_Center_Location": "Chaghatak",
    "Map_Accuracy": "Building",
    "Map_Accuracy_Dari": "تعمیر",
    "Status": "Open",
    "Status_Dari": null,
    "PS_Male": 2,
    "PS_Female": 2,
    "PS_Total": 4,
    "ولسوالي": "المار",
    "Region": "Northern Region"
   },
   "geometry": {
    "x": 7189382.084632013,
    "y": 4284446.8438207963
   }
  },
  {
   "attributes": {
    "OBJECTID": 2559,
    "ولایت": "فارياب",
    "Province": "FARYAB",
    "PC_Code": "2904066",
    "District": "ALMAR",
    "د_مرکز_نوم__نام_مرکز": "مسجد جامع ایتی اوروق ",
    "Polling_Center_Name": "Aiti Oroq Mosque",
    "د_مرکز_ځای__موقعیت_مرکز": "ایتی اوروق ",
    "Polling_Center_Location": "Aiti Oroq",
    "Map_Accuracy": "Building",
    "Map_Accuracy_Dari": "تعمیر",
    "Status": "Open",
    "Status_Dari": null,
    "PS_Male": 2,
    "PS_Female": 1,
    "PS_Total": 3,
    "ولسوالي": "المار",
    "Region": "Northern Region"
   },
   "geometry": {
    "x": 7184120.8772546584,
    "y": 4271316.0319398288
   }
  },
  {
   "attributes": {
    "OBJECTID": 2560,
    "ولایت": "فارياب",
    "Province": "FARYAB",
    "PC_Code": "2905143",
    "District": "BIL CHIRAGH",
    "د_مرکز_نوم__نام_مرکز": "مسجد قورغ خواجه عرب",
    "Polling_Center_Name": "Qorgh Khwaja Arab Mosque",
    "د_مرکز_ځای__موقعیت_مرکز": "قریه خواجه عرب",
    "Polling_Center_Location": "Khwaja Arab Village",
    "Map_Accuracy": "Village",
    "Map_Accuracy_Dari": "قریه",
    "Status": "Open",
    "Status_Dari": null,
    "PS_Male": 2,
    "PS_Female": 2,
    "PS_Total": 4,
    "ولسوالي": "بل چراغ",
    "Region": "Northern Region"
   },
   "geometry": {
    "x": 7294425.9703012723,
    "y": 4295182.2612353936
   }
  },
  {
   "attributes": {
    "OBJECTID": 2561,
    "ولایت": "فارياب",
    "Province": "FARYAB",
    "PC_Code": "2905207",
    "District": "BIL CHIRAGH",
    "د_مرکز_نوم__نام_مرکز": "مسجد قیرمه",
    "Polling_Center_Name": "Qerma Mosque",
    "د_مرکز_ځای__موقعیت_مرکز": "قیرمه",
    "Polling_Center_Location": "Qerma",
    "Map_Accuracy": "Village",
    "Map_Accuracy_Dari": "قریه",
    "Status": "Open",
    "Status_Dari": null,
    "PS_Male": 2,
    "PS_Female": 1,
    "PS_Total": 3,
    "ولسوالي": "بل چراغ",
    "Region": "Northern Region"
   },
   "geometry": {
    "x": 7257042.6132620852,
    "y": 4292804.7265118873
   }
  },
  {
   "attributes": {
    "OBJECTID": 2562,
    "ولایت": "فارياب",
    "Province": "FARYAB",
    "PC_Code": "2906145",
    "District": "SHIRIN TAGAB",
    "د_مرکز_نوم__نام_مرکز": "مکتب ذکور گل قدوق",
    "Polling_Center_Name": "Gul Qadoq Boys School",
    "د_مرکز_ځای__موقعیت_مرکز": "گل قدوق",
    "Polling_Center_Location": "Gul Qadoq",
    "Map_Accuracy": "Building",
    "Map_Accuracy_Dari": "تعمیر",
    "Status": "Open",
    "Status_Dari": null,
    "PS_Male": 3,
    "PS_Female": 1,
    "PS_Total": 4,
    "ولسوالي": "شیرین تگاب",
    "Region": "Northern Region"
   },
   "geometry": {
    "x": 7244843.8683517855,
    "y": 4319334.6175634768
   }
  },
  {
   "attributes": {
    "OBJECTID": 2563,
    "ولایت": "فارياب",
    "Province": "FARYAB",
    "PC_Code": "2906146",
    "District": "SHIRIN TAGAB",
    "د_مرکز_نوم__نام_مرکز": "مسجد جامع تپه قلعه",
    "Polling_Center_Name": "Tapa Qala Mosque",
    "د_مرکز_ځای__موقعیت_مرکز": "تپه قلعه",
    "Polling_Center_Location": "Tapa Qala",
    "Map_Accuracy": "Building",
    "Map_Accuracy_Dari": "تعمیر",
    "Status": "Open",
    "Status_Dari": null,
    "PS_Male": 2,
    "PS_Female": 1,
    "PS_Total": 3,
    "ولسوالي": "شیرین تگاب",
    "Region": "Northern Region"
   },
   "geometry": {
    "x": 7219687.7707104683,
    "y": 4336054.4446545225
   }
  },
  {
   "attributes": {
    "OBJECTID": 2564,
    "ولایت": "فارياب",
    "Province": "FARYAB",
    "PC_Code": "2907088",
    "District": "QAISAR",
    "د_مرکز_نوم__نام_مرکز": "مکتب وایمس",
    "Polling_Center_Name": "Waimas School",
    "د_مرکز_ځای__موقعیت_مرکز": "قریه وایمس",
    "Polling_Center_Location": "Waymas Village",
    "Map_Accuracy": "Building",
    "Map_Accuracy_Dari": "تعمیر",
    "Status": "Open",
    "Status_Dari": null,
    "PS_Male": 1,
    "PS_Female": 1,
    "PS_Total": 2,
    "ولسوالي": "قیصار ",
    "Region": "Northern Region"
   },
   "geometry": {
    "x": 7127842.4570900192,
    "y": 4257537.4001271315
   }
  },
  {
   "attributes": {
    "OBJECTID": 2565,
    "ولایت": "فارياب",
    "Province": "FARYAB",
    "PC_Code": "2907106",
    "District": "QAISAR",
    "د_مرکز_نوم__نام_مرکز": "مکتب چکنه  یوزبیگی  ",
    "Polling_Center_Name": "Chakna Yozbegi School",
    "د_مرکز_ځای__موقعیت_مرکز": "یوزبیگی  ",
    "Polling_Center_Location": "Yuzbegi",
    "Map_Accuracy": "Building",
    "Map_Accuracy_Dari": "تعمیر",
    "Status": "Open",
    "Status_Dari": null,
    "PS_Male": 2,
    "PS_Female": 1,
    "PS_Total": 3,
    "ولسوالي": "قیصار ",
    "Region": "Northern Region"
   },
   "geometry": {
    "x": 7158456.5794211943,
    "y": 4245306.144239787
   }
  },
  {
   "attributes": {
    "OBJECTID": 2566,
    "ولایت": "فارياب",
    "Province": "FARYAB",
    "PC_Code": "2907107",
    "District": "QAISAR",
    "د_مرکز_نوم__نام_مرکز": "مسجد غوره",
    "Polling_Center_Name": "Ghora Mosque",
    "د_مرکز_ځای__موقعیت_مرکز": "غوره",
    "Polling_Center_Location": "Ghora",
    "Map_Accuracy": "Building",
    "Map_Accuracy_Dari": "تعمیر",
    "Status": "Open",
    "Status_Dari": null,
    "PS_Male": 2,
    "PS_Female": 1,
    "PS_Total": 3,
    "ولسوالي": "قیصار ",
    "Region": "Northern Region"
   },
   "geometry": {
    "x": 7142406.4940504059,
    "y": 4244361.9006587258
   }
  },
  {
   "attributes": {
    "OBJECTID": 2567,
    "ولایت": "فارياب",
    "Province": "FARYAB",
    "PC_Code": "2907109",
    "District": "QAISAR",
    "د_مرکز_نوم__نام_مرکز": "مسجد صیاد نقی",
    "Polling_Center_Name": "Sayad Naqi Mosque",
    "د_مرکز_ځای__موقعیت_مرکز": "صیاد نقی ",
    "Polling_Center_Location": "Sayad Naqi",
    "Map_Accuracy": "Building",
    "Map_Accuracy_Dari": "تعمیر",
    "Status": "Open",
    "Status_Dari": null,
    "PS_Male": 2,
    "PS_Female": 1,
    "PS_Total": 3,
    "ولسوالي": "قیصار ",
    "Region": "Northern Region"
   },
   "geometry": {
    "x": 7184189.288647728,
    "y": 4255599.7008417873
   }
  },
  {
   "attributes": {
    "OBJECTID": 2568,
    "ولایت": "فارياب",
    "Province": "FARYAB",
    "PC_Code": "2908135",
    "District": "GURZIWAN",
    "د_مرکز_نوم__نام_مرکز": "مکتب متوسطه مرغابی",
    "Polling_Center_Name": "Mullah ghulam sakhi dahandara House",
    "د_مرکز_ځای__موقعیت_مرکز": "قریه دهندره",
    "Polling_Center_Location": "Dahendra Village",
    "Map_Accuracy": "Building",
    "Map_Accuracy_Dari": "تعمیر",
    "Status": "Open",
    "Status_Dari": null,
    "PS_Male": 1,
    "PS_Female": 2,
    "PS_Total": 3,
    "ولسوالي": "گرزیوان",
    "Region": "Northern Region"
   },
   "geometry": {
    "x": 7244565.3269483093,
    "y": 4244846.0009788293
   }
  },
  {
   "attributes": {
    "OBJECTID": 2569,
    "ولایت": "فارياب",
    "Province": "FARYAB",
    "PC_Code": "2909164",
    "District": "DAWLAT ABAD",
    "د_مرکز_نوم__نام_مرکز": "مکتب متوسطه چارشنغو",
    "Polling_Center_Name": "Char Shangho Secondary School",
    "د_مرکز_ځای__موقعیت_مرکز": "چارشنغو",
    "Polling_Center_Location": "Char Shangho",
    "Map_Accuracy": "Building",
    "Map_Accuracy_Dari": "تعمیر",
    "Status": "Open",
    "Status_Dari": null,
    "PS_Male": 3,
    "PS_Female": 1,
    "PS_Total": 4,
    "ولسوالي": "دولت آباد",
    "Region": "Northern Region"
   },
   "geometry": {
    "x": 7224289.6282910714,
    "y": 4364745.3583398703
   }
  },
  {
   "attributes": {
    "OBJECTID": 2570,
    "ولایت": "فارياب",
    "Province": "FARYAB",
    "PC_Code": "2909165",
    "District": "DAWLAT ABAD",
    "د_مرکز_نوم__نام_مرکز": "مکتب ابتدای خیر آباد",
    "Polling_Center_Name": "Khair Abad Primar School",
    "د_مرکز_ځای__موقعیت_مرکز": "خیر آباد",
    "Polling_Center_Location": "Khair Abad",
    "Map_Accuracy": "Building",
    "Map_Accuracy_Dari": "تعمیر",
    "Status": "Open",
    "Status_Dari": null,
    "PS_Male": 3,
    "PS_Female": 1,
    "PS_Total": 4,
    "ولسوالي": "دولت آباد",
    "Region": "Northern Region"
   },
   "geometry": {
    "x": 7228579.3660569992,
    "y": 4354661.405871992
   }
  },
  {
   "attributes": {
    "OBJECTID": 2571,
    "ولایت": "فارياب",
    "Province": "FARYAB",
    "PC_Code": "2909168",
    "District": "DAWLAT ABAD",
    "د_مرکز_نوم__نام_مرکز": "مسجد جامع جوق ها",
    "Polling_Center_Name": "Joq Ha Mosque",
    "د_مرکز_ځای__موقعیت_مرکز": "جوق ها",
    "Polling_Center_Location": "Joq Ha",
    "Map_Accuracy": "Building",
    "Map_Accuracy_Dari": "تعمیر",
    "Status": "Open",
    "Status_Dari": null,
    "PS_Male": 2,
    "PS_Female": 1,
    "PS_Total": 3,
    "ولسوالي": "دولت آباد",
    "Region": "Northern Region"
   },
   "geometry": {
    "x": 7225076.0982671352,
    "y": 4346806.7406341378
   }
  },
  {
   "attributes": {
    "OBJECTID": 2572,
    "ولایت": "فارياب",
    "Province": "FARYAB",
    "PC_Code": "2910121",
    "District": "KOHISTAN",
    "د_مرکز_نوم__نام_مرکز": "مکتب قدوغک",
    "Polling_Center_Name": "Qadoghak School",
    "د_مرکز_ځای__موقعیت_مرکز": "قدوغک",
    "Polling_Center_Location": "Qadoghak",
    "Map_Accuracy": "Building",
    "Map_Accuracy_Dari": "تعمیر",
    "Status": "Open",
    "Status_Dari": null,
    "PS_Male": 2,
    "PS_Female": 1,
    "PS_Total": 3,
    "ولسوالي": "کوهستان",
    "Region": "Northern Region"
   },
   "geometry": {
    "x": 7206813.5235452978,
    "y": 4210311.1231177384
   }
  },
  {
   "attributes": {
    "OBJECTID": 2573,
    "ولایت": "فارياب",
    "Province": "FARYAB",
    "PC_Code": "2910122",
    "District": "KOHISTAN",
    "د_مرکز_نوم__نام_مرکز": "مسجد تخته بند لفرا",
    "Polling_Center_Name": "Takhta Band Lafra Mosque",
    "د_مرکز_ځای__موقعیت_مرکز": "تخته بند لفرا",
    "Polling_Center_Location": "Takhta Band Lafra",
    "Map_Accuracy": "Building",
    "Map_Accuracy_Dari": "تعمیر",
    "Status": "Open",
    "Status_Dari": null,
    "PS_Male": 2,
    "PS_Female": 1,
    "PS_Total": 3,
    "ولسوالي": "کوهستان",
    "Region": "Northern Region"
   },
   "geometry": {
    "x": 7190531.350394547,
    "y": 4195158.37411677
   }
  },
  {
   "attributes": {
    "OBJECTID": 2574,
    "ولایت": "فارياب",
    "Province": "FARYAB",
    "PC_Code": "2913185",
    "District": "ANDKHOY",
    "د_مرکز_نوم__نام_مرکز": "لیسه قاضی بابه مراد",
    "Polling_Center_Name": "Qazi Baba Murad High School",
    "د_مرکز_ځای__موقعیت_مرکز": "کلال خانه",
    "Polling_Center_Location": "Kulal Khana",
    "Map_Accuracy": "Building",
    "Map_Accuracy_Dari": "تعمیر",
    "Status": "Open",
    "Status_Dari": null,
    "PS_Male": 3,
    "PS_Female": 2,
    "PS_Total": 5,
    "ولسوالي": "اندخوی",
    "Region": "Northern Region"
   },
   "geometry": {
    "x": 7248654.8655156111,
    "y": 4432985.0328384861
   }
  },
  {
   "attributes": {
    "OBJECTID": 2575,
    "ولایت": "فارياب",
    "Province": "FARYAB",
    "PC_Code": "2913186",
    "District": "ANDKHOY",
    "د_مرکز_نوم__نام_مرکز": "لیسه دولت گیلدی",
    "Polling_Center_Name": "Dawlat Geldi High School",
    "د_مرکز_ځای__موقعیت_مرکز": "شهر نو",
    "Polling_Center_Location": "Shahr-e-Naw",
    "Map_Accuracy": "Building",
    "Map_Accuracy_Dari": "تعمیر",
    "Status": "Open",
    "Status_Dari": null,
    "PS_Male": 3,
    "PS_Female": 2,
    "PS_Total": 5,
    "ولسوالي": "اندخوی",
    "Region": "Northern Region"
   },
   "geometry": {
    "x": 7251418.52549545,
    "y": 4432307.9377330076
   }
  },
  {
   "attributes": {
    "OBJECTID": 2576,
    "ولایت": "فارياب",
    "Province": "FARYAB",
    "PC_Code": "2914176",
    "District": "KHANI CHARBAGH",
    "د_مرکز_نوم__نام_مرکز": "لیسه رحمن قل شهید ",
    "Polling_Center_Name": "Rahman Qol Shaheed High School",
    "د_مرکز_ځای__موقعیت_مرکز": "عرب شاه توره خان ",
    "Polling_Center_Location": "Arab Shah Tora Khan",
    "Map_Accuracy": "Building",
    "Map_Accuracy_Dari": "تعمیر",
    "Status": "Open",
    "Status_Dari": null,
    "PS_Male": 3,
    "PS_Female": 1,
    "PS_Total": 4,
    "ولسوالي": "خان چار باغ",
    "Region": "Northern Region"
   },
   "geometry": {
    "x": 7255554.2883681022,
    "y": 4436909.7152732676
   }
  },
  {
   "attributes": {
    "OBJECTID": 2577,
    "ولایت": "فارياب",
    "Province": "FARYAB",
    "PC_Code": "2914177",
    "District": "KHANI CHARBAGH",
    "د_مرکز_نوم__نام_مرکز": "لیسه چکمن",
    "Polling_Center_Name": "Chakman High School",
    "د_مرکز_ځای__موقعیت_مرکز": "چکمن",
    "Polling_Center_Location": "Chakman",
    "Map_Accuracy": "Building",
    "Map_Accuracy_Dari": "تعمیر",
    "Status": "Open",
    "Status_Dari": null,
    "PS_Male": 3,
    "PS_Female": 1,
    "PS_Total": 4,
    "ولسوالي": "خان چار باغ",
    "Region": "Northern Region"
   },
   "geometry": {
    "x": 7259499.7939858455,
    "y": 4432047.5000778502
   }
  },
  {
   "attributes": {
    "OBJECTID": 2578,
    "ولایت": "فارياب",
    "Province": "FARYAB",
    "PC_Code": "2914180",
    "District": "KHANI CHARBAGH",
    "د_مرکز_نوم__نام_مرکز": "لیسه نسوان عرب شاه پایین ",
    "Polling_Center_Name": "Arab Shah Payeen Girls High School",
    "د_مرکز_ځای__موقعیت_مرکز": "عرب شاه پایین ",
    "Polling_Center_Location": "Arab Shah Payeen",
    "Map_Accuracy": "Building",
    "Map_Accuracy_Dari": "تعمیر",
    "Status": "Open",
    "Status_Dari": null,
    "PS_Male": 1,
    "PS_Female": 1,
    "PS_Total": 2,
    "ولسوالي": "خان چار باغ",
    "Region": "Northern Region"
   },
   "geometry": {
    "x": 7253767.632804771,
    "y": 4437780.7371182805
   }
  },
  {
   "attributes": {
    "OBJECTID": 2579,
    "ولایت": "هلمند",
    "Province": "HELMAND",
    "PC_Code": "3001001",
    "District": "LASHKARGAH",
    "د_مرکز_نوم__نام_مرکز": "حاجی طاوس مسجد",
    "Polling_Center_Name": "Haji Tawos Mosque",
    "د_مرکز_ځای__موقعیت_مرکز": "سرکار",
    "Polling_Center_Location": "Sarkaar ",
    "Map_Accuracy": "Village",
    "Map_Accuracy_Dari": "قریه",
    "Status": "Open",
    "Status_Dari": null,
    "PS_Male": 3,
    "PS_Female": 2,
    "PS_Total": 5,
    "ولسوالي": "لشکرگاه",
    "Region": "Southern Region"
   },
   "geometry": {
    "x": 7176744.2433298621,
    "y": 3712498.0878287801
   }
  },
  {
   "attributes": {
    "OBJECTID": 2580,
    "ولایت": "فارياب",
    "Province": "FARYAB",
    "PC_Code": "2901003",
    "District": "MAIMANA",
    "د_مرکز_نوم__نام_مرکز": "مکتب لیسه صیاد رجب ",
    "Polling_Center_Name": "Sayad Rajab High School",
    "د_مرکز_ځای__موقعیت_مرکز": "ناحیه هفتم",
    "Polling_Center_Location": "D07 - Nahia 7",
    "Map_Accuracy": "Building",
    "Map_Accuracy_Dari": "تعمیر",
    "Status": "Open",
    "Status_Dari": null,
    "PS_Male": 3,
    "PS_Female": 2,
    "PS_Total": 5,
    "ولسوالي": "میمنه ",
    "Region": "Northern Region"
   },
   "geometry": {
    "x": 7209354.7092963988,
    "y": 4287246.6397579461
   }
  },
  {
   "attributes": {
    "OBJECTID": 2581,
    "ولایت": "فارياب",
    "Province": "FARYAB",
    "PC_Code": "2901004",
    "District": "MAIMANA",
    "د_مرکز_نوم__نام_مرکز": "لیسه نسوان افغانکوت",
    "Polling_Center_Name": "Afghan Kot Girls High School",
    "د_مرکز_ځای__موقعیت_مرکز": "ناحیه دوم",
    "Polling_Center_Location": "D02 - Nahia 2",
    "Map_Accuracy": "Building",
    "Map_Accuracy_Dari": "تعمیر",
    "Status": "Open",
    "Status_Dari": null,
    "PS_Male": 0,
    "PS_Female": 5,
    "PS_Total": 5,
    "ولسوالي": "میمنه ",
    "Region": "Northern Region"
   },
   "geometry": {
    "x": 7212403.0566288019,
    "y": 4289068.4199901288
   }
  },
  {
   "attributes": {
    "OBJECTID": 2582,
    "ولایت": "فارياب",
    "Province": "FARYAB",
    "PC_Code": "2902021",
    "District": "PASHTUN KOT",
    "د_مرکز_نوم__نام_مرکز": "مکتب ذکورگدای قلعه",
    "Polling_Center_Name": "Gadai Qala Boys School",
    "د_مرکز_ځای__موقعیت_مرکز": "گدای قلعه",
    "Polling_Center_Location": "Gadai Qala",
    "Map_Accuracy": "Village",
    "Map_Accuracy_Dari": "قریه",
    "Status": "Open",
    "Status_Dari": null,
    "PS_Male": 1,
    "PS_Female": 1,
    "PS_Total": 2,
    "ولسوالي": "پشتون کوت",
    "Region": "Northern Region"
   },
   "geometry": {
    "x": 7201533.5699656997,
    "y": 4303747.4993257988
   }
  },
  {
   "attributes": {
    "OBJECTID": 2583,
    "ولایت": "فارياب",
    "Province": "FARYAB",
    "PC_Code": "2902035",
    "District": "PASHTUN KOT",
    "د_مرکز_نوم__نام_مرکز": "مسجد عمومی زرشوی",
    "Polling_Center_Name": "Omomi Zarshoy Mosque",
    "د_مرکز_ځای__موقعیت_مرکز": "زرشوی",
    "Polling_Center_Location": "Zar Shoy",
    "Map_Accuracy": "Village",
    "Map_Accuracy_Dari": "قریه",
    "Status": "Open",
    "Status_Dari": null,
    "PS_Male": 2,
    "PS_Female": 2,
    "PS_Total": 4,
    "ولسوالي": "پشتون کوت",
    "Region": "Northern Region"
   },
   "geometry": {
    "x": 7246812.4600380911,
    "y": 4287750.2220968837
   }
  },
  {
   "attributes": {
    "OBJECTID": 2584,
    "ولایت": "فارياب",
    "Province": "FARYAB",
    "PC_Code": "2902038",
    "District": "PASHTUN KOT",
    "د_مرکز_نوم__نام_مرکز": "مسجد تیرک لیک",
    "Polling_Center_Name": "Tirak Lek Mosque",
    "د_مرکز_ځای__موقعیت_مرکز": "تیرک لیک",
    "Polling_Center_Location": "Tirak Lek ",
    "Map_Accuracy": "Village",
    "Map_Accuracy_Dari": "قریه",
    "Status": "Open",
    "Status_Dari": null,
    "PS_Male": 1,
    "PS_Female": 1,
    "PS_Total": 2,
    "ولسوالي": "پشتون کوت",
    "Region": "Northern Region"
   },
   "geometry": {
    "x": 7251194.3569840603,
    "y": 4294467.8270391943
   }
  },
  {
   "attributes": {
    "OBJECTID": 2585,
    "ولایت": "فارياب",
    "Province": "FARYAB",
    "PC_Code": "2902039",
    "District": "PASHTUN KOT",
    "د_مرکز_نوم__نام_مرکز": "مسجد برهان بای",
    "Polling_Center_Name": "Burhan Bay Mosque",
    "د_مرکز_ځای__موقعیت_مرکز": "قریه چکاب",
    "Polling_Center_Location": "Chekab Village",
    "Map_Accuracy": "Village",
    "Map_Accuracy_Dari": "قریه",
    "Status": "Open",
    "Status_Dari": null,
    "PS_Male": 2,
    "PS_Female": 1,
    "PS_Total": 3,
    "ولسوالي": "پشتون کوت",
    "Region": "Northern Region"
   },
   "geometry": {
    "x": 7214457.3420591205,
    "y": 4265394.873656841
   }
  },
  {
   "attributes": {
    "OBJECTID": 2586,
    "ولایت": "فارياب",
    "Province": "FARYAB",
    "PC_Code": "2902044",
    "District": "PASHTUN KOT",
    "د_مرکز_نوم__نام_مرکز": "مسجد تکلی هزار سم",
    "Polling_Center_Name": "Taklai Hazar Sam Mosque",
    "د_مرکز_ځای__موقعیت_مرکز": "تکلی هزار سم",
    "Polling_Center_Location": "Taklai Hazar Sam",
    "Map_Accuracy": "Village",
    "Map_Accuracy_Dari": "قریه",
    "Status": "Open",
    "Status_Dari": null,
    "PS_Male": 1,
    "PS_Female": 1,
    "PS_Total": 2,
    "ولسوالي": "پشتون کوت",
    "Region": "Northern Region"
   },
   "geometry": {
    "x": 7202353.560466826,
    "y": 4268960.032539634
   }
  },
  {
   "attributes": {
    "OBJECTID": 2587,
    "ولایت": "فارياب",
    "Province": "FARYAB",
    "PC_Code": "2902045",
    "District": "PASHTUN KOT",
    "د_مرکز_نوم__نام_مرکز": "مسجد جامع موقانی",
    "Polling_Center_Name": "Moqani Mosque",
    "د_مرکز_ځای__موقعیت_مرکز": "موقانی",
    "Polling_Center_Location": "Moqani",
    "Map_Accuracy": "Village",
    "Map_Accuracy_Dari": "قریه",
    "Status": "Open",
    "Status_Dari": null,
    "PS_Male": 1,
    "PS_Female": 1,
    "PS_Total": 2,
    "ولسوالي": "پشتون کوت",
    "Region": "Northern Region"
   },
   "geometry": {
    "x": 7199842.4621476969,
    "y": 4275870.7354366947
   }
  },
  {
   "attributes": {
    "OBJECTID": 2588,
    "ولایت": "نيمروز",
    "Province": "NIMROZ",
    "PC_Code": "3401058",
    "District": "ZARANJ",
    "د_مرکز_نوم__نام_مرکز": " الحاقیه سیستان",
    "Polling_Center_Name": "Alhaqia sistan",
    "د_مرکز_ځای__موقعیت_مرکز": "پلان 7/6شهری",
    "Polling_Center_Location": "Plan 6/7 Shahri(city 6/7 plan)",
    "Map_Accuracy": "Building",
    "Map_Accuracy_Dari": "تعمیر",
    "Status": "Open",
    "Status_Dari": null,
    "PS_Male": 2,
    "PS_Female": 1,
    "PS_Total": 3,
    "ولسوالي": "زرنج",
    "Region": "Southern Region"
   },
   "geometry": {
    "x": 6886504.1182767181,
    "y": 3624817.4045735383
   }
  },
  {
   "attributes": {
    "OBJECTID": 2589,
    "ولایت": "نيمروز",
    "Province": "NIMROZ",
    "PC_Code": "3401059",
    "District": "ZARANJ",
    "د_مرکز_نوم__نام_مرکز": "مکتب ابتدایی فیروزه گی",
    "Polling_Center_Name": "Firoza gai Primary school",
    "د_مرکز_ځای__موقعیت_مرکز": "فیروزه گی",
    "Polling_Center_Location": "Firoza gai",
    "Map_Accuracy": "Building",
    "Map_Accuracy_Dari": "تعمیر",
    "Status": "Open",
    "Status_Dari": null,
    "PS_Male": 2,
    "PS_Female": 1,
    "PS_Total": 3,
    "ولسوالي": "زرنج",
    "Region": "Southern Region"
   },
   "geometry": {
    "x": 6880711.9989707489,
    "y": 3613339.2857095366
   }
  },
  {
   "attributes": {
    "OBJECTID": 2590,
    "ولایت": "نيمروز",
    "Province": "NIMROZ",
    "PC_Code": "3402060",
    "District": "KANG",
    "د_مرکز_نوم__نام_مرکز": "مکتب گرگیج",
    "Polling_Center_Name": "Gargich School",
    "د_مرکز_ځای__موقعیت_مرکز": "ملارسول",
    "Polling_Center_Location": "Mullah rasool",
    "Map_Accuracy": "Building",
    "Map_Accuracy_Dari": "تعمیر",
    "Status": "Open",
    "Status_Dari": null,
    "PS_Male": 2,
    "PS_Female": 1,
    "PS_Total": 3,
    "ولسوالي": "کنگ",
    "Region": "Southern Region"
   },
   "geometry": {
    "x": 6877926.3843382914,
    "y": 3687346.6729752193
   }
  },
  {
   "attributes": {
    "OBJECTID": 2591,
    "ولایت": "نيمروز",
    "Province": "NIMROZ",
    "PC_Code": "3402013",
    "District": "KANG",
    "د_مرکز_نوم__نام_مرکز": "مکتب کرکی",
    "Polling_Center_Name": "Karki School",
    "د_مرکز_ځای__موقعیت_مرکز": "کرکی ",
    "Polling_Center_Location": "Karki ",
    "Map_Accuracy": "Building",
    "Map_Accuracy_Dari": "تعمیر",
    "Status": "Open",
    "Status_Dari": null,
    "PS_Male": 1,
    "PS_Female": 1,
    "PS_Total": 2,
    "ولسوالي": "کنگ",
    "Region": "Southern Region"
   },
   "geometry": {
    "x": 6878174.0300189713,
    "y": 3674795.4316774588
   }
  },
  {
   "attributes": {
    "OBJECTID": 2592,
    "ولایت": "نيمروز",
    "Province": "NIMROZ",
    "PC_Code": "3402014",
    "District": "KANG",
    "د_مرکز_نوم__نام_مرکز": "مکتب طلائی",
    "Polling_Center_Name": "Telaye School",
    "د_مرکز_ځای__موقعیت_مرکز": "طلائی ",
    "Polling_Center_Location": "Telaye",
    "Map_Accuracy": "Building",
    "Map_Accuracy_Dari": "تعمیر",
    "Status": "Open",
    "Status_Dari": null,
    "PS_Male": 2,
    "PS_Female": 1,
    "PS_Total": 3,
    "ولسوالي": "کنگ",
    "Region": "Southern Region"
   },
   "geometry": {
    "x": 6877338.9913490759,
    "y": 3659149.3813281092
   }
  },
  {
   "attributes": {
    "OBJECTID": 2593,
    "ولایت": "نيمروز",
    "Province": "NIMROZ",
    "PC_Code": "3403037",
    "District": "ASL-E-CHAKHANSUR",
    "د_مرکز_نوم__نام_مرکز": "اطاق های حاجی صدیق",
    "Polling_Center_Name": "Haji Sediq Rooms ",
    "د_مرکز_ځای__موقعیت_مرکز": " ده نو",
    "Polling_Center_Location": "Deh Naw ",
    "Map_Accuracy": "Building",
    "Map_Accuracy_Dari": "تعمیر",
    "Status": "Open",
    "Status_Dari": null,
    "PS_Male": 1,
    "PS_Female": 1,
    "PS_Total": 2,
    "ولسوالي": "اصل چغانسور",
    "Region": "Southern Region"
   },
   "geometry": {
    "x": 6918196.0808908325,
    "y": 3659242.043743738
   }
  },
  {
   "attributes": {
    "OBJECTID": 2594,
    "ولایت": "نيمروز",
    "Province": "NIMROZ",
    "PC_Code": "3403038",
    "District": "ASL-E-CHAKHANSUR",
    "د_مرکز_نوم__نام_مرکز": "منزل شخصی محمد داودخان ",
    "Polling_Center_Name": "Mohammad Dawood Khan House ",
    "د_مرکز_ځای__موقعیت_مرکز": "آوربلوچی",
    "Polling_Center_Location": "Awar Balochi ",
    "Map_Accuracy": "Village",
    "Map_Accuracy_Dari": "قریه",
    "Status": "Open",
    "Status_Dari": null,
    "PS_Male": 1,
    "PS_Female": 1,
    "PS_Total": 2,
    "ولسوالي": "اصل چغانسور",
    "Region": "Southern Region"
   },
   "geometry": {
    "x": 6944591.0843146425,
    "y": 3682982.0281105749
   }
  },
  {
   "attributes": {
    "OBJECTID": 2595,
    "ولایت": "نيمروز",
    "Province": "NIMROZ",
    "PC_Code": "3404027",
    "District": "CHAR BURJAK",
    "د_مرکز_نوم__نام_مرکز": "منزل حاجی گل محمد",
    "Polling_Center_Name": "Haji Gul Mohammad House ",
    "د_مرکز_ځای__موقعیت_مرکز": " رودبار",
    "Polling_Center_Location": "Rud Bar ",
    "Map_Accuracy": "Village",
    "Map_Accuracy_Dari": "قریه",
    "Status": "Open",
    "Status_Dari": null,
    "PS_Male": 1,
    "PS_Female": 1,
    "PS_Total": 2,
    "ولسوالي": "چهار برجک",
    "Region": "Southern Region"
   },
   "geometry": {
    "x": 6968163.3438256886,
    "y": 3523182.8286308153
   }
  },
  {
   "attributes": {
    "OBJECTID": 2596,
    "ولایت": "نيمروز",
    "Province": "NIMROZ",
    "PC_Code": "3404063",
    "District": "CHAR BURJAK",
    "د_مرکز_نوم__نام_مرکز": "مکتب کرودی",
    "Polling_Center_Name": "Karodi School",
    "د_مرکز_ځای__موقعیت_مرکز": "کرودی حاجی محمد امین",
    "Polling_Center_Location": "Karodi haji muhammad amin",
    "Map_Accuracy": "Building",
    "Map_Accuracy_Dari": "تعمیر",
    "Status": "Open",
    "Status_Dari": null,
    "PS_Male": 2,
    "PS_Female": 1,
    "PS_Total": 3,
    "ولسوالي": "چاربرجک",
    "Region": "Southern Region"
   },
   "geometry": {
    "x": 6876337.1020170003,
    "y": 3528671.2413884536
   }
  },
  {
   "attributes": {
    "OBJECTID": 2597,
    "ولایت": "بدخشان",
    "Province": "BADAKHSHAN",
    "PC_Code": "1709132",
    "District": "YAWAN",
    "د_مرکز_نوم__نام_مرکز": "سنگ پایان ",
    "Polling_Center_Name": "Sang Payan",
    "د_مرکز_ځای__موقعیت_مرکز": "درنگ پایان ",
    "Polling_Center_Location": "Darang Payan",
    "Map_Accuracy": "Building",
    "Map_Accuracy_Dari": "تعمیر",
    "Status": "Open",
    "Status_Dari": null,
    "PS_Male": 1,
    "PS_Female": 1,
    "PS_Total": 2,
    "ولسوالي": "یاوان",
    "Region": "North Eastern Region"
   },
   "geometry": {
    "x": 7842037.0537330341,
    "y": 4507097.2220580271
   }
  },
  {
   "attributes": {
    "OBJECTID": 2598,
    "ولایت": "بدخشان",
    "Province": "BADAKHSHAN",
    "PC_Code": "1709136",
    "District": "YAWAN",
    "د_مرکز_نوم__نام_مرکز": "مسجد آب زمچ",
    "Polling_Center_Name": "Aab Zamach Mosque",
    "د_مرکز_ځای__موقعیت_مرکز": "آب زمچ",
    "Polling_Center_Location": "Aab Zamach",
    "Map_Accuracy": "Building",
    "Map_Accuracy_Dari": "تعمیر",
    "Status": "Open",
    "Status_Dari": null,
    "PS_Male": 1,
    "PS_Female": 1,
    "PS_Total": 2,
    "ولسوالي": "یاوان",
    "Region": "North Eastern Region"
   },
   "geometry": {
    "x": 7852261.6042470597,
    "y": 4514336.3541765073
   }
  },
  {
   "attributes": {
    "OBJECTID": 2599,
    "ولایت": "بدخشان",
    "Province": "BADAKHSHAN",
    "PC_Code": "1711181",
    "District": "TASHKAN",
    "د_مرکز_نوم__نام_مرکز": "مکتب ارغندکان",
    "Polling_Center_Name": "Arghandkan School",
    "د_مرکز_ځای__موقعیت_مرکز": "ارغندکان",
    "Polling_Center_Location": "Arghandkan",
    "Map_Accuracy": "Building",
    "Map_Accuracy_Dari": "تعمیر",
    "Status": "Open",
    "Status_Dari": null,
    "PS_Male": 1,
    "PS_Female": 1,
    "PS_Total": 2,
    "ولسوالي": "تشکان ",
    "Region": "North Eastern Region"
   },
   "geometry": {
    "x": 7826491.8579127435,
    "y": 4417866.4426354729
   }
  },
  {
   "attributes": {
    "OBJECTID": 2600,
    "ولایت": "بدخشان",
    "Province": "BADAKHSHAN",
    "PC_Code": "1711182",
    "District": "TASHKAN",
    "د_مرکز_نوم__نام_مرکز": "مکتب یاولی بالا ",
    "Polling_Center_Name": "Yawli Bala School",
    "د_مرکز_ځای__موقعیت_مرکز": "یاولی بالا",
    "Polling_Center_Location": "Yawli Bala",
    "Map_Accuracy": "Building",
    "Map_Accuracy_Dari": "تعمیر",
    "Status": "Open",
    "Status_Dari": null,
    "PS_Male": 1,
    "PS_Female": 1,
    "PS_Total": 2,
    "ولسوالي": "تشکان ",
    "Region": "North Eastern Region"
   },
   "geometry": {
    "x": 7823871.0943104522,
    "y": 4412984.8063304694
   }
  }
 ]
}