{
 "displayFieldName": "Polling_Center_Name",
 "fieldAliases": {
  "OBJECTID": "OBJECTID",
  "ولایت": "ولایت",
  "Province": "Province",
  "PC_Code": "PC_Code",
  "District": "District",
  "د_مرکز_نوم__نام_مرکز": "د_مرکز_نوم__نام_مرکز",
  "Polling_Center_Name": "Polling_Center_Name",
  "د_مرکز_ځای__موقعیت_مرکز": "د_مرکز_ځای__موقعیت_مرکز",
  "Polling_Center_Location": "Polling_Center_Location",
  "Map_Accuracy": "Map_Accuracy",
  "Map_Accuracy_Dari": "Map_Accuracy_Dari",
  "Status": "Status",
  "Status_Dari": "Status_Dari",
  "PS_Male": "PS_Male",
  "PS_Female": "PS_Female",
  "PS_Total": "PS_Total",
  "ولسوالي": "ولسوالي",
  "Region": "Region"
 },
 "geometryType": "esriGeometryPoint",
 "spatialReference": {
  "wkid": 102100,
  "latestWkid": 3857
 },
 "fields": [
  {
   "name": "OBJECTID",
   "type": "esriFieldTypeOID",
   "alias": "OBJECTID"
  },
  {
   "name": "ولایت",
   "type": "esriFieldTypeString",
   "alias": "ولایت",
   "length": 255
  },
  {
   "name": "Province",
   "type": "esriFieldTypeString",
   "alias": "Province",
   "length": 255
  },
  {
   "name": "PC_Code",
   "type": "esriFieldTypeString",
   "alias": "PC_Code",
   "length": 255
  },
  {
   "name": "District",
   "type": "esriFieldTypeString",
   "alias": "District",
   "length": 255
  },
  {
   "name": "د_مرکز_نوم__نام_مرکز",
   "type": "esriFieldTypeString",
   "alias": "د_مرکز_نوم__نام_مرکز",
   "length": 255
  },
  {
   "name": "Polling_Center_Name",
   "type": "esriFieldTypeString",
   "alias": "Polling_Center_Name",
   "length": 255
  },
  {
   "name": "د_مرکز_ځای__موقعیت_مرکز",
   "type": "esriFieldTypeString",
   "alias": "د_مرکز_ځای__موقعیت_مرکز",
   "length": 255
  },
  {
   "name": "Polling_Center_Location",
   "type": "esriFieldTypeString",
   "alias": "Polling_Center_Location",
   "length": 255
  },
  {
   "name": "Map_Accuracy",
   "type": "esriFieldTypeString",
   "alias": "Map_Accuracy",
   "length": 10
  },
  {
   "name": "Map_Accuracy_Dari",
   "type": "esriFieldTypeString",
   "alias": "Map_Accuracy_Dari",
   "length": 50
  },
  {
   "name": "Status",
   "type": "esriFieldTypeString",
   "alias": "Status",
   "length": 6
  },
  {
   "name": "Status_Dari",
   "type": "esriFieldTypeString",
   "alias": "Status_Dari",
   "length": 8
  },
  {
   "name": "PS_Male",
   "type": "esriFieldTypeSmallInteger",
   "alias": "PS_Male"
  },
  {
   "name": "PS_Female",
   "type": "esriFieldTypeSmallInteger",
   "alias": "PS_Female"
  },
  {
   "name": "PS_Total",
   "type": "esriFieldTypeSmallInteger",
   "alias": "PS_Total"
  },
  {
   "name": "ولسوالي",
   "type": "esriFieldTypeString",
   "alias": "ولسوالي",
   "length": 255
  },
  {
   "name": "Region",
   "type": "esriFieldTypeString",
   "alias": "Region",
   "length": 50
  }
 ],
 "features": [
  {
   "attributes": {
    "OBJECTID": 4601,
    "ولایت": "بلخ",
    "Province": "BALKH",
    "PC_Code": "2101021",
    "District": "MAZAR-E-SHARIF",
    "د_مرکز_نوم__نام_مرکز": "لیسه گوهر خاتون",
    "Polling_Center_Name": "Gawhar Khatoon High School",
    "د_مرکز_ځای__موقعیت_مرکز": "گذر دربار ناحیه پنجم ",
    "Polling_Center_Location": "D05 - Nahia 5",
    "Map_Accuracy": "Building",
    "Map_Accuracy_Dari": "تعمیر",
    "Status": "Open",
    "Status_Dari": null,
    "PS_Male": 3,
    "PS_Female": 2,
    "PS_Total": 5,
    "ولسوالي": "مزار شریف",
    "Region": "Northern Region"
   },
   "geometry": {
    "x": 7470351.6823466821,
    "y": 4399475.6377224876
   }
  },
  {
   "attributes": {
    "OBJECTID": 4602,
    "ولایت": "بلخ",
    "Province": "BALKH",
    "PC_Code": "2101031",
    "District": "MAZAR-E-SHARIF",
    "د_مرکز_نوم__نام_مرکز": "لیسه دقیقی بلخی",
    "Polling_Center_Name": "Daqiqi Balkhi High School",
    "د_مرکز_ځای__موقعیت_مرکز": "کارته دقیقی بلخی ناحیه هفتم ",
    "Polling_Center_Location": "D07 - Nahia 7 Karta-e-Daqiqi",
    "Map_Accuracy": "Building",
    "Map_Accuracy_Dari": "تعمیر",
    "Status": "Open",
    "Status_Dari": null,
    "PS_Male": 5,
    "PS_Female": 5,
    "PS_Total": 10,
    "ولسوالي": "مزار شریف",
    "Region": "Northern Region"
   },
   "geometry": {
    "x": 7473229.9045540811,
    "y": 4399858.1233169893
   }
  },
  {
   "attributes": {
    "OBJECTID": 4603,
    "ولایت": "بلخ",
    "Province": "BALKH",
    "PC_Code": "2101040",
    "District": "MAZAR-E-SHARIF",
    "د_مرکز_نوم__نام_مرکز": "لیسه استاد وجدان",
    "Polling_Center_Name": "Ustad Wejdan High School",
    "د_مرکز_ځای__موقعیت_مرکز": "ناحیه دهم مزار شاروالی کارته آریانا ",
    "Polling_Center_Location": "D10 - Nahia 10 Karta-e-Aryana",
    "Map_Accuracy": "Building",
    "Map_Accuracy_Dari": "تعمیر",
    "Status": "Open",
    "Status_Dari": null,
    "PS_Male": 4,
    "PS_Female": 4,
    "PS_Total": 8,
    "ولسوالي": "مزار شریف",
    "Region": "Northern Region"
   },
   "geometry": {
    "x": 7474502.113788642,
    "y": 4398619.1280325623
   }
  },
  {
   "attributes": {
    "OBJECTID": 4604,
    "ولایت": "بلخ",
    "Province": "BALKH",
    "PC_Code": "2102063",
    "District": "NAHR-E-SHAHI",
    "د_مرکز_نوم__نام_مرکز": "مکتب قلعه قل محمد",
    "Polling_Center_Name": "Qala Qol Muhammad School",
    "د_مرکز_ځای__موقعیت_مرکز": "قریه قل محمد",
    "Polling_Center_Location": "Qol Mohammad Village",
    "Map_Accuracy": "Building",
    "Map_Accuracy_Dari": "تعمیر",
    "Status": "Open",
    "Status_Dari": null,
    "PS_Male": 4,
    "PS_Female": 3,
    "PS_Total": 7,
    "ولسوالي": "نهر شاهی ",
    "Region": "Northern Region"
   },
   "geometry": {
    "x": 7482840.1273262138,
    "y": 4402539.0389589593
   }
  },
  {
   "attributes": {
    "OBJECTID": 4605,
    "ولایت": "بلخ",
    "Province": "BALKH",
    "PC_Code": "2103050",
    "District": "DEHDADI",
    "د_مرکز_نوم__نام_مرکز": "لیسه عالی شهید بلخی ",
    "Polling_Center_Name": "Shaheed Balkhi High School",
    "د_مرکز_ځای__موقعیت_مرکز": "مرکز دهدادی",
    "Polling_Center_Location": "Dehdadi Center",
    "Map_Accuracy": "Building",
    "Map_Accuracy_Dari": "تعمیر",
    "Status": "Open",
    "Status_Dari": null,
    "PS_Male": 3,
    "PS_Female": 2,
    "PS_Total": 5,
    "ولسوالي": "دهدادی ",
    "Region": "Northern Region"
   },
   "geometry": {
    "x": 7457707.1741202287,
    "y": 4392245.112833498
   }
  },
  {
   "attributes": {
    "OBJECTID": 4606,
    "ولایت": "بلخ",
    "Province": "BALKH",
    "PC_Code": "2103060",
    "District": "DEHDADI",
    "د_مرکز_نوم__نام_مرکز": "لیسه استاد ذبیح الله شهید ",
    "Polling_Center_Name": "Ustad Zabihullah Shaheed High School",
    "د_مرکز_ځای__موقعیت_مرکز": "شیر ایاد علیا",
    "Polling_Center_Location": "Sher Abad Ulya",
    "Map_Accuracy": "Building",
    "Map_Accuracy_Dari": "تعمیر",
    "Status": "Open",
    "Status_Dari": null,
    "PS_Male": 1,
    "PS_Female": 1,
    "PS_Total": 2,
    "ولسوالي": "دهدادی ",
    "Region": "Northern Region"
   },
   "geometry": {
    "x": 7462319.079398076,
    "y": 4395181.1348572308
   }
  },
  {
   "attributes": {
    "OBJECTID": 4607,
    "ولایت": "بلخ",
    "Province": "BALKH",
    "PC_Code": "2104282",
    "District": "CHAR KENT",
    "د_مرکز_نوم__نام_مرکز": "مکتب ازو\u064Fم چاه ",
    "Polling_Center_Name": "Azom Chah School",
    "د_مرکز_ځای__موقعیت_مرکز": "قریه اوز\u064Fم چاه",
    "Polling_Center_Location": "Azom Chah Village",
    "Map_Accuracy": "Building",
    "Map_Accuracy_Dari": "تعمیر",
    "Status": "Open",
    "Status_Dari": null,
    "PS_Male": 1,
    "PS_Female": 1,
    "PS_Total": 2,
    "ولسوالي": "چارکنت",
    "Region": "Northern Region"
   },
   "geometry": {
    "x": 7480597.7453523036,
    "y": 4342790.1156685399
   }
  },
  {
   "attributes": {
    "OBJECTID": 4608,
    "ولایت": "بلخ",
    "Province": "BALKH",
    "PC_Code": "2104283",
    "District": "CHAR KENT",
    "د_مرکز_نوم__نام_مرکز": "مدرسه کهنه جر",
    "Polling_Center_Name": "Kuhna Jar School",
    "د_مرکز_ځای__موقعیت_مرکز": "میر حاجی قره غاج",
    "Polling_Center_Location": "Mir Haji Qara Ghaaj ",
    "Map_Accuracy": "Building",
    "Map_Accuracy_Dari": "تعمیر",
    "Status": "Open",
    "Status_Dari": null,
    "PS_Male": 2,
    "PS_Female": 1,
    "PS_Total": 3,
    "ولسوالي": "چارکنت",
    "Region": "Northern Region"
   },
   "geometry": {
    "x": 7493713.0159129575,
    "y": 4328916.5800067112
   }
  },
  {
   "attributes": {
    "OBJECTID": 4609,
    "ولایت": "بلخ",
    "Province": "BALKH",
    "PC_Code": "2106147",
    "District": "BALKH",
    "د_مرکز_نوم__نام_مرکز": "لیسه نسوان فریده ",
    "Polling_Center_Name": "Farida Girls High School",
    "د_مرکز_ځای__موقعیت_مرکز": "مرکز ولسوالی",
    "Polling_Center_Location": "District Compound",
    "Map_Accuracy": "Building",
    "Map_Accuracy_Dari": "تعمیر",
    "Status": "Open",
    "Status_Dari": null,
    "PS_Male": 1,
    "PS_Female": 3,
    "PS_Total": 4,
    "ولسوالي": "بلخ",
    "Region": "Northern Region"
   },
   "geometry": {
    "x": 7446636.7323991461,
    "y": 4404989.7740656845
   }
  },
  {
   "attributes": {
    "OBJECTID": 4610,
    "ولایت": "بلخ",
    "Province": "BALKH",
    "PC_Code": "2106160",
    "District": "BALKH",
    "د_مرکز_نوم__نام_مرکز": "مکتب بوکه",
    "Polling_Center_Name": "Boka School",
    "د_مرکز_ځای__موقعیت_مرکز": "قریه بوکه",
    "Polling_Center_Location": "Boka Village",
    "Map_Accuracy": "Building",
    "Map_Accuracy_Dari": "تعمیر",
    "Status": "Open",
    "Status_Dari": null,
    "PS_Male": 2,
    "PS_Female": 1,
    "PS_Total": 3,
    "ولسوالي": "بلخ",
    "Region": "Northern Region"
   },
   "geometry": {
    "x": 7437916.2573738601,
    "y": 4404164.4764859965
   }
  },
  {
   "attributes": {
    "OBJECTID": 4611,
    "ولایت": "بلخ",
    "Province": "BALKH",
    "PC_Code": "2106171",
    "District": "BALKH",
    "د_مرکز_نوم__نام_مرکز": "مکتب واله گی",
    "Polling_Center_Name": "Walagai School",
    "د_مرکز_ځای__موقعیت_مرکز": "قریه واله گی ( خسپک)",
    "Polling_Center_Location": "Walagai (Khaspak) Village",
    "Map_Accuracy": "Building",
    "Map_Accuracy_Dari": "تعمیر",
    "Status": "Open",
    "Status_Dari": null,
    "PS_Male": 2,
    "PS_Female": 1,
    "PS_Total": 3,
    "ولسوالي": "بلخ",
    "Region": "Northern Region"
   },
   "geometry": {
    "x": 7436098.8588180691,
    "y": 4410283.259052325
   }
  },
  {
   "attributes": {
    "OBJECTID": 4612,
    "ولایت": "بلخ",
    "Province": "BALKH",
    "PC_Code": "2107242",
    "District": "SHOLGARA",
    "د_مرکز_نوم__نام_مرکز": "مکتب کیچه قزل",
    "Polling_Center_Name": "Kecha Qazal School",
    "د_مرکز_ځای__موقعیت_مرکز": "کهنه قشلاق",
    "Polling_Center_Location": "Kuhna Qashlaq",
    "Map_Accuracy": "Building",
    "Map_Accuracy_Dari": "تعمیر",
    "Status": "Open",
    "Status_Dari": null,
    "PS_Male": 1,
    "PS_Female": 1,
    "PS_Total": 2,
    "ولسوالي": "شولگره",
    "Region": "Northern Region"
   },
   "geometry": {
    "x": 7421236.8228090955,
    "y": 4327829.679496971
   }
  },
  {
   "attributes": {
    "OBJECTID": 4613,
    "ولایت": "بلخ",
    "Province": "BALKH",
    "PC_Code": "2107254",
    "District": "SHOLGARA",
    "د_مرکز_نوم__نام_مرکز": "مسجد ارلات",
    "Polling_Center_Name": "Arlaat Mosque",
    "د_مرکز_ځای__موقعیت_مرکز": "قریه ارلات",
    "Polling_Center_Location": "Arlaat Village",
    "Map_Accuracy": "Building",
    "Map_Accuracy_Dari": "تعمیر",
    "Status": "Open",
    "Status_Dari": null,
    "PS_Male": 2,
    "PS_Female": 1,
    "PS_Total": 3,
    "ولسوالي": "شولگره",
    "Region": "Northern Region"
   },
   "geometry": {
    "x": 7463537.8563902415,
    "y": 4344103.7024253095
   }
  },
  {
   "attributes": {
    "OBJECTID": 4614,
    "ولایت": "بلخ",
    "Province": "BALKH",
    "PC_Code": "2107266",
    "District": "SHOLGARA",
    "د_مرکز_نوم__نام_مرکز": "مسجد شورچه",
    "Polling_Center_Name": "Shorcha Mosque",
    "د_مرکز_ځای__موقعیت_مرکز": "قریه شورچه",
    "Polling_Center_Location": "Shorcha Village",
    "Map_Accuracy": "Building",
    "Map_Accuracy_Dari": "تعمیر",
    "Status": "Open",
    "Status_Dari": null,
    "PS_Male": 2,
    "PS_Female": 2,
    "PS_Total": 4,
    "ولسوالي": "شولگره",
    "Region": "Northern Region"
   },
   "geometry": {
    "x": 7468585.5051168744,
    "y": 4326854.9439633759
   }
  },
  {
   "attributes": {
    "OBJECTID": 4615,
    "ولایت": "بلخ",
    "Province": "BALKH",
    "PC_Code": "2107267",
    "District": "SHOLGARA",
    "د_مرکز_نوم__نام_مرکز": "مسجد نوقشلاق",
    "Polling_Center_Name": "Naw Qeshlaq Mosque",
    "د_مرکز_ځای__موقعیت_مرکز": "قریه نو قشلاق",
    "Polling_Center_Location": "Naw Qashlaq Village",
    "Map_Accuracy": "Building",
    "Map_Accuracy_Dari": "تعمیر",
    "Status": "Open",
    "Status_Dari": null,
    "PS_Male": 1,
    "PS_Female": 1,
    "PS_Total": 2,
    "ولسوالي": "شولگره",
    "Region": "Northern Region"
   },
   "geometry": {
    "x": 7429896.7021827679,
    "y": 4325294.8218568834
   }
  },
  {
   "attributes": {
    "OBJECTID": 4616,
    "ولایت": "بلخ",
    "Province": "BALKH",
    "PC_Code": "2108215",
    "District": "CHIMTAL",
    "د_مرکز_نوم__نام_مرکز": "مکتب عرب مزاری",
    "Polling_Center_Name": "Arab Mazari School",
    "د_مرکز_ځای__موقعیت_مرکز": "قریه عرب مزاری",
    "Polling_Center_Location": "Arab Mazari Village",
    "Map_Accuracy": "Village",
    "Map_Accuracy_Dari": "قریه",
    "Status": "Open",
    "Status_Dari": null,
    "PS_Male": 1,
    "PS_Female": 1,
    "PS_Total": 2,
    "ولسوالي": "چمتال",
    "Region": "Northern Region"
   },
   "geometry": {
    "x": 7416805.0358069353,
    "y": 4395128.980278966
   }
  },
  {
   "attributes": {
    "OBJECTID": 4617,
    "ولایت": "بلخ",
    "Province": "BALKH",
    "PC_Code": "2108226",
    "District": "CHIMTAL",
    "د_مرکز_نوم__نام_مرکز": "مکتب حاجی برفی",
    "Polling_Center_Name": "Haji Barfi School",
    "د_مرکز_ځای__موقعیت_مرکز": "قریه حاجی برفی",
    "Polling_Center_Location": "Haji Barfi Village",
    "Map_Accuracy": "Building",
    "Map_Accuracy_Dari": "تعمیر",
    "Status": "Open",
    "Status_Dari": null,
    "PS_Male": 3,
    "PS_Female": 2,
    "PS_Total": 5,
    "ولسوالي": "چمتال",
    "Region": "Northern Region"
   },
   "geometry": {
    "x": 7407617.0679008905,
    "y": 4370371.0557569051
   }
  },
  {
   "attributes": {
    "OBJECTID": 4618,
    "ولایت": "بلخ",
    "Province": "BALKH",
    "PC_Code": "2108236",
    "District": "CHIMTAL",
    "د_مرکز_نوم__نام_مرکز": "منزل داکتر دستگیر",
    "Polling_Center_Name": "Doctar Dastageer Private House",
    "د_مرکز_ځای__موقعیت_مرکز": "قریه چارسای افغانیه",
    "Polling_Center_Location": "Char Say Afghania Village",
    "Map_Accuracy": "Building",
    "Map_Accuracy_Dari": "تعمیر",
    "Status": "Open",
    "Status_Dari": null,
    "PS_Male": 1,
    "PS_Female": 1,
    "PS_Total": 2,
    "ولسوالي": "چمتال",
    "Region": "Northern Region"
   },
   "geometry": {
    "x": 7388286.7611511638,
    "y": 4362299.241423279
   }
  },
  {
   "attributes": {
    "OBJECTID": 4619,
    "ولایت": "بلخ",
    "Province": "BALKH",
    "PC_Code": "2109127",
    "District": "DAWLAT ABAD",
    "د_مرکز_نوم__نام_مرکز": "مکتب انوری",
    "Polling_Center_Name": "Anwari School",
    "د_مرکز_ځای__موقعیت_مرکز": "قریه قازان",
    "Polling_Center_Location": "Qazan Village",
    "Map_Accuracy": "Building",
    "Map_Accuracy_Dari": "تعمیر",
    "Status": "Open",
    "Status_Dari": null,
    "PS_Male": 2,
    "PS_Female": 1,
    "PS_Total": 3,
    "ولسوالي": "دولت آباد",
    "Region": "Northern Region"
   },
   "geometry": {
    "x": 7416174.3118172446,
    "y": 4441586.1745010698
   }
  },
  {
   "attributes": {
    "OBJECTID": 4620,
    "ولایت": "بلخ",
    "Province": "BALKH",
    "PC_Code": "2109137",
    "District": "DAWLAT ABAD",
    "د_مرکز_نوم__نام_مرکز": "مکتب سرخ گنبد",
    "Polling_Center_Name": "Surkh Gumbad School",
    "د_مرکز_ځای__موقعیت_مرکز": "قریه سرخ گنبد",
    "Polling_Center_Location": "Surkh Gumbad Village",
    "Map_Accuracy": "Building",
    "Map_Accuracy_Dari": "تعمیر",
    "Status": "Open",
    "Status_Dari": null,
    "PS_Male": 2,
    "PS_Female": 1,
    "PS_Total": 3,
    "ولسوالي": "دولت آباد",
    "Region": "Northern Region"
   },
   "geometry": {
    "x": 7449156.3444329333,
    "y": 4433683.6522468599
   }
  },
  {
   "attributes": {
    "OBJECTID": 4621,
    "ولایت": "بلخ",
    "Province": "BALKH",
    "PC_Code": "2110077",
    "District": "KHULM",
    "د_مرکز_نوم__نام_مرکز": "لسیه مهستی ",
    "Polling_Center_Name": "Mahesti High Schoo",
    "د_مرکز_ځای__موقعیت_مرکز": "قریه دیوردگی ",
    "Polling_Center_Location": "Dewardagi Village",
    "Map_Accuracy": "Building",
    "Map_Accuracy_Dari": "تعمیر",
    "Status": "Open",
    "Status_Dari": null,
    "PS_Male": 2,
    "PS_Female": 3,
    "PS_Total": 5,
    "ولسوالي": "خلم",
    "Region": "Northern Region"
   },
   "geometry": {
    "x": 7536100.0204236517,
    "y": 4396690.0133209862
   }
  },
  {
   "attributes": {
    "OBJECTID": 4622,
    "ولایت": "بلخ",
    "Province": "BALKH",
    "PC_Code": "2110087",
    "District": "KHULM",
    "د_مرکز_نوم__نام_مرکز": "مکتب میر زاشمس",
    "Polling_Center_Name": "Mirza Shams School",
    "د_مرکز_ځای__موقعیت_مرکز": "قریه میرزاشمس",
    "Polling_Center_Location": "Mirza Shams Village",
    "Map_Accuracy": "Building",
    "Map_Accuracy_Dari": "تعمیر",
    "Status": "Open",
    "Status_Dari": null,
    "PS_Male": 2,
    "PS_Female": 1,
    "PS_Total": 3,
    "ولسوالي": "خلم",
    "Region": "Northern Region"
   },
   "geometry": {
    "x": 7537662.3783449875,
    "y": 4398936.16643818
   }
  },
  {
   "attributes": {
    "OBJECTID": 4623,
    "ولایت": "بلخ",
    "Province": "BALKH",
    "PC_Code": "2111178",
    "District": "CHAR BOLAK",
    "د_مرکز_نوم__نام_مرکز": "مدیریت معارف",
    "Polling_Center_Name": "Mudiryat Maaref",
    "د_مرکز_ځای__موقعیت_مرکز": "مرکز چهار بولک",
    "Polling_Center_Location": "Chahar Bolak Markaz",
    "Map_Accuracy": "Building",
    "Map_Accuracy_Dari": "تعمیر",
    "Status": "Open",
    "Status_Dari": null,
    "PS_Male": 2,
    "PS_Female": 2,
    "PS_Total": 4,
    "ولسوالي": "چار بولک",
    "Region": "Northern Region"
   },
   "geometry": {
    "x": 7423420.3089800151,
    "y": 4410592.272760734
   }
  },
  {
   "attributes": {
    "OBJECTID": 4624,
    "ولایت": "بلخ",
    "Province": "BALKH",
    "PC_Code": "2111188",
    "District": "CHAR BOLAK",
    "د_مرکز_نوم__نام_مرکز": "مکتب خواجه روشنایی",
    "Polling_Center_Name": "Khwaja Roshnaye School",
    "د_مرکز_ځای__موقعیت_مرکز": "قریه خواجه روشنایی",
    "Polling_Center_Location": "Dahno Village",
    "Map_Accuracy": "Building",
    "Map_Accuracy_Dari": "تعمیر",
    "Status": "Open",
    "Status_Dari": null,
    "PS_Male": 1,
    "PS_Female": 1,
    "PS_Total": 2,
    "ولسوالي": "چار بولک",
    "Region": "Northern Region"
   },
   "geometry": {
    "x": 7414076.1375644868,
    "y": 4427546.2372321328
   }
  },
  {
   "attributes": {
    "OBJECTID": 4625,
    "ولایت": "بلخ",
    "Province": "BALKH",
    "PC_Code": "2111199",
    "District": "CHAR BOLAK",
    "د_مرکز_نوم__نام_مرکز": "مکتب سال بارون ",
    "Polling_Center_Name": "Sal Baron School",
    "د_مرکز_ځای__موقعیت_مرکز": "قریه سال بارون",
    "Polling_Center_Location": "Sal Baron Village",
    "Map_Accuracy": "Building",
    "Map_Accuracy_Dari": "تعمیر",
    "Status": "Open",
    "Status_Dari": null,
    "PS_Male": 2,
    "PS_Female": 1,
    "PS_Total": 3,
    "ولسوالي": "چار بولک",
    "Region": "Northern Region"
   },
   "geometry": {
    "x": 7406160.1050470471,
    "y": 4431062.6887890343
   }
  },
  {
   "attributes": {
    "OBJECTID": 4626,
    "ولایت": "بلخ",
    "Province": "BALKH",
    "PC_Code": "2111322",
    "District": "CHAR BOLAK",
    "د_مرکز_نوم__نام_مرکز": "مسجد جامع قریه ثوریان ",
    "Polling_Center_Name": "Qarya Soryan Mosque",
    "د_مرکز_ځای__موقعیت_مرکز": "قریه ثوریان",
    "Polling_Center_Location": "Soryan Village",
    "Map_Accuracy": "Building",
    "Map_Accuracy_Dari": "تعمیر",
    "Status": "Open",
    "Status_Dari": null,
    "PS_Male": 1,
    "PS_Female": 1,
    "PS_Total": 2,
    "ولسوالي": "چار بولک",
    "Region": "Northern Region"
   },
   "geometry": {
    "x": 7425565.3313725535,
    "y": 4401310.260709757
   }
  },
  {
   "attributes": {
    "OBJECTID": 4627,
    "ولایت": "بلخ",
    "Province": "BALKH",
    "PC_Code": "2113099",
    "District": "KALDAR",
    "د_مرکز_نوم__نام_مرکز": "لیسه اناث ناصر خسرو",
    "Polling_Center_Name": "Nasir Khisraw Balkhi High School",
    "د_مرکز_ځای__موقعیت_مرکز": "شهرک حیران",
    "Polling_Center_Location": "Hairan Shahrak",
    "Map_Accuracy": "Building",
    "Map_Accuracy_Dari": "تعمیر",
    "Status": "Open",
    "Status_Dari": null,
    "PS_Male": 4,
    "PS_Female": 1,
    "PS_Total": 5,
    "ولسوالي": "کلدار",
    "Region": "Northern Region"
   },
   "geometry": {
    "x": 7511148.8764364179,
    "y": 4469275.0487296181
   }
  },
  {
   "attributes": {
    "OBJECTID": 4628,
    "ولایت": "بلخ",
    "Province": "BALKH",
    "PC_Code": "2114288",
    "District": "KISHINDEH",
    "د_مرکز_نوم__نام_مرکز": "مکتب سراب",
    "Polling_Center_Name": "Sarab School",
    "د_مرکز_ځای__موقعیت_مرکز": "قریه سراب",
    "Polling_Center_Location": "Sarab Village",
    "Map_Accuracy": "Building",
    "Map_Accuracy_Dari": "تعمیر",
    "Status": "Open",
    "Status_Dari": null,
    "PS_Male": 2,
    "PS_Female": 1,
    "PS_Total": 3,
    "ولسوالي": "کشنده",
    "Region": "Northern Region"
   },
   "geometry": {
    "x": 7448778.8333229721,
    "y": 4301858.0247192001
   }
  },
  {
   "attributes": {
    "OBJECTID": 4629,
    "ولایت": "بلخ",
    "Province": "BALKH",
    "PC_Code": "2114299",
    "District": "KISHINDEH",
    "د_مرکز_نوم__نام_مرکز": "مکتب قریه سوخته",
    "Polling_Center_Name": "Qarya Sokhta School",
    "د_مرکز_ځای__موقعیت_مرکز": "قریه سوخته",
    "Polling_Center_Location": "Sokhta Village",
    "Map_Accuracy": "Building",
    "Map_Accuracy_Dari": "تعمیر",
    "Status": "Open",
    "Status_Dari": null,
    "PS_Male": 1,
    "PS_Female": 1,
    "PS_Total": 2,
    "ولسوالي": "کشنده",
    "Region": "Northern Region"
   },
   "geometry": {
    "x": 7443946.4520012503,
    "y": 4303655.7473934162
   }
  },
  {
   "attributes": {
    "OBJECTID": 4630,
    "ولایت": "بلخ",
    "Province": "BALKH",
    "PC_Code": "2114300",
    "District": "KISHINDEH",
    "د_مرکز_نوم__نام_مرکز": "مسجد کلان بام پشت",
    "Polling_Center_Name": "Baam Pusht Mosque",
    "د_مرکز_ځای__موقعیت_مرکز": "قریه بام پشت",
    "Polling_Center_Location": "Baam Pusht Village",
    "Map_Accuracy": "Building",
    "Map_Accuracy_Dari": "تعمیر",
    "Status": "Open",
    "Status_Dari": null,
    "PS_Male": 1,
    "PS_Female": 1,
    "PS_Total": 2,
    "ولسوالي": "کشنده",
    "Region": "Northern Region"
   },
   "geometry": {
    "x": 7438729.9783612723,
    "y": 4302934.6211862341
   }
  },
  {
   "attributes": {
    "OBJECTID": 4631,
    "ولایت": "بلخ",
    "Province": "BALKH",
    "PC_Code": "2115310",
    "District": "ZARI",
    "د_مرکز_نوم__نام_مرکز": "مکتب خواجه روشنایی",
    "Polling_Center_Name": "Khwaja Roshnaye School",
    "د_مرکز_ځای__موقعیت_مرکز": "قریه خیابک",
    "Polling_Center_Location": "Khiyabak Village",
    "Map_Accuracy": "Building",
    "Map_Accuracy_Dari": "تعمیر",
    "Status": "Open",
    "Status_Dari": null,
    "PS_Male": 2,
    "PS_Female": 1,
    "PS_Total": 3,
    "ولسوالي": "زاری",
    "Region": "Northern Region"
   },
   "geometry": {
    "x": 7417217.1583729684,
    "y": 4265028.2346211886
   }
  },
  {
   "attributes": {
    "OBJECTID": 4632,
    "ولایت": "سرپل",
    "Province": "SAR-E-PUL",
    "PC_Code": "2201001",
    "District": "SAR-E-PUL",
    "د_مرکز_نوم__نام_مرکز": "لیسه نسوان جوزجان",
    "Polling_Center_Name": "Jowzjan Girls High School",
    "د_مرکز_ځای__موقعیت_مرکز": "شهر نو ناحیه اول",
    "Polling_Center_Location": "Shahr Naw Nahai 1",
    "Map_Accuracy": "Building",
    "Map_Accuracy_Dari": "تعمیر",
    "Status": "Open",
    "Status_Dari": null,
    "PS_Male": 7,
    "PS_Female": 4,
    "PS_Total": 11,
    "ولسوالي": "سرپل",
    "Region": "Northern Region"
   },
   "geometry": {
    "x": 7339281.3843327686,
    "y": 4330963.3403454516
   }
  },
  {
   "attributes": {
    "OBJECTID": 4633,
    "ولایت": "سرپل",
    "Province": "SAR-E-PUL",
    "PC_Code": "2201021",
    "District": "SAR-E-PUL",
    "د_مرکز_نوم__نام_مرکز": "لیسه سید آباد",
    "Polling_Center_Name": "Sayed Abad High School",
    "د_مرکز_ځای__موقعیت_مرکز": "قریه سید آباد ",
    "Polling_Center_Location": "Sayed Abad Village",
    "Map_Accuracy": "Building",
    "Map_Accuracy_Dari": "تعمیر",
    "Status": "Open",
    "Status_Dari": null,
    "PS_Male": 2,
    "PS_Female": 2,
    "PS_Total": 4,
    "ولسوالي": "سرپل",
    "Region": "Northern Region"
   },
   "geometry": {
    "x": 7331049.2467628857,
    "y": 4351449.8022413244
   }
  },
  {
   "attributes": {
    "OBJECTID": 4634,
    "ولایت": "سرپل",
    "Province": "SAR-E-PUL",
    "PC_Code": "2201031",
    "District": "SAR-E-PUL",
    "د_مرکز_نوم__نام_مرکز": "مسجد خانقاه ملکی",
    "Polling_Center_Name": "Khanqah Mulki Mosque",
    "د_مرکز_ځای__موقعیت_مرکز": "قریه خانقای ملکی",
    "Polling_Center_Location": "Khanqah Mulki Village",
    "Map_Accuracy": "Building",
    "Map_Accuracy_Dari": "تعمیر",
    "Status": "Open",
    "Status_Dari": null,
    "PS_Male": 1,
    "PS_Female": 2,
    "PS_Total": 3,
    "ولسوالي": "سرپل",
    "Region": "Northern Region"
   },
   "geometry": {
    "x": 7331809.8316177558,
    "y": 4346338.2294875272
   }
  },
  {
   "attributes": {
    "OBJECTID": 4635,
    "ولایت": "سرپل",
    "Province": "SAR-E-PUL",
    "PC_Code": "2202055",
    "District": "SAYAD",
    "د_مرکز_نوم__نام_مرکز": "مدرسه چار گمبد",
    "Polling_Center_Name": "Chahar Gunbad Madrassa",
    "د_مرکز_ځای__موقعیت_مرکز": "چارگمبد",
    "Polling_Center_Location": "Chahar Gunbad Village",
    "Map_Accuracy": "Village",
    "Map_Accuracy_Dari": "قریه",
    "Status": "Open",
    "Status_Dari": null,
    "PS_Male": 1,
    "PS_Female": 1,
    "PS_Total": 2,
    "ولسوالي": "صیاد",
    "Region": "Northern Region"
   },
   "geometry": {
    "x": 7303108.2427037135,
    "y": 4322356.2304047355
   }
  },
  {
   "attributes": {
    "OBJECTID": 4636,
    "ولایت": "سرپل",
    "Province": "SAR-E-PUL",
    "PC_Code": "2204044",
    "District": "SOZMA QALA",
    "د_مرکز_نوم__نام_مرکز": "لیسه ذکور دوآبه",
    "Polling_Center_Name": "Do-Aba Boys School",
    "د_مرکز_ځای__موقعیت_مرکز": "دوآبه",
    "Polling_Center_Location": "Do-Aba",
    "Map_Accuracy": "Building",
    "Map_Accuracy_Dari": "تعمیر",
    "Status": "Open",
    "Status_Dari": null,
    "PS_Male": 2,
    "PS_Female": 1,
    "PS_Total": 3,
    "ولسوالي": "سوزمه قلعه",
    "Region": "Northern Region"
   },
   "geometry": {
    "x": 7385045.3969536768,
    "y": 4306565.6232771575
   }
  },
  {
   "attributes": {
    "OBJECTID": 4637,
    "ولایت": "سرپل",
    "Province": "SAR-E-PUL",
    "PC_Code": "2204045",
    "District": "SOZMA QALA",
    "د_مرکز_نوم__نام_مرکز": "مسجد جامع فیض آباد",
    "Polling_Center_Name": "Faiz Abad Mosque",
    "د_مرکز_ځای__موقعیت_مرکز": "فیض آباد",
    "Polling_Center_Location": "Faiz Abad",
    "Map_Accuracy": "Building",
    "Map_Accuracy_Dari": "تعمیر",
    "Status": "Open",
    "Status_Dari": null,
    "PS_Male": 1,
    "PS_Female": 1,
    "PS_Total": 2,
    "ولسوالي": "سوزمه قلعه",
    "Region": "Northern Region"
   },
   "geometry": {
    "x": 7372267.6905037072,
    "y": 4311351.0237418357
   }
  },
  {
   "attributes": {
    "OBJECTID": 4638,
    "ولایت": "سرپل",
    "Province": "SAR-E-PUL",
    "PC_Code": "2205107",
    "District": "SANG CHARAK",
    "د_مرکز_نوم__نام_مرکز": "لیسه تبیر و تغای خواجه",
    "Polling_Center_Name": "Tabeer-o-Taghai Khwaja High School",
    "د_مرکز_ځای__موقعیت_مرکز": "بهار نو تبرا",
    "Polling_Center_Location": "Bahar Naw Tabra ",
    "Map_Accuracy": "Building",
    "Map_Accuracy_Dari": "تعمیر",
    "Status": "Open",
    "Status_Dari": null,
    "PS_Male": 2,
    "PS_Female": 2,
    "PS_Total": 4,
    "ولسوالي": "سنگ چارک",
    "Region": "Northern Region"
   },
   "geometry": {
    "x": 7389153.1596348137,
    "y": 4299054.1933672493
   }
  },
  {
   "attributes": {
    "OBJECTID": 4639,
    "ولایت": "سرپل",
    "Province": "SAR-E-PUL",
    "PC_Code": "2205117",
    "District": "SANG CHARAK",
    "د_مرکز_نوم__نام_مرکز": "مکتب ابتدائیه قریه نمبر 2",
    "Polling_Center_Name": "Number 2 Village Primary School",
    "د_مرکز_ځای__موقعیت_مرکز": "آبدین کول",
    "Polling_Center_Location": "Abdeen Kol",
    "Map_Accuracy": "Building",
    "Map_Accuracy_Dari": "تعمیر",
    "Status": "Open",
    "Status_Dari": null,
    "PS_Male": 2,
    "PS_Female": 1,
    "PS_Total": 3,
    "ولسوالي": "سنگ چارک",
    "Region": "Northern Region"
   },
   "geometry": {
    "x": 7386869.1363789812,
    "y": 4300188.153323519
   }
  },
  {
   "attributes": {
    "OBJECTID": 4640,
    "ولایت": "سرپل",
    "Province": "SAR-E-PUL",
    "PC_Code": "2206127",
    "District": "GOSFANDI",
    "د_مرکز_نوم__نام_مرکز": "لیسه ذکور قریه قوطنمست",
    "Polling_Center_Name": "Qotnamest Village Boys School",
    "د_مرکز_ځای__موقعیت_مرکز": " قریه قوطنمست",
    "Polling_Center_Location": "Qotnamest Village",
    "Map_Accuracy": "Building",
    "Map_Accuracy_Dari": "تعمیر",
    "Status": "Open",
    "Status_Dari": null,
    "PS_Male": 2,
    "PS_Female": 2,
    "PS_Total": 4,
    "ولسوالي": "گوسفندی ",
    "Region": "Northern Region"
   },
   "geometry": {
    "x": 7404906.7257270003,
    "y": 4292268.507319754
   }
  },
  {
   "attributes": {
    "OBJECTID": 4641,
    "ولایت": "سرپل",
    "Province": "SAR-E-PUL",
    "PC_Code": "2207088",
    "District": "BALKHAB",
    "د_مرکز_نوم__نام_مرکز": "مدرسه تل عاشقان",
    "Polling_Center_Name": "Tal Aashoqan Madrassa",
    "د_مرکز_ځای__موقعیت_مرکز": "تل عاشقان ",
    "Polling_Center_Location": "Tal Ashoqan",
    "Map_Accuracy": "Building",
    "Map_Accuracy_Dari": "تعمیر",
    "Status": "Open",
    "Status_Dari": null,
    "PS_Male": 2,
    "PS_Female": 1,
    "PS_Total": 3,
    "ولسوالي": "بلخآب",
    "Region": "Northern Region"
   },
   "geometry": {
    "x": 7441404.1163198091,
    "y": 4247020.2677994464
   }
  },
  {
   "attributes": {
    "OBJECTID": 4642,
    "ولایت": "سرپل",
    "Province": "SAR-E-PUL",
    "PC_Code": "2207099",
    "District": "BALKHAB",
    "د_مرکز_نوم__نام_مرکز": "مسجد خوال سیاگک",
    "Polling_Center_Name": "Khowal Siyagak Mosque",
    "د_مرکز_ځای__موقعیت_مرکز": "خوال سیاگک",
    "Polling_Center_Location": "Khowal Siyagak",
    "Map_Accuracy": "Building",
    "Map_Accuracy_Dari": "تعمیر",
    "Status": "Open",
    "Status_Dari": null,
    "PS_Male": 2,
    "PS_Female": 1,
    "PS_Total": 3,
    "ولسوالي": "بلخآب",
    "Region": "Northern Region"
   },
   "geometry": {
    "x": 7401004.7279963968,
    "y": 4233830.2247552434
   }
  },
  {
   "attributes": {
    "OBJECTID": 4643,
    "ولایت": "غور",
    "Province": "GHOR",
    "PC_Code": "2301010",
    "District": "CHIGHCHERAN",
    "د_مرکز_نوم__نام_مرکز": "مکتب تسراغی ",
    "Polling_Center_Name": "Tasraghi School",
    "د_مرکز_ځای__موقعیت_مرکز": "دهن قیاغک ",
    "Polling_Center_Location": "Dahn Qiyaghak",
    "Map_Accuracy": "Building",
    "Map_Accuracy_Dari": "تعمیر",
    "Status": "Open",
    "Status_Dari": null,
    "PS_Male": 3,
    "PS_Female": 2,
    "PS_Total": 5,
    "ولسوالي": "چغچران",
    "Region": "Western Region"
   },
   "geometry": {
    "x": 7284885.3021733826,
    "y": 4089525.0420983448
   }
  },
  {
   "attributes": {
    "OBJECTID": 4644,
    "ولایت": "غور",
    "Province": "GHOR",
    "PC_Code": "2301021",
    "District": "CHIGHCHERAN",
    "د_مرکز_نوم__نام_مرکز": "لیسه میدان بره خانه ",
    "Polling_Center_Name": "Bara Khana Maidan High School",
    "د_مرکز_ځای__موقعیت_مرکز": "تنگی زرد ",
    "Polling_Center_Location": "Tangai Zard",
    "Map_Accuracy": "Building",
    "Map_Accuracy_Dari": "تعمیر",
    "Status": "Open",
    "Status_Dari": null,
    "PS_Male": 4,
    "PS_Female": 1,
    "PS_Total": 5,
    "ولسوالي": "چغچران",
    "Region": "Western Region"
   },
   "geometry": {
    "x": 7215513.9154212587,
    "y": 4110164.9813357107
   }
  },
  {
   "attributes": {
    "OBJECTID": 4645,
    "ولایت": "غور",
    "Province": "GHOR",
    "PC_Code": "2301032",
    "District": "CHIGHCHERAN",
    "د_مرکز_نوم__نام_مرکز": "منزل عبدالظاهر",
    "Polling_Center_Name": "Abdul Zahir Private House",
    "د_مرکز_ځای__موقعیت_مرکز": " آبول غیبی",
    "Polling_Center_Location": "Abul Ghaibi",
    "Map_Accuracy": "Village",
    "Map_Accuracy_Dari": "قریه",
    "Status": "Open",
    "Status_Dari": null,
    "PS_Male": 2,
    "PS_Female": 2,
    "PS_Total": 4,
    "ولسوالي": "چغچران",
    "Region": "Western Region"
   },
   "geometry": {
    "x": 7274417.4784969566,
    "y": 4060420.5371719478
   }
  },
  {
   "attributes": {
    "OBJECTID": 4646,
    "ولایت": "غور",
    "Province": "GHOR",
    "PC_Code": "2304061",
    "District": "CHAR SADA",
    "د_مرکز_نوم__نام_مرکز": "مسجد قریه خونیه",
    "Polling_Center_Name": "Khonia Village Mosque",
    "د_مرکز_ځای__موقعیت_مرکز": "خونیه",
    "Polling_Center_Location": "Khonia",
    "Map_Accuracy": "Building",
    "Map_Accuracy_Dari": "تعمیر",
    "Status": "Open",
    "Status_Dari": null,
    "PS_Male": 2,
    "PS_Female": 1,
    "PS_Total": 3,
    "ولسوالي": "چار صده",
    "Region": "Western Region"
   },
   "geometry": {
    "x": 7242235.9087173268,
    "y": 4171408.082703202
   }
  },
  {
   "attributes": {
    "OBJECTID": 4647,
    "ولایت": "غور",
    "Province": "GHOR",
    "PC_Code": "2306080",
    "District": "SHAHRAK",
    "د_مرکز_نوم__نام_مرکز": "مسجد خره سنگ",
    "Polling_Center_Name": "Khara Sang Mosque",
    "د_مرکز_ځای__موقعیت_مرکز": "خره سنگ",
    "Polling_Center_Location": "Khara Sang",
    "Map_Accuracy": "Village",
    "Map_Accuracy_Dari": "قریه",
    "Status": "Open",
    "Status_Dari": null,
    "PS_Male": 2,
    "PS_Female": 1,
    "PS_Total": 3,
    "ولسوالي": "شهرک ",
    "Region": "Western Region"
   },
   "geometry": {
    "x": 7185186.1301974952,
    "y": 4029889.8981006825
   }
  },
  {
   "attributes": {
    "OBJECTID": 4648,
    "ولایت": "غور",
    "Province": "GHOR",
    "PC_Code": "2306091",
    "District": "SHAHRAK",
    "د_مرکز_نوم__نام_مرکز": "مکتب کمنج",
    "Polling_Center_Name": "Kamanj School",
    "د_مرکز_ځای__موقعیت_مرکز": " کمنج غوک ",
    "Polling_Center_Location": "Kamanj Ghok",
    "Map_Accuracy": "Village",
    "Map_Accuracy_Dari": "قریه",
    "Status": "Open",
    "Status_Dari": null,
    "PS_Male": 1,
    "PS_Female": 1,
    "PS_Total": 2,
    "ولسوالي": "شهرک ",
    "Region": "Western Region"
   },
   "geometry": {
    "x": 7163017.8443494802,
    "y": 4080745.5034786584
   }
  },
  {
   "attributes": {
    "OBJECTID": 4649,
    "ولایت": "غور",
    "Province": "GHOR",
    "PC_Code": "2307141",
    "District": "LAL WA SARJANGAL",
    "د_مرکز_نوم__نام_مرکز": "مکتب ابتدائیه چشمه پادشاه",
    "Polling_Center_Name": "Chashma Padshah Primary School",
    "د_مرکز_ځای__موقعیت_مرکز": "قریه  چشمه پاد شاه",
    "Polling_Center_Location": "Chashma Padshah Village",
    "Map_Accuracy": "Building",
    "Map_Accuracy_Dari": "تعمیر",
    "Status": "Open",
    "Status_Dari": null,
    "PS_Male": 2,
    "PS_Female": 1,
    "PS_Total": 3,
    "ولسوالي": "لعل و سرجنگل ",
    "Region": "Western Region"
   },
   "geometry": {
    "x": 7362356.0212296769,
    "y": 4092601.3440171261
   }
  },
  {
   "attributes": {
    "OBJECTID": 4650,
    "ولایت": "غور",
    "Province": "GHOR",
    "PC_Code": "2307151",
    "District": "LAL WA SARJANGAL",
    "د_مرکز_نوم__نام_مرکز": "مکتب شینیه سبزوار ",
    "Polling_Center_Name": "Shiniya Sabzwar School",
    "د_مرکز_ځای__موقعیت_مرکز": " سبزوار ",
    "Polling_Center_Location": "Sabzwar",
    "Map_Accuracy": "Village",
    "Map_Accuracy_Dari": "قریه",
    "Status": "Open",
    "Status_Dari": null,
    "PS_Male": 1,
    "PS_Female": 2,
    "PS_Total": 3,
    "ولسوالي": "لعل و سرجنگل ",
    "Region": "Central Highlands Region"
   },
   "geometry": {
    "x": 7382788.483333434,
    "y": 4071081.3247214812
   }
  },
  {
   "attributes": {
    "OBJECTID": 4651,
    "ولایت": "غور",
    "Province": "GHOR",
    "PC_Code": "2307170",
    "District": "LAL WA SARJANGAL",
    "د_مرکز_نوم__نام_مرکز": "مکتب شاهی",
    "Polling_Center_Name": "Shahi School",
    "د_مرکز_ځای__موقعیت_مرکز": "قریه پیتاب شاهی ",
    "Polling_Center_Location": "Pitab Shahi Village",
    "Map_Accuracy": "Building",
    "Map_Accuracy_Dari": "تعمیر",
    "Status": "Open",
    "Status_Dari": null,
    "PS_Male": 2,
    "PS_Female": 1,
    "PS_Total": 3,
    "ولسوالي": "لعل و سرجنگل ",
    "Region": "Western Region"
   },
   "geometry": {
    "x": 7418450.8254602337,
    "y": 4113302.3393889498
   }
  },
  {
   "attributes": {
    "OBJECTID": 4652,
    "ولایت": "غور",
    "Province": "GHOR",
    "PC_Code": "2308213",
    "District": "TAYWARA",
    "د_مرکز_نوم__نام_مرکز": "منزل عبدلله پای حصار",
    "Polling_Center_Name": "Abdullah Paay Hisar Private House",
    "د_مرکز_ځای__موقعیت_مرکز": "پای حصار",
    "Polling_Center_Location": "Paay Hisar",
    "Map_Accuracy": "Village",
    "Map_Accuracy_Dari": "قریه",
    "Status": "Open",
    "Status_Dari": null,
    "PS_Male": 2,
    "PS_Female": 1,
    "PS_Total": 3,
    "ولسوالي": "تیوره",
    "Region": "Western Region"
   },
   "geometry": {
    "x": 7156152.416243081,
    "y": 4002858.2607642175
   }
  },
  {
   "attributes": {
    "OBJECTID": 4653,
    "ولایت": "غور",
    "Province": "GHOR",
    "PC_Code": "2308224",
    "District": "TAYWARA",
    "د_مرکز_نوم__نام_مرکز": "خانه  عبدالسلام",
    "Polling_Center_Name": "Abdul Salam Private House",
    "د_مرکز_ځای__موقعیت_مرکز": "ساین",
    "Polling_Center_Location": "Saayen",
    "Map_Accuracy": "Building",
    "Map_Accuracy_Dari": "تعمیر",
    "Status": "Open",
    "Status_Dari": null,
    "PS_Male": 1,
    "PS_Female": 2,
    "PS_Total": 3,
    "ولسوالي": "تیوره",
    "Region": "Western Region"
   },
   "geometry": {
    "x": 7157141.2093936633,
    "y": 3941379.6058081361
   }
  },
  {
   "attributes": {
    "OBJECTID": 4654,
    "ولایت": "غور",
    "Province": "GHOR",
    "PC_Code": "2309179",
    "District": "TULAK",
    "د_مرکز_نوم__نام_مرکز": "مکتب چهارراه تولک",
    "Polling_Center_Name": "Chahar Raah Tolak School",
    "د_مرکز_ځای__موقعیت_مرکز": "دهن آب بره ",
    "Polling_Center_Location": "Dahan Aab Bara",
    "Map_Accuracy": "Village",
    "Map_Accuracy_Dari": "قریه",
    "Status": "Open",
    "Status_Dari": null,
    "PS_Male": 2,
    "PS_Female": 2,
    "PS_Total": 4,
    "ولسوالي": "تولک ",
    "Region": "Western Region"
   },
   "geometry": {
    "x": 7089842.5002781311,
    "y": 4046232.6558425017
   }
  },
  {
   "attributes": {
    "OBJECTID": 4655,
    "ولایت": "غور",
    "Province": "GHOR",
    "PC_Code": "2310202",
    "District": "SAGHAR",
    "د_مرکز_نوم__نام_مرکز": "مکتب ابتدای اسپیاسنگ",
    "Polling_Center_Name": "Aspiyasang Primary School",
    "د_مرکز_ځای__موقعیت_مرکز": "اسپیاسنگ",
    "Polling_Center_Location": "Aspiyasang",
    "Map_Accuracy": "Building",
    "Map_Accuracy_Dari": "تعمیر",
    "Status": "Open",
    "Status_Dari": null,
    "PS_Male": 2,
    "PS_Female": 1,
    "PS_Total": 3,
    "ولسوالي": "ساغر ",
    "Region": "Western Region"
   },
   "geometry": {
    "x": 7093290.5613929257,
    "y": 3952476.5923224529
   }
  },
  {
   "attributes": {
    "OBJECTID": 4656,
    "ولایت": "دایکندی",
    "Province": "DAYKUNDI",
    "PC_Code": "2401005",
    "District": "NILI",
    "د_مرکز_نوم__نام_مرکز": "مکتب بالا باغ لزیر",
    "Polling_Center_Name": "Bala Bagh Lazir School",
    "د_مرکز_ځای__موقعیت_مرکز": "لزیر",
    "Polling_Center_Location": "Lazir",
    "Map_Accuracy": "Building",
    "Map_Accuracy_Dari": "تعمیر",
    "Status": "Open",
    "Status_Dari": null,
    "PS_Male": 1,
    "PS_Female": 3,
    "PS_Total": 4,
    "ولسوالي": "نیلی",
    "Region": "Central Highlands Region"
   },
   "geometry": {
    "x": 7369346.6024999898,
    "y": 4004983.721584761
   }
  },
  {
   "attributes": {
    "OBJECTID": 4657,
    "ولایت": "دایکندی",
    "Province": "DAYKUNDI",
    "PC_Code": "2402017",
    "District": "SHAHRISTAN",
    "د_مرکز_نوم__نام_مرکز": "مسجد بند برلان",
    "Polling_Center_Name": "Band Barlan Mosque",
    "د_مرکز_ځای__موقعیت_مرکز": "بند برلان",
    "Polling_Center_Location": "Band Barlan",
    "Map_Accuracy": "Building",
    "Map_Accuracy_Dari": "تعمیر",
    "Status": "Open",
    "Status_Dari": null,
    "PS_Male": 2,
    "PS_Female": 2,
    "PS_Total": 4,
    "ولسوالي": "شهرستان",
    "Region": "Central Highlands Region"
   },
   "geometry": {
    "x": 7377073.025641948,
    "y": 3995452.5883214921
   }
  },
  {
   "attributes": {
    "OBJECTID": 4658,
    "ولایت": "دایکندی",
    "Province": "DAYKUNDI",
    "PC_Code": "2402028",
    "District": "SHAHRISTAN",
    "د_مرکز_نوم__نام_مرکز": "مسجد سید عالم",
    "Polling_Center_Name": "Sayed Alam Mosque",
    "د_مرکز_ځای__موقعیت_مرکز": "سید احمد",
    "Polling_Center_Location": "Sayed Ahmad",
    "Map_Accuracy": "Building",
    "Map_Accuracy_Dari": "تعمیر",
    "Status": "Open",
    "Status_Dari": null,
    "PS_Male": 1,
    "PS_Female": 1,
    "PS_Total": 2,
    "ولسوالي": "شهرستان",
    "Region": "Central Highlands Region"
   },
   "geometry": {
    "x": 7435841.6438913252,
    "y": 3974498.6313105556
   }
  },
  {
   "attributes": {
    "OBJECTID": 4659,
    "ولایت": "دایکندی",
    "Province": "DAYKUNDI",
    "PC_Code": "2404040",
    "District": "ISHTERLAI",
    "د_مرکز_نوم__نام_مرکز": "مسجد خدر باش",
    "Polling_Center_Name": "Khadar Bash Mosque",
    "د_مرکز_ځای__موقعیت_مرکز": "خدر باش، بازار میانه",
    "Polling_Center_Location": "Khadar Bash, Bazar Miyana",
    "Map_Accuracy": "Building",
    "Map_Accuracy_Dari": "تعمیر",
    "Status": "Open",
    "Status_Dari": null,
    "PS_Male": 2,
    "PS_Female": 1,
    "PS_Total": 3,
    "ولسوالي": "اشترلی",
    "Region": "Central Highlands Region"
   },
   "geometry": {
    "x": 7396145.7257316466,
    "y": 4054934.5196773233
   }
  },
  {
   "attributes": {
    "OBJECTID": 4660,
    "ولایت": "دایکندی",
    "Province": "DAYKUNDI",
    "PC_Code": "2404050",
    "District": "ISHTERLAI",
    "د_مرکز_نوم__نام_مرکز": "مسجد گرزک سراب",
    "Polling_Center_Name": "Gurzak Sarab Mosque",
    "د_مرکز_ځای__موقعیت_مرکز": "گرزک سراب",
    "Polling_Center_Location": "Gurzak Sarab",
    "Map_Accuracy": "Building",
    "Map_Accuracy_Dari": "تعمیر",
    "Status": "Open",
    "Status_Dari": null,
    "PS_Male": 1,
    "PS_Female": 2,
    "PS_Total": 3,
    "ولسوالي": "اشترلی",
    "Region": "Central Highlands Region"
   },
   "geometry": {
    "x": 7384931.8599786237,
    "y": 4035817.5528678414
   }
  },
  {
   "attributes": {
    "OBJECTID": 4661,
    "ولایت": "دایکندی",
    "Province": "DAYKUNDI",
    "PC_Code": "2405093",
    "District": "KHEDIR",
    "د_مرکز_نوم__نام_مرکز": "مکتب ابتدائیه نسوان دهن کیتی",
    "Polling_Center_Name": "Dahan Kiti Girls Primary School",
    "د_مرکز_ځای__موقعیت_مرکز": "دهن کیتی",
    "Polling_Center_Location": "Dahan Kiti",
    "Map_Accuracy": "Building",
    "Map_Accuracy_Dari": "تعمیر",
    "Status": "Open",
    "Status_Dari": null,
    "PS_Male": 1,
    "PS_Female": 2,
    "PS_Total": 3,
    "ولسوالي": "خدیر",
    "Region": "Central Highlands Region"
   },
   "geometry": {
    "x": 7316511.5635787472,
    "y": 4012203.1673563365
   }
  },
  {
   "attributes": {
    "OBJECTID": 4662,
    "ولایت": "دایکندی",
    "Province": "DAYKUNDI",
    "PC_Code": "2406124",
    "District": "KITI",
    "د_مرکز_نوم__نام_مرکز": "مسجد میانه تمران",
    "Polling_Center_Name": "Miyana Tamran Mosque",
    "د_مرکز_ځای__موقعیت_مرکز": "میانه تمران",
    "Polling_Center_Location": "Miyana Tamran",
    "Map_Accuracy": "Building",
    "Map_Accuracy_Dari": "تعمیر",
    "Status": "Open",
    "Status_Dari": null,
    "PS_Male": 2,
    "PS_Female": 2,
    "PS_Total": 4,
    "ولسوالي": "کیتی",
    "Region": "Central Highlands Region"
   },
   "geometry": {
    "x": 7325874.6960431375,
    "y": 3981481.3316541198
   }
  },
  {
   "attributes": {
    "OBJECTID": 4663,
    "ولایت": "دایکندی",
    "Province": "DAYKUNDI",
    "PC_Code": "2406136",
    "District": "KITI",
    "د_مرکز_نوم__نام_مرکز": "مسجد سرکیسو",
    "Polling_Center_Name": "Sar Kiso Mosque",
    "د_مرکز_ځای__موقعیت_مرکز": "سرکیسو",
    "Polling_Center_Location": "Sar Kiso",
    "Map_Accuracy": "Building",
    "Map_Accuracy_Dari": "تعمیر",
    "Status": "Open",
    "Status_Dari": null,
    "PS_Male": 2,
    "PS_Female": 1,
    "PS_Total": 3,
    "ولسوالي": "کیتی",
    "Region": "Central Highlands Region"
   },
   "geometry": {
    "x": 7335560.9166316362,
    "y": 3954724.0977256293
   }
  },
  {
   "attributes": {
    "OBJECTID": 4664,
    "ولایت": "دایکندی",
    "Province": "DAYKUNDI",
    "PC_Code": "2407148",
    "District": "MIRAMOR",
    "د_مرکز_نوم__نام_مرکز": "مسجد سرسنگ تخاوی",
    "Polling_Center_Name": "Sarsang Takhawi Mosque",
    "د_مرکز_ځای__موقعیت_مرکز": "ده غوچی",
    "Polling_Center_Location": "Deh Ghochi",
    "Map_Accuracy": "Building",
    "Map_Accuracy_Dari": "تعمیر",
    "Status": "Open",
    "Status_Dari": null,
    "PS_Male": 1,
    "PS_Female": 1,
    "PS_Total": 2,
    "ولسوالي": "میرامور",
    "Region": "Central Highlands Region"
   },
   "geometry": {
    "x": 7428386.0209954437,
    "y": 4009926.8792289598
   }
  },
  {
   "attributes": {
    "OBJECTID": 4665,
    "ولایت": "دایکندی",
    "Province": "DAYKUNDI",
    "PC_Code": "2407159",
    "District": "MIRAMOR",
    "د_مرکز_نوم__نام_مرکز": "مسجد راکو",
    "Polling_Center_Name": "Rako Mosque",
    "د_مرکز_ځای__موقعیت_مرکز": "میرغلام",
    "Polling_Center_Location": "Mir Ghulam",
    "Map_Accuracy": "Building",
    "Map_Accuracy_Dari": "تعمیر",
    "Status": "Open",
    "Status_Dari": null,
    "PS_Male": 1,
    "PS_Female": 1,
    "PS_Total": 2,
    "ولسوالي": "میرامور",
    "Region": "Central Highlands Region"
   },
   "geometry": {
    "x": 7439582.5298134563,
    "y": 3980139.8634343152
   }
  },
  {
   "attributes": {
    "OBJECTID": 4666,
    "ولایت": "دایکندی",
    "Province": "DAYKUNDI",
    "PC_Code": "2408083",
    "District": "SANG-E-TAKHT",
    "د_مرکز_نوم__نام_مرکز": "مسجد عمومی خاتم الانبیأ خلبرگ",
    "Polling_Center_Name": "Khatim-ul-Anbia Khulbarg Mosque",
    "د_مرکز_ځای__موقعیت_مرکز": "خلبرگ",
    "Polling_Center_Location": "Khulbarg",
    "Map_Accuracy": "Building",
    "Map_Accuracy_Dari": "تعمیر",
    "Status": "Open",
    "Status_Dari": null,
    "PS_Male": 2,
    "PS_Female": 1,
    "PS_Total": 3,
    "ولسوالي": "سنگ تخت",
    "Region": "Central Highlands Region"
   },
   "geometry": {
    "x": 7354826.5322856782,
    "y": 4057547.7216449105
   }
  },
  {
   "attributes": {
    "OBJECTID": 4667,
    "ولایت": "دایکندی",
    "Province": "DAYKUNDI",
    "PC_Code": "2409063",
    "District": "KEJRAN",
    "د_مرکز_نوم__نام_مرکز": "منبر سلمونجی",
    "Polling_Center_Name": "Salmonji Menbar",
    "د_مرکز_ځای__موقعیت_مرکز": "سلمونجی",
    "Polling_Center_Location": "Salmonji",
    "Map_Accuracy": "Building",
    "Map_Accuracy_Dari": "تعمیر",
    "Status": "Open",
    "Status_Dari": null,
    "PS_Male": 1,
    "PS_Female": 1,
    "PS_Total": 2,
    "ولسوالي": "کجران",
    "Region": "Central Highlands Region"
   },
   "geometry": {
    "x": 7283552.7410768885,
    "y": 3918222.4681542213
   }
  },
  {
   "attributes": {
    "OBJECTID": 4668,
    "ولایت": "ارزگان",
    "Province": "UROZGAN",
    "PC_Code": "2501004",
    "District": "TIRINKOT",
    "د_مرکز_نوم__نام_مرکز": "مسجد کبیر",
    "Polling_Center_Name": "Kabeer Mosque",
    "د_مرکز_ځای__موقعیت_مرکز": "مکتب ګلخانه سپین کیچه",
    "Polling_Center_Location": "Maktab Gulkhana Spin Kicha",
    "Map_Accuracy": "Building",
    "Map_Accuracy_Dari": "تعمیر",
    "Status": "Open",
    "Status_Dari": null,
    "PS_Male": 4,
    "PS_Female": 3,
    "PS_Total": 7,
    "ولسوالي": "ترینکوټ",
    "Region": "Southern Region"
   },
   "geometry": {
    "x": 7319262.4830428632,
    "y": 3839663.723981542
   }
  },
  {
   "attributes": {
    "OBJECTID": 4669,
    "ولایت": "ارزگان",
    "Province": "UROZGAN",
    "PC_Code": "2501015",
    "District": "TIRINKOT",
    "د_مرکز_نوم__نام_مرکز": "د میرآباد کلی مکتب",
    "Polling_Center_Name": "Mir Abad Village School",
    "د_مرکز_ځای__موقعیت_مرکز": "میرآباد کلی",
    "Polling_Center_Location": "Mir Abad Village",
    "Map_Accuracy": "Building",
    "Map_Accuracy_Dari": "تعمیر",
    "Status": "Open",
    "Status_Dari": null,
    "PS_Male": 3,
    "PS_Female": 2,
    "PS_Total": 5,
    "ولسوالي": "ترینکوټ",
    "Region": "Southern Region"
   },
   "geometry": {
    "x": 7349921.319073909,
    "y": 3852166.3761893981
   }
  },
  {
   "attributes": {
    "OBJECTID": 4670,
    "ولایت": "ارزگان",
    "Province": "UROZGAN",
    "PC_Code": "2502054",
    "District": "DEHRAOUD",
    "د_مرکز_نوم__نام_مرکز": "د ملا خدای نظر د کلي مکتب",
    "Polling_Center_Name": "Mula Khudai Nazar Village School",
    "د_مرکز_ځای__موقعیت_مرکز": "سیکزی کلی",
    "Polling_Center_Location": "Sikazi Village",
    "Map_Accuracy": "Building",
    "Map_Accuracy_Dari": "تعمیر",
    "Status": "Open",
    "Status_Dari": null,
    "PS_Male": 5,
    "PS_Female": 1,
    "PS_Total": 6,
    "ولسوالي": "دهراود",
    "Region": "Southern Region"
   },
   "geometry": {
    "x": 7277282.3178751739,
    "y": 3833734.8001994146
   }
  },
  {
   "attributes": {
    "OBJECTID": 4671,
    "ولایت": "ارزگان",
    "Province": "UROZGAN",
    "PC_Code": "2504032",
    "District": "SHAHID-E-HASSAS",
    "د_مرکز_نوم__نام_مرکز": "مکتب بازار یخدان",
    "Polling_Center_Name": "Bazar Yakhdan School",
    "د_مرکز_ځای__موقعیت_مرکز": "بازار یخدان",
    "Polling_Center_Location": "Yakhdan Bazar",
    "Map_Accuracy": "Building",
    "Map_Accuracy_Dari": "تعمیر",
    "Status": "Open",
    "Status_Dari": null,
    "PS_Male": 4,
    "PS_Female": 1,
    "PS_Total": 5,
    "ولسوالي": "شهید حساس",
    "Region": "Southern Region"
   },
   "geometry": {
    "x": 7289660.9895916404,
    "y": 3893440.008268469
   }
  },
  {
   "attributes": {
    "OBJECTID": 4672,
    "ولایت": "ارزگان",
    "Province": "UROZGAN",
    "PC_Code": "2505029",
    "District": "KHAS UROZGAN",
    "د_مرکز_نوم__نام_مرکز": "مكتب ابتدائيه نسوان مرکز ولسوالی",
    "Polling_Center_Name": "District Girls Primary School",
    "د_مرکز_ځای__موقعیت_مرکز": "مرکز ولسوالی",
    "Polling_Center_Location": "District Compound",
    "Map_Accuracy": "Building",
    "Map_Accuracy_Dari": "تعمیر",
    "Status": "Open",
    "Status_Dari": null,
    "PS_Male": 6,
    "PS_Female": 4,
    "PS_Total": 10,
    "ولسوالي": "خاص ارزگان",
    "Region": "Southern Region"
   },
   "geometry": {
    "x": 7417399.3104557581,
    "y": 3885411.0457199467
   }
  },
  {
   "attributes": {
    "OBJECTID": 4673,
    "ولایت": "زابل",
    "Province": "ZABUL",
    "PC_Code": "2604025",
    "District": "MIZAN",
    "د_مرکز_نوم__نام_مرکز": "ناوه عالم ګل مکتب ",
    "Polling_Center_Name": "Nawa Alam Gul School",
    "د_مرکز_ځای__موقعیت_مرکز": "مرکز ولسوالی ",
    "Polling_Center_Location": "District Compound",
    "Map_Accuracy": "Building",
    "Map_Accuracy_Dari": "تعمیر",
    "Status": "Open",
    "Status_Dari": null,
    "PS_Male": 4,
    "PS_Female": 4,
    "PS_Total": 8,
    "ولسوالي": "میزان",
    "Region": "Southern Region"
   },
   "geometry": {
    "x": 7404271.9806546597,
    "y": 3786465.8078593002
   }
  },
  {
   "attributes": {
    "OBJECTID": 4674,
    "ولایت": "زابل",
    "Province": "ZABUL",
    "PC_Code": "2610036",
    "District": "SHEMEL ZAYI",
    "د_مرکز_نوم__نام_مرکز": "كلينیك ولسوالي",
    "Polling_Center_Name": "District Clinic",
    "د_مرکز_ځای__موقعیت_مرکز": "بازار شملزائي",
    "Polling_Center_Location": "Shamalzai Bazar",
    "Map_Accuracy": "Building",
    "Map_Accuracy_Dari": "تعمیر",
    "Status": "Open",
    "Status_Dari": null,
    "PS_Male": 6,
    "PS_Female": 3,
    "PS_Total": 9,
    "ولسوالي": "شملزایي",
    "Region": "Southern Region"
   },
   "geometry": {
    "x": 7530282.7387939412,
    "y": 3751294.995381515
   }
  },
  {
   "attributes": {
    "OBJECTID": 4675,
    "ولایت": "کندهار",
    "Province": "کندهار",
    "PC_Code": "2701007",
    "District": "KANDAHAR",
    "د_مرکز_نوم__نام_مرکز": "د ملالي ليسه",
    "Polling_Center_Name": "Malalai High School",
    "د_مرکز_ځای__موقعیت_مرکز": "څلورمه ناحيه",
    "Polling_Center_Location": "D04 - Nahia 4",
    "Map_Accuracy": "Building",
    "Map_Accuracy_Dari": "تعمیر",
    "Status": "Open",
    "Status_Dari": null,
    "PS_Male": 0,
    "PS_Female": 10,
    "PS_Total": 10,
    "ولسوالي": "کندهار",
    "Region": "Southern Region"
   },
   "geometry": {
    "x": 7316656.2377285669,
    "y": 3714125.5724209514
   }
  },
  {
   "attributes": {
    "OBJECTID": 4676,
    "ولایت": "کندهار",
    "Province": "کندهار",
    "PC_Code": "2701030",
    "District": "KANDAHAR",
    "د_مرکز_نوم__نام_مرکز": "احمدشاه بابا ليسه",
    "Polling_Center_Name": "Ahmad Shah Baba High School",
    "د_مرکز_ځای__موقعیت_مرکز": "دویمه ناحيه",
    "Polling_Center_Location": "D02 - Nahia 2",
    "Map_Accuracy": "Building",
    "Map_Accuracy_Dari": "تعمیر",
    "Status": "Open",
    "Status_Dari": null,
    "PS_Male": 10,
    "PS_Female": 0,
    "PS_Total": 10,
    "ولسوالي": "کندهار",
    "Region": "Southern Region"
   },
   "geometry": {
    "x": 7312421.993841989,
    "y": 3712690.2647133623
   }
  },
  {
   "attributes": {
    "OBJECTID": 4677,
    "ولایت": "کندهار",
    "Province": "کندهار",
    "PC_Code": "2701033",
    "District": "KANDAHAR",
    "د_مرکز_نوم__نام_مرکز": "د پلان عمومي رياست",
    "Polling_Center_Name": "Plan Omomi Riyasat",
    "د_مرکز_ځای__موقعیت_مرکز": "اوومه ناحيه",
    "Polling_Center_Location": "D07 - Nahia 7",
    "Map_Accuracy": "Building",
    "Map_Accuracy_Dari": "تعمیر",
    "Status": "Open",
    "Status_Dari": null,
    "PS_Male": 7,
    "PS_Female": 0,
    "PS_Total": 7,
    "ولسوالي": "کندهار",
    "Region": "Southern Region"
   },
   "geometry": {
    "x": 7311209.7746810205,
    "y": 3713580.4658390484
   }
  },
  {
   "attributes": {
    "OBJECTID": 4678,
    "ولایت": "کندهار",
    "Province": "کندهار",
    "PC_Code": "2701050",
    "District": "KANDAHAR",
    "د_مرکز_نوم__نام_مرکز": "عينو ليسه",
    "Polling_Center_Name": "Aino High School",
    "د_مرکز_ځای__موقعیت_مرکز": "شپږمه ناحيه",
    "Polling_Center_Location": "D06 - Nahia 6",
    "Map_Accuracy": "Building",
    "Map_Accuracy_Dari": "تعمیر",
    "Status": "Open",
    "Status_Dari": null,
    "PS_Male": 0,
    "PS_Female": 5,
    "PS_Total": 5,
    "ولسوالي": "کندهار",
    "Region": "Southern Region"
   },
   "geometry": {
    "x": 7314671.6995252054,
    "y": 3713329.7520209975
   }
  },
  {
   "attributes": {
    "OBJECTID": 4679,
    "ولایت": "کندهار",
    "Province": "کندهار",
    "PC_Code": "2701054",
    "District": "KANDAHAR",
    "د_مرکز_نوم__نام_مرکز": "ریاست کادستر",
    "Polling_Center_Name": "Kadastar Riyasat",
    "د_مرکز_ځای__موقعیت_مرکز": "لسمه ناحيه",
    "Polling_Center_Location": "D10 - Nahia 10",
    "Map_Accuracy": "Building",
    "Map_Accuracy_Dari": "تعمیر",
    "Status": "Open",
    "Status_Dari": null,
    "PS_Male": 6,
    "PS_Female": 5,
    "PS_Total": 11,
    "ولسوالي": "کندهار",
    "Region": "Southern Region"
   },
   "geometry": {
    "x": 7318553.1096065389,
    "y": 3713163.6167318942
   }
  },
  {
   "attributes": {
    "OBJECTID": 4680,
    "ولایت": "کندهار",
    "Province": "کندهار",
    "PC_Code": "2702100",
    "District": "ARGHANDAB",
    "د_مرکز_نوم__نام_مرکز": "د بابا صاحب دوراهی د ابیاری ریاست",
    "Polling_Center_Name": "Baba Sahib Dorahi - Irrigation Department",
    "د_مرکز_ځای__موقعیت_مرکز": "بابا ولي صاحب",
    "Polling_Center_Location": "Baba Wali Sahib",
    "Map_Accuracy": "Building",
    "Map_Accuracy_Dari": "تعمیر",
    "Status": "Open",
    "Status_Dari": null,
    "PS_Male": 2,
    "PS_Female": 1,
    "PS_Total": 3,
    "ولسوالي": "ارغنداب",
    "Region": "Southern Region"
   },
   "geometry": {
    "x": 7310226.6053911131,
    "y": 3718681.848201741
   }
  },
  {
   "attributes": {
    "OBJECTID": 4681,
    "ولایت": "کندهار",
    "Province": "کندهار",
    "PC_Code": "2702111",
    "District": "ARGHANDAB",
    "د_مرکز_نوم__نام_مرکز": "سلطان محمود غزنوي مكتب",
    "Polling_Center_Name": "Sultan Mahmood Ghaznawi School",
    "د_مرکز_ځای__موقعیت_مرکز": "ميراب خوران",
    "Polling_Center_Location": "Mirab Khoran",
    "Map_Accuracy": "Building",
    "Map_Accuracy_Dari": "تعمیر",
    "Status": "Open",
    "Status_Dari": null,
    "PS_Male": 2,
    "PS_Female": 1,
    "PS_Total": 3,
    "ولسوالي": "ارغنداب",
    "Region": "Southern Region"
   },
   "geometry": {
    "x": 7311696.3154398473,
    "y": 3720629.3421010021
   }
  },
  {
   "attributes": {
    "OBJECTID": 4682,
    "ولایت": "کندهار",
    "Province": "کندهار",
    "PC_Code": "2703087",
    "District": "DAMAN",
    "د_مرکز_نوم__نام_مرکز": "د حاجي حبيب اكا مسجد",
    "Polling_Center_Name": "Haji Habib Aka Mosque",
    "د_مرکز_ځای__موقعیت_مرکز": "سره قلعه",
    "Polling_Center_Location": "Sra Qala",
    "Map_Accuracy": "Village",
    "Map_Accuracy_Dari": "قریه",
    "Status": "Open",
    "Status_Dari": null,
    "PS_Male": 1,
    "PS_Female": 1,
    "PS_Total": 2,
    "ولسوالي": "دامان",
    "Region": "Southern Region"
   },
   "geometry": {
    "x": 7364574.1722900281,
    "y": 3716736.0419698479
   }
  },
  {
   "attributes": {
    "OBJECTID": 4683,
    "ولایت": "کندهار",
    "Province": "کندهار",
    "PC_Code": "2703088",
    "District": "DAMAN",
    "د_مرکز_نوم__نام_مرکز": "مكتب ناقلين",
    "Polling_Center_Name": "Naqileen School",
    "د_مرکز_ځای__موقعیت_مرکز": "ناقلين",
    "Polling_Center_Location": "Naqileen",
    "Map_Accuracy": "Building",
    "Map_Accuracy_Dari": "تعمیر",
    "Status": "Open",
    "Status_Dari": null,
    "PS_Male": 2,
    "PS_Female": 1,
    "PS_Total": 3,
    "ولسوالي": "دامان",
    "Region": "Southern Region"
   },
   "geometry": {
    "x": 7324451.1222460493,
    "y": 3707944.0166125544
   }
  },
  {
   "attributes": {
    "OBJECTID": 4684,
    "ولایت": "کندهار",
    "Province": "کندهار",
    "PC_Code": "2704177",
    "District": "PANJWAYEE",
    "د_مرکز_نوم__نام_مرکز": "حاجي اكبر كمپ",
    "Polling_Center_Name": "Haji Akbar Camp",
    "د_مرکز_ځای__موقعیت_مرکز": "موشان",
    "Polling_Center_Location": "Moshan",
    "Map_Accuracy": "Village",
    "Map_Accuracy_Dari": "قریه",
    "Status": "Open",
    "Status_Dari": null,
    "PS_Male": 2,
    "PS_Female": 1,
    "PS_Total": 3,
    "ولسوالي": "پنجوایې",
    "Region": "Southern Region"
   },
   "geometry": {
    "x": 7264924.117813061,
    "y": 3693332.5573034501
   }
  },
  {
   "attributes": {
    "OBJECTID": 4685,
    "ولایت": "کندهار",
    "Province": "کندهار",
    "PC_Code": "2704178",
    "District": "PANJWAYEE",
    "د_مرکز_نوم__نام_مرکز": "د مارغر كمپ ښوونځي",
    "Polling_Center_Name": "Marghar Camp School",
    "د_مرکز_ځای__موقعیت_مرکز": "د مارغر كمپ ",
    "Polling_Center_Location": "Marghar Camp",
    "Map_Accuracy": "Building",
    "Map_Accuracy_Dari": "تعمیر",
    "Status": "Open",
    "Status_Dari": null,
    "PS_Male": 3,
    "PS_Female": 1,
    "PS_Total": 4,
    "ولسوالي": "پنجوایې",
    "Region": "Southern Region"
   },
   "geometry": {
    "x": 7291008.9083250798,
    "y": 3703333.6634896104
   }
  },
  {
   "attributes": {
    "OBJECTID": 4686,
    "ولایت": "کندهار",
    "Province": "کندهار",
    "PC_Code": "2705153",
    "District": "ZHIRE",
    "د_مرکز_نوم__نام_مرکز": "يولسم كمپ ښوونځي",
    "Polling_Center_Name": "11th Camp School",
    "د_مرکز_ځای__موقعیت_مرکز": "د ژړي دښت",
    "Polling_Center_Location": "Zharee Dasht",
    "Map_Accuracy": "Building",
    "Map_Accuracy_Dari": "تعمیر",
    "Status": "Open",
    "Status_Dari": null,
    "PS_Male": 4,
    "PS_Female": 4,
    "PS_Total": 8,
    "ولسوالي": "ژیړی",
    "Region": "Southern Region"
   },
   "geometry": {
    "x": 7277581.4411392966,
    "y": 3718468.3170324173
   }
  },
  {
   "attributes": {
    "OBJECTID": 4687,
    "ولایت": "کندهار",
    "Province": "کندهار",
    "PC_Code": "2705165",
    "District": "ZHIRE",
    "د_مرکز_نوم__نام_مرکز": "د پوپل نيكه مكتب",
    "Polling_Center_Name": "Popal Neeka School",
    "د_مرکز_ځای__موقعیت_مرکز": "قلق",
    "Polling_Center_Location": "Qolq",
    "Map_Accuracy": "Village",
    "Map_Accuracy_Dari": "قریه",
    "Status": "Open",
    "Status_Dari": null,
    "PS_Male": 1,
    "PS_Female": 1,
    "PS_Total": 2,
    "ولسوالي": "ژیړی",
    "Region": "Southern Region"
   },
   "geometry": {
    "x": 7266917.8882983942,
    "y": 3699365.7549723615
   }
  },
  {
   "attributes": {
    "OBJECTID": 4688,
    "ولایت": "کندهار",
    "Province": "کندهار",
    "PC_Code": "2705166",
    "District": "ZHIRE",
    "د_مرکز_نوم__نام_مرکز": "نادي مكتب",
    "Polling_Center_Name": "Naadi School",
    "د_مرکز_ځای__موقعیت_مرکز": "سنګهسار",
    "Polling_Center_Location": "Sangohsar",
    "Map_Accuracy": "Village",
    "Map_Accuracy_Dari": "قریه",
    "Status": "Open",
    "Status_Dari": null,
    "PS_Male": 1,
    "PS_Female": 1,
    "PS_Total": 2,
    "ولسوالي": "ژیړی",
    "Region": "Southern Region"
   },
   "geometry": {
    "x": 7273169.5357981948,
    "y": 3702434.5263722106
   }
  },
  {
   "attributes": {
    "OBJECTID": 4689,
    "ولایت": "کندهار",
    "Province": "کندهار",
    "PC_Code": "2707122",
    "District": "KHAKREZ",
    "د_مرکز_نوم__نام_مرکز": "مكتب حاجي ګل",
    "Polling_Center_Name": "Haji Gul School",
    "د_مرکز_ځای__موقعیت_مرکز": "حاجي ګل",
    "Polling_Center_Location": "Haji Gul",
    "Map_Accuracy": "Village",
    "Map_Accuracy_Dari": "قریه",
    "Status": "Open",
    "Status_Dari": null,
    "PS_Male": 2,
    "PS_Female": 1,
    "PS_Total": 3,
    "ولسوالي": "خاک ریز",
    "Region": "Southern Region"
   },
   "geometry": {
    "x": 7293118.8523875987,
    "y": 3758132.6220922987
   }
  },
  {
   "attributes": {
    "OBJECTID": 4690,
    "ولایت": "کندهار",
    "Province": "کندهار",
    "PC_Code": "2708250",
    "District": "ARGHISTAN",
    "د_مرکز_نوم__نام_مرکز": "ميلمستون",
    "Polling_Center_Name": "Guest House",
    "د_مرکز_ځای__موقعیت_مرکز": "نارغال",
    "Polling_Center_Location": "Narghal",
    "Map_Accuracy": "Village",
    "Map_Accuracy_Dari": "قریه",
    "Status": "Open",
    "Status_Dari": null,
    "PS_Male": 2,
    "PS_Female": 2,
    "PS_Total": 4,
    "ولسوالي": "ارغستان",
    "Region": "Southern Region"
   },
   "geometry": {
    "x": 7380476.9162959931,
    "y": 3692460.4119720357
   }
  },
  {
   "attributes": {
    "OBJECTID": 4691,
    "ولایت": "کندهار",
    "Province": "کندهار",
    "PC_Code": "2710135",
    "District": "MAIWAND",
    "د_مرکز_نوم__نام_مرکز": "كلينيك  بند تيمور",
    "Polling_Center_Name": "Band Taimoor Clinic",
    "د_مرکز_ځای__موقعیت_مرکز": " بند تيمور",
    "Polling_Center_Location": "Band Taimoor",
    "Map_Accuracy": "Village",
    "Map_Accuracy_Dari": "قریه",
    "Status": "Open",
    "Status_Dari": null,
    "PS_Male": 3,
    "PS_Female": 0,
    "PS_Total": 3,
    "ولسوالي": "میوند",
    "Region": "Southern Region"
   },
   "geometry": {
    "x": 7231995.5987029914,
    "y": 3702516.916531675
   }
  },
  {
   "attributes": {
    "OBJECTID": 4692,
    "ولایت": "کندهار",
    "Province": "کندهار",
    "PC_Code": "2710142",
    "District": "MAIWAND",
    "د_مرکز_نوم__نام_مرکز": "د غازي محمد ايوب خان ليسه",
    "Polling_Center_Name": "Ghazi Mohamamd Ayub Khan High School",
    "د_مرکز_ځای__موقعیت_مرکز": "زوړ بازار",
    "Polling_Center_Location": "Zor Bazar",
    "Map_Accuracy": "Building",
    "Map_Accuracy_Dari": "تعمیر",
    "Status": "Open",
    "Status_Dari": null,
    "PS_Male": 2,
    "PS_Female": 1,
    "PS_Total": 3,
    "ولسوالي": "میوند",
    "Region": "Southern Region"
   },
   "geometry": {
    "x": 7242711.9509349754,
    "y": 3713259.5100435633
   }
  },
  {
   "attributes": {
    "OBJECTID": 4693,
    "ولایت": "کندهار",
    "Province": "کندهار",
    "PC_Code": "2711206",
    "District": "SPIN BOLDAK",
    "د_مرکز_نوم__نام_مرکز": "د حاجی رزاق مکتب",
    "Polling_Center_Name": "Haji Raziq School",
    "د_مرکز_ځای__موقعیت_مرکز": "يعقوب ماركيټ ويش",
    "Polling_Center_Location": "Yaqoob Wesh Market ",
    "Map_Accuracy": "Building",
    "Map_Accuracy_Dari": "تعمیر",
    "Status": "Open",
    "Status_Dari": null,
    "PS_Male": 5,
    "PS_Female": 0,
    "PS_Total": 5,
    "ولسوالي": "سپین بولدک",
    "Region": "Southern Region"
   },
   "geometry": {
    "x": 7392340.2633729018,
    "y": 3626903.3006139901
   }
  },
  {
   "attributes": {
    "OBJECTID": 4694,
    "ولایت": "کندهار",
    "Province": "کندهار",
    "PC_Code": "2711216",
    "District": "SPIN BOLDAK",
    "د_مرکز_نوم__نام_مرکز": "د فيضو كور",
    "Polling_Center_Name": "Faizo Private House",
    "د_مرکز_ځای__موقعیت_مرکز": "سپين بولدك",
    "Polling_Center_Location": "Speen Boldak",
    "Map_Accuracy": "Building",
    "Map_Accuracy_Dari": "تعمیر",
    "Status": "Open",
    "Status_Dari": null,
    "PS_Male": 3,
    "PS_Female": 0,
    "PS_Total": 3,
    "ولسوالي": "سپین بولدک",
    "Region": "Southern Region"
   },
   "geometry": {
    "x": 7391148.6438837014,
    "y": 3634019.3458814309
   }
  },
  {
   "attributes": {
    "OBJECTID": 4695,
    "ولایت": "کندهار",
    "Province": "کندهار",
    "PC_Code": "2711217",
    "District": "SPIN BOLDAK",
    "د_مرکز_نوم__نام_مرکز": "د فرمان الله كور",
    "Polling_Center_Name": "Farmanullah Private House",
    "د_مرکز_ځای__موقعیت_مرکز": "نوي كلي",
    "Polling_Center_Location": "Nawai Village",
    "Map_Accuracy": "Building",
    "Map_Accuracy_Dari": "تعمیر",
    "Status": "Open",
    "Status_Dari": null,
    "PS_Male": 3,
    "PS_Female": 3,
    "PS_Total": 6,
    "ولسوالي": "سپین بولدک",
    "Region": "Southern Region"
   },
   "geometry": {
    "x": 7395509.7307640631,
    "y": 3627692.6531290868
   }
  },
  {
   "attributes": {
    "OBJECTID": 4696,
    "ولایت": "کندهار",
    "Province": "کندهار",
    "PC_Code": "2713261",
    "District": "MIYANISHIN",
    "د_مرکز_نوم__نام_مرکز": "د ولسوالي مركز",
    "Polling_Center_Name": "District Building Office",
    "د_مرکز_ځای__موقعیت_مرکز": "چلوار",
    "Polling_Center_Location": "Chalwar",
    "Map_Accuracy": "Village",
    "Map_Accuracy_Dari": "قریه",
    "Status": "Open",
    "Status_Dari": null,
    "PS_Male": 1,
    "PS_Female": 1,
    "PS_Total": 2,
    "ولسوالي": "ميانشين",
    "Region": "Southern Region"
   },
   "geometry": {
    "x": 7388529.6369029824,
    "y": 3812680.7259764886
   }
  },
  {
   "attributes": {
    "OBJECTID": 4697,
    "ولایت": "کندهار",
    "Province": "کندهار",
    "PC_Code": "2715270",
    "District": "MARUF",
    "د_مرکز_نوم__نام_مرکز": "د چودې د كلي مسجد",
    "Polling_Center_Name": "Chody Village Mosque",
    "د_مرکز_ځای__موقعیت_مرکز": "د چودې كلي",
    "Polling_Center_Location": "Chodi Village",
    "Map_Accuracy": "Village",
    "Map_Accuracy_Dari": "قریه",
    "Status": "Open",
    "Status_Dari": null,
    "PS_Male": 3,
    "PS_Female": 2,
    "PS_Total": 5,
    "ولسوالي": "معروف",
    "Region": "Southern Region"
   },
   "geometry": {
    "x": 7483795.6147983493,
    "y": 3718477.169515437
   }
  },
  {
   "attributes": {
    "OBJECTID": 4698,
    "ولایت": "کندهار",
    "Province": "کندهار",
    "PC_Code": "2717016",
    "District": "DAND",
    "د_مرکز_نوم__نام_مرکز": "د كلچه آباد منځني ښوونځي",
    "Polling_Center_Name": "Kulcha Abad Secondary School",
    "د_مرکز_ځای__موقعیت_مرکز": "ډنډ ولسوالي",
    "Polling_Center_Location": "Dand District ",
    "Map_Accuracy": "Village",
    "Map_Accuracy_Dari": "قریه",
    "Status": "Open",
    "Status_Dari": null,
    "PS_Male": 4,
    "PS_Female": 2,
    "PS_Total": 6,
    "ولسوالي": "ډند",
    "Region": "Southern Region"
   },
   "geometry": {
    "x": 7311271.5937338434,
    "y": 3707817.597809521
   }
  },
  {
   "attributes": {
    "OBJECTID": 4699,
    "ولایت": "جوزجان",
    "Province": "JAWZJAN",
    "PC_Code": "2801009",
    "District": "SHEBERGHAN",
    "د_مرکز_نوم__نام_مرکز": "لیسه چرمگر خانه",
    "Polling_Center_Name": "Charamgar Khana High School",
    "د_مرکز_ځای__موقعیت_مرکز": "ناحیه جهارم",
    "Polling_Center_Location": "D04 - Nahia 4",
    "Map_Accuracy": "Building",
    "Map_Accuracy_Dari": "تعمیر",
    "Status": "Open",
    "Status_Dari": null,
    "PS_Male": 5,
    "PS_Female": 3,
    "PS_Total": 8,
    "ولسوالي": "شبرغان",
    "Region": "Northern Region"
   },
   "geometry": {
    "x": 7321089.0811526934,
    "y": 4392729.6551153241
   }
  },
  {
   "attributes": {
    "OBJECTID": 4700,
    "ولایت": "جوزجان",
    "Province": "JAWZJAN",
    "PC_Code": "2801018",
    "District": "SHEBERGHAN",
    "د_مرکز_نوم__نام_مرکز": "لیسه ینگی اریغ",
    "Polling_Center_Name": "Yangee Areegh High School",
    "د_مرکز_ځای__موقعیت_مرکز": "ناحیه چهارم",
    "Polling_Center_Location": "D04 - Nahia 4",
    "Map_Accuracy": "Building",
    "Map_Accuracy_Dari": "تعمیر",
    "Status": "Open",
    "Status_Dari": null,
    "PS_Male": 3,
    "PS_Female": 2,
    "PS_Total": 5,
    "ولسوالي": "شبرغان",
    "Region": "Northern Region"
   },
   "geometry": {
    "x": 7324476.6968971826,
    "y": 4401238.779534
   }
  },
  {
   "attributes": {
    "OBJECTID": 4701,
    "ولایت": "جوزجان",
    "Province": "JAWZJAN",
    "PC_Code": "2801029",
    "District": "SHEBERGHAN",
    "د_مرکز_نوم__نام_مرکز": "مکتب متوسطه چغچی",
    "Polling_Center_Name": "Chaghachi Secondary School",
    "د_مرکز_ځای__موقعیت_مرکز": "ناحیه چهارم",
    "Polling_Center_Location": "D04 - Nahia 4",
    "Map_Accuracy": "Building",
    "Map_Accuracy_Dari": "تعمیر",
    "Status": "Open",
    "Status_Dari": null,
    "PS_Male": 2,
    "PS_Female": 1,
    "PS_Total": 3,
    "ولسوالي": "شبرغان",
    "Region": "Northern Region"
   },
   "geometry": {
    "x": 7322040.6544088852,
    "y": 4394373.9143055649
   }
  },
  {
   "attributes": {
    "OBJECTID": 4702,
    "ولایت": "جوزجان",
    "Province": "JAWZJAN",
    "PC_Code": "2803116",
    "District": "KHANAQA",
    "د_مرکز_نوم__نام_مرکز": "مکتب بیش کپه وطنیه",
    "Polling_Center_Name": "Besh Kapa Watania School",
    "د_مرکز_ځای__موقعیت_مرکز": "بیش کپه وطنیه",
    "Polling_Center_Location": "Besh Kapa Watania",
    "Map_Accuracy": "Building",
    "Map_Accuracy_Dari": "تعمیر",
    "Status": "Open",
    "Status_Dari": null,
    "PS_Male": 2,
    "PS_Female": 1,
    "PS_Total": 3,
    "ولسوالي": "خانقاه",
    "Region": "Northern Region"
   },
   "geometry": {
    "x": 7362362.9909429941,
    "y": 4424799.2352354154
   }
  },
  {
   "attributes": {
    "OBJECTID": 4703,
    "ولایت": "جوزجان",
    "Province": "JAWZJAN",
    "PC_Code": "2804073",
    "District": "MINGAJIK",
    "د_مرکز_نوم__نام_مرکز": "مکتب نسوان عباس",
    "Polling_Center_Name": "Abaas Girls School",
    "د_مرکز_ځای__موقعیت_مرکز": "قریه عباش",
    "Polling_Center_Location": "Abaash Village",
    "Map_Accuracy": "Building",
    "Map_Accuracy_Dari": "تعمیر",
    "Status": "Open",
    "Status_Dari": null,
    "PS_Male": 2,
    "PS_Female": 2,
    "PS_Total": 4,
    "ولسوالي": "منگجیک",
    "Region": "Northern Region"
   },
   "geometry": {
    "x": 7356108.5966347568,
    "y": 4434011.9913019855
   }
  },
  {
   "attributes": {
    "OBJECTID": 4704,
    "ولایت": "جوزجان",
    "Province": "JAWZJAN",
    "PC_Code": "2805092",
    "District": "QUSH TEPA",
    "د_مرکز_نوم__نام_مرکز": "مکتب ترکمن قدوق",
    "Polling_Center_Name": "Turkman Qadoq School",
    "د_مرکز_ځای__موقعیت_مرکز": "قوش تبه ",
    "Polling_Center_Location": "Qosh Taba",
    "Map_Accuracy": "Building",
    "Map_Accuracy_Dari": "تعمیر",
    "Status": "Open",
    "Status_Dari": null,
    "PS_Male": 1,
    "PS_Female": 1,
    "PS_Total": 2,
    "ولسوالي": "قوش تیپه",
    "Region": "Northern Region"
   },
   "geometry": {
    "x": 7285031.3900807314,
    "y": 4321051.1112378631
   }
  },
  {
   "attributes": {
    "OBJECTID": 4705,
    "ولایت": "جوزجان",
    "Province": "JAWZJAN",
    "PC_Code": "2807036",
    "District": "AQCHAH",
    "د_مرکز_نوم__نام_مرکز": "مسجد  قم اریغ",
    "Polling_Center_Name": "Qum Areegh Mosque",
    "د_مرکز_ځای__موقعیت_مرکز": "قریه قم اریغ",
    "Polling_Center_Location": "Qum Areegh Village",
    "Map_Accuracy": "Building",
    "Map_Accuracy_Dari": "تعمیر",
    "Status": "Open",
    "Status_Dari": null,
    "PS_Male": 2,
    "PS_Female": 1,
    "PS_Total": 3,
    "ولسوالي": "آقچه",
    "Region": "Northern Region"
   },
   "geometry": {
    "x": 7365306.6178040169,
    "y": 4430618.458608781
   }
  },
  {
   "attributes": {
    "OBJECTID": 4706,
    "ولایت": "جوزجان",
    "Province": "JAWZJAN",
    "PC_Code": "2807046",
    "District": "AQCHAH",
    "د_مرکز_نوم__نام_مرکز": "مکتب قره بویین",
    "Polling_Center_Name": "Qara-e-Boyeen School",
    "د_مرکز_ځای__موقعیت_مرکز": "قره بویین",
    "Polling_Center_Location": "Qara-e-Boyeen",
    "Map_Accuracy": "Building",
    "Map_Accuracy_Dari": "تعمیر",
    "Status": "Open",
    "Status_Dari": null,
    "PS_Male": 1,
    "PS_Female": 1,
    "PS_Total": 2,
    "ولسوالي": "آقچه",
    "Region": "Northern Region"
   },
   "geometry": {
    "x": 7370451.5018794676,
    "y": 4418352.7215061132
   }
  },
  {
   "attributes": {
    "OBJECTID": 4707,
    "ولایت": "جوزجان",
    "Province": "JAWZJAN",
    "PC_Code": "2807047",
    "District": "AQCHAH",
    "د_مرکز_نوم__نام_مرکز": "مکتب چکش سربند",
    "Polling_Center_Name": "Chakosh Sarband School",
    "د_مرکز_ځای__موقعیت_مرکز": "چکش سربند ",
    "Polling_Center_Location": "Chakosh Sarband",
    "Map_Accuracy": "Building",
    "Map_Accuracy_Dari": "تعمیر",
    "Status": "Open",
    "Status_Dari": null,
    "PS_Male": 1,
    "PS_Female": 1,
    "PS_Total": 2,
    "ولسوالي": "آقچه",
    "Region": "Northern Region"
   },
   "geometry": {
    "x": 7377374.9819871187,
    "y": 4417023.880381139
   }
  },
  {
   "attributes": {
    "OBJECTID": 4708,
    "ولایت": "جوزجان",
    "Province": "JAWZJAN",
    "PC_Code": "2811100",
    "District": "DARZAB",
    "د_مرکز_نوم__نام_مرکز": "مکتب بیتو",
    "Polling_Center_Name": "Bito School",
    "د_مرکز_ځای__موقعیت_مرکز": "قریه بتو",
    "Polling_Center_Location": "Bito Village",
    "Map_Accuracy": "Building",
    "Map_Accuracy_Dari": "تعمیر",
    "Status": "Open",
    "Status_Dari": null,
    "PS_Male": 2,
    "PS_Female": 1,
    "PS_Total": 3,
    "ولسوالي": "درز آب",
    "Region": "Northern Region"
   },
   "geometry": {
    "x": 7277568.2264025481,
    "y": 4296082.7415750073
   }
  },
  {
   "attributes": {
    "OBJECTID": 4709,
    "ولایت": "فارياب",
    "Province": "FARYAB",
    "PC_Code": "2901001",
    "District": "MAIMANA",
    "د_مرکز_نوم__نام_مرکز": "لیسه عالی تجربوی عربخانه",
    "Polling_Center_Name": "Arab Khana High School",
    "د_مرکز_ځای__موقعیت_مرکز": "ناحیه سوم",
    "Polling_Center_Location": "D03 - Nahia 3",
    "Map_Accuracy": "Building",
    "Map_Accuracy_Dari": "تعمیر",
    "Status": "Open",
    "Status_Dari": null,
    "PS_Male": 5,
    "PS_Female": 3,
    "PS_Total": 8,
    "ولسوالي": "میمنه ",
    "Region": "Northern Region"
   },
   "geometry": {
    "x": 7211052.9259770783,
    "y": 4289628.0778399166
   }
  },
  {
   "attributes": {
    "OBJECTID": 4710,
    "ولایت": "فارياب",
    "Province": "FARYAB",
    "PC_Code": "2901012",
    "District": "MAIMANA",
    "د_مرکز_نوم__نام_مرکز": "لیسه نسوان نمبر سه (عزیزه شهید)",
    "Polling_Center_Name": "Aziza Shaheed Number 3 Girls High School",
    "د_مرکز_ځای__موقعیت_مرکز": "ناحیه سوم",
    "Polling_Center_Location": "D03 - Nahia 3",
    "Map_Accuracy": "Building",
    "Map_Accuracy_Dari": "تعمیر",
    "Status": "Open",
    "Status_Dari": null,
    "PS_Male": 0,
    "PS_Female": 5,
    "PS_Total": 5,
    "ولسوالي": "میمنه ",
    "Region": "Northern Region"
   },
   "geometry": {
    "x": 7210637.2256026063,
    "y": 4290295.1578582656
   }
  },
  {
   "attributes": {
    "OBJECTID": 4711,
    "ولایت": "فارياب",
    "Province": "FARYAB",
    "PC_Code": "2902032",
    "District": "PASHTUN KOT",
    "د_مرکز_نوم__نام_مرکز": "مکتب بوچه",
    "Polling_Center_Name": "Bocha School",
    "د_مرکز_ځای__موقعیت_مرکز": "بوچه",
    "Polling_Center_Location": "Bocha",
    "Map_Accuracy": "Village",
    "Map_Accuracy_Dari": "قریه",
    "Status": "Open",
    "Status_Dari": null,
    "PS_Male": 1,
    "PS_Female": 1,
    "PS_Total": 2,
    "ولسوالي": "پشتون کوت",
    "Region": "Northern Region"
   },
   "geometry": {
    "x": 7228306.2024981314,
    "y": 4282245.6674342742
   }
  },
  {
   "attributes": {
    "OBJECTID": 4712,
    "ولایت": "فارياب",
    "Province": "FARYAB",
    "PC_Code": "2902042",
    "District": "PASHTUN KOT",
    "د_مرکز_نوم__نام_مرکز": "مسجد بتو جان",
    "Polling_Center_Name": "Bato Jan Mosque",
    "د_مرکز_ځای__موقعیت_مرکز": "بتو جان",
    "Polling_Center_Location": "Bato Jan",
    "Map_Accuracy": "Village",
    "Map_Accuracy_Dari": "قریه",
    "Status": "Open",
    "Status_Dari": null,
    "PS_Male": 1,
    "PS_Female": 1,
    "PS_Total": 2,
    "ولسوالي": "پشتون کوت",
    "Region": "Northern Region"
   },
   "geometry": {
    "x": 7214870.7548180502,
    "y": 4262904.9536142256
   }
  },
  {
   "attributes": {
    "OBJECTID": 4713,
    "ولایت": "فارياب",
    "Province": "FARYAB",
    "PC_Code": "2902053",
    "District": "PASHTUN KOT",
    "د_مرکز_نوم__نام_مرکز": "مکتب قلعه نیاز بیگ",
    "Polling_Center_Name": "Qala-e-Niyaz Beg School",
    "د_مرکز_ځای__موقعیت_مرکز": "قلعه نیاز بیگ",
    "Polling_Center_Location": "Qala-e-Niyaz Beg",
    "Map_Accuracy": "Village",
    "Map_Accuracy_Dari": "قریه",
    "Status": "Open",
    "Status_Dari": null,
    "PS_Male": 1,
    "PS_Female": 1,
    "PS_Total": 2,
    "ولسوالي": "پشتون کوت",
    "Region": "Northern Region"
   },
   "geometry": {
    "x": 7226831.4318653429,
    "y": 4262843.3459769953
   }
  },
  {
   "attributes": {
    "OBJECTID": 4714,
    "ولایت": "فارياب",
    "Province": "FARYAB",
    "PC_Code": "2903059",
    "District": "KHWAJA SABZ POSH-E-WALI",
    "د_مرکز_نوم__نام_مرکز": "متوسطه ذکور صحرای قلعه",
    "Polling_Center_Name": "Sahrayee Qala Boys Secondary School",
    "د_مرکز_ځای__موقعیت_مرکز": "صحرایی قلعه",
    "Polling_Center_Location": "Sahrayee Qala",
    "Map_Accuracy": "Building",
    "Map_Accuracy_Dari": "تعمیر",
    "Status": "Open",
    "Status_Dari": null,
    "PS_Male": 3,
    "PS_Female": 2,
    "PS_Total": 5,
    "ولسوالي": "خواجه سبز پوش ولی",
    "Region": "Northern Region"
   },
   "geometry": {
    "x": 7218257.9074734645,
    "y": 4314660.0024004374
   }
  },
  {
   "attributes": {
    "OBJECTID": 4715,
    "ولایت": "فارياب",
    "Province": "FARYAB",
    "PC_Code": "2904070",
    "District": "ALMAR",
    "د_مرکز_نوم__نام_مرکز": "مسجد مابین قریه خدایمت ",
    "Polling_Center_Name": "Khudaimat Village Mosque",
    "د_مرکز_ځای__موقعیت_مرکز": "قریه خدایمت ",
    "Polling_Center_Location": "Khudaimat Village",
    "Map_Accuracy": "Building",
    "Map_Accuracy_Dari": "تعمیر",
    "Status": "Open",
    "Status_Dari": null,
    "PS_Male": 2,
    "PS_Female": 1,
    "PS_Total": 3,
    "ولسوالي": "المار",
    "Region": "Northern Region"
   },
   "geometry": {
    "x": 7186221.6608362822,
    "y": 4282506.4173519164
   }
  },
  {
   "attributes": {
    "OBJECTID": 4716,
    "ولایت": "فارياب",
    "Province": "FARYAB",
    "PC_Code": "2905136",
    "District": "BIL CHIRAGH",
    "د_مرکز_نوم__نام_مرکز": "مسجد کمرک آق بلاق",
    "Polling_Center_Name": "Kamrak Aaq Balaq Mosque",
    "د_مرکز_ځای__موقعیت_مرکز": "کمرک آق بلاق",
    "Polling_Center_Location": "Kamrak Aaq Balaq",
    "Map_Accuracy": "Village",
    "Map_Accuracy_Dari": "قریه",
    "Status": "Open",
    "Status_Dari": null,
    "PS_Male": 3,
    "PS_Female": 2,
    "PS_Total": 5,
    "ولسوالي": "بل چراغ",
    "Region": "Northern Region"
   },
   "geometry": {
    "x": 7265626.1463893829,
    "y": 4293469.3421393679
   }
  },
  {
   "attributes": {
    "OBJECTID": 4717,
    "ولایت": "فارياب",
    "Province": "FARYAB",
    "PC_Code": "2906147",
    "District": "SHIRIN TAGAB",
    "د_مرکز_نوم__نام_مرکز": "مسجد جامع گلزار",
    "Polling_Center_Name": "Gulzar Mosque",
    "د_مرکز_ځای__موقعیت_مرکز": "قریه گلزار",
    "Polling_Center_Location": "Gulzar Village",
    "Map_Accuracy": "Building",
    "Map_Accuracy_Dari": "تعمیر",
    "Status": "Open",
    "Status_Dari": null,
    "PS_Male": 2,
    "PS_Female": 1,
    "PS_Total": 3,
    "ولسوالي": "شیرین تگاب",
    "Region": "Northern Region"
   },
   "geometry": {
    "x": 7221733.6882546628,
    "y": 4326452.7643732429
   }
  },
  {
   "attributes": {
    "OBJECTID": 4718,
    "ولایت": "فارياب",
    "Province": "FARYAB",
    "PC_Code": "2906156",
    "District": "SHIRIN TAGAB",
    "د_مرکز_نوم__نام_مرکز": "مسجد کوه صیاد",
    "Polling_Center_Name": "Koh Sayad Mosque",
    "د_مرکز_ځای__موقعیت_مرکز": "قریه کوه صیاد",
    "Polling_Center_Location": "Koh Sayad Village",
    "Map_Accuracy": "Village",
    "Map_Accuracy_Dari": "قریه",
    "Status": "Open",
    "Status_Dari": null,
    "PS_Male": 2,
    "PS_Female": 2,
    "PS_Total": 4,
    "ولسوالي": "شیرین تگاب",
    "Region": "Northern Region"
   },
   "geometry": {
    "x": 7219907.745816634,
    "y": 4337067.7936762739
   }
  },
  {
   "attributes": {
    "OBJECTID": 4719,
    "ولایت": "فارياب",
    "Province": "FARYAB",
    "PC_Code": "2907100",
    "District": "QAISAR",
    "د_مرکز_نوم__نام_مرکز": "مکتب متوسطه ذکور بوری",
    "Polling_Center_Name": "Bori Boys Secondary School",
    "د_مرکز_ځای__موقعیت_مرکز": "بوری",
    "Polling_Center_Location": "Bori",
    "Map_Accuracy": "Building",
    "Map_Accuracy_Dari": "تعمیر",
    "Status": "Open",
    "Status_Dari": null,
    "PS_Male": 2,
    "PS_Female": 1,
    "PS_Total": 3,
    "ولسوالي": "قیصار ",
    "Region": "Northern Region"
   },
   "geometry": {
    "x": 7153628.469428326,
    "y": 4256301.6467538457
   }
  },
  {
   "attributes": {
    "OBJECTID": 4720,
    "ولایت": "فارياب",
    "Province": "FARYAB",
    "PC_Code": "2907111",
    "District": "QAISAR",
    "د_مرکز_نوم__نام_مرکز": "مکتب کوهی",
    "Polling_Center_Name": "Kohi School",
    "د_مرکز_ځای__موقعیت_مرکز": "کوهی",
    "Polling_Center_Location": "Kohi",
    "Map_Accuracy": "Building",
    "Map_Accuracy_Dari": "تعمیر",
    "Status": "Open",
    "Status_Dari": null,
    "PS_Male": 2,
    "PS_Female": 1,
    "PS_Total": 3,
    "ولسوالي": "قیصار ",
    "Region": "Northern Region"
   },
   "geometry": {
    "x": 7159008.928923388,
    "y": 4259572.8397124773
   }
  },
  {
   "attributes": {
    "OBJECTID": 4721,
    "ولایت": "فارياب",
    "Province": "FARYAB",
    "PC_Code": "2908130",
    "District": "GURZIWAN",
    "د_مرکز_نوم__نام_مرکز": "مسجد جامع سرچکان",
    "Polling_Center_Name": "Sarchakan Mosque",
    "د_مرکز_ځای__موقعیت_مرکز": "سرچکان",
    "Polling_Center_Location": "Sarchakan",
    "Map_Accuracy": "Building",
    "Map_Accuracy_Dari": "تعمیر",
    "Status": "Open",
    "Status_Dari": null,
    "PS_Male": 2,
    "PS_Female": 2,
    "PS_Total": 4,
    "ولسوالي": "گرزیوان",
    "Region": "Northern Region"
   },
   "geometry": {
    "x": 7260540.0467974385,
    "y": 4261194.2541895648
   }
  },
  {
   "attributes": {
    "OBJECTID": 4722,
    "ولایت": "فارياب",
    "Province": "FARYAB",
    "PC_Code": "2909162",
    "District": "DAWLAT ABAD",
    "د_مرکز_نوم__نام_مرکز": "مکتب نسوان توپخانه قلعه ",
    "Polling_Center_Name": "Topkhana Qala Girls School",
    "د_مرکز_ځای__موقعیت_مرکز": "توپخانه قلعه ",
    "Polling_Center_Location": "Topkhana Qala",
    "Map_Accuracy": "Building",
    "Map_Accuracy_Dari": "تعمیر",
    "Status": "Open",
    "Status_Dari": null,
    "PS_Male": 3,
    "PS_Female": 2,
    "PS_Total": 5,
    "ولسوالي": "دولت آباد",
    "Region": "Northern Region"
   },
   "geometry": {
    "x": 7226149.8983204719,
    "y": 4352219.649194641
   }
  },
  {
   "attributes": {
    "OBJECTID": 4723,
    "ولایت": "فارياب",
    "Province": "FARYAB",
    "PC_Code": "2911171",
    "District": "QARAM QUL",
    "د_مرکز_نوم__نام_مرکز": "تعمیر ولسوالی قرمقول",
    "Polling_Center_Name": "Qaramqol District Building",
    "د_مرکز_ځای__موقعیت_مرکز": "مرکز قرمقول ",
    "Polling_Center_Location": "Markaz Qaramqol",
    "Map_Accuracy": "Building",
    "Map_Accuracy_Dari": "تعمیر",
    "Status": "Open",
    "Status_Dari": null,
    "PS_Male": 2,
    "PS_Female": 2,
    "PS_Total": 4,
    "ولسوالي": "قرم قل",
    "Region": "Northern Region"
   },
   "geometry": {
    "x": 7242798.0966361184,
    "y": 4420160.638321205
   }
  },
  {
   "attributes": {
    "OBJECTID": 4724,
    "ولایت": "فارياب",
    "Province": "FARYAB",
    "PC_Code": "2911172",
    "District": "QARAM QUL",
    "د_مرکز_نوم__نام_مرکز": "مکتب متوسطه سربند",
    "Polling_Center_Name": "Sarband Secondary School",
    "د_مرکز_ځای__موقعیت_مرکز": "سربند",
    "Polling_Center_Location": "Sarband",
    "Map_Accuracy": "Village",
    "Map_Accuracy_Dari": "قریه",
    "Status": "Open",
    "Status_Dari": null,
    "PS_Male": 1,
    "PS_Female": 1,
    "PS_Total": 2,
    "ولسوالي": "قرم قل",
    "Region": "Northern Region"
   },
   "geometry": {
    "x": 7239267.5377598898,
    "y": 4414629.7267446397
   }
  },
  {
   "attributes": {
    "OBJECTID": 4725,
    "ولایت": "فارياب",
    "Province": "FARYAB",
    "PC_Code": "2912196",
    "District": "QURGHAN",
    "د_مرکز_نوم__نام_مرکز": "مسجد حاجی لار",
    "Polling_Center_Name": "Haji Laar Mosque",
    "د_مرکز_ځای__موقعیت_مرکز": "میر آباد",
    "Polling_Center_Location": "Mir Abad",
    "Map_Accuracy": "Building",
    "Map_Accuracy_Dari": "تعمیر",
    "Status": "Open",
    "Status_Dari": null,
    "PS_Male": 2,
    "PS_Female": 1,
    "PS_Total": 3,
    "ولسوالي": "قرغان",
    "Region": "Northern Region"
   },
   "geometry": {
    "x": 7244886.0217033625,
    "y": 4421861.8710817443
   }
  },
  {
   "attributes": {
    "OBJECTID": 4726,
    "ولایت": "فارياب",
    "Province": "FARYAB",
    "PC_Code": "2913189",
    "District": "ANDKHOY",
    "د_مرکز_نوم__نام_مرکز": "مکتب متوسطه رحمت الله شهید",
    "Polling_Center_Name": "Rahmatullah Shaheed Secondary School",
    "د_مرکز_ځای__موقعیت_مرکز": "اخته چی پایان",
    "Polling_Center_Location": "Akhta Chi Payan",
    "Map_Accuracy": "Building",
    "Map_Accuracy_Dari": "تعمیر",
    "Status": "Open",
    "Status_Dari": null,
    "PS_Male": 3,
    "PS_Female": 2,
    "PS_Total": 5,
    "ولسوالي": "اندخوی",
    "Region": "Northern Region"
   },
   "geometry": {
    "x": 7249225.2409829488,
    "y": 4425762.8581264624
   }
  },
  {
   "attributes": {
    "OBJECTID": 4727,
    "ولایت": "هلمند",
    "Province": "HELMAND",
    "PC_Code": "3001005",
    "District": "LASHKARGAH",
    "د_مرکز_نوم__نام_مرکز": "د هلكانو ليسه",
    "Polling_Center_Name": "Boys High School",
    "د_مرکز_ځای__موقعیت_مرکز": "ناحیه 2",
    "Polling_Center_Location": "D02 - Nahia 2",
    "Map_Accuracy": "Building",
    "Map_Accuracy_Dari": "تعمیر",
    "Status": "Open",
    "Status_Dari": null,
    "PS_Male": 7,
    "PS_Female": 0,
    "PS_Total": 7,
    "ولسوالي": "لشکرگاه",
    "Region": "Southern Region"
   },
   "geometry": {
    "x": 7165079.7050711513,
    "y": 3708855.0695307581
   }
  },
  {
   "attributes": {
    "OBJECTID": 4728,
    "ولایت": "هلمند",
    "Province": "HELMAND",
    "PC_Code": "3001016",
    "District": "LASHKARGAH",
    "د_مرکز_نوم__نام_مرکز": "د خروټو مسجد",
    "Polling_Center_Name": "Kharoto Mosque",
    "د_مرکز_ځای__موقعیت_مرکز": "صافیان",
    "Polling_Center_Location": "Safiyan",
    "Map_Accuracy": "Building",
    "Map_Accuracy_Dari": "تعمیر",
    "Status": "Open",
    "Status_Dari": null,
    "PS_Male": 4,
    "PS_Female": 3,
    "PS_Total": 7,
    "ولسوالي": "لشکرگاه",
    "Region": "Southern Region"
   },
   "geometry": {
    "x": 7166471.6974173822,
    "y": 3708241.3540282194
   }
  },
  {
   "attributes": {
    "OBJECTID": 4729,
    "ولایت": "هلمند",
    "Province": "HELMAND",
    "PC_Code": "3001017",
    "District": "LASHKARGAH",
    "د_مرکز_نوم__نام_مرکز": "د نیک محمد کور",
    "Polling_Center_Name": "Nek Mohammad Private House",
    "د_مرکز_ځای__موقعیت_مرکز": "لوی کاریز",
    "Polling_Center_Location": "Loy Karez",
    "Map_Accuracy": "Building",
    "Map_Accuracy_Dari": "تعمیر",
    "Status": "Open",
    "Status_Dari": null,
    "PS_Male": 4,
    "PS_Female": 1,
    "PS_Total": 5,
    "ولسوالي": "لشکرگاه",
    "Region": "Southern Region"
   },
   "geometry": {
    "x": 7164309.0313308258,
    "y": 3701982.1884273845
   }
  },
  {
   "attributes": {
    "OBJECTID": 4730,
    "ولایت": "هلمند",
    "Province": "HELMAND",
    "PC_Code": "3001027",
    "District": "LASHKARGAH",
    "د_مرکز_نوم__نام_مرکز": "زوړ مکتب باباجی",
    "Polling_Center_Name": "Zor School Babaji",
    "د_مرکز_ځای__موقعیت_مرکز": "دولیزو کلی",
    "Polling_Center_Location": "Dolizo Village",
    "Map_Accuracy": "Building",
    "Map_Accuracy_Dari": "تعمیر",
    "Status": "Open",
    "Status_Dari": null,
    "PS_Male": 2,
    "PS_Female": 2,
    "PS_Total": 4,
    "ولسوالي": "لشکرگاه",
    "Region": "Southern Region"
   },
   "geometry": {
    "x": 7161674.6689395402,
    "y": 3719656.3768523075
   }
  },
  {
   "attributes": {
    "OBJECTID": 4731,
    "ولایت": "هلمند",
    "Province": "HELMAND",
    "PC_Code": "3001028",
    "District": "LASHKARGAH",
    "د_مرکز_نوم__نام_مرکز": "خانه ابراهیم خان",
    "Polling_Center_Name": "Ibrahim Khan Private House",
    "د_مرکز_ځای__موقعیت_مرکز": "باباجی",
    "Polling_Center_Location": "Babaji",
    "Map_Accuracy": "Building",
    "Map_Accuracy_Dari": "تعمیر",
    "Status": "Open",
    "Status_Dari": null,
    "PS_Male": 2,
    "PS_Female": 2,
    "PS_Total": 4,
    "ولسوالي": "لشکرگاه",
    "Region": "Southern Region"
   },
   "geometry": {
    "x": 7167397.4759438122,
    "y": 3725689.1325585968
   }
  },
  {
   "attributes": {
    "OBJECTID": 4732,
    "ولایت": "هلمند",
    "Province": "HELMAND",
    "PC_Code": "3002068",
    "District": "NAD ALI",
    "د_مرکز_نوم__نام_مرکز": "مكتب ابتدائيه ",
    "Polling_Center_Name": "Primary School",
    "د_مرکز_ځای__موقعیت_مرکز": "لوی مانده",
    "Polling_Center_Location": "Loy Maanda",
    "Map_Accuracy": "Village",
    "Map_Accuracy_Dari": "قریه",
    "Status": "Open",
    "Status_Dari": null,
    "PS_Male": 4,
    "PS_Female": 0,
    "PS_Total": 4,
    "ولسوالي": "نادعلی",
    "Region": "Southern Region"
   },
   "geometry": {
    "x": 7113571.7492142562,
    "y": 3736646.0714409202
   }
  },
  {
   "attributes": {
    "OBJECTID": 4733,
    "ولایت": "هلمند",
    "Province": "HELMAND",
    "PC_Code": "3003090",
    "District": "NAWA-E-BARAKZAYI",
    "د_مرکز_نوم__نام_مرکز": "د حاجی غلام علي مسجد",
    "Polling_Center_Name": "Haji Ghulam Ali Mosque",
    "د_مرکز_ځای__موقعیت_مرکز": "تریخ زابر",
    "Polling_Center_Location": "Treekh Zabar",
    "Map_Accuracy": "Building",
    "Map_Accuracy_Dari": "تعمیر",
    "Status": "Open",
    "Status_Dari": null,
    "PS_Male": 3,
    "PS_Female": 1,
    "PS_Total": 4,
    "ولسوالي": "ناوه بارکزایی",
    "Region": "Southern Region"
   },
   "geometry": {
    "x": 7158422.0202852739,
    "y": 3695190.479231888
   }
  },
  {
   "attributes": {
    "OBJECTID": 4734,
    "ولایت": "هلمند",
    "Province": "HELMAND",
    "PC_Code": "3003101",
    "District": "NAWA-E-BARAKZAYI",
    "د_مرکز_نوم__نام_مرکز": "د لوی کلی مكتب",
    "Polling_Center_Name": "Loy Village School",
    "د_مرکز_ځای__موقعیت_مرکز": "لوی کلی",
    "Polling_Center_Location": "Loy Village",
    "Map_Accuracy": "Building",
    "Map_Accuracy_Dari": "تعمیر",
    "Status": "Open",
    "Status_Dari": null,
    "PS_Male": 3,
    "PS_Female": 0,
    "PS_Total": 3,
    "ولسوالي": "ناوه بارکزایی",
    "Region": "Southern Region"
   },
   "geometry": {
    "x": 7149047.1983837895,
    "y": 3663636.247671586
   }
  },
  {
   "attributes": {
    "OBJECTID": 4735,
    "ولایت": "هلمند",
    "Province": "HELMAND",
    "PC_Code": "3006126",
    "District": "GARM SER",
    "د_مرکز_نوم__نام_مرکز": "د ولسوالي مركزی مكتب",
    "Polling_Center_Name": "District Center School",
    "د_مرکز_ځای__موقعیت_مرکز": "د حاجی محمد لعل کلي",
    "Polling_Center_Location": "Haji Mohammad Lal Village",
    "Map_Accuracy": "Building",
    "Map_Accuracy_Dari": "تعمیر",
    "Status": "Open",
    "Status_Dari": null,
    "PS_Male": 2,
    "PS_Female": 1,
    "PS_Total": 3,
    "ولسوالي": "گرم سیر",
    "Region": "Southern Region"
   },
   "geometry": {
    "x": 7146565.6406952981,
    "y": 3649747.0506042251
   }
  },
  {
   "attributes": {
    "OBJECTID": 4736,
    "ولایت": "هلمند",
    "Province": "HELMAND",
    "PC_Code": "3009189",
    "District": "MUSA QALA",
    "د_مرکز_نوم__نام_مرکز": "مارکیت لعل جان",
    "Polling_Center_Name": "Lal Jan Market",
    "د_مرکز_ځای__موقعیت_مرکز": "چنه سفلی",
    "Polling_Center_Location": "Chena Sufla",
    "Map_Accuracy": "Building",
    "Map_Accuracy_Dari": "تعمیر",
    "Status": "Open",
    "Status_Dari": null,
    "PS_Male": 4,
    "PS_Female": 3,
    "PS_Total": 7,
    "ولسوالي": "موسی قلعه",
    "Region": "Southern Region"
   },
   "geometry": {
    "x": 7210530.2664962672,
    "y": 3808037.8534955117
   }
  },
  {
   "attributes": {
    "OBJECTID": 4737,
    "ولایت": "هلمند",
    "Province": "HELMAND",
    "PC_Code": "3011212",
    "District": "REG-E-KHAN NISHIN",
    "د_مرکز_نوم__نام_مرکز": "د دوست محمد مسجد",
    "Polling_Center_Name": "Dost Mohammad Mosque",
    "د_مرکز_ځای__موقعیت_مرکز": "قلعه ګو لو  مکتب",
    "Polling_Center_Location": "Qala-e-Golo Maktab",
    "Map_Accuracy": "District",
    "Map_Accuracy_Dari": "ولسوالی",
    "Status": "Open",
    "Status_Dari": null,
    "PS_Male": 4,
    "PS_Female": 0,
    "PS_Total": 4,
    "ولسوالي": "ریگ خانشین",
    "Region": "Southern Region"
   },
   "geometry": {
    "x": 7063726.5035732565,
    "y": 3591967.1514361706
   }
  },
  {
   "attributes": {
    "OBJECTID": 4738,
    "ولایت": "هلمند",
    "Province": "HELMAND",
    "PC_Code": "3014072",
    "District": "MARJA",
    "د_مرکز_نوم__نام_مرکز": "لیسه مار جه ",
    "Polling_Center_Name": "Marja High School",
    "د_مرکز_ځای__موقعیت_مرکز": "بلاک ۲۵",
    "Polling_Center_Location": "Block 25",
    "Map_Accuracy": "Village",
    "Map_Accuracy_Dari": "قریه",
    "Status": "Open",
    "Status_Dari": null,
    "PS_Male": 3,
    "PS_Female": 1,
    "PS_Total": 4,
    "ولسوالي": "مارجه",
    "Region": "Southern Region"
   },
   "geometry": {
    "x": 7138064.1745229959,
    "y": 3702690.8190369853
   }
  },
  {
   "attributes": {
    "OBJECTID": 4739,
    "ولایت": "هلمند",
    "Province": "HELMAND",
    "PC_Code": "3014088",
    "District": "MARJA",
    "د_مرکز_نوم__نام_مرکز": "تعمیر(کوچی مرکز) شین غزک",
    "Polling_Center_Name": "Sheen Ghazak Buliding (Kochi Center)",
    "د_مرکز_ځای__موقعیت_مرکز": "شین غزک",
    "Polling_Center_Location": "Sheen Ghazak",
    "Map_Accuracy": "Village",
    "Map_Accuracy_Dari": "قریه",
    "Status": "Open",
    "Status_Dari": null,
    "PS_Male": 1,
    "PS_Female": 1,
    "PS_Total": 2,
    "ولسوالي": "مارجه",
    "Region": "Southern Region"
   },
   "geometry": {
    "x": 7130579.2142658764,
    "y": 3670834.4199363631
   }
  },
  {
   "attributes": {
    "OBJECTID": 4740,
    "ولایت": "بادغيس",
    "Province": "BADGHIS",
    "PC_Code": "3101010",
    "District": "QALA-E-NOW",
    "د_مرکز_نوم__نام_مرکز": "مکتب  قریه کندلان",
    "Polling_Center_Name": "Kandalan Village School",
    "د_مرکز_ځای__موقعیت_مرکز": "قریه سرچشمه کندلان",
    "Polling_Center_Location": "Kandalan Sar Cheshma Village",
    "Map_Accuracy": "Building",
    "Map_Accuracy_Dari": "تعمیر",
    "Status": "Open",
    "Status_Dari": null,
    "PS_Male": 3,
    "PS_Female": 2,
    "PS_Total": 5,
    "ولسوالي": "قلعه نو",
    "Region": "Western Region"
   },
   "geometry": {
    "x": 7027221.1177919805,
    "y": 4154591.7461553495
   }
  },
  {
   "attributes": {
    "OBJECTID": 4741,
    "ولایت": "بادغيس",
    "Province": "BADGHIS",
    "PC_Code": "3102041",
    "District": "AB KAMARI",
    "د_مرکز_نوم__نام_مرکز": "مسجد قریه گل خانه",
    "Polling_Center_Name": "Gulkhana Village Mosque",
    "د_مرکز_ځای__موقعیت_مرکز": "گل خانه",
    "Polling_Center_Location": "Gulkhana ",
    "Map_Accuracy": "Building",
    "Map_Accuracy_Dari": "تعمیر",
    "Status": "Open",
    "Status_Dari": null,
    "PS_Male": 1,
    "PS_Female": 1,
    "PS_Total": 2,
    "ولسوالي": "آبکمری",
    "Region": "Western Region"
   },
   "geometry": {
    "x": 7011140.1156590162,
    "y": 4139056.4346108455
   }
  },
  {
   "attributes": {
    "OBJECTID": 4742,
    "ولایت": "بادغيس",
    "Province": "BADGHIS",
    "PC_Code": "3103026",
    "District": "MUQUR",
    "د_مرکز_نوم__نام_مرکز": "مکتب اندری",
    "Polling_Center_Name": "Andari School",
    "د_مرکز_ځای__موقعیت_مرکز": "اندری ",
    "Polling_Center_Location": "Andari ",
    "Map_Accuracy": "Building",
    "Map_Accuracy_Dari": "تعمیر",
    "Status": "Open",
    "Status_Dari": null,
    "PS_Male": 1,
    "PS_Female": 1,
    "PS_Total": 2,
    "ولسوالي": "مقر",
    "Region": "Western Region"
   },
   "geometry": {
    "x": 7045517.3154528188,
    "y": 4163279.2239466789
   }
  },
  {
   "attributes": {
    "OBJECTID": 4743,
    "ولایت": "بادغيس",
    "Province": "BADGHIS",
    "PC_Code": "3104062",
    "District": "QADIS",
    "د_مرکز_نوم__نام_مرکز": "مسجد جامع قریه زیارت",
    "Polling_Center_Name": "Zeyarat Village",
    "د_مرکز_ځای__موقعیت_مرکز": "زیارت",
    "Polling_Center_Location": "Ziarat ",
    "Map_Accuracy": "Building",
    "Map_Accuracy_Dari": "تعمیر",
    "Status": "Open",
    "Status_Dari": null,
    "PS_Male": 1,
    "PS_Female": 1,
    "PS_Total": 2,
    "ولسوالي": "قادس",
    "Region": "Western Region"
   },
   "geometry": {
    "x": 7069814.4841483207,
    "y": 4135112.8468331243
   }
  },
  {
   "attributes": {
    "OBJECTID": 4744,
    "ولایت": "بادغيس",
    "Province": "BADGHIS",
    "PC_Code": "3104084",
    "District": "QADIS",
    "د_مرکز_نوم__نام_مرکز": "تعمیر ولسوالی دره بوم",
    "Polling_Center_Name": "Darra-e-Bom District Building",
    "د_مرکز_ځای__موقعیت_مرکز": " دره بوم",
    "Polling_Center_Location": "Darra-e- Bom ",
    "Map_Accuracy": "Village",
    "Map_Accuracy_Dari": "قریه",
    "Status": "Open",
    "Status_Dari": null,
    "PS_Male": 2,
    "PS_Female": 1,
    "PS_Total": 3,
    "ولسوالي": "قادس",
    "Region": "Western Region"
   },
   "geometry": {
    "x": 7064778.4616293032,
    "y": 4175757.7031341144
   }
  },
  {
   "attributes": {
    "OBJECTID": 4745,
    "ولایت": "بادغيس",
    "Province": "BADGHIS",
    "PC_Code": "3106102",
    "District": "JAWAND",
    "د_مرکز_نوم__نام_مرکز": "مکتب تگاب بیست",
    "Polling_Center_Name": "Tagab Beest Village",
    "د_مرکز_ځای__موقعیت_مرکز": "تگاب بیست",
    "Polling_Center_Location": "Tagab Beest",
    "Map_Accuracy": "Building",
    "Map_Accuracy_Dari": "تعمیر",
    "Status": "Open",
    "Status_Dari": null,
    "PS_Male": 1,
    "PS_Female": 1,
    "PS_Total": 2,
    "ولسوالي": "جوند",
    "Region": "Western Region"
   },
   "geometry": {
    "x": 7167643.144701655,
    "y": 4152196.5103052827
   }
  },
  {
   "attributes": {
    "OBJECTID": 4746,
    "ولایت": "بادغيس",
    "Province": "BADGHIS",
    "PC_Code": "3106114",
    "District": "JAWAND",
    "د_مرکز_نوم__نام_مرکز": "مسجدشور آبک",
    "Polling_Center_Name": "Shur Aabak Mosque",
    "د_مرکز_ځای__موقعیت_مرکز": " شور آبک",
    "Polling_Center_Location": "Shur Aabak",
    "Map_Accuracy": "Village",
    "Map_Accuracy_Dari": "قریه",
    "Status": "Open",
    "Status_Dari": null,
    "PS_Male": 1,
    "PS_Female": 1,
    "PS_Total": 2,
    "ولسوالي": "جوند",
    "Region": "Western Region"
   },
   "geometry": {
    "x": 7168406.0494547123,
    "y": 4127501.8843983249
   }
  },
  {
   "attributes": {
    "OBJECTID": 4747,
    "ولایت": "بادغيس",
    "Province": "BADGHIS",
    "PC_Code": "3106179",
    "District": "JAWAND",
    "د_مرکز_نوم__نام_مرکز": "مسجد دهن درم الله یار",
    "Polling_Center_Name": "Dahan Daramullah yar Mosque",
    "د_مرکز_ځای__موقعیت_مرکز": "دهن درم الله یار",
    "Polling_Center_Location": "Dahan Daramullah yar",
    "Map_Accuracy": "Building",
    "Map_Accuracy_Dari": "تعمیر",
    "Status": "Open",
    "Status_Dari": null,
    "PS_Male": 1,
    "PS_Female": 1,
    "PS_Total": 2,
    "ولسوالي": "جوند",
    "Region": "Western Region"
   },
   "geometry": {
    "x": 7198524.2768502515,
    "y": 4135165.9700737912
   }
  },
  {
   "attributes": {
    "OBJECTID": 4748,
    "ولایت": "هرات",
    "Province": "HERAT",
    "PC_Code": "3201010",
    "District": "HERAT",
    "د_مرکز_نوم__نام_مرکز": "لیسه مهری",
    "Polling_Center_Name": "Mehri High School",
    "د_مرکز_ځای__موقعیت_مرکز": " ناحیه پنجم",
    "Polling_Center_Location": "D05 - Nahia 5",
    "Map_Accuracy": "Building",
    "Map_Accuracy_Dari": "تعمیر",
    "Status": "Open",
    "Status_Dari": null,
    "PS_Male": 6,
    "PS_Female": 7,
    "PS_Total": 13,
    "ولسوالي": "هرات",
    "Region": "Western Region"
   },
   "geometry": {
    "x": 6922920.6225690451,
    "y": 4076058.3668378117
   }
  },
  {
   "attributes": {
    "OBJECTID": 4749,
    "ولایت": "هرات",
    "Province": "HERAT",
    "PC_Code": "3201020",
    "District": "HERAT",
    "د_مرکز_نوم__نام_مرکز": "مجتمع خواهران",
    "Polling_Center_Name": "Mojtameh Khwaharan ",
    "د_مرکز_ځای__موقعیت_مرکز": " ناحیه هفتم",
    "Polling_Center_Location": "D10 - Nahia 10",
    "Map_Accuracy": "Village",
    "Map_Accuracy_Dari": "قریه",
    "Status": "Open",
    "Status_Dari": null,
    "PS_Male": 0,
    "PS_Female": 6,
    "PS_Total": 6,
    "ولسوالي": "هرات",
    "Region": "Western Region"
   },
   "geometry": {
    "x": 6923008.5070806351,
    "y": 4075515.713851403
   }
  },
  {
   "attributes": {
    "OBJECTID": 4750,
    "ولایت": "هرات",
    "Province": "HERAT",
    "PC_Code": "3201031",
    "District": "HERAT",
    "د_مرکز_نوم__نام_مرکز": "لیسه سیفی",
    "Polling_Center_Name": "Seefi High school",
    "د_مرکز_ځای__موقعیت_مرکز": " ناحیه دهم",
    "Polling_Center_Location": "D10 - Nahia 10",
    "Map_Accuracy": "Building",
    "Map_Accuracy_Dari": "تعمیر",
    "Status": "Open",
    "Status_Dari": null,
    "PS_Male": 6,
    "PS_Female": 7,
    "PS_Total": 13,
    "ولسوالي": "هرات",
    "Region": "Western Region"
   },
   "geometry": {
    "x": 6922627.203315624,
    "y": 4073220.8587535033
   }
  },
  {
   "attributes": {
    "OBJECTID": 4751,
    "ولایت": "هرات",
    "Province": "HERAT",
    "PC_Code": "3201433",
    "District": "HERAT",
    "د_مرکز_نوم__نام_مرکز": "مسجد شهرک صنعتی",
    "Polling_Center_Name": "Shahrak-e-Sanhati",
    "د_مرکز_ځای__موقعیت_مرکز": "ولسوالی گذره مقابل میدان هوایی",
    "Polling_Center_Location": "Guzara District inside of Airport",
    "Map_Accuracy": "Building",
    "Map_Accuracy_Dari": "تعمیر",
    "Status": "Open",
    "Status_Dari": null,
    "PS_Male": 6,
    "PS_Female": 0,
    "PS_Total": 6,
    "ولسوالي": "هرات",
    "Region": "Western Region"
   },
   "geometry": {
    "x": 6926216.9362935768,
    "y": 4057249.9658474922
   }
  },
  {
   "attributes": {
    "OBJECTID": 4752,
    "ولایت": "هرات",
    "Province": "HERAT",
    "PC_Code": "3202044",
    "District": "ENJIL",
    "د_مرکز_نوم__نام_مرکز": "ليسه نوين عليا",
    "Polling_Center_Name": "Khalifa saheb nawin",
    "د_مرکز_ځای__موقعیت_مرکز": "قریه نوین علیا",
    "Polling_Center_Location": "Naween Ulya Village",
    "Map_Accuracy": "Building",
    "Map_Accuracy_Dari": "تعمیر",
    "Status": "Open",
    "Status_Dari": null,
    "PS_Male": 2,
    "PS_Female": 1,
    "PS_Total": 3,
    "ولسوالي": "انجیل",
    "Region": "Western Region"
   },
   "geometry": {
    "x": 6930781.6087114774,
    "y": 4067534.0239971094
   }
  },
  {
   "attributes": {
    "OBJECTID": 4753,
    "ولایت": "هرات",
    "Province": "HERAT",
    "PC_Code": "3202054",
    "District": "ENJIL",
    "د_مرکز_نوم__نام_مرکز": "مکتب ابتدایی صوفیان",
    "Polling_Center_Name": "Sofiyan primary School ",
    "د_مرکز_ځای__موقعیت_مرکز": "قریه صوفیان",
    "Polling_Center_Location": "Sofiyan Village",
    "Map_Accuracy": "Building",
    "Map_Accuracy_Dari": "تعمیر",
    "Status": "Open",
    "Status_Dari": null,
    "PS_Male": 2,
    "PS_Female": 1,
    "PS_Total": 3,
    "ولسوالي": "انجیل",
    "Region": "Western Region"
   },
   "geometry": {
    "x": 6911749.2185225924,
    "y": 4074029.9704624666
   }
  },
  {
   "attributes": {
    "OBJECTID": 4754,
    "ولایت": "هرات",
    "Province": "HERAT",
    "PC_Code": "3202055",
    "District": "ENJIL",
    "د_مرکز_نوم__نام_مرکز": "مکتب متوسطه پروانه",
    "Polling_Center_Name": "Parwana Secondary School ",
    "د_مرکز_ځای__موقعیت_مرکز": "قریه پروانه",
    "Polling_Center_Location": "Parwana Village  ",
    "Map_Accuracy": "Building",
    "Map_Accuracy_Dari": "تعمیر",
    "Status": "Open",
    "Status_Dari": null,
    "PS_Male": 2,
    "PS_Female": 1,
    "PS_Total": 3,
    "ولسوالي": "انجیل",
    "Region": "Western Region"
   },
   "geometry": {
    "x": 6925063.264505595,
    "y": 4096735.9953306289
   }
  },
  {
   "attributes": {
    "OBJECTID": 4755,
    "ولایت": "هرات",
    "Province": "HERAT",
    "PC_Code": "3202065",
    "District": "ENJIL",
    "د_مرکز_نوم__نام_مرکز": "مکتب متوسطه سروستان",
    "Polling_Center_Name": "Srorestan Secondary School",
    "د_مرکز_ځای__موقعیت_مرکز": "قریه  سروستان",
    "Polling_Center_Location": "Srorestan Village ",
    "Map_Accuracy": "Building",
    "Map_Accuracy_Dari": "تعمیر",
    "Status": "Open",
    "Status_Dari": null,
    "PS_Male": 3,
    "PS_Female": 2,
    "PS_Total": 5,
    "ولسوالي": "انجیل",
    "Region": "Western Region"
   },
   "geometry": {
    "x": 6927007.9558972316,
    "y": 4070639.0071487874
   }
  },
  {
   "attributes": {
    "OBJECTID": 4756,
    "ولایت": "هرات",
    "Province": "HERAT",
    "PC_Code": "3203092",
    "District": "GUZARA",
    "د_مرکز_نوم__نام_مرکز": "لیسه شمس الدین کورت",
    "Polling_Center_Name": "Shamsudeen-e-kort High School",
    "د_مرکز_ځای__موقعیت_مرکز": "قریه گوشمیر",
    "Polling_Center_Location": "Goshmeer Village",
    "Map_Accuracy": "Building",
    "Map_Accuracy_Dari": "تعمیر",
    "Status": "Open",
    "Status_Dari": null,
    "PS_Male": 2,
    "PS_Female": 1,
    "PS_Total": 3,
    "ولسوالي": "گذره",
    "Region": "Western Region"
   },
   "geometry": {
    "x": 6919475.9678306635,
    "y": 4064882.5386436186
   }
  },
  {
   "attributes": {
    "OBJECTID": 4757,
    "ولایت": "هرات",
    "Province": "HERAT",
    "PC_Code": "3203103",
    "District": "GUZARA",
    "د_مرکز_نوم__نام_مرکز": "مکتب متوسطه تنغارشان",
    "Polling_Center_Name": "Tangharshan Scondary School ",
    "د_مرکز_ځای__موقعیت_مرکز": "قریه تنغارشان ",
    "Polling_Center_Location": "Tangharshan Village ",
    "Map_Accuracy": "Building",
    "Map_Accuracy_Dari": "تعمیر",
    "Status": "Open",
    "Status_Dari": null,
    "PS_Male": 1,
    "PS_Female": 1,
    "PS_Total": 2,
    "ولسوالي": "گذره",
    "Region": "Western Region"
   },
   "geometry": {
    "x": 6915458.3182773292,
    "y": 4062475.8968260447
   }
  },
  {
   "attributes": {
    "OBJECTID": 4758,
    "ولایت": "هرات",
    "Province": "HERAT",
    "PC_Code": "3203114",
    "District": "GUZARA",
    "د_مرکز_نوم__نام_مرکز": "مکتب متوسطه پشت کوه ملا یاسین ",
    "Polling_Center_Name": "Pusht-e- Koh Mullah Yasin Secondary School ",
    "د_مرکز_ځای__موقعیت_مرکز": "پشت کوه ملا یاسین ",
    "Polling_Center_Location": "Pusht-e- Koh Mulla Yasin",
    "Map_Accuracy": "Building",
    "Map_Accuracy_Dari": "تعمیر",
    "Status": "Open",
    "Status_Dari": null,
    "PS_Male": 1,
    "PS_Female": 1,
    "PS_Total": 2,
    "ولسوالي": "گذره",
    "Region": "Western Region"
   },
   "geometry": {
    "x": 6916790.388454861,
    "y": 4041999.4988083732
   }
  },
  {
   "attributes": {
    "OBJECTID": 4759,
    "ولایت": "هرات",
    "Province": "HERAT",
    "PC_Code": "3204153",
    "District": "KARRUKH",
    "د_مرکز_نوم__نام_مرکز": "مکتب علی آباد ",
    "Polling_Center_Name": "Ali Abad School ",
    "د_مرکز_ځای__موقعیت_مرکز": "علی آباد ",
    "Polling_Center_Location": "Ali Abad ",
    "Map_Accuracy": "Building",
    "Map_Accuracy_Dari": "تعمیر",
    "Status": "Open",
    "Status_Dari": null,
    "PS_Male": 2,
    "PS_Female": 1,
    "PS_Total": 3,
    "ولسوالي": "کرخ ",
    "Region": "Western Region"
   },
   "geometry": {
    "x": 6955371.5910823643,
    "y": 4096615.0156950764
   }
  },
  {
   "attributes": {
    "OBJECTID": 4760,
    "ولایت": "هرات",
    "Province": "HERAT",
    "PC_Code": "3205267",
    "District": "ZENDAJAN",
    "د_مرکز_نوم__نام_مرکز": "تعمیر جدید چشمه غوری",
    "Polling_Center_Name": "Chashma-e- Ghori New Buiding ",
    "د_مرکز_ځای__موقعیت_مرکز": " چشمه غوری",
    "Polling_Center_Location": "Chashma-e- Ghori",
    "Map_Accuracy": "Village",
    "Map_Accuracy_Dari": "قریه",
    "Status": "Open",
    "Status_Dari": null,
    "PS_Male": 1,
    "PS_Female": 1,
    "PS_Total": 2,
    "ولسوالي": "زنده جان ",
    "Region": "Western Region"
   },
   "geometry": {
    "x": 6895404.4070075685,
    "y": 4095573.8570287381
   }
  },
  {
   "attributes": {
    "OBJECTID": 4761,
    "ولایت": "هرات",
    "Province": "HERAT",
    "PC_Code": "3206120",
    "District": "PASHTUN ZARGHUN",
    "د_مرکز_نوم__نام_مرکز": "مسجد دوغ آباد",
    "Polling_Center_Name": "Dogh Abad Mosque ",
    "د_مرکز_ځای__موقعیت_مرکز": "قریه دوغ آباد",
    "Polling_Center_Location": "Dogh Abad Village ",
    "Map_Accuracy": "Building",
    "Map_Accuracy_Dari": "تعمیر",
    "Status": "Open",
    "Status_Dari": null,
    "PS_Male": 2,
    "PS_Female": 1,
    "PS_Total": 3,
    "ولسوالي": "پشتون زرغون",
    "Region": "Western Region"
   },
   "geometry": {
    "x": 6976363.8310379451,
    "y": 4060226.7701977105
   }
  },
  {
   "attributes": {
    "OBJECTID": 4762,
    "ولایت": "هرات",
    "Province": "HERAT",
    "PC_Code": "3206132",
    "District": "PASHTUN ZARGHUN",
    "د_مرکز_نوم__نام_مرکز": "مکتب بوکه ",
    "Polling_Center_Name": "Buka School ",
    "د_مرکز_ځای__موقعیت_مرکز": "قریه بوکه ",
    "Polling_Center_Location": "Buka Village ",
    "Map_Accuracy": "Building",
    "Map_Accuracy_Dari": "تعمیر",
    "Status": "Open",
    "Status_Dari": null,
    "PS_Male": 2,
    "PS_Female": 1,
    "PS_Total": 3,
    "ولسوالي": "پشتون زرغون",
    "Region": "Western Region"
   },
   "geometry": {
    "x": 6953366.5389232412,
    "y": 4062849.8694199747
   }
  },
  {
   "attributes": {
    "OBJECTID": 4763,
    "ولایت": "هرات",
    "Province": "HERAT",
    "PC_Code": "3206133",
    "District": "PASHTUN ZARGHUN",
    "د_مرکز_نوم__نام_مرکز": "مسجد چیورشی ",
    "Polling_Center_Name": "Cheorshi Mosque",
    "د_مرکز_ځای__موقعیت_مرکز": "قریه چیورشی ",
    "Polling_Center_Location": "Cheorshi Village ",
    "Map_Accuracy": "Village",
    "Map_Accuracy_Dari": "قریه",
    "Status": "Open",
    "Status_Dari": null,
    "PS_Male": 2,
    "PS_Female": 0,
    "PS_Total": 2,
    "ولسوالي": "پشتون زرغون",
    "Region": "Western Region"
   },
   "geometry": {
    "x": 6998359.0150777763,
    "y": 4059298.3380611935
   }
  },
  {
   "attributes": {
    "OBJECTID": 4764,
    "ولایت": "هرات",
    "Province": "HERAT",
    "PC_Code": "3206141",
    "District": "PASHTUN ZARGHUN",
    "د_مرکز_نوم__نام_مرکز": "مسجد گوشک ",
    "Polling_Center_Name": "Gushak Mosque",
    "د_مرکز_ځای__موقعیت_مرکز": "قریه گوشک ",
    "Polling_Center_Location": "Goshak Village ",
    "Map_Accuracy": "Building",
    "Map_Accuracy_Dari": "تعمیر",
    "Status": "Open",
    "Status_Dari": null,
    "PS_Male": 1,
    "PS_Female": 1,
    "PS_Total": 2,
    "ولسوالي": "پشتون زرغون",
    "Region": "Western Region"
   },
   "geometry": {
    "x": 6975432.6813460877,
    "y": 4068171.1141960179
   }
  },
  {
   "attributes": {
    "OBJECTID": 4765,
    "ولایت": "هرات",
    "Province": "HERAT",
    "PC_Code": "3207166",
    "District": "KUSHK (RUBAT-E-SANGI)",
    "د_مرکز_نوم__نام_مرکز": "لیسه دخترانه مرکز کشک رباط سنگی دوم",
    "Polling_Center_Name": "Kashak Rubat Sangi duowm Girls High School",
    "د_مرکز_ځای__موقعیت_مرکز": "مرکز کشک رباط سنگی دوم",
    "Polling_Center_Location": "Markaz-e-Kashak Rubat  Sang Duowm ",
    "Map_Accuracy": "Building",
    "Map_Accuracy_Dari": "تعمیر",
    "Status": "Open",
    "Status_Dari": null,
    "PS_Male": 1,
    "PS_Female": 3,
    "PS_Total": 4,
    "ولسوالي": "کشک (رباط سنگی)",
    "Region": "Western Region"
   },
   "geometry": {
    "x": 6916959.5762697496,
    "y": 4136350.2683044053
   }
  },
  {
   "attributes": {
    "OBJECTID": 4766,
    "ولایت": "هرات",
    "Province": "HERAT",
    "PC_Code": "3207174",
    "District": "KUSHK (RUBAT-E-SANGI)",
    "د_مرکز_نوم__نام_مرکز": "مکتب دوغی دیزوری دوم",
    "Polling_Center_Name": "Doghi School ",
    "د_مرکز_ځای__موقعیت_مرکز": "قریه دیزوری دوم",
    "Polling_Center_Location": "Deh Zuri Duowm Village ",
    "Map_Accuracy": "Building",
    "Map_Accuracy_Dari": "تعمیر",
    "Status": "Open",
    "Status_Dari": null,
    "PS_Male": 0,
    "PS_Female": 2,
    "PS_Total": 2,
    "ولسوالي": "کشک (رباط سنگی)",
    "Region": "Western Region"
   },
   "geometry": {
    "x": 6920016.0610569306,
    "y": 4150176.0334220296
   }
  },
  {
   "attributes": {
    "OBJECTID": 4767,
    "ولایت": "هرات",
    "Province": "HERAT",
    "PC_Code": "3207184",
    "District": "KUSHK (RUBAT-E-SANGI)",
    "د_مرکز_نوم__نام_مرکز": "مکتب خلاوک ها",
    "Polling_Center_Name": "Khalawakha School ",
    "د_مرکز_ځای__موقعیت_مرکز": "قریه خلاوک های علیا و سفلی",
    "Polling_Center_Location": "Khalawakha-e-Ulya and Sufla Village  ",
    "Map_Accuracy": "Building",
    "Map_Accuracy_Dari": "تعمیر",
    "Status": "Open",
    "Status_Dari": null,
    "PS_Male": 2,
    "PS_Female": 1,
    "PS_Total": 3,
    "ولسوالي": "کشک (رباط سنگی)",
    "Region": "Western Region"
   },
   "geometry": {
    "x": 6928120.0275915032,
    "y": 4170111.4562411187
   }
  },
  {
   "attributes": {
    "OBJECTID": 4768,
    "ولایت": "هرات",
    "Province": "HERAT",
    "PC_Code": "3207193",
    "District": "KUSHK (RUBAT-E-SANGI)",
    "د_مرکز_نوم__نام_مرکز": "تعمیر حمام چهل دختر اول",
    "Polling_Center_Name": "Tamer Hamam Chel Dukhtar Awal",
    "د_مرکز_ځای__موقعیت_مرکز": "چهل دخترعلیا ",
    "Polling_Center_Location": "Chehl Dokhtar Ulya",
    "Map_Accuracy": "Building",
    "Map_Accuracy_Dari": "تعمیر",
    "Status": "Open",
    "Status_Dari": null,
    "PS_Male": 5,
    "PS_Female": 0,
    "PS_Total": 5,
    "ولسوالي": "کشک (رباط سنگی)",
    "Region": "Western Region"
   },
   "geometry": {
    "x": 6935609.6641577901,
    "y": 4180222.1940475288
   }
  },
  {
   "attributes": {
    "OBJECTID": 4769,
    "ولایت": "هرات",
    "Province": "HERAT",
    "PC_Code": "3209277",
    "District": "ADRASKAN",
    "د_مرکز_نوم__نام_مرکز": "مسجد غوری",
    "Polling_Center_Name": "Ghori Mosque ",
    "د_مرکز_ځای__موقعیت_مرکز": "قریه غوری",
    "Polling_Center_Location": "Ghori Village ",
    "Map_Accuracy": "Village",
    "Map_Accuracy_Dari": "قریه",
    "Status": "Open",
    "Status_Dari": null,
    "PS_Male": 2,
    "PS_Female": 1,
    "PS_Total": 3,
    "ولسوالي": "ادرسکن ",
    "Region": "Western Region"
   },
   "geometry": {
    "x": 6959144.639431783,
    "y": 3982693.6311862199
   }
  },
  {
   "attributes": {
    "OBJECTID": 4770,
    "ولایت": "هرات",
    "Province": "HERAT",
    "PC_Code": "3209278",
    "District": "ADRASKAN",
    "د_مرکز_نوم__نام_مرکز": "مکتب متوسطه میرعلی",
    "Polling_Center_Name": "Mir Ali Scondary School ",
    "د_مرکز_ځای__موقعیت_مرکز": "قریه میرعلی",
    "Polling_Center_Location": "Mir Ali Village ",
    "Map_Accuracy": "Building",
    "Map_Accuracy_Dari": "تعمیر",
    "Status": "Open",
    "Status_Dari": null,
    "PS_Male": 2,
    "PS_Female": 1,
    "PS_Total": 3,
    "ولسوالي": "ادرسکن ",
    "Region": "Western Region"
   },
   "geometry": {
    "x": 6929694.7330707507,
    "y": 3998121.7287692172
   }
  },
  {
   "attributes": {
    "OBJECTID": 4771,
    "ولایت": "هرات",
    "Province": "HERAT",
    "PC_Code": "3209289",
    "District": "ADRASKAN",
    "د_مرکز_نوم__نام_مرکز": "مسجد ظهرک ",
    "Polling_Center_Name": "Zuhrak Mosque ",
    "د_مرکز_ځای__موقعیت_مرکز": "قریه ظهرک ",
    "Polling_Center_Location": "Zuhrak Village ",
    "Map_Accuracy": "Building",
    "Map_Accuracy_Dari": "تعمیر",
    "Status": "Open",
    "Status_Dari": null,
    "PS_Male": 1,
    "PS_Female": 2,
    "PS_Total": 3,
    "ولسوالي": "ادرسکن ",
    "Region": "Western Region"
   },
   "geometry": {
    "x": 6959418.6556979567,
    "y": 3985163.6493572118
   }
  },
  {
   "attributes": {
    "OBJECTID": 4772,
    "ولایت": "هرات",
    "Province": "HERAT",
    "PC_Code": "3209460",
    "District": "ADRASKAN",
    "د_مرکز_نوم__نام_مرکز": "مسجد ده خار",
    "Polling_Center_Name": "Deh Khar Mosque ",
    "د_مرکز_ځای__موقعیت_مرکز": "ده خار ",
    "Polling_Center_Location": "Deh Khar ",
    "Map_Accuracy": "Village",
    "Map_Accuracy_Dari": "قریه",
    "Status": "Open",
    "Status_Dari": null,
    "PS_Male": 2,
    "PS_Female": 1,
    "PS_Total": 3,
    "ولسوالي": "ادرسکن ",
    "Region": "Western Region"
   },
   "geometry": {
    "x": 6974422.7864728328,
    "y": 3967226.3065787838
   }
  },
  {
   "attributes": {
    "OBJECTID": 4773,
    "ولایت": "هرات",
    "Province": "HERAT",
    "PC_Code": "3210421",
    "District": "KUSHK-E-KUHNA",
    "د_مرکز_نوم__نام_مرکز": "مسجد جامع گله چغر مردانه",
    "Polling_Center_Name": "Galla Chaghar Mardana- Mosque ",
    "د_مرکز_ځای__موقعیت_مرکز": "قریه گله چغر",
    "Polling_Center_Location": "Galla Chaghar Village",
    "Map_Accuracy": "Building",
    "Map_Accuracy_Dari": "تعمیر",
    "Status": "Open",
    "Status_Dari": null,
    "PS_Male": 2,
    "PS_Female": 0,
    "PS_Total": 2,
    "ولسوالي": "کشک کهنه ",
    "Region": "Western Region"
   },
   "geometry": {
    "x": 6988633.9005723884,
    "y": 4129629.0565424697
   }
  },
  {
   "attributes": {
    "OBJECTID": 4774,
    "ولایت": "هرات",
    "Province": "HERAT",
    "PC_Code": "3211252",
    "District": "GHORYAN",
    "د_مرکز_نوم__نام_مرکز": "مسجد جامع سبول",
    "Polling_Center_Name": "Sabool  Mosque",
    "د_مرکز_ځای__موقعیت_مرکز": "قریه سبول",
    "Polling_Center_Location": "Sabool Village ",
    "Map_Accuracy": "Building",
    "Map_Accuracy_Dari": "تعمیر",
    "Status": "Open",
    "Status_Dari": null,
    "PS_Male": 2,
    "PS_Female": 1,
    "PS_Total": 3,
    "ولسوالي": "غوریان ",
    "Region": "Western Region"
   },
   "geometry": {
    "x": 6849253.703871496,
    "y": 4084986.7378758839
   }
  },
  {
   "attributes": {
    "OBJECTID": 4775,
    "ولایت": "هرات",
    "Province": "HERAT",
    "PC_Code": "3212380",
    "District": "OBE",
    "د_مرکز_نوم__نام_مرکز": "مکتب پسرانه رباط آخند",
    "Polling_Center_Name": "Rubat-e- Akhuod Boys School ",
    "د_مرکز_ځای__موقعیت_مرکز": "قریه رباط آخند",
    "Polling_Center_Location": "Rubat-e- Akhond Village",
    "Map_Accuracy": "Village",
    "Map_Accuracy_Dari": "قریه",
    "Status": "Open",
    "Status_Dari": null,
    "PS_Male": 2,
    "PS_Female": 0,
    "PS_Total": 2,
    "ولسوالي": "اوبه ",
    "Region": "Western Region"
   },
   "geometry": {
    "x": 7009289.2979902215,
    "y": 4065433.1807127395
   }
  },
  {
   "attributes": {
    "OBJECTID": 4776,
    "ولایت": "هرات",
    "Province": "HERAT",
    "PC_Code": "3213230",
    "District": "KOHSAN",
    "د_مرکز_نوم__نام_مرکز": "لیسه کهسان ",
    "Polling_Center_Name": "Kahsan High School ",
    "د_مرکز_ځای__موقعیت_مرکز": "مرکز کهسان ",
    "Polling_Center_Location": "Markaz-e-Kahsan ",
    "Map_Accuracy": "Building",
    "Map_Accuracy_Dari": "تعمیر",
    "Status": "Open",
    "Status_Dari": null,
    "PS_Male": 5,
    "PS_Female": 3,
    "PS_Total": 8,
    "ولسوالي": "کهسان ",
    "Region": "Western Region"
   },
   "geometry": {
    "x": 6812737.5457030926,
    "y": 4117506.9806597107
   }
  },
  {
   "attributes": {
    "OBJECTID": 4777,
    "ولایت": "هرات",
    "Province": "HERAT",
    "PC_Code": "3213240",
    "District": "KOHSAN",
    "د_مرکز_نوم__نام_مرکز": "مسجد قریه ته خم",
    "Polling_Center_Name": "Tukhum Village Mosque ",
    "د_مرکز_ځای__موقعیت_مرکز": "قریه ته خم",
    "Polling_Center_Location": "Takhum Village",
    "Map_Accuracy": "Building",
    "Map_Accuracy_Dari": "تعمیر",
    "Status": "Open",
    "Status_Dari": null,
    "PS_Male": 2,
    "PS_Female": 1,
    "PS_Total": 3,
    "ولسوالي": "کهسان ",
    "Region": "Western Region"
   },
   "geometry": {
    "x": 6807894.449880382,
    "y": 4118656.1305242754
   }
  },
  {
   "attributes": {
    "OBJECTID": 4778,
    "ولایت": "هرات",
    "Province": "HERAT",
    "PC_Code": "3214302",
    "District": "SHINDAND",
    "د_مرکز_نوم__نام_مرکز": "مسجد قدیمی قندیز دوم",
    "Polling_Center_Name": "Qandiz Qademi Duowm Mosque ",
    "د_مرکز_ځای__موقعیت_مرکز": "قندیز دوم ",
    "Polling_Center_Location": "Qandiz Duowm ",
    "Map_Accuracy": "Building",
    "Map_Accuracy_Dari": "تعمیر",
    "Status": "Open",
    "Status_Dari": null,
    "PS_Male": 2,
    "PS_Female": 1,
    "PS_Total": 3,
    "ولسوالي": "شیندند",
    "Region": "Western Region"
   },
   "geometry": {
    "x": 6917136.5764865037,
    "y": 3936506.8495936459
   }
  },
  {
   "attributes": {
    "OBJECTID": 4779,
    "ولایت": "هرات",
    "Province": "HERAT",
    "PC_Code": "3214324",
    "District": "SHINDAND",
    "د_مرکز_نوم__نام_مرکز": "مدرسه عزیز آباد",
    "Polling_Center_Name": "Madressa Aziz Abad ",
    "د_مرکز_ځای__موقعیت_مرکز": "عزیز آباد ",
    "Polling_Center_Location": "Aziz Abad ",
    "Map_Accuracy": "Building",
    "Map_Accuracy_Dari": "تعمیر",
    "Status": "Open",
    "Status_Dari": null,
    "PS_Male": 3,
    "PS_Female": 1,
    "PS_Total": 4,
    "ولسوالي": "شیندند",
    "Region": "Western Region"
   },
   "geometry": {
    "x": 6937447.8684377298,
    "y": 3940339.3795514922
   }
  },
  {
   "attributes": {
    "OBJECTID": 4780,
    "ولایت": "هرات",
    "Province": "HERAT",
    "PC_Code": "3214346",
    "District": "SHINDAND",
    "د_مرکز_نوم__نام_مرکز": "مسجد قبر میر کوه زور",
    "Polling_Center_Name": "Koh-e- Zoor Qabre Mir Mosque",
    "د_مرکز_ځای__موقعیت_مرکز": "قبر میر ",
    "Polling_Center_Location": "Qabre Mir ",
    "Map_Accuracy": "Village",
    "Map_Accuracy_Dari": "قریه",
    "Status": "Open",
    "Status_Dari": null,
    "PS_Male": 2,
    "PS_Female": 1,
    "PS_Total": 3,
    "ولسوالي": "شیندند",
    "Region": "Western Region"
   },
   "geometry": {
    "x": 7017556.2082068035,
    "y": 3927388.2832480795
   }
  },
  {
   "attributes": {
    "OBJECTID": 4781,
    "ولایت": "هرات",
    "Province": "HERAT",
    "PC_Code": "3215353",
    "District": "FERSI",
    "د_مرکز_نوم__نام_مرکز": "مکتب متوسطه تیک",
    "Polling_Center_Name": "Tik Secondary School ",
    "د_مرکز_ځای__موقعیت_مرکز": "قریه تیک ",
    "Polling_Center_Location": "Tik Village ",
    "Map_Accuracy": "Village",
    "Map_Accuracy_Dari": "قریه",
    "Status": "Open",
    "Status_Dari": null,
    "PS_Male": 2,
    "PS_Female": 1,
    "PS_Total": 3,
    "ولسوالي": "فرسی ",
    "Region": "Western Region"
   },
   "geometry": {
    "x": 7062606.6194771267,
    "y": 4008438.7572556613
   }
  },
  {
   "attributes": {
    "OBJECTID": 4782,
    "ولایت": "هرات",
    "Province": "HERAT",
    "PC_Code": "3216389",
    "District": "CHISHT-E-SHARIF",
    "د_مرکز_نوم__نام_مرکز": "مکتب اسد الله چشتی",
    "Polling_Center_Name": "Asadullah-e-Chashti School",
    "د_مرکز_ځای__موقعیت_مرکز": "مرکز چشت شریف ",
    "Polling_Center_Location": "Chasht-e- Sharif Center",
    "Map_Accuracy": "Building",
    "Map_Accuracy_Dari": "تعمیر",
    "Status": "Open",
    "Status_Dari": null,
    "PS_Male": 3,
    "PS_Female": 1,
    "PS_Total": 4,
    "ولسوالي": "چشت شریف",
    "Region": "Western Region"
   },
   "geometry": {
    "x": 7095275.8999834303,
    "y": 4074033.8678604034
   }
  },
  {
   "attributes": {
    "OBJECTID": 4783,
    "ولایت": "هرات",
    "Province": "HERAT",
    "PC_Code": "3216399",
    "District": "CHISHT-E-SHARIF",
    "د_مرکز_نوم__نام_مرکز": "کلینیک دره تخت",
    "Polling_Center_Name": "Dara Takht Clinic",
    "د_مرکز_ځای__موقعیت_مرکز": "قریه دره تخت ",
    "Polling_Center_Location": "Dar Takht Village",
    "Map_Accuracy": "Village",
    "Map_Accuracy_Dari": "قریه",
    "Status": "Open",
    "Status_Dari": null,
    "PS_Male": 2,
    "PS_Female": 1,
    "PS_Total": 3,
    "ولسوالي": "چشت شریف",
    "Region": "Western Region"
   },
   "geometry": {
    "x": 7130067.9630291276,
    "y": 4077934.5169234551
   }
  },
  {
   "attributes": {
    "OBJECTID": 4784,
    "ولایت": " فراه",
    "Province": "FARAH",
    "PC_Code": "3301004",
    "District": "FARAH",
    "د_مرکز_نوم__نام_مرکز": "مسجد قلعه بهبود",
    "Polling_Center_Name": "Qala-e-Behbod Mosque",
    "د_مرکز_ځای__موقعیت_مرکز": "قلعه بهبود",
    "Polling_Center_Location": "Qala-e-Behbod",
    "Map_Accuracy": "Building",
    "Map_Accuracy_Dari": "تعمیر",
    "Status": "Open",
    "Status_Dari": null,
    "PS_Male": 3,
    "PS_Female": 2,
    "PS_Total": 5,
    "ولسوالي": "فراه",
    "Region": "Western Region"
   },
   "geometry": {
    "x": 6914061.9889237331,
    "y": 3816328.6572972201
   }
  },
  {
   "attributes": {
    "OBJECTID": 4785,
    "ولایت": " فراه",
    "Province": "FARAH",
    "PC_Code": "3301005",
    "District": "FARAH",
    "د_مرکز_نوم__نام_مرکز": "مسجد جامع ",
    "Polling_Center_Name": "Mosque",
    "د_مرکز_ځای__موقعیت_مرکز": "چهار برجک",
    "Polling_Center_Location": "Chahar Burjak ",
    "Map_Accuracy": "Building",
    "Map_Accuracy_Dari": "تعمیر",
    "Status": "Open",
    "Status_Dari": null,
    "PS_Male": 3,
    "PS_Female": 2,
    "PS_Total": 5,
    "ولسوالي": "فراه",
    "Region": "Western Region"
   },
   "geometry": {
    "x": 6916410.6854641316,
    "y": 3814401.3863497004
   }
  },
  {
   "attributes": {
    "OBJECTID": 4786,
    "ولایت": " فراه",
    "Province": "FARAH",
    "PC_Code": "3301028",
    "District": "FARAH",
    "د_مرکز_نوم__نام_مرکز": "لیسه مردانه ",
    "Polling_Center_Name": "Boys High School",
    "د_مرکز_ځای__موقعیت_مرکز": "دهک کلان",
    "Polling_Center_Location": "Dehak Kalan",
    "Map_Accuracy": "Building",
    "Map_Accuracy_Dari": "تعمیر",
    "Status": "Open",
    "Status_Dari": null,
    "PS_Male": 3,
    "PS_Female": 1,
    "PS_Total": 4,
    "ولسوالي": "فراه",
    "Region": "Western Region"
   },
   "geometry": {
    "x": 6920500.4388780436,
    "y": 3822059.2939893552
   }
  },
  {
   "attributes": {
    "OBJECTID": 4787,
    "ولایت": " فراه",
    "Province": "FARAH",
    "PC_Code": "3304075",
    "District": "QALA-E-KAH",
    "د_مرکز_نوم__نام_مرکز": "مسجد رباط",
    "Polling_Center_Name": "Rubat  Mosque ",
    "د_مرکز_ځای__موقعیت_مرکز": "رباط",
    "Polling_Center_Location": "Rubat ",
    "Map_Accuracy": "Building",
    "Map_Accuracy_Dari": "تعمیر",
    "Status": "Open",
    "Status_Dari": null,
    "PS_Male": 1,
    "PS_Female": 1,
    "PS_Total": 2,
    "ولسوالي": "قلعه کاه ",
    "Region": "Western Region"
   },
   "geometry": {
    "x": 6798848.4722112315,
    "y": 3823846.7796136774
   }
  },
  {
   "attributes": {
    "OBJECTID": 4788,
    "ولایت": " فراه",
    "Province": "FARAH",
    "PC_Code": "3305086",
    "District": "SHIB KOH",
    "د_مرکز_نوم__نام_مرکز": "مکتب ابتدائیه دهزک",
    "Polling_Center_Name": "Dehzak Primary School ",
    "د_مرکز_ځای__موقعیت_مرکز": " دهزک",
    "Polling_Center_Location": "Dehzak ",
    "Map_Accuracy": "Building",
    "Map_Accuracy_Dari": "تعمیر",
    "Status": "Open",
    "Status_Dari": null,
    "PS_Male": 1,
    "PS_Female": 1,
    "PS_Total": 2,
    "ولسوالي": "شیب کوه ",
    "Region": "Western Region"
   },
   "geometry": {
    "x": 6853147.290078735,
    "y": 3783905.3670556932
   }
  },
  {
   "attributes": {
    "OBJECTID": 4789,
    "ولایت": " فراه",
    "Province": "FARAH",
    "PC_Code": "3306128",
    "District": "BALA BULUK",
    "د_مرکز_نوم__نام_مرکز": "مکتب ابتدائیه گنج آباد ",
    "Polling_Center_Name": "Ganj Abad Primary School ",
    "د_مرکز_ځای__موقعیت_مرکز": "گنج آباد",
    "Polling_Center_Location": "Ganj Abad",
    "Map_Accuracy": "Building",
    "Map_Accuracy_Dari": "تعمیر",
    "Status": "Open",
    "Status_Dari": null,
    "PS_Male": 1,
    "PS_Female": 1,
    "PS_Total": 2,
    "ولسوالي": "بالا بلوک ",
    "Region": "Western Region"
   },
   "geometry": {
    "x": 6952807.29540498,
    "y": 3846522.8782647667
   }
  },
  {
   "attributes": {
    "OBJECTID": 4790,
    "ولایت": " فراه",
    "Province": "FARAH",
    "PC_Code": "3307065",
    "District": "ANAR DARA",
    "د_مرکز_نوم__نام_مرکز": "مکتب ابتدائیه کلاته ملا حیدر ",
    "Polling_Center_Name": "Kalata Mulla Haidar Primary School",
    "د_مرکز_ځای__موقعیت_مرکز": "کلاته ملا حیدر ",
    "Polling_Center_Location": "Kalata Mulla Haidar  ",
    "Map_Accuracy": "Building",
    "Map_Accuracy_Dari": "تعمیر",
    "Status": "Open",
    "Status_Dari": null,
    "PS_Male": 1,
    "PS_Female": 1,
    "PS_Total": 2,
    "ولسوالي": "انار دره ",
    "Region": "Western Region"
   },
   "geometry": {
    "x": 6862788.6622707816,
    "y": 3868726.1906194231
   }
  },
  {
   "attributes": {
    "OBJECTID": 4791,
    "ولایت": " فراه",
    "Province": "FARAH",
    "PC_Code": "3309101",
    "District": "LASH-E-JUWAYN",
    "د_مرکز_نوم__نام_مرکز": " مسجد خیر آباد",
    "Polling_Center_Name": "Khair Abad Mosque ",
    "د_مرکز_ځای__موقعیت_مرکز": "خیر آباد",
    "Polling_Center_Location": "Khair Abad ",
    "Map_Accuracy": "Village",
    "Map_Accuracy_Dari": "قریه",
    "Status": "Open",
    "Status_Dari": null,
    "PS_Male": 1,
    "PS_Female": 1,
    "PS_Total": 2,
    "ولسوالي": "لاش جوین ",
    "Region": "Western Region"
   },
   "geometry": {
    "x": 6847760.4920518622,
    "y": 3707193.6478229221
   }
  },
  {
   "attributes": {
    "OBJECTID": 4792,
    "ولایت": " فراه",
    "Province": "FARAH",
    "PC_Code": "3311193",
    "District": "PUR CHAMAN",
    "د_مرکز_نوم__نام_مرکز": " مسجد واسپ",
    "Polling_Center_Name": "Wasp Mosque ",
    "د_مرکز_ځای__موقعیت_مرکز": "  واسپ",
    "Polling_Center_Location": "Wasp",
    "Map_Accuracy": "Building",
    "Map_Accuracy_Dari": "تعمیر",
    "Status": "Open",
    "Status_Dari": null,
    "PS_Male": 1,
    "PS_Female": 1,
    "PS_Total": 2,
    "ولسوالي": "پرچمن",
    "Region": "Western Region"
   },
   "geometry": {
    "x": 7142346.3870913507,
    "y": 3917194.4081537095
   }
  },
  {
   "attributes": {
    "OBJECTID": 4793,
    "ولایت": " فراه",
    "Province": "FARAH",
    "PC_Code": "3311205",
    "District": "PUR CHAMAN",
    "د_مرکز_نوم__نام_مرکز": " مسجد کمرک بالا",
    "Polling_Center_Name": "Kamarak Bala Mosque  ",
    "د_مرکز_ځای__موقعیت_مرکز": " کمرک بالا",
    "Polling_Center_Location": "Kamarak Bala ",
    "Map_Accuracy": "Building",
    "Map_Accuracy_Dari": "تعمیر",
    "Status": "Open",
    "Status_Dari": null,
    "PS_Male": 1,
    "PS_Female": 1,
    "PS_Total": 2,
    "ولسوالي": "پرچمن",
    "Region": "Western Region"
   },
   "geometry": {
    "x": 7097235.9790682718,
    "y": 3920402.7253201329
   }
  },
  {
   "attributes": {
    "OBJECTID": 4794,
    "ولایت": " فراه",
    "Province": "FARAH",
    "PC_Code": "3311216",
    "District": "PUR CHAMAN",
    "د_مرکز_نوم__نام_مرکز": "مسجد کالوشت",
    "Polling_Center_Name": "Kalwesht Mosque ",
    "د_مرکز_ځای__موقعیت_مرکز": "کالوشت",
    "Polling_Center_Location": "Kalwesht ",
    "Map_Accuracy": "Building",
    "Map_Accuracy_Dari": "تعمیر",
    "Status": "Open",
    "Status_Dari": null,
    "PS_Male": 1,
    "PS_Female": 1,
    "PS_Total": 2,
    "ولسوالي": "پرچمن",
    "Region": "Western Region"
   },
   "geometry": {
    "x": 7046591.0019602738,
    "y": 3890696.9554879498
   }
  },
  {
   "attributes": {
    "OBJECTID": 4795,
    "ولایت": "نيمروز",
    "Province": "NIMROZ",
    "PC_Code": "3401008",
    "District": "ZARANJ",
    "د_مرکز_نوم__نام_مرکز": "کمپ هندیها (مرکز اضافه شده)",
    "Polling_Center_Name": "Camp Hendi Ha",
    "د_مرکز_ځای__موقعیت_مرکز": "زرنج ",
    "Polling_Center_Location": "Zaranj ",
    "Map_Accuracy": "Building",
    "Map_Accuracy_Dari": "تعمیر",
    "Status": "Open",
    "Status_Dari": null,
    "PS_Male": 3,
    "PS_Female": 2,
    "PS_Total": 5,
    "ولسوالي": " زرنج",
    "Region": "Southern Region"
   },
   "geometry": {
    "x": 6889976.7558407737,
    "y": 3628185.9405626329
   }
  },
  {
   "attributes": {
    "OBJECTID": 4796,
    "ولایت": "نيمروز",
    "Province": "NIMROZ",
    "PC_Code": "3402011",
    "District": "KANG",
    "د_مرکز_نوم__نام_مرکز": "مکتب ماککی",
    "Polling_Center_Name": "Makaki School",
    "د_مرکز_ځای__موقعیت_مرکز": "ماککی",
    "Polling_Center_Location": "Makaki ",
    "Map_Accuracy": "Building",
    "Map_Accuracy_Dari": "تعمیر",
    "Status": "Open",
    "Status_Dari": null,
    "PS_Male": 2,
    "PS_Female": 1,
    "PS_Total": 3,
    "ولسوالي": "کنگ",
    "Region": "Southern Region"
   },
   "geometry": {
    "x": 6881273.7145609371,
    "y": 3647477.7530196537
   }
  },
  {
   "attributes": {
    "OBJECTID": 4797,
    "ولایت": "نيمروز",
    "Province": "NIMROZ",
    "PC_Code": "3403035",
    "District": "ASL-E-CHAKHANSUR",
    "د_مرکز_نوم__نام_مرکز": "دشت معصوم خان",
    "Polling_Center_Name": "Dasht-e-Masoom Khan",
    "د_مرکز_ځای__موقعیت_مرکز": "دشت",
    "Polling_Center_Location": "Dasht ",
    "Map_Accuracy": "Building",
    "Map_Accuracy_Dari": "تعمیر",
    "Status": "Open",
    "Status_Dari": null,
    "PS_Male": 1,
    "PS_Female": 1,
    "PS_Total": 2,
    "ولسوالي": "اصل چغانسور",
    "Region": "Southern Region"
   },
   "geometry": {
    "x": 6907291.2380442554,
    "y": 3656799.539730683
   }
  },
  {
   "attributes": {
    "OBJECTID": 4798,
    "ولایت": "نيمروز",
    "Province": "NIMROZ",
    "PC_Code": "3403036",
    "District": "ASL-E-CHAKHANSUR",
    "د_مرکز_نوم__نام_مرکز": "مکتب سرگز",
    "Polling_Center_Name": "Sar Gaz School ",
    "د_مرکز_ځای__موقعیت_مرکز": " سرگز",
    "Polling_Center_Location": "Sar Gaz ",
    "Map_Accuracy": "Building",
    "Map_Accuracy_Dari": "تعمیر",
    "Status": "Open",
    "Status_Dari": null,
    "PS_Male": 2,
    "PS_Female": 1,
    "PS_Total": 3,
    "ولسوالي": "اصل چغانسور",
    "Region": "Southern Region"
   },
   "geometry": {
    "x": 6904408.6977538066,
    "y": 3654597.2847240036
   }
  },
  {
   "attributes": {
    "OBJECTID": 4799,
    "ولایت": "نيمروز",
    "Province": "NIMROZ",
    "PC_Code": "3405043",
    "District": "KHASHROD",
    "د_مرکز_نوم__نام_مرکز": "مسجد قریه",
    "Polling_Center_Name": "Pusht Hassan Village Mosque",
    "د_مرکز_ځای__موقعیت_مرکز": "پشت حسن",
    "Polling_Center_Location": "Pusht Hassan Village",
    "Map_Accuracy": "Village",
    "Map_Accuracy_Dari": "قریه",
    "Status": "Open",
    "Status_Dari": null,
    "PS_Male": 1,
    "PS_Female": 1,
    "PS_Total": 2,
    "ولسوالي": "خاشرود",
    "Region": "Southern Region"
   },
   "geometry": {
    "x": 7006072.6932512335,
    "y": 3718999.0131402514
   }
  },
  {
   "attributes": {
    "OBJECTID": 4800,
    "ولایت": "نيمروز",
    "Province": "NIMROZ",
    "PC_Code": "3406054",
    "District": "DELARAM",
    "د_مرکز_نوم__نام_مرکز": "شیله گی ",
    "Polling_Center_Name": "Shelagi",
    "د_مرکز_ځای__موقعیت_مرکز": "شیله گی ",
    "Polling_Center_Location": "Shelagi",
    "Map_Accuracy": "Building",
    "Map_Accuracy_Dari": "تعمیر",
    "Status": "Open",
    "Status_Dari": null,
    "PS_Male": 2,
    "PS_Female": 1,
    "PS_Total": 3,
    "ولسوالي": "دلارام",
    "Region": "Southern Region"
   },
   "geometry": {
    "x": 7060537.1456154836,
    "y": 3784089.9250624194
   }
  }
 ]
}