{
 "displayFieldName": "Polling_Center_Name",
 "fieldAliases": {
  "OBJECTID": "OBJECTID",
  "ولایت": "ولایت",
  "Province": "Province",
  "PC_Code": "PC_Code",
  "District": "District",
  "د_مرکز_نوم__نام_مرکز": "د_مرکز_نوم__نام_مرکز",
  "Polling_Center_Name": "Polling_Center_Name",
  "د_مرکز_ځای__موقعیت_مرکز": "د_مرکز_ځای__موقعیت_مرکز",
  "Polling_Center_Location": "Polling_Center_Location",
  "Map_Accuracy": "Map_Accuracy",
  "Map_Accuracy_Dari": "Map_Accuracy_Dari",
  "Status": "Status",
  "Status_Dari": "Status_Dari",
  "PS_Male": "PS_Male",
  "PS_Female": "PS_Female",
  "PS_Total": "PS_Total",
  "ولسوالي": "ولسوالي",
  "Region": "Region"
 },
 "geometryType": "esriGeometryPoint",
 "spatialReference": {
  "wkid": 102100,
  "latestWkid": 3857
 },
 "fields": [
  {
   "name": "OBJECTID",
   "type": "esriFieldTypeOID",
   "alias": "OBJECTID"
  },
  {
   "name": "ولایت",
   "type": "esriFieldTypeString",
   "alias": "ولایت",
   "length": 255
  },
  {
   "name": "Province",
   "type": "esriFieldTypeString",
   "alias": "Province",
   "length": 255
  },
  {
   "name": "PC_Code",
   "type": "esriFieldTypeString",
   "alias": "PC_Code",
   "length": 255
  },
  {
   "name": "District",
   "type": "esriFieldTypeString",
   "alias": "District",
   "length": 255
  },
  {
   "name": "د_مرکز_نوم__نام_مرکز",
   "type": "esriFieldTypeString",
   "alias": "د_مرکز_نوم__نام_مرکز",
   "length": 255
  },
  {
   "name": "Polling_Center_Name",
   "type": "esriFieldTypeString",
   "alias": "Polling_Center_Name",
   "length": 255
  },
  {
   "name": "د_مرکز_ځای__موقعیت_مرکز",
   "type": "esriFieldTypeString",
   "alias": "د_مرکز_ځای__موقعیت_مرکز",
   "length": 255
  },
  {
   "name": "Polling_Center_Location",
   "type": "esriFieldTypeString",
   "alias": "Polling_Center_Location",
   "length": 255
  },
  {
   "name": "Map_Accuracy",
   "type": "esriFieldTypeString",
   "alias": "Map_Accuracy",
   "length": 10
  },
  {
   "name": "Map_Accuracy_Dari",
   "type": "esriFieldTypeString",
   "alias": "Map_Accuracy_Dari",
   "length": 50
  },
  {
   "name": "Status",
   "type": "esriFieldTypeString",
   "alias": "Status",
   "length": 6
  },
  {
   "name": "Status_Dari",
   "type": "esriFieldTypeString",
   "alias": "Status_Dari",
   "length": 8
  },
  {
   "name": "PS_Male",
   "type": "esriFieldTypeSmallInteger",
   "alias": "PS_Male"
  },
  {
   "name": "PS_Female",
   "type": "esriFieldTypeSmallInteger",
   "alias": "PS_Female"
  },
  {
   "name": "PS_Total",
   "type": "esriFieldTypeSmallInteger",
   "alias": "PS_Total"
  },
  {
   "name": "ولسوالي",
   "type": "esriFieldTypeString",
   "alias": "ولسوالي",
   "length": 255
  },
  {
   "name": "Region",
   "type": "esriFieldTypeString",
   "alias": "Region",
   "length": 50
  }
 ],
 "features": [
  {
   "attributes": {
    "OBJECTID": 2801,
    "ولایت": "وردک",
    "Province": "WARDAK",
    "PC_Code": "0402151",
    "District": "NERKH",
    "د_مرکز_نوم__نام_مرکز": "مکتب اسلم خیل",
    "Polling_Center_Name": "Aslam Khel School",
    "د_مرکز_ځای__موقعیت_مرکز": "اسلم خیل",
    "Polling_Center_Location": "Aslam Khel",
    "Map_Accuracy": "Village",
    "Map_Accuracy_Dari": "قریه",
    "Status": "Open",
    "Status_Dari": null,
    "PS_Male": 2,
    "PS_Female": 1,
    "PS_Total": 3,
    "ولسوالي": "نرخ",
    "Region": "Central Region"
   },
   "geometry": {
    "x": 7645805.4298073919,
    "y": 4075007.2469751379
   }
  },
  {
   "attributes": {
    "OBJECTID": 2802,
    "ولایت": "بادغيس",
    "Province": "BADGHIS",
    "PC_Code": "3106116",
    "District": "JAWAND",
    "د_مرکز_نوم__نام_مرکز": "مسجد مولاداد",
    "Polling_Center_Name": "Mawladad Mosque",
    "د_مرکز_ځای__موقعیت_مرکز": "قریه کوجه لال بای",
    "Polling_Center_Location": "Koj-e- lalbai Village",
    "Map_Accuracy": "Village",
    "Map_Accuracy_Dari": "قریه",
    "Status": "Open",
    "Status_Dari": null,
    "PS_Male": 1,
    "PS_Female": 1,
    "PS_Total": 2,
    "ولسوالي": "جوند",
    "Region": "Western Region"
   },
   "geometry": {
    "x": 7154522.7823874895,
    "y": 4202113.2478768378
   }
  },
  {
   "attributes": {
    "OBJECTID": 2803,
    "ولایت": "هرات",
    "Province": "HERAT",
    "PC_Code": "3203116",
    "District": "GUZARA",
    "د_مرکز_نوم__نام_مرکز": "موقعیت کوچی های چاه بلبل",
    "Polling_Center_Name": "Kochis Location",
    "د_مرکز_ځای__موقعیت_مرکز": "قریه چاه بلبل",
    "Polling_Center_Location": "Chah-e-Bulbul Village",
    "Map_Accuracy": "Village",
    "Map_Accuracy_Dari": "قریه",
    "Status": "Open",
    "Status_Dari": null,
    "PS_Male": 2,
    "PS_Female": 2,
    "PS_Total": 4,
    "ولسوالي": "گذره",
    "Region": "Western Region"
   },
   "geometry": {
    "x": 6863380.3341585817,
    "y": 4032201.5826584599
   }
  },
  {
   "attributes": {
    "OBJECTID": 2804,
    "ولایت": "هرات",
    "Province": "HERAT",
    "PC_Code": "3207446",
    "District": "KUSHK (RUBAT-E-SANGI)",
    "د_مرکز_نوم__نام_مرکز": "مسجد جامع مقر",
    "Polling_Center_Name": "Muqoor Mosque ",
    "د_مرکز_ځای__موقعیت_مرکز": " سرچشمه مقر",
    "Polling_Center_Location": "Sar Chushma Muqoor",
    "Map_Accuracy": "Village",
    "Map_Accuracy_Dari": "قریه",
    "Status": "Open",
    "Status_Dari": null,
    "PS_Male": 1,
    "PS_Female": 1,
    "PS_Total": 2,
    "ولسوالي": "کشک (رباط سنگی)",
    "Region": "Western Region"
   },
   "geometry": {
    "x": 6912943.6944699269,
    "y": 4174185.0455817627
   }
  },
  {
   "attributes": {
    "OBJECTID": 2805,
    "ولایت": "هرات",
    "Province": "HERAT",
    "PC_Code": "3208224",
    "District": "GULRAN",
    "د_مرکز_نوم__نام_مرکز": "مسجد ریگ آب",
    "Polling_Center_Name": "Rig Abad Mosque",
    "د_مرکز_ځای__موقعیت_مرکز": " قریه ریگ آب",
    "Polling_Center_Location": "Rig Aab Village ",
    "Map_Accuracy": "Village",
    "Map_Accuracy_Dari": "قریه",
    "Status": "Open",
    "Status_Dari": null,
    "PS_Male": 1,
    "PS_Female": 1,
    "PS_Total": 2,
    "ولسوالي": "گلران ",
    "Region": "Western Region"
   },
   "geometry": {
    "x": 6860774.3961973973,
    "y": 4173315.7718624007
   }
  },
  {
   "attributes": {
    "OBJECTID": 2806,
    "ولایت": "هرات",
    "Province": "HERAT",
    "PC_Code": "3208225",
    "District": "GULRAN",
    "د_مرکز_نوم__نام_مرکز": "مسجد آب سفید",
    "Polling_Center_Name": "Aab -e -Safed Mosque",
    "د_مرکز_ځای__موقعیت_مرکز": " قریه آب سفید",
    "Polling_Center_Location": "Aab -e- Safed Village ",
    "Map_Accuracy": "Village",
    "Map_Accuracy_Dari": "قریه",
    "Status": "Open",
    "Status_Dari": null,
    "PS_Male": 2,
    "PS_Female": 1,
    "PS_Total": 3,
    "ولسوالي": "گلران ",
    "Region": "Western Region"
   },
   "geometry": {
    "x": 6858193.7087249933,
    "y": 4159274.3131059264
   }
  },
  {
   "attributes": {
    "OBJECTID": 2807,
    "ولایت": "هرات",
    "Province": "HERAT",
    "PC_Code": "3213449",
    "District": "KOHSAN",
    "د_مرکز_نوم__نام_مرکز": "خيمه ني يك",
    "Polling_Center_Name": "Naiyak Tent ",
    "د_مرکز_ځای__موقعیت_مرکز": "نی یک ",
    "Polling_Center_Location": "Naiyak ",
    "Map_Accuracy": "Village",
    "Map_Accuracy_Dari": "قریه",
    "Status": "Open",
    "Status_Dari": null,
    "PS_Male": 1,
    "PS_Female": 1,
    "PS_Total": 2,
    "ولسوالي": "کهسان ",
    "Region": "Western Region"
   },
   "geometry": {
    "x": 6854614.1024811231,
    "y": 4148096.9267600933
   }
  },
  {
   "attributes": {
    "OBJECTID": 2808,
    "ولایت": "هرات",
    "Province": "HERAT",
    "PC_Code": "3214298",
    "District": "SHINDAND",
    "د_مرکز_نوم__نام_مرکز": "مرکز شاروالی",
    "Polling_Center_Name": "Markaz-e-Sharwaly",
    "د_مرکز_ځای__موقعیت_مرکز": "تحت بازار",
    "Polling_Center_Location": "Takht-e- Bazar",
    "Map_Accuracy": "Building",
    "Map_Accuracy_Dari": "تعمیر",
    "Status": "Open",
    "Status_Dari": null,
    "PS_Male": 6,
    "PS_Female": 0,
    "PS_Total": 6,
    "ولسوالي": "شیندند",
    "Region": "Western Region"
   },
   "geometry": {
    "x": 6919250.2753554452,
    "y": 3935744.8612139812
   }
  },
  {
   "attributes": {
    "OBJECTID": 2809,
    "ولایت": "هرات",
    "Province": "HERAT",
    "PC_Code": "3214322",
    "District": "SHINDAND",
    "د_مرکز_نوم__نام_مرکز": "مسجد قلعه میرزا حاجی اکرم ",
    "Polling_Center_Name": "Qala-e- Mirza Haji Akram Mosque ",
    "د_مرکز_ځای__موقعیت_مرکز": "قلعه میرزا ",
    "Polling_Center_Location": "Qala-e-Mirza",
    "Map_Accuracy": "Building",
    "Map_Accuracy_Dari": "تعمیر",
    "Status": "Open",
    "Status_Dari": null,
    "PS_Male": 2,
    "PS_Female": 1,
    "PS_Total": 3,
    "ولسوالي": "شیندند",
    "Region": "Western Region"
   },
   "geometry": {
    "x": 6935909.0846449556,
    "y": 3946102.5777763203
   }
  },
  {
   "attributes": {
    "OBJECTID": 2810,
    "ولایت": "هرات",
    "Province": "HERAT",
    "PC_Code": "3214323",
    "District": "SHINDAND",
    "د_مرکز_نوم__نام_مرکز": "مکتب ده عبدالعزیز",
    "Polling_Center_Name": "Deh Abdul Aziz School ",
    "د_مرکز_ځای__موقعیت_مرکز": "ده عبدالعزیز ",
    "Polling_Center_Location": "Deh Abdul Aziz",
    "Map_Accuracy": "Building",
    "Map_Accuracy_Dari": "تعمیر",
    "Status": "Open",
    "Status_Dari": null,
    "PS_Male": 2,
    "PS_Female": 1,
    "PS_Total": 3,
    "ولسوالي": "شیندند",
    "Region": "Western Region"
   },
   "geometry": {
    "x": 6937505.0554865366,
    "y": 3940751.9223619467
   }
  },
  {
   "attributes": {
    "OBJECTID": 2811,
    "ولایت": "هرات",
    "Province": "HERAT",
    "PC_Code": "3215355",
    "District": "FERSI",
    "د_مرکز_نوم__نام_مرکز": "مسجد آب ماهی",
    "Polling_Center_Name": "Aab-e- Mahi Mosque",
    "د_مرکز_ځای__موقعیت_مرکز": "آب ماهی ",
    "Polling_Center_Location": "Aab-e- Mahi ",
    "Map_Accuracy": "Village",
    "Map_Accuracy_Dari": "قریه",
    "Status": "Open",
    "Status_Dari": null,
    "PS_Male": 2,
    "PS_Female": 1,
    "PS_Total": 3,
    "ولسوالي": "فرسی ",
    "Region": "Western Region"
   },
   "geometry": {
    "x": 7054561.1446557948,
    "y": 4007700.6485894704
   }
  },
  {
   "attributes": {
    "OBJECTID": 2812,
    "ولایت": "هرات",
    "Province": "HERAT",
    "PC_Code": "3215356",
    "District": "FERSI",
    "د_مرکز_نوم__نام_مرکز": "تعمیر شورای انکشافی",
    "Polling_Center_Name": "Shura-e- Ankishafi Building",
    "د_مرکز_ځای__موقعیت_مرکز": "پای حصار ",
    "Polling_Center_Location": "Pay-e- Hesar ",
    "Map_Accuracy": "Village",
    "Map_Accuracy_Dari": "قریه",
    "Status": "Open",
    "Status_Dari": null,
    "PS_Male": 2,
    "PS_Female": 1,
    "PS_Total": 3,
    "ولسوالي": "فرسی ",
    "Region": "Western Region"
   },
   "geometry": {
    "x": 7035768.3752368167,
    "y": 4014900.0850165347
   }
  },
  {
   "attributes": {
    "OBJECTID": 2813,
    "ولایت": "هرات",
    "Province": "HERAT",
    "PC_Code": "3215360",
    "District": "FERSI",
    "د_مرکز_نوم__نام_مرکز": "مسجد حاجی باغ",
    "Polling_Center_Name": "Haji Bagh Mosque ",
    "د_مرکز_ځای__موقعیت_مرکز": "حاجی باغ ",
    "Polling_Center_Location": "Haji Bagh ",
    "Map_Accuracy": "Village",
    "Map_Accuracy_Dari": "قریه",
    "Status": "Open",
    "Status_Dari": null,
    "PS_Male": 1,
    "PS_Female": 1,
    "PS_Total": 2,
    "ولسوالي": "فرسی ",
    "Region": "Western Region"
   },
   "geometry": {
    "x": 7029002.1650793692,
    "y": 4012047.3144528237
   }
  },
  {
   "attributes": {
    "OBJECTID": 2814,
    "ولایت": "هرات",
    "Province": "HERAT",
    "PC_Code": "3215361",
    "District": "FERSI",
    "د_مرکز_نوم__نام_مرکز": "شورای انکشا فی شش یار",
    "Polling_Center_Name": "Shura-e- Ankishafi Shash yar ",
    "د_مرکز_ځای__موقعیت_مرکز": "شش یار ",
    "Polling_Center_Location": "Shash Yar ",
    "Map_Accuracy": "Village",
    "Map_Accuracy_Dari": "قریه",
    "Status": "Open",
    "Status_Dari": null,
    "PS_Male": 3,
    "PS_Female": 2,
    "PS_Total": 5,
    "ولسوالي": "فرسی ",
    "Region": "Western Region"
   },
   "geometry": {
    "x": 7055865.1968306908,
    "y": 4003908.7426959397
   }
  },
  {
   "attributes": {
    "OBJECTID": 2815,
    "ولایت": "هرات",
    "Province": "HERAT",
    "PC_Code": "3215363",
    "District": "FERSI",
    "د_مرکز_نوم__نام_مرکز": "مکتب قریه پیازک",
    "Polling_Center_Name": "Payezak Village School ",
    "د_مرکز_ځای__موقعیت_مرکز": "قریه دهن پیازک ",
    "Polling_Center_Location": "Dahan-e-Peyazak",
    "Map_Accuracy": "Village",
    "Map_Accuracy_Dari": "قریه",
    "Status": "Open",
    "Status_Dari": null,
    "PS_Male": 1,
    "PS_Female": 1,
    "PS_Total": 2,
    "ولسوالي": "فرسی ",
    "Region": "Western Region"
   },
   "geometry": {
    "x": 7073639.7847535145,
    "y": 4007212.4597299322
   }
  },
  {
   "attributes": {
    "OBJECTID": 2816,
    "ولایت": "هرات",
    "Province": "HERAT",
    "PC_Code": "3215364",
    "District": "FERSI",
    "د_مرکز_نوم__نام_مرکز": "مسجد جامع",
    "Polling_Center_Name": "Mosque ",
    "د_مرکز_ځای__موقعیت_مرکز": "ارخ ",
    "Polling_Center_Location": "Arkh ",
    "Map_Accuracy": "District",
    "Map_Accuracy_Dari": "ولسوالی",
    "Status": "Open",
    "Status_Dari": null,
    "PS_Male": 2,
    "PS_Female": 1,
    "PS_Total": 3,
    "ولسوالي": "فرسی ",
    "Region": "Western Region"
   },
   "geometry": {
    "x": 7048772.0724982433,
    "y": 4009658.7972574867
   }
  },
  {
   "attributes": {
    "OBJECTID": 2817,
    "ولایت": "هرات",
    "Province": "HERAT",
    "PC_Code": "3216397",
    "District": "CHISHT-E-SHARIF",
    "د_مرکز_نوم__نام_مرکز": "مکتب سلما",
    "Polling_Center_Name": "Salma School",
    "د_مرکز_ځای__موقعیت_مرکز": "سلما ",
    "Polling_Center_Location": "Salma",
    "Map_Accuracy": "Building",
    "Map_Accuracy_Dari": "تعمیر",
    "Status": "Open",
    "Status_Dari": null,
    "PS_Male": 1,
    "PS_Female": 1,
    "PS_Total": 2,
    "ولسوالي": "چشت شریف",
    "Region": "Western Region"
   },
   "geometry": {
    "x": 7106550.5417256411,
    "y": 4076140.6518975948
   }
  },
  {
   "attributes": {
    "OBJECTID": 2818,
    "ولایت": "هرات",
    "Province": "HERAT",
    "PC_Code": "3216398",
    "District": "CHISHT-E-SHARIF",
    "د_مرکز_نوم__نام_مرکز": "مسجد شیر خاج",
    "Polling_Center_Name": "Shir Khanj Mosque",
    "د_مرکز_ځای__موقعیت_مرکز": "شیر خاج ",
    "Polling_Center_Location": "Shir Khaj",
    "Map_Accuracy": "Building",
    "Map_Accuracy_Dari": "تعمیر",
    "Status": "Open",
    "Status_Dari": null,
    "PS_Male": 1,
    "PS_Female": 1,
    "PS_Total": 2,
    "ولسوالي": "چشت شریف",
    "Region": "Western Region"
   },
   "geometry": {
    "x": 7114041.3337882422,
    "y": 4073764.5393887344
   }
  },
  {
   "attributes": {
    "OBJECTID": 2819,
    "ولایت": "هرات",
    "Province": "HERAT",
    "PC_Code": "3216470",
    "District": "CHISHT-E-SHARIF",
    "د_مرکز_نوم__نام_مرکز": "مسجد جامع رباطک",
    "Polling_Center_Name": "Rubatak Mosque",
    "د_مرکز_ځای__موقعیت_مرکز": "رباطک ",
    "Polling_Center_Location": "Rubatak",
    "Map_Accuracy": "Village",
    "Map_Accuracy_Dari": "قریه",
    "Status": "Open",
    "Status_Dari": null,
    "PS_Male": 1,
    "PS_Female": 1,
    "PS_Total": 2,
    "ولسوالي": "چشت شریف",
    "Region": "Western Region"
   },
   "geometry": {
    "x": 7123007.7825867785,
    "y": 4079056.4223146783
   }
  },
  {
   "attributes": {
    "OBJECTID": 2820,
    "ولایت": " فراه",
    "Province": "FARAH",
    "PC_Code": "3301001",
    "District": "FARAH",
    "د_مرکز_نوم__نام_مرکز": " لیسه میر من نازو",
    "Polling_Center_Name": "Merman Nazo High School",
    "د_مرکز_ځای__موقعیت_مرکز": "مرکز ( شهر فراه )",
    "Polling_Center_Location": "Farah City",
    "Map_Accuracy": "Building",
    "Map_Accuracy_Dari": "تعمیر",
    "Status": "Open",
    "Status_Dari": null,
    "PS_Male": 4,
    "PS_Female": 1,
    "PS_Total": 5,
    "ولسوالي": "فراه",
    "Region": "Western Region"
   },
   "geometry": {
    "x": 6914938.4573685173,
    "y": 3812943.3917192407
   }
  },
  {
   "attributes": {
    "OBJECTID": 2821,
    "ولایت": "هرات",
    "Province": "HERAT",
    "PC_Code": "3201472",
    "District": "DISTRICT_08",
    "د_مرکز_نوم__نام_مرکز": "ليسه استاد كمال الدين بهزاد",
    "Polling_Center_Name": "Ustad kamaludin Behzad High school",
    "د_مرکز_ځای__موقعیت_مرکز": "ليسه استاد كمال الدين بهزاد",
    "Polling_Center_Location": "Ustad kamaludin behzad Highschool",
    "Map_Accuracy": "Building",
    "Map_Accuracy_Dari": "تعمیر",
    "Status": "Open",
    "Status_Dari": null,
    "PS_Male": 2,
    "PS_Female": 2,
    "PS_Total": 4,
    "ولسوالي": "ناحیه_08",
    "Region": "Western Region"
   },
   "geometry": {
    "x": 6926745.5960062603,
    "y": 4077652.2333305031
   }
  },
  {
   "attributes": {
    "OBJECTID": 2822,
    "ولایت": "هرات",
    "Province": "HERAT",
    "PC_Code": "3201015",
    "District": "HERAT",
    "د_مرکز_نوم__نام_مرکز": "مسجد پل رگینه",
    "Polling_Center_Name": "Pul -e -Rageena Mosque",
    "د_مرکز_ځای__موقعیت_مرکز": " ناحیه ششم",
    "Polling_Center_Location": "D06 - Nahia 6",
    "Map_Accuracy": "Building",
    "Map_Accuracy_Dari": "تعمیر",
    "Status": "Open",
    "Status_Dari": null,
    "PS_Male": 4,
    "PS_Female": 4,
    "PS_Total": 8,
    "ولسوالي": "هرات",
    "Region": "Western Region"
   },
   "geometry": {
    "x": 6926417.0108143827,
    "y": 4074980.5520443222
   }
  },
  {
   "attributes": {
    "OBJECTID": 2823,
    "ولایت": "هرات",
    "Province": "HERAT",
    "PC_Code": "3201016",
    "District": "HERAT",
    "د_مرکز_نوم__نام_مرکز": "مسجدعثما ن غنی",
    "Polling_Center_Name": "Osman-e- Ghani Mosque",
    "د_مرکز_ځای__موقعیت_مرکز": "ناحیه ششم",
    "Polling_Center_Location": "D06 - Nahia 6",
    "Map_Accuracy": "Building",
    "Map_Accuracy_Dari": "تعمیر",
    "Status": "Open",
    "Status_Dari": null,
    "PS_Male": 5,
    "PS_Female": 4,
    "PS_Total": 9,
    "ولسوالي": "هرات",
    "Region": "Western Region"
   },
   "geometry": {
    "x": 6926008.5261693019,
    "y": 4073653.2004756695
   }
  },
  {
   "attributes": {
    "OBJECTID": 2824,
    "ولایت": "هرات",
    "Province": "HERAT",
    "PC_Code": "3202046",
    "District": "ENJIL",
    "د_مرکز_نوم__نام_مرکز": "مکتب نوین سفلی",
    "Polling_Center_Name": "Naween Sufla School",
    "د_مرکز_ځای__موقعیت_مرکز": " قریه نوین سفلی",
    "Polling_Center_Location": "Naween Sufla Village",
    "Map_Accuracy": "Building",
    "Map_Accuracy_Dari": "تعمیر",
    "Status": "Open",
    "Status_Dari": null,
    "PS_Male": 2,
    "PS_Female": 1,
    "PS_Total": 3,
    "ولسوالي": "انجیل",
    "Region": "Western Region"
   },
   "geometry": {
    "x": 6927193.3651883174,
    "y": 4068750.668809928
   }
  },
  {
   "attributes": {
    "OBJECTID": 2825,
    "ولایت": "هرات",
    "Province": "HERAT",
    "PC_Code": "3202047",
    "District": "ENJIL",
    "د_مرکز_نوم__نام_مرکز": "مکتب کهدستان",
    "Polling_Center_Name": "Kahedastan School ",
    "د_مرکز_ځای__موقعیت_مرکز": "قریه کهدستان",
    "Polling_Center_Location": "Kahedastan Village ",
    "Map_Accuracy": "Building",
    "Map_Accuracy_Dari": "تعمیر",
    "Status": "Open",
    "Status_Dari": null,
    "PS_Male": 2,
    "PS_Female": 1,
    "PS_Total": 3,
    "ولسوالي": "انجیل",
    "Region": "Western Region"
   },
   "geometry": {
    "x": 6936067.5646380289,
    "y": 4075664.3585249539
   }
  },
  {
   "attributes": {
    "OBJECTID": 2826,
    "ولایت": "هرات",
    "Province": "HERAT",
    "PC_Code": "3202050",
    "District": "ENJIL",
    "د_مرکز_نوم__نام_مرکز": "مسجد جامع ادران",
    "Polling_Center_Name": "Adran Mosque ",
    "د_مرکز_ځای__موقعیت_مرکز": "ادران",
    "Polling_Center_Location": "Adran ",
    "Map_Accuracy": "Building",
    "Map_Accuracy_Dari": "تعمیر",
    "Status": "Open",
    "Status_Dari": null,
    "PS_Male": 2,
    "PS_Female": 1,
    "PS_Total": 3,
    "ولسوالي": "انجیل",
    "Region": "Western Region"
   },
   "geometry": {
    "x": 6931447.9037312577,
    "y": 4064738.9319009003
   }
  },
  {
   "attributes": {
    "OBJECTID": 2827,
    "ولایت": "هرات",
    "Province": "HERAT",
    "PC_Code": "3202051",
    "District": "ENJIL",
    "د_مرکز_نوم__نام_مرکز": "مکتب بزدانک انجیل",
    "Polling_Center_Name": "Bozdang Enjil School",
    "د_مرکز_ځای__موقعیت_مرکز": "قریه بزدان آلنجان",
    "Polling_Center_Location": "Bozdang Alanjan",
    "Map_Accuracy": "Building",
    "Map_Accuracy_Dari": "تعمیر",
    "Status": "Open",
    "Status_Dari": null,
    "PS_Male": 2,
    "PS_Female": 1,
    "PS_Total": 3,
    "ولسوالي": "انجیل",
    "Region": "Western Region"
   },
   "geometry": {
    "x": 6922494.0624216525,
    "y": 4070482.8776611458
   }
  },
  {
   "attributes": {
    "OBJECTID": 2828,
    "ولایت": "هرات",
    "Province": "HERAT",
    "PC_Code": "3202058",
    "District": "ENJIL",
    "د_مرکز_نوم__نام_مرکز": "مجتمع فرهنگي قیزان سنگر",
    "Polling_Center_Name": "Ghizan sangar Mosque",
    "د_مرکز_ځای__موقعیت_مرکز": "قریه قیزان سنگر",
    "Polling_Center_Location": "Qeeizan Sangar Village ",
    "Map_Accuracy": "Building",
    "Map_Accuracy_Dari": "تعمیر",
    "Status": "Open",
    "Status_Dari": null,
    "PS_Male": 2,
    "PS_Female": 1,
    "PS_Total": 3,
    "ولسوالي": "انجیل",
    "Region": "Western Region"
   },
   "geometry": {
    "x": 6926906.4870681744,
    "y": 4072355.3568305755
   }
  },
  {
   "attributes": {
    "OBJECTID": 2829,
    "ولایت": "هرات",
    "Province": "HERAT",
    "PC_Code": "3202059",
    "District": "ENJIL",
    "د_مرکز_نوم__نام_مرکز": "مکتب گرداب",
    "Polling_Center_Name": "Gerdaab School ",
    "د_مرکز_ځای__موقعیت_مرکز": "قریه گرداب",
    "Polling_Center_Location": "Gerdaab Village ",
    "Map_Accuracy": "Building",
    "Map_Accuracy_Dari": "تعمیر",
    "Status": "Open",
    "Status_Dari": null,
    "PS_Male": 1,
    "PS_Female": 1,
    "PS_Total": 2,
    "ولسوالي": "انجیل",
    "Region": "Western Region"
   },
   "geometry": {
    "x": 6929572.0066717388,
    "y": 4070161.382132303
   }
  },
  {
   "attributes": {
    "OBJECTID": 2830,
    "ولایت": "هرات",
    "Province": "HERAT",
    "PC_Code": "3202061",
    "District": "ENJIL",
    "د_مرکز_نوم__نام_مرکز": "مکتب متوسطه سر آسیاب\r\n",
    "Polling_Center_Name": "Sar Asiab School ",
    "د_مرکز_ځای__موقعیت_مرکز": " قریه سر اسیاب ",
    "Polling_Center_Location": "Sar Asiab Village ",
    "Map_Accuracy": "Building",
    "Map_Accuracy_Dari": "تعمیر",
    "Status": "Open",
    "Status_Dari": null,
    "PS_Male": 3,
    "PS_Female": 0,
    "PS_Total": 3,
    "ولسوالي": "انجیل",
    "Region": "Western Region"
   },
   "geometry": {
    "x": 6942339.9826850183,
    "y": 4065273.2240398768
   }
  },
  {
   "attributes": {
    "OBJECTID": 2831,
    "ولایت": "هرات",
    "Province": "HERAT",
    "PC_Code": "3202063",
    "District": "ENJIL",
    "د_مرکز_نوم__نام_مرکز": "مكتب ابتدائي ابوريحان البيروني",
    "Polling_Center_Name": "Aboraihan-e- Alberoni Primary School ",
    "د_مرکز_ځای__موقعیت_مرکز": "قریه گرازان",
    "Polling_Center_Location": "Garazan Village ",
    "Map_Accuracy": "Building",
    "Map_Accuracy_Dari": "تعمیر",
    "Status": "Open",
    "Status_Dari": null,
    "PS_Male": 2,
    "PS_Female": 1,
    "PS_Total": 3,
    "ولسوالي": "انجیل",
    "Region": "Western Region"
   },
   "geometry": {
    "x": 6927507.4175093537,
    "y": 4066862.7842122833
   }
  },
  {
   "attributes": {
    "OBJECTID": 2832,
    "ولایت": "هرات",
    "Province": "HERAT",
    "PC_Code": "3202064",
    "District": "ENJIL",
    "د_مرکز_نوم__نام_مرکز": "لیسه نوبادام",
    "Polling_Center_Name": "Naw Badam High School",
    "د_مرکز_ځای__موقعیت_مرکز": "قریه نو بادام",
    "Polling_Center_Location": "Naw Badam Village ",
    "Map_Accuracy": "Building",
    "Map_Accuracy_Dari": "تعمیر",
    "Status": "Open",
    "Status_Dari": null,
    "PS_Male": 2,
    "PS_Female": 1,
    "PS_Total": 3,
    "ولسوالي": "انجیل",
    "Region": "Western Region"
   },
   "geometry": {
    "x": 6937047.995468461,
    "y": 4068528.6917043105
   }
  },
  {
   "attributes": {
    "OBJECTID": 2833,
    "ولایت": "هرات",
    "Province": "HERAT",
    "PC_Code": "3202066",
    "District": "ENJIL",
    "د_مرکز_نوم__نام_مرکز": "مکتب متوسطه غزالی بدلو",
    "Polling_Center_Name": "Ghazali Badloo Scondary School ",
    "د_مرکز_ځای__موقعیت_مرکز": "قریه بدلو",
    "Polling_Center_Location": "Badloo Village ",
    "Map_Accuracy": "Building",
    "Map_Accuracy_Dari": "تعمیر",
    "Status": "Open",
    "Status_Dari": null,
    "PS_Male": 1,
    "PS_Female": 1,
    "PS_Total": 2,
    "ولسوالي": "انجیل",
    "Region": "Western Region"
   },
   "geometry": {
    "x": 6933935.2999044051,
    "y": 4072767.587535318
   }
  },
  {
   "attributes": {
    "OBJECTID": 2834,
    "ولایت": "هرات",
    "Province": "HERAT",
    "PC_Code": "3202436",
    "District": "ENJIL",
    "د_مرکز_نوم__نام_مرکز": "مكتب صوفيان(لیسه امیر اسما عیل خان)",
    "Polling_Center_Name": "Sofiyan High School (Amir Esmaeel High School ",
    "د_مرکز_ځای__موقعیت_مرکز": "قریه جلال آباد",
    "Polling_Center_Location": "Jalal Abad Village ",
    "Map_Accuracy": "Building",
    "Map_Accuracy_Dari": "تعمیر",
    "Status": "Open",
    "Status_Dari": null,
    "PS_Male": 2,
    "PS_Female": 1,
    "PS_Total": 3,
    "ولسوالي": "انجیل",
    "Region": "Western Region"
   },
   "geometry": {
    "x": 6912030.1577478973,
    "y": 4076038.8143474534
   }
  },
  {
   "attributes": {
    "OBJECTID": 2835,
    "ولایت": "هرات",
    "Province": "HERAT",
    "PC_Code": "3203082",
    "District": "GUZARA",
    "د_مرکز_نوم__نام_مرکز": "مکتب متوسطه چشمه خوانی",
    "Polling_Center_Name": "Primary School Deh now ",
    "د_مرکز_ځای__موقعیت_مرکز": " چشمه خوانی",
    "Polling_Center_Location": "Chashma khani ",
    "Map_Accuracy": "Building",
    "Map_Accuracy_Dari": "تعمیر",
    "Status": "Open",
    "Status_Dari": null,
    "PS_Male": 3,
    "PS_Female": 1,
    "PS_Total": 4,
    "ولسوالي": "گذره",
    "Region": "Western Region"
   },
   "geometry": {
    "x": 6922143.3453565286,
    "y": 4033368.7233570255
   }
  },
  {
   "attributes": {
    "OBJECTID": 2836,
    "ولایت": "هرات",
    "Province": "HERAT",
    "PC_Code": "3203094",
    "District": "GUZARA",
    "د_مرکز_نوم__نام_مرکز": "لیسه وحدت کورت علیا",
    "Polling_Center_Name": "Wahdat High School ",
    "د_مرکز_ځای__موقعیت_مرکز": "قریه کورت علیا",
    "Polling_Center_Location": "Kort Ulya Village ",
    "Map_Accuracy": "Building",
    "Map_Accuracy_Dari": "تعمیر",
    "Status": "Open",
    "Status_Dari": null,
    "PS_Male": 2,
    "PS_Female": 1,
    "PS_Total": 3,
    "ولسوالي": "گذره",
    "Region": "Western Region"
   },
   "geometry": {
    "x": 6938586.3206249243,
    "y": 4059472.8399309511
   }
  },
  {
   "attributes": {
    "OBJECTID": 2837,
    "ولایت": "هرات",
    "Province": "HERAT",
    "PC_Code": "3203095",
    "District": "GUZARA",
    "د_مرکز_نوم__نام_مرکز": "لیسه مالان ",
    "Polling_Center_Name": "Malan High School ",
    "د_مرکز_ځای__موقعیت_مرکز": "قریه مالان ",
    "Polling_Center_Location": "Malan Village ",
    "Map_Accuracy": "Building",
    "Map_Accuracy_Dari": "تعمیر",
    "Status": "Open",
    "Status_Dari": null,
    "PS_Male": 2,
    "PS_Female": 1,
    "PS_Total": 3,
    "ولسوالي": "گذره",
    "Region": "Western Region"
   },
   "geometry": {
    "x": 6918606.013802479,
    "y": 4057772.1195565979
   }
  },
  {
   "attributes": {
    "OBJECTID": 2838,
    "ولایت": "هرات",
    "Province": "HERAT",
    "PC_Code": "3203105",
    "District": "GUZARA",
    "د_مرکز_نوم__نام_مرکز": "مسجد جامع بیچقی",
    "Polling_Center_Name": "Bechqi Mosque ",
    "د_مرکز_ځای__موقعیت_مرکز": "قریه بیچقی",
    "Polling_Center_Location": "Bechqi Village ",
    "Map_Accuracy": "Building",
    "Map_Accuracy_Dari": "تعمیر",
    "Status": "Open",
    "Status_Dari": null,
    "PS_Male": 1,
    "PS_Female": 1,
    "PS_Total": 2,
    "ولسوالي": "گذره",
    "Region": "Western Region"
   },
   "geometry": {
    "x": 6948630.7973910589,
    "y": 4061194.3293073107
   }
  },
  {
   "attributes": {
    "OBJECTID": 2839,
    "ولایت": "هرات",
    "Province": "HERAT",
    "PC_Code": "3203106",
    "District": "GUZARA",
    "د_مرکز_نوم__نام_مرکز": "لیسه وزیر فتح خان ",
    "Polling_Center_Name": "Wazir Fath Khan High School ",
    "د_مرکز_ځای__موقعیت_مرکز": "محله باغبان ها ",
    "Polling_Center_Location": "Mahalla-e- Baghaban Ha",
    "Map_Accuracy": "Building",
    "Map_Accuracy_Dari": "تعمیر",
    "Status": "Open",
    "Status_Dari": null,
    "PS_Male": 4,
    "PS_Female": 2,
    "PS_Total": 6,
    "ولسوالي": "گذره",
    "Region": "Western Region"
   },
   "geometry": {
    "x": 6926295.6558714891,
    "y": 4059477.3624286721
   }
  },
  {
   "attributes": {
    "OBJECTID": 2840,
    "ولایت": "هرات",
    "Province": "HERAT",
    "PC_Code": "3203109",
    "District": "GUZARA",
    "د_مرکز_نوم__نام_مرکز": "مکتب متوسطه تیزان ",
    "Polling_Center_Name": "Tezan Secondary School ",
    "د_مرکز_ځای__موقعیت_مرکز": "قریه تیزان ",
    "Polling_Center_Location": "Tezan Village ",
    "Map_Accuracy": "Building",
    "Map_Accuracy_Dari": "تعمیر",
    "Status": "Open",
    "Status_Dari": null,
    "PS_Male": 1,
    "PS_Female": 1,
    "PS_Total": 2,
    "ولسوالي": "گذره",
    "Region": "Western Region"
   },
   "geometry": {
    "x": 6906768.1622285489,
    "y": 4058892.7486216631
   }
  },
  {
   "attributes": {
    "OBJECTID": 2841,
    "ولایت": "هرات",
    "Province": "HERAT",
    "PC_Code": "3203110",
    "District": "GUZARA",
    "د_مرکز_نوم__نام_مرکز": "مکتب متوسطه فرجایی",
    "Polling_Center_Name": "Farjai Primary School",
    "د_مرکز_ځای__موقعیت_مرکز": "قریه فرجای ",
    "Polling_Center_Location": "Farjai Village ",
    "Map_Accuracy": "Building",
    "Map_Accuracy_Dari": "تعمیر",
    "Status": "Open",
    "Status_Dari": null,
    "PS_Male": 1,
    "PS_Female": 1,
    "PS_Total": 2,
    "ولسوالي": "گذره",
    "Region": "Western Region"
   },
   "geometry": {
    "x": 6906556.3379354961,
    "y": 4066740.878022538
   }
  },
  {
   "attributes": {
    "OBJECTID": 2842,
    "ولایت": "هرات",
    "Province": "HERAT",
    "PC_Code": "3203118",
    "District": "GUZARA",
    "د_مرکز_نوم__نام_مرکز": "موقعیت کوچی های شراب پایین ",
    "Polling_Center_Name": "kochis Location",
    "د_مرکز_ځای__موقعیت_مرکز": "قریه شراب پایین",
    "Polling_Center_Location": "Sharb-e-Paeen Village",
    "Map_Accuracy": "District",
    "Map_Accuracy_Dari": "ولسوالی",
    "Status": "Open",
    "Status_Dari": null,
    "PS_Male": 1,
    "PS_Female": 1,
    "PS_Total": 2,
    "ولسوالي": "گذره",
    "Region": "Western Region"
   },
   "geometry": {
    "x": 6910482.3181145573,
    "y": 4034120.3330202843
   }
  },
  {
   "attributes": {
    "OBJECTID": 2843,
    "ولایت": "هرات",
    "Province": "HERAT",
    "PC_Code": "3203437",
    "District": "GUZARA",
    "د_مرکز_نوم__نام_مرکز": "مسجد كلاته مزرعه",
    "Polling_Center_Name": "Kalata Mazreha Mosque ",
    "د_مرکز_ځای__موقعیت_مرکز": "كلاته مزرعه",
    "Polling_Center_Location": "Kalata Mazreha ",
    "Map_Accuracy": "Building",
    "Map_Accuracy_Dari": "تعمیر",
    "Status": "Open",
    "Status_Dari": null,
    "PS_Male": 1,
    "PS_Female": 1,
    "PS_Total": 2,
    "ولسوالي": "گذره",
    "Region": "Western Region"
   },
   "geometry": {
    "x": 6909024.5248173121,
    "y": 4066067.6362126865
   }
  },
  {
   "attributes": {
    "OBJECTID": 2844,
    "ولایت": "هرات",
    "Province": "HERAT",
    "PC_Code": "3205270",
    "District": "ZENDAJAN",
    "د_مرکز_نوم__نام_مرکز": "مکتب  فوشنج",
    "Polling_Center_Name": "Fushanj  School ",
    "د_مرکز_ځای__موقعیت_مرکز": " مرکز ولسوالی",
    "Polling_Center_Location": "District Center ",
    "Map_Accuracy": "Village",
    "Map_Accuracy_Dari": "قریه",
    "Status": "Open",
    "Status_Dari": null,
    "PS_Male": 1,
    "PS_Female": 1,
    "PS_Total": 2,
    "ولسوالي": "زنده جان ",
    "Region": "Western Region"
   },
   "geometry": {
    "x": 6873680.8380724937,
    "y": 4074896.4243259532
   }
  },
  {
   "attributes": {
    "OBJECTID": 2845,
    "ولایت": "هرات",
    "Province": "HERAT",
    "PC_Code": "3206143",
    "District": "PASHTUN ZARGHUN",
    "د_مرکز_نوم__نام_مرکز": "مکتب تونیون",
    "Polling_Center_Name": "Tunion School ",
    "د_مرکز_ځای__موقعیت_مرکز": "قریه تونیون ",
    "Polling_Center_Location": "Tunion Village  ",
    "Map_Accuracy": "Building",
    "Map_Accuracy_Dari": "تعمیر",
    "Status": "Open",
    "Status_Dari": null,
    "PS_Male": 1,
    "PS_Female": 1,
    "PS_Total": 2,
    "ولسوالي": "پشتون زرغون",
    "Region": "Western Region"
   },
   "geometry": {
    "x": 6959475.3930160226,
    "y": 4069957.3547086013
   }
  },
  {
   "attributes": {
    "OBJECTID": 2846,
    "ولایت": "هرات",
    "Province": "HERAT",
    "PC_Code": "3206144",
    "District": "PASHTUN ZARGHUN",
    "د_مرکز_نوم__نام_مرکز": "مکتب بوریا باف ",
    "Polling_Center_Name": "Boreya Baf School ",
    "د_مرکز_ځای__موقعیت_مرکز": "قریه بوریا باف ",
    "Polling_Center_Location": "Boreya Baf Village ",
    "Map_Accuracy": "Village",
    "Map_Accuracy_Dari": "قریه",
    "Status": "Open",
    "Status_Dari": null,
    "PS_Male": 1,
    "PS_Female": 1,
    "PS_Total": 2,
    "ولسوالي": "پشتون زرغون",
    "Region": "Western Region"
   },
   "geometry": {
    "x": 6998504.4328417955,
    "y": 4061963.4528147131
   }
  },
  {
   "attributes": {
    "OBJECTID": 2847,
    "ولایت": "هرات",
    "Province": "HERAT",
    "PC_Code": "3207191",
    "District": "KUSHK (RUBAT-E-SANGI)",
    "د_مرکز_نوم__نام_مرکز": "مکتب بر جنک",
    "Polling_Center_Name": "Barjenak School ",
    "د_مرکز_ځای__موقعیت_مرکز": "قریه برجنک ",
    "Polling_Center_Location": "Barjenak Village ",
    "Map_Accuracy": "Building",
    "Map_Accuracy_Dari": "تعمیر",
    "Status": "Open",
    "Status_Dari": null,
    "PS_Male": 2,
    "PS_Female": 1,
    "PS_Total": 3,
    "ولسوالي": "کشک (رباط سنگی)",
    "Region": "Western Region"
   },
   "geometry": {
    "x": 6923049.3190323524,
    "y": 4189229.2785930303
   }
  },
  {
   "attributes": {
    "OBJECTID": 2848,
    "ولایت": "هرات",
    "Province": "HERAT",
    "PC_Code": "3207192",
    "District": "KUSHK (RUBAT-E-SANGI)",
    "د_مرکز_نوم__نام_مرکز": "مکتب یکه توت ",
    "Polling_Center_Name": "Yakatoot School ",
    "د_مرکز_ځای__موقعیت_مرکز": "قریه یکه توت",
    "Polling_Center_Location": "Yakatoot Village",
    "Map_Accuracy": "Village",
    "Map_Accuracy_Dari": "قریه",
    "Status": "Open",
    "Status_Dari": null,
    "PS_Male": 2,
    "PS_Female": 1,
    "PS_Total": 3,
    "ولسوالي": "کشک (رباط سنگی)",
    "Region": "Western Region"
   },
   "geometry": {
    "x": 6937778.0698772948,
    "y": 4176899.603482917
   }
  },
  {
   "attributes": {
    "OBJECTID": 2849,
    "ولایت": "هرات",
    "Province": "HERAT",
    "PC_Code": "3208228",
    "District": "GULRAN",
    "د_مرکز_نوم__نام_مرکز": "موقعیت کوچی های رباط سرگردان",
    "Polling_Center_Name": "Kochis Location",
    "د_مرکز_ځای__موقعیت_مرکز": "رباط سرگردان",
    "Polling_Center_Location": "Rubat Sargaradan ",
    "Map_Accuracy": "Village",
    "Map_Accuracy_Dari": "قریه",
    "Status": "Open",
    "Status_Dari": null,
    "PS_Male": 1,
    "PS_Female": 1,
    "PS_Total": 2,
    "ولسوالي": "گلران ",
    "Region": "Western Region"
   },
   "geometry": {
    "x": 6887790.2495720712,
    "y": 4143655.7745644022
   }
  },
  {
   "attributes": {
    "OBJECTID": 2850,
    "ولایت": "هرات",
    "Province": "HERAT",
    "PC_Code": "3209287",
    "District": "ADRASKAN",
    "د_مرکز_نوم__نام_مرکز": "مکتب شیرزاد",
    "Polling_Center_Name": "Shirzad Mosque ",
    "د_مرکز_ځای__موقعیت_مرکز": "قریه شیرزاد",
    "Polling_Center_Location": "Shirzad Village",
    "Map_Accuracy": "Building",
    "Map_Accuracy_Dari": "تعمیر",
    "Status": "Open",
    "Status_Dari": null,
    "PS_Male": 1,
    "PS_Female": 1,
    "PS_Total": 2,
    "ولسوالي": "ادرسکن ",
    "Region": "Western Region"
   },
   "geometry": {
    "x": 6998322.0369693264,
    "y": 3975532.0845270422
   }
  },
  {
   "attributes": {
    "OBJECTID": 2851,
    "ولایت": "هرات",
    "Province": "HERAT",
    "PC_Code": "3209288",
    "District": "ADRASKAN",
    "د_مرکز_نوم__نام_مرکز": "مسجد تخاب",
    "Polling_Center_Name": "Takhab Mosque ",
    "د_مرکز_ځای__موقعیت_مرکز": " تخاب",
    "Polling_Center_Location": "Takhab ",
    "Map_Accuracy": "Building",
    "Map_Accuracy_Dari": "تعمیر",
    "Status": "Open",
    "Status_Dari": null,
    "PS_Male": 1,
    "PS_Female": 1,
    "PS_Total": 2,
    "ولسوالي": "ادرسکن ",
    "Region": "Western Region"
   },
   "geometry": {
    "x": 7001798.8496822044,
    "y": 3983709.3053153581
   }
  },
  {
   "attributes": {
    "OBJECTID": 2852,
    "ولایت": "هرات",
    "Province": "HERAT",
    "PC_Code": "3209291",
    "District": "ADRASKAN",
    "د_مرکز_نوم__نام_مرکز": "مکتب متوسطه کروچه",
    "Polling_Center_Name": "Karocha Scondary School ",
    "د_مرکز_ځای__موقعیت_مرکز": " کروچه",
    "Polling_Center_Location": "Karocha ",
    "Map_Accuracy": "Building",
    "Map_Accuracy_Dari": "تعمیر",
    "Status": "Open",
    "Status_Dari": null,
    "PS_Male": 1,
    "PS_Female": 1,
    "PS_Total": 2,
    "ولسوالي": "ادرسکن ",
    "Region": "Western Region"
   },
   "geometry": {
    "x": 6984387.2824112177,
    "y": 3992945.3176329653
   }
  },
  {
   "attributes": {
    "OBJECTID": 2853,
    "ولایت": "هرات",
    "Province": "HERAT",
    "PC_Code": "3209295",
    "District": "ADRASKAN",
    "د_مرکز_نوم__نام_مرکز": "مسجد چنار",
    "Polling_Center_Name": "Chenar Mosque ",
    "د_مرکز_ځای__موقعیت_مرکز": "قریه چنار",
    "Polling_Center_Location": "Chenar Village",
    "Map_Accuracy": "Building",
    "Map_Accuracy_Dari": "تعمیر",
    "Status": "Open",
    "Status_Dari": null,
    "PS_Male": 1,
    "PS_Female": 1,
    "PS_Total": 2,
    "ولسوالي": "ادرسکن ",
    "Region": "Western Region"
   },
   "geometry": {
    "x": 6963190.964885952,
    "y": 3973113.7258211905
   }
  },
  {
   "attributes": {
    "OBJECTID": 2854,
    "ولایت": "هرات",
    "Province": "HERAT",
    "PC_Code": "3209462",
    "District": "ADRASKAN",
    "د_مرکز_نوم__نام_مرکز": "مكتب زرد آلوگك",
    "Polling_Center_Name": "Zard Alogak Mosque ",
    "د_مرکز_ځای__موقعیت_مرکز": "زرد الوگک ",
    "Polling_Center_Location": "Zard Alogak ",
    "Map_Accuracy": "Village",
    "Map_Accuracy_Dari": "قریه",
    "Status": "Open",
    "Status_Dari": null,
    "PS_Male": 1,
    "PS_Female": 1,
    "PS_Total": 2,
    "ولسوالي": "ادرسکن ",
    "Region": "Western Region"
   },
   "geometry": {
    "x": 6946491.7922622729,
    "y": 4013901.2942860373
   }
  },
  {
   "attributes": {
    "OBJECTID": 2855,
    "ولایت": "هرات",
    "Province": "HERAT",
    "PC_Code": "3210409",
    "District": "KUSHK-E-KUHNA",
    "د_مرکز_نوم__نام_مرکز": "مسجد جامع کاریز زمان مردانه",
    "Polling_Center_Name": "Kariz-e- Zaman /Mardana Mosque",
    "د_مرکز_ځای__موقعیت_مرکز": "قریه کاریز زمان",
    "Polling_Center_Location": "Kariz-e-Zaman Village",
    "Map_Accuracy": "Village",
    "Map_Accuracy_Dari": "قریه",
    "Status": "Open",
    "Status_Dari": null,
    "PS_Male": 3,
    "PS_Female": 0,
    "PS_Total": 3,
    "ولسوالي": "کشک کهنه ",
    "Region": "Western Region"
   },
   "geometry": {
    "x": 6955511.8135657487,
    "y": 4139148.0773132043
   }
  },
  {
   "attributes": {
    "OBJECTID": 2856,
    "ولایت": "هرات",
    "Province": "HERAT",
    "PC_Code": "3210410",
    "District": "KUSHK-E-KUHNA",
    "د_مرکز_نوم__نام_مرکز": "مسجد پایین کاریز زمان زنانه",
    "Polling_Center_Name": "Kariz-e- Zaman /Zanana Paheen Mosque",
    "د_مرکز_ځای__موقعیت_مرکز": "قریه کاریز زمان",
    "Polling_Center_Location": "Kariz-e-Zaman Village",
    "Map_Accuracy": "Village",
    "Map_Accuracy_Dari": "قریه",
    "Status": "Open",
    "Status_Dari": null,
    "PS_Male": 0,
    "PS_Female": 2,
    "PS_Total": 2,
    "ولسوالي": "کشک کهنه ",
    "Region": "Western Region"
   },
   "geometry": {
    "x": 6954832.8125392962,
    "y": 4138007.4527149177
   }
  },
  {
   "attributes": {
    "OBJECTID": 2857,
    "ولایت": "هرات",
    "Province": "HERAT",
    "PC_Code": "3210419",
    "District": "KUSHK-E-KUHNA",
    "د_مرکز_نوم__نام_مرکز": "مکتب خواجه شهاب",
    "Polling_Center_Name": "Khwaja Shahab Mosque ",
    "د_مرکز_ځای__موقعیت_مرکز": "خواجه شهاب ",
    "Polling_Center_Location": "Khwaja Shahab  ",
    "Map_Accuracy": "Building",
    "Map_Accuracy_Dari": "تعمیر",
    "Status": "Open",
    "Status_Dari": null,
    "PS_Male": 3,
    "PS_Female": 2,
    "PS_Total": 5,
    "ولسوالي": "کشک کهنه ",
    "Region": "Western Region"
   },
   "geometry": {
    "x": 6968747.7310773358,
    "y": 4130137.6766268546
   }
  },
  {
   "attributes": {
    "OBJECTID": 2858,
    "ولایت": "هرات",
    "Province": "HERAT",
    "PC_Code": "3211254",
    "District": "GHORYAN",
    "د_مرکز_نوم__نام_مرکز": "مسجد زنگی صبا",
    "Polling_Center_Name": "Zangi Sabah Mosque ",
    "د_مرکز_ځای__موقعیت_مرکز": "قریه زنگی صبا",
    "Polling_Center_Location": "Zangi Sabah Village  ",
    "Map_Accuracy": "Village",
    "Map_Accuracy_Dari": "قریه",
    "Status": "Open",
    "Status_Dari": null,
    "PS_Male": 2,
    "PS_Female": 2,
    "PS_Total": 4,
    "ولسوالي": "غوریان ",
    "Region": "Western Region"
   },
   "geometry": {
    "x": 6839602.4376031049,
    "y": 4087129.3621732709
   }
  },
  {
   "attributes": {
    "OBJECTID": 2859,
    "ولایت": "هرات",
    "Province": "HERAT",
    "PC_Code": "3211255",
    "District": "GHORYAN",
    "د_مرکز_نوم__نام_مرکز": "مکتب شبش",
    "Polling_Center_Name": "Shabesh School ",
    "د_مرکز_ځای__موقعیت_مرکز": "قریه شبش",
    "Polling_Center_Location": "Shabesh Village ",
    "Map_Accuracy": "Building",
    "Map_Accuracy_Dari": "تعمیر",
    "Status": "Open",
    "Status_Dari": null,
    "PS_Male": 2,
    "PS_Female": 1,
    "PS_Total": 3,
    "ولسوالي": "غوریان ",
    "Region": "Western Region"
   },
   "geometry": {
    "x": 6834017.3205638044,
    "y": 4095551.9731698604
   }
  },
  {
   "attributes": {
    "OBJECTID": 2860,
    "ولایت": "هرات",
    "Province": "HERAT",
    "PC_Code": "3212378",
    "District": "OBE",
    "د_مرکز_نوم__نام_مرکز": "مسجد جامع کرشک مردانه",
    "Polling_Center_Name": "Karshak Mardanah Mosque",
    "د_مرکز_ځای__موقعیت_مرکز": "قریه کرشک",
    "Polling_Center_Location": "Karshak Village",
    "Map_Accuracy": "Building",
    "Map_Accuracy_Dari": "تعمیر",
    "Status": "Open",
    "Status_Dari": null,
    "PS_Male": 2,
    "PS_Female": 0,
    "PS_Total": 2,
    "ولسوالي": "اوبه ",
    "Region": "Western Region"
   },
   "geometry": {
    "x": 7015406.1846748162,
    "y": 4064214.986329596
   }
  },
  {
   "attributes": {
    "OBJECTID": 2861,
    "ولایت": "هرات",
    "Province": "HERAT",
    "PC_Code": "3212379",
    "District": "OBE",
    "د_مرکز_نوم__نام_مرکز": "مسجد جامع کرشک زنانه",
    "Polling_Center_Name": "Karshak Zanana Mosque",
    "د_مرکز_ځای__موقعیت_مرکز": "قریه کرشک",
    "Polling_Center_Location": "Karshak Zananah ",
    "Map_Accuracy": "Building",
    "Map_Accuracy_Dari": "تعمیر",
    "Status": "Open",
    "Status_Dari": null,
    "PS_Male": 0,
    "PS_Female": 2,
    "PS_Total": 2,
    "ولسوالي": "اوبه ",
    "Region": "Western Region"
   },
   "geometry": {
    "x": 7015433.1718589719,
    "y": 4064288.0112070874
   }
  },
  {
   "attributes": {
    "OBJECTID": 2862,
    "ولایت": "هرات",
    "Province": "HERAT",
    "PC_Code": "3213232",
    "District": "KOHSAN",
    "د_مرکز_نوم__نام_مرکز": "مکتب متوسطه قزل اسلام",
    "Polling_Center_Name": "Qazal Islam Scondary School",
    "د_مرکز_ځای__موقعیت_مرکز": " قزل اسلام",
    "Polling_Center_Location": "Qazal Islam ",
    "Map_Accuracy": "Building",
    "Map_Accuracy_Dari": "تعمیر",
    "Status": "Open",
    "Status_Dari": null,
    "PS_Male": 2,
    "PS_Female": 1,
    "PS_Total": 3,
    "ولسوالي": "کهسان ",
    "Region": "Western Region"
   },
   "geometry": {
    "x": 6800940.2567252191,
    "y": 4136474.9944419116
   }
  },
  {
   "attributes": {
    "OBJECTID": 2863,
    "ولایت": "هرات",
    "Province": "HERAT",
    "PC_Code": "3213233",
    "District": "KOHSAN",
    "د_مرکز_نوم__نام_مرکز": "مکتب قدوس آباد دوم",
    "Polling_Center_Name": "Qodos Abad-e- Dowom School",
    "د_مرکز_ځای__موقعیت_مرکز": "قدوس آباد دوم",
    "Polling_Center_Location": "Qodoos Abad-e-Duowm ",
    "Map_Accuracy": "Building",
    "Map_Accuracy_Dari": "تعمیر",
    "Status": "Open",
    "Status_Dari": null,
    "PS_Male": 2,
    "PS_Female": 2,
    "PS_Total": 4,
    "ولسوالي": "کهسان ",
    "Region": "Western Region"
   },
   "geometry": {
    "x": 6803252.9024485266,
    "y": 4117330.3293654439
   }
  },
  {
   "attributes": {
    "OBJECTID": 2864,
    "ولایت": "هرات",
    "Province": "HERAT",
    "PC_Code": "3213236",
    "District": "KOHSAN",
    "د_مرکز_نوم__نام_مرکز": "مکتب متوسطه اسلام قلعه ",
    "Polling_Center_Name": "Islam Qala Secondary School ",
    "د_مرکز_ځای__موقعیت_مرکز": "اسلام قلعه",
    "Polling_Center_Location": "Islam Qala ",
    "Map_Accuracy": "Building",
    "Map_Accuracy_Dari": "تعمیر",
    "Status": "Open",
    "Status_Dari": null,
    "PS_Male": 4,
    "PS_Female": 3,
    "PS_Total": 7,
    "ولسوالي": "کهسان ",
    "Region": "Western Region"
   },
   "geometry": {
    "x": 6800360.4614025652,
    "y": 4119247.3771530236
   }
  },
  {
   "attributes": {
    "OBJECTID": 2865,
    "ولایت": "هرات",
    "Province": "HERAT",
    "PC_Code": "3213237",
    "District": "KOHSAN",
    "د_مرکز_نوم__نام_مرکز": "مکتب ابتدایی احمد آباد",
    "Polling_Center_Name": "Ahmad Abad Primary School ",
    "د_مرکز_ځای__موقعیت_مرکز": " احمد آباد",
    "Polling_Center_Location": "Ahmad Abad",
    "Map_Accuracy": "Building",
    "Map_Accuracy_Dari": "تعمیر",
    "Status": "Open",
    "Status_Dari": null,
    "PS_Male": 1,
    "PS_Female": 2,
    "PS_Total": 3,
    "ولسوالي": "کهسان ",
    "Region": "Western Region"
   },
   "geometry": {
    "x": 6826355.2690305868,
    "y": 4105049.5775536867
   }
  },
  {
   "attributes": {
    "OBJECTID": 2866,
    "ولایت": "هرات",
    "Province": "HERAT",
    "PC_Code": "3213242",
    "District": "KOHSAN",
    "د_مرکز_نوم__نام_مرکز": "مکتب ابتدائیه  قلعه سردار",
    "Polling_Center_Name": "Qala-e- Sardar Primary School",
    "د_مرکز_ځای__موقعیت_مرکز": " قلعه سردار",
    "Polling_Center_Location": "Qala-e-Sardar  ",
    "Map_Accuracy": "Village",
    "Map_Accuracy_Dari": "قریه",
    "Status": "Open",
    "Status_Dari": null,
    "PS_Male": 1,
    "PS_Female": 1,
    "PS_Total": 2,
    "ولسوالي": "کهسان ",
    "Region": "Western Region"
   },
   "geometry": {
    "x": 6815466.7222442674,
    "y": 4114893.9858865151
   }
  },
  {
   "attributes": {
    "OBJECTID": 2867,
    "ولایت": "هرات",
    "Province": "HERAT",
    "PC_Code": "3213243",
    "District": "KOHSAN",
    "د_مرکز_نوم__نام_مرکز": "مکتب ابتدائیه  مصطفی بیگ",
    "Polling_Center_Name": "Mustafa Big Primary School ",
    "د_مرکز_ځای__موقعیت_مرکز": " مصطفی بیگ",
    "Polling_Center_Location": "Mustafa Big  ",
    "Map_Accuracy": "Village",
    "Map_Accuracy_Dari": "قریه",
    "Status": "Open",
    "Status_Dari": null,
    "PS_Male": 1,
    "PS_Female": 2,
    "PS_Total": 3,
    "ولسوالي": "کهسان ",
    "Region": "Western Region"
   },
   "geometry": {
    "x": 6803337.5275254278,
    "y": 4129017.2538464786
   }
  },
  {
   "attributes": {
    "OBJECTID": 2868,
    "ولایت": "هرات",
    "Province": "HERAT",
    "PC_Code": "3214304",
    "District": "SHINDAND",
    "د_مرکز_نوم__نام_مرکز": "مکتب شورآب",
    "Polling_Center_Name": "Shur Abad School ",
    "د_مرکز_ځای__موقعیت_مرکز": "قریه شورآب",
    "Polling_Center_Location": "Shur Abad ",
    "Map_Accuracy": "Building",
    "Map_Accuracy_Dari": "تعمیر",
    "Status": "Open",
    "Status_Dari": null,
    "PS_Male": 4,
    "PS_Female": 1,
    "PS_Total": 5,
    "ولسوالي": "شیندند",
    "Region": "Western Region"
   },
   "geometry": {
    "x": 6919589.9022162976,
    "y": 3941213.6742480956
   }
  },
  {
   "attributes": {
    "OBJECTID": 2869,
    "ولایت": "هرات",
    "Province": "HERAT",
    "PC_Code": "3214305",
    "District": "SHINDAND",
    "د_مرکز_نوم__نام_مرکز": "مسجد ابراهیم خان پشت شهر",
    "Polling_Center_Name": "Ibrahim Khan Mosque ",
    "د_مرکز_ځای__موقعیت_مرکز": "پشت شهر ",
    "Polling_Center_Location": "Posht-e-Shahr ",
    "Map_Accuracy": "Building",
    "Map_Accuracy_Dari": "تعمیر",
    "Status": "Open",
    "Status_Dari": null,
    "PS_Male": 1,
    "PS_Female": 1,
    "PS_Total": 2,
    "ولسوالي": "شیندند",
    "Region": "Western Region"
   },
   "geometry": {
    "x": 6918540.4020946091,
    "y": 3941285.5453399424
   }
  },
  {
   "attributes": {
    "OBJECTID": 2870,
    "ولایت": "هرات",
    "Province": "HERAT",
    "PC_Code": "3214308",
    "District": "SHINDAND",
    "د_مرکز_نوم__نام_مرکز": "مسجد حاجی علاوالدین خان",
    "Polling_Center_Name": "Haji Allahudeen Khan Mosque ",
    "د_مرکز_ځای__موقعیت_مرکز": "پا کشک ",
    "Polling_Center_Location": "Pa Kashak ",
    "Map_Accuracy": "Building",
    "Map_Accuracy_Dari": "تعمیر",
    "Status": "Open",
    "Status_Dari": null,
    "PS_Male": 2,
    "PS_Female": 1,
    "PS_Total": 3,
    "ولسوالي": "شیندند",
    "Region": "Western Region"
   },
   "geometry": {
    "x": 6918742.9044935042,
    "y": 3934368.0412457483
   }
  },
  {
   "attributes": {
    "OBJECTID": 2871,
    "ولایت": "هرات",
    "Province": "HERAT",
    "PC_Code": "3214309",
    "District": "SHINDAND",
    "د_مرکز_نوم__نام_مرکز": "مسجد حاجی نظر",
    "Polling_Center_Name": "Haji Nazir Mosque ",
    "د_مرکز_ځای__موقعیت_مرکز": "خیفان اول ",
    "Polling_Center_Location": "Khaifan Awal ",
    "Map_Accuracy": "Building",
    "Map_Accuracy_Dari": "تعمیر",
    "Status": "Open",
    "Status_Dari": null,
    "PS_Male": 1,
    "PS_Female": 1,
    "PS_Total": 2,
    "ولسوالي": "شیندند",
    "Region": "Western Region"
   },
   "geometry": {
    "x": 6914115.8575385194,
    "y": 3931809.2149346895
   }
  },
  {
   "attributes": {
    "OBJECTID": 2872,
    "ولایت": "هرات",
    "Province": "HERAT",
    "PC_Code": "3214326",
    "District": "SHINDAND",
    "د_مرکز_نوم__نام_مرکز": "مسجد حاجی سلطان خان",
    "Polling_Center_Name": "Haji Sultan Khan Mosque ",
    "د_مرکز_ځای__موقعیت_مرکز": "ده پهلوان ",
    "Polling_Center_Location": "Deh Pahlawan ",
    "Map_Accuracy": "Village",
    "Map_Accuracy_Dari": "قریه",
    "Status": "Open",
    "Status_Dari": null,
    "PS_Male": 1,
    "PS_Female": 1,
    "PS_Total": 2,
    "ولسوالي": "شیندند",
    "Region": "Western Region"
   },
   "geometry": {
    "x": 6933911.5031368565,
    "y": 3942422.2589056497
   }
  },
  {
   "attributes": {
    "OBJECTID": 2873,
    "ولایت": "هرات",
    "Province": "HERAT",
    "PC_Code": "3214327",
    "District": "SHINDAND",
    "د_مرکز_نوم__نام_مرکز": "مسجد مغلان کهنه",
    "Polling_Center_Name": "Mughelan-e-Kuhna Mosque ",
    "د_مرکز_ځای__موقعیت_مرکز": "قریه مغلان",
    "Polling_Center_Location": "Mughelan Village",
    "Map_Accuracy": "Village",
    "Map_Accuracy_Dari": "قریه",
    "Status": "Open",
    "Status_Dari": null,
    "PS_Male": 1,
    "PS_Female": 1,
    "PS_Total": 2,
    "ولسوالي": "شیندند",
    "Region": "Western Region"
   },
   "geometry": {
    "x": 6929623.6889717309,
    "y": 3943984.6915324726
   }
  },
  {
   "attributes": {
    "OBJECTID": 2874,
    "ولایت": "هرات",
    "Province": "HERAT",
    "PC_Code": "3214349",
    "District": "SHINDAND",
    "د_مرکز_نوم__نام_مرکز": "کلینیک خیرآباد",
    "Polling_Center_Name": "Khair Abad Clinic",
    "د_مرکز_ځای__موقعیت_مرکز": "خیرآباد",
    "Polling_Center_Location": "Khair Abad ",
    "Map_Accuracy": "Village",
    "Map_Accuracy_Dari": "قریه",
    "Status": "Open",
    "Status_Dari": null,
    "PS_Male": 1,
    "PS_Female": 1,
    "PS_Total": 2,
    "ولسوالي": "شیندند",
    "Region": "Western Region"
   },
   "geometry": {
    "x": 6968610.7557835001,
    "y": 3912772.4258376663
   }
  },
  {
   "attributes": {
    "OBJECTID": 2875,
    "ولایت": "هرات",
    "Province": "HERAT",
    "PC_Code": "3216394",
    "District": "CHISHT-E-SHARIF",
    "د_مرکز_نوم__نام_مرکز": "مکتب اصفرض",
    "Polling_Center_Name": "Asfar-e-Dwat School",
    "د_مرکز_ځای__موقعیت_مرکز": "اصفرض ",
    "Polling_Center_Location": "Asfar-e-Dwat",
    "Map_Accuracy": "Building",
    "Map_Accuracy_Dari": "تعمیر",
    "Status": "Open",
    "Status_Dari": null,
    "PS_Male": 2,
    "PS_Female": 1,
    "PS_Total": 3,
    "ولسوالي": "چشت شریف",
    "Region": "Western Region"
   },
   "geometry": {
    "x": 7075555.3705510888,
    "y": 4076803.9836397748
   }
  },
  {
   "attributes": {
    "OBJECTID": 2876,
    "ولایت": "هرات",
    "Province": "HERAT",
    "PC_Code": "3216395",
    "District": "CHISHT-E-SHARIF",
    "د_مرکز_نوم__نام_مرکز": "مسجد جامع تگاب غزه",
    "Polling_Center_Name": "Tagaab Ghaza Mosque ",
    "د_مرکز_ځای__موقعیت_مرکز": "تکاب غزه ",
    "Polling_Center_Location": "Tagab Ghaza",
    "Map_Accuracy": "Building",
    "Map_Accuracy_Dari": "تعمیر",
    "Status": "Open",
    "Status_Dari": null,
    "PS_Male": 1,
    "PS_Female": 1,
    "PS_Total": 2,
    "ولسوالي": "چشت شریف",
    "Region": "Western Region"
   },
   "geometry": {
    "x": 7088257.8573079342,
    "y": 4076004.6997081698
   }
  },
  {
   "attributes": {
    "OBJECTID": 2877,
    "ولایت": "هرات",
    "Province": "HERAT",
    "PC_Code": "3201473",
    "District": "DISTRICT_05",
    "د_مرکز_نوم__نام_مرکز": "ليسه استقلال باغ دشت",
    "Polling_Center_Name": "Bagh dasht Esteqlal High school",
    "د_مرکز_ځای__موقعیت_مرکز": "ليسه استقلال باغ دشت",
    "Polling_Center_Location": "Esteqlal bagh dashd High school",
    "Map_Accuracy": "Building",
    "Map_Accuracy_Dari": "تعمیر",
    "Status": "Open",
    "Status_Dari": null,
    "PS_Male": 2,
    "PS_Female": 2,
    "PS_Total": 4,
    "ولسوالي": "ناحیه_05",
    "Region": "Western Region"
   },
   "geometry": {
    "x": 6924014.5253639454,
    "y": 4079327.8552595326
   }
  },
  {
   "attributes": {
    "OBJECTID": 2878,
    "ولایت": "هرات",
    "Province": "HERAT",
    "PC_Code": "3201425",
    "District": "HERAT",
    "د_مرکز_نوم__نام_مرکز": "مسجد باغدشت",
    "Polling_Center_Name": "Bagh-e-Dasht Mosque",
    "د_مرکز_ځای__موقعیت_مرکز": "ناحیه پنجم ",
    "Polling_Center_Location": "D05 - Nahia 5",
    "Map_Accuracy": "Building",
    "Map_Accuracy_Dari": "تعمیر",
    "Status": "Open",
    "Status_Dari": null,
    "PS_Male": 3,
    "PS_Female": 5,
    "PS_Total": 8,
    "ولسوالي": "هرات",
    "Region": "Western Region"
   },
   "geometry": {
    "x": 6924148.5678344741,
    "y": 4078275.7140738936
   }
  },
  {
   "attributes": {
    "OBJECTID": 2879,
    "ولایت": "هرات",
    "Province": "HERAT",
    "PC_Code": "3201426",
    "District": "HERAT",
    "د_مرکز_نوم__نام_مرکز": "مسجد جامع نو آباد",
    "Polling_Center_Name": "Now Abad Mosque",
    "د_مرکز_ځای__موقعیت_مرکز": "ناحیه یازدهم",
    "Polling_Center_Location": "D11 - Nahia 11",
    "Map_Accuracy": "Building",
    "Map_Accuracy_Dari": "تعمیر",
    "Status": "Open",
    "Status_Dari": null,
    "PS_Male": 3,
    "PS_Female": 3,
    "PS_Total": 6,
    "ولسوالي": "هرات",
    "Region": "Western Region"
   },
   "geometry": {
    "x": 6931676.1131401602,
    "y": 4075679.7791431006
   }
  },
  {
   "attributes": {
    "OBJECTID": 2880,
    "ولایت": "هرات",
    "Province": "HERAT",
    "PC_Code": "3201431",
    "District": "HERAT",
    "د_مرکز_نوم__نام_مرکز": "مکتب دخترانه جبرئیل",
    "Polling_Center_Name": "Jebrail Girls School ",
    "د_مرکز_ځای__موقعیت_مرکز": "ناحیه دوازدهم",
    "Polling_Center_Location": "D12 - Nahia 12",
    "Map_Accuracy": "Building",
    "Map_Accuracy_Dari": "تعمیر",
    "Status": "Open",
    "Status_Dari": null,
    "PS_Male": 7,
    "PS_Female": 9,
    "PS_Total": 16,
    "ولسوالي": "هرات",
    "Region": "Western Region"
   },
   "geometry": {
    "x": 6916895.2909336071,
    "y": 4080170.0205739383
   }
  },
  {
   "attributes": {
    "OBJECTID": 2881,
    "ولایت": "هرات",
    "Province": "HERAT",
    "PC_Code": "3201432",
    "District": "HERAT",
    "د_مرکز_نوم__نام_مرکز": "محبس هرات",
    "Polling_Center_Name": "Herat Prison ",
    "د_مرکز_ځای__موقعیت_مرکز": "ناحیه اول شاروالی",
    "Polling_Center_Location": "Municipality first Nahia ",
    "Map_Accuracy": "Building",
    "Map_Accuracy_Dari": "تعمیر",
    "Status": "Open",
    "Status_Dari": null,
    "PS_Male": 3,
    "PS_Female": 3,
    "PS_Total": 6,
    "ولسوالي": "هرات",
    "Region": "Western Region"
   },
   "geometry": {
    "x": 6925804.4129773732,
    "y": 4076386.7609634926
   }
  },
  {
   "attributes": {
    "OBJECTID": 2882,
    "ولایت": "هرات",
    "Province": "HERAT",
    "PC_Code": "3202057",
    "District": "ENJIL",
    "د_مرکز_نوم__نام_مرکز": "مکتب متوسطه کبابیان",
    "Polling_Center_Name": "Kababeyan Secondary School  ",
    "د_مرکز_ځای__موقعیت_مرکز": "قریه عقاب کبابیان",
    "Polling_Center_Location": "Oqab-e-Kababeyan Village ",
    "Map_Accuracy": "Building",
    "Map_Accuracy_Dari": "تعمیر",
    "Status": "Open",
    "Status_Dari": null,
    "PS_Male": 2,
    "PS_Female": 1,
    "PS_Total": 3,
    "ولسوالي": "انجیل",
    "Region": "Western Region"
   },
   "geometry": {
    "x": 6928121.0038634334,
    "y": 4071645.8706943458
   }
  },
  {
   "attributes": {
    "OBJECTID": 2883,
    "ولایت": "هرات",
    "Province": "HERAT",
    "PC_Code": "3202074",
    "District": "ENJIL",
    "د_مرکز_نوم__نام_مرکز": "مکتب متوسطه خواجه محمد کوهی",
    "Polling_Center_Name": "Khwaja Mohammad Kohee Secondary school",
    "د_مرکز_ځای__موقعیت_مرکز": "قریه شادی بره علیا",
    "Polling_Center_Location": "Shadi-e- Bara Ulya",
    "Map_Accuracy": "Building",
    "Map_Accuracy_Dari": "تعمیر",
    "Status": "Open",
    "Status_Dari": null,
    "PS_Male": 2,
    "PS_Female": 1,
    "PS_Total": 3,
    "ولسوالي": "انجیل",
    "Region": "Western Region"
   },
   "geometry": {
    "x": 6915444.0649297293,
    "y": 4080383.6951281182
   }
  },
  {
   "attributes": {
    "OBJECTID": 2884,
    "ولایت": "هرات",
    "Province": "HERAT",
    "PC_Code": "3202075",
    "District": "ENJIL",
    "د_مرکز_نوم__نام_مرکز": "مکتب محل ناجوها ",
    "Polling_Center_Name": "Mahal-e- Najoha School",
    "د_مرکز_ځای__موقعیت_مرکز": "قریه ملدان",
    "Polling_Center_Location": "Maldan Village",
    "Map_Accuracy": "Building",
    "Map_Accuracy_Dari": "تعمیر",
    "Status": "Open",
    "Status_Dari": null,
    "PS_Male": 2,
    "PS_Female": 1,
    "PS_Total": 3,
    "ولسوالي": "انجیل",
    "Region": "Western Region"
   },
   "geometry": {
    "x": 6914393.8890987271,
    "y": 4071201.5390364463
   }
  },
  {
   "attributes": {
    "OBJECTID": 2885,
    "ولایت": "هرات",
    "Province": "HERAT",
    "PC_Code": "3202079",
    "District": "ENJIL",
    "د_مرکز_نوم__نام_مرکز": "مسجد سر حسن خواجه",
    "Polling_Center_Name": "Sar Hasan Khwaja Mosque",
    "د_مرکز_ځای__موقعیت_مرکز": "قریه سر حسن خواجه",
    "Polling_Center_Location": "Sar Hasan Khwaja Village ",
    "Map_Accuracy": "Building",
    "Map_Accuracy_Dari": "تعمیر",
    "Status": "Open",
    "Status_Dari": null,
    "PS_Male": 0,
    "PS_Female": 2,
    "PS_Total": 2,
    "ولسوالي": "انجیل",
    "Region": "Western Region"
   },
   "geometry": {
    "x": 6945881.8694326309,
    "y": 4065930.0267691887
   }
  },
  {
   "attributes": {
    "OBJECTID": 2886,
    "ولایت": "هرات",
    "Province": "HERAT",
    "PC_Code": "3202080",
    "District": "ENJIL",
    "د_مرکز_نوم__نام_مرکز": "مکتب کبرزان",
    "Polling_Center_Name": "Kabrzan School",
    "د_مرکز_ځای__موقعیت_مرکز": "قریه کبرزان",
    "Polling_Center_Location": "Kabrzan Village ",
    "Map_Accuracy": "Building",
    "Map_Accuracy_Dari": "تعمیر",
    "Status": "Open",
    "Status_Dari": null,
    "PS_Male": 2,
    "PS_Female": 1,
    "PS_Total": 3,
    "ولسوالي": "انجیل",
    "Region": "Western Region"
   },
   "geometry": {
    "x": 6915550.8526040493,
    "y": 4068825.9665198796
   }
  },
  {
   "attributes": {
    "OBJECTID": 2887,
    "ولایت": "هرات",
    "Province": "HERAT",
    "PC_Code": "3203097",
    "District": "GUZARA",
    "د_مرکز_نوم__نام_مرکز": "مکتب ابتدائی رباط میرک ",
    "Polling_Center_Name": "Rubat Meerak Primary School ",
    "د_مرکز_ځای__موقعیت_مرکز": "قریه رباط میرک تقچی",
    "Polling_Center_Location": "Rubat Meerak Tufchi  Village ",
    "Map_Accuracy": "Building",
    "Map_Accuracy_Dari": "تعمیر",
    "Status": "Open",
    "Status_Dari": null,
    "PS_Male": 3,
    "PS_Female": 2,
    "PS_Total": 5,
    "ولسوالي": "گذره",
    "Region": "Western Region"
   },
   "geometry": {
    "x": 6948116.6048707208,
    "y": 4063509.5416251216
   }
  },
  {
   "attributes": {
    "OBJECTID": 2888,
    "ولایت": "هرات",
    "Province": "HERAT",
    "PC_Code": "3205261",
    "District": "ZENDAJAN",
    "د_مرکز_نوم__نام_مرکز": "مکتب ابو منصورشکیبان ",
    "Polling_Center_Name": "Abu Mansoor Shikeban School ",
    "د_مرکز_ځای__موقعیت_مرکز": " شکیبان مروی اول",
    "Polling_Center_Location": "Shikeban Marvi Awal ",
    "Map_Accuracy": "Building",
    "Map_Accuracy_Dari": "تعمیر",
    "Status": "Open",
    "Status_Dari": null,
    "PS_Male": 3,
    "PS_Female": 1,
    "PS_Total": 4,
    "ولسوالي": "زنده جان ",
    "Region": "Western Region"
   },
   "geometry": {
    "x": 6877801.4169666115,
    "y": 4081366.4896478187
   }
  },
  {
   "attributes": {
    "OBJECTID": 2889,
    "ولایت": "هرات",
    "Province": "HERAT",
    "PC_Code": "3205458",
    "District": "ZENDAJAN",
    "د_مرکز_نوم__نام_مرکز": "مکتب محل خواجه ها",
    "Polling_Center_Name": "Mahala-e- Khwajaha School ",
    "د_مرکز_ځای__موقعیت_مرکز": "محل خواجه های دشت",
    "Polling_Center_Location": "Mahala-e- Khwaja ha-e-Dasht ",
    "Map_Accuracy": "Building",
    "Map_Accuracy_Dari": "تعمیر",
    "Status": "Open",
    "Status_Dari": null,
    "PS_Male": 1,
    "PS_Female": 2,
    "PS_Total": 3,
    "ولسوالي": "زنده جان ",
    "Region": "Western Region"
   },
   "geometry": {
    "x": 6872547.2705845525,
    "y": 4073130.0687951311
   }
  },
  {
   "attributes": {
    "OBJECTID": 2890,
    "ولایت": "هرات",
    "Province": "HERAT",
    "PC_Code": "3206119",
    "District": "PASHTUN ZARGHUN",
    "د_مرکز_نوم__نام_مرکز": "لیسه مرکز گیم",
    "Polling_Center_Name": "Gim Central High School",
    "د_مرکز_ځای__موقعیت_مرکز": "قریه گیم ",
    "Polling_Center_Location": "Gim Village ",
    "Map_Accuracy": "Building",
    "Map_Accuracy_Dari": "تعمیر",
    "Status": "Open",
    "Status_Dari": null,
    "PS_Male": 4,
    "PS_Female": 2,
    "PS_Total": 6,
    "ولسوالي": "پشتون زرغون",
    "Region": "Western Region"
   },
   "geometry": {
    "x": 6978776.7923203809,
    "y": 4059388.4651835663
   }
  },
  {
   "attributes": {
    "OBJECTID": 2891,
    "ولایت": "هرات",
    "Province": "HERAT",
    "PC_Code": "3206125",
    "District": "PASHTUN ZARGHUN",
    "د_مرکز_نوم__نام_مرکز": "مکتب پشکان دوم",
    "Polling_Center_Name": "Pushkan Duowm School ",
    "د_مرکز_ځای__موقعیت_مرکز": " پشکان دوم",
    "Polling_Center_Location": "Pushkan Duowm",
    "Map_Accuracy": "Village",
    "Map_Accuracy_Dari": "قریه",
    "Status": "Open",
    "Status_Dari": null,
    "PS_Male": 1,
    "PS_Female": 1,
    "PS_Total": 2,
    "ولسوالي": "پشتون زرغون",
    "Region": "Western Region"
   },
   "geometry": {
    "x": 6991672.2814707775,
    "y": 4060876.472053308
   }
  },
  {
   "attributes": {
    "OBJECTID": 2892,
    "ولایت": "هرات",
    "Province": "HERAT",
    "PC_Code": "3206134",
    "District": "PASHTUN ZARGHUN",
    "د_مرکز_نوم__نام_مرکز": "مکتب چیورشی",
    "Polling_Center_Name": "Cheorshi School ",
    "د_مرکز_ځای__موقعیت_مرکز": "قریه چیورشی ",
    "Polling_Center_Location": "Cheorshi Village ",
    "Map_Accuracy": "Village",
    "Map_Accuracy_Dari": "قریه",
    "Status": "Open",
    "Status_Dari": null,
    "PS_Male": 0,
    "PS_Female": 2,
    "PS_Total": 2,
    "ولسوالي": "پشتون زرغون",
    "Region": "Western Region"
   },
   "geometry": {
    "x": 6998336.2613738542,
    "y": 4059170.8087539827
   }
  },
  {
   "attributes": {
    "OBJECTID": 2893,
    "ولایت": "هرات",
    "Province": "HERAT",
    "PC_Code": "3206135",
    "District": "PASHTUN ZARGHUN",
    "د_مرکز_نوم__نام_مرکز": "مکتب دشت نیزان ",
    "Polling_Center_Name": "Dasht-e- Naizan School ",
    "د_مرکز_ځای__موقعیت_مرکز": "قریه دشت نیزان ",
    "Polling_Center_Location": "Dasht-e- Naizan Village ",
    "Map_Accuracy": "Village",
    "Map_Accuracy_Dari": "قریه",
    "Status": "Open",
    "Status_Dari": null,
    "PS_Male": 1,
    "PS_Female": 2,
    "PS_Total": 3,
    "ولسوالي": "پشتون زرغون",
    "Region": "Western Region"
   },
   "geometry": {
    "x": 7008266.6612654058,
    "y": 4061571.5884871883
   }
  },
  {
   "attributes": {
    "OBJECTID": 2894,
    "ولایت": "هرات",
    "Province": "HERAT",
    "PC_Code": "3206439",
    "District": "PASHTUN ZARGHUN",
    "د_مرکز_نوم__نام_مرکز": "مكتب خواجه محمد استاد",
    "Polling_Center_Name": "Khwaja Mohammad Ustad School ",
    "د_مرکز_ځای__موقعیت_مرکز": "قریه خواجه محمد استاد",
    "Polling_Center_Location": "Khwaja Mohammad Ustad Village",
    "Map_Accuracy": "Building",
    "Map_Accuracy_Dari": "تعمیر",
    "Status": "Open",
    "Status_Dari": null,
    "PS_Male": 1,
    "PS_Female": 1,
    "PS_Total": 2,
    "ولسوالي": "پشتون زرغون",
    "Region": "Western Region"
   },
   "geometry": {
    "x": 6993253.4178770157,
    "y": 4070117.0740860142
   }
  },
  {
   "attributes": {
    "OBJECTID": 2895,
    "ولایت": "هرات",
    "Province": "HERAT",
    "PC_Code": "3207173",
    "District": "KUSHK (RUBAT-E-SANGI)",
    "د_مرکز_نوم__نام_مرکز": "مسجد دوغی دیزوری اول ",
    "Polling_Center_Name": "Doghi Mosque ",
    "د_مرکز_ځای__موقعیت_مرکز": "قریه دیزوری اول ",
    "Polling_Center_Location": "Deh Zuri Awal Village ",
    "Map_Accuracy": "Building",
    "Map_Accuracy_Dari": "تعمیر",
    "Status": "Open",
    "Status_Dari": null,
    "PS_Male": 2,
    "PS_Female": 0,
    "PS_Total": 2,
    "ولسوالي": "کشک (رباط سنگی)",
    "Region": "Western Region"
   },
   "geometry": {
    "x": 6919865.7084998861,
    "y": 4151946.2557276166
   }
  },
  {
   "attributes": {
    "OBJECTID": 2896,
    "ولایت": "هرات",
    "Province": "HERAT",
    "PC_Code": "3207186",
    "District": "KUSHK (RUBAT-E-SANGI)",
    "د_مرکز_نوم__نام_مرکز": "مکتب خواجه قاسم",
    "Polling_Center_Name": "Khwaja qasem School ",
    "د_مرکز_ځای__موقعیت_مرکز": "قریه خواجه قاسم",
    "Polling_Center_Location": "Khwaja Qasem Village ",
    "Map_Accuracy": "Building",
    "Map_Accuracy_Dari": "تعمیر",
    "Status": "Open",
    "Status_Dari": null,
    "PS_Male": 2,
    "PS_Female": 1,
    "PS_Total": 3,
    "ولسوالي": "کشک (رباط سنگی)",
    "Region": "Western Region"
   },
   "geometry": {
    "x": 6910998.9930595402,
    "y": 4137797.5930434028
   }
  },
  {
   "attributes": {
    "OBJECTID": 2897,
    "ولایت": "هرات",
    "Province": "HERAT",
    "PC_Code": "3208212",
    "District": "GULRAN",
    "د_مرکز_نوم__نام_مرکز": "مسجد داشک",
    "Polling_Center_Name": "Dashak Mosque ",
    "د_مرکز_ځای__موقعیت_مرکز": " داشک",
    "Polling_Center_Location": "Dashak",
    "Map_Accuracy": "Village",
    "Map_Accuracy_Dari": "قریه",
    "Status": "Open",
    "Status_Dari": null,
    "PS_Male": 2,
    "PS_Female": 1,
    "PS_Total": 3,
    "ولسوالي": "گلران ",
    "Region": "Western Region"
   },
   "geometry": {
    "x": 6823661.1469970606,
    "y": 4216619.8338156557
   }
  },
  {
   "attributes": {
    "OBJECTID": 2898,
    "ولایت": "هرات",
    "Province": "HERAT",
    "PC_Code": "3208213",
    "District": "GULRAN",
    "د_مرکز_نوم__نام_مرکز": "مسجد کاریز کهنه",
    "Polling_Center_Name": "Karez e Kuhna Mosque ",
    "د_مرکز_ځای__موقعیت_مرکز": "کاریز کهنه",
    "Polling_Center_Location": "Karez e Kuhna",
    "Map_Accuracy": "Village",
    "Map_Accuracy_Dari": "قریه",
    "Status": "Open",
    "Status_Dari": null,
    "PS_Male": 1,
    "PS_Female": 1,
    "PS_Total": 2,
    "ولسوالي": "گلران ",
    "Region": "Western Region"
   },
   "geometry": {
    "x": 6829336.6944247065,
    "y": 4213978.797374811
   }
  },
  {
   "attributes": {
    "OBJECTID": 2899,
    "ولایت": "هرات",
    "Province": "HERAT",
    "PC_Code": "3209275",
    "District": "ADRASKAN",
    "د_مرکز_نوم__نام_مرکز": "لیسه مرکز ولسوالی ",
    "Polling_Center_Name": "District Center High School ",
    "د_مرکز_ځای__موقعیت_مرکز": "مرکز ولسوالی ادرسکن ",
    "Polling_Center_Location": "Adreskan District Center  ",
    "Map_Accuracy": "Building",
    "Map_Accuracy_Dari": "تعمیر",
    "Status": "Open",
    "Status_Dari": null,
    "PS_Male": 3,
    "PS_Female": 2,
    "PS_Total": 5,
    "ولسوالي": "ادرسکن ",
    "Region": "Western Region"
   },
   "geometry": {
    "x": 6931517.4416775685,
    "y": 3981087.5386033566
   }
  },
  {
   "attributes": {
    "OBJECTID": 2900,
    "ولایت": "هرات",
    "Province": "HERAT",
    "PC_Code": "3209276",
    "District": "ADRASKAN",
    "د_مرکز_نوم__نام_مرکز": "مکتب ابتدائیه ده سبز ",
    "Polling_Center_Name": "Deh Sabz Primary School ",
    "د_مرکز_ځای__موقعیت_مرکز": "قریه ده سبز ",
    "Polling_Center_Location": "Deh Sabz Village ",
    "Map_Accuracy": "Building",
    "Map_Accuracy_Dari": "تعمیر",
    "Status": "Open",
    "Status_Dari": null,
    "PS_Male": 2,
    "PS_Female": 1,
    "PS_Total": 3,
    "ولسوالي": "ادرسکن ",
    "Region": "Western Region"
   },
   "geometry": {
    "x": 6929479.7417381844,
    "y": 3978083.2451444878
   }
  },
  {
   "attributes": {
    "OBJECTID": 2901,
    "ولایت": "هرات",
    "Province": "HERAT",
    "PC_Code": "3209279",
    "District": "ADRASKAN",
    "د_مرکز_نوم__نام_مرکز": "مکتب متوسطه  ظلم آباد",
    "Polling_Center_Name": "Zulm Abad Secondary school ",
    "د_مرکز_ځای__موقعیت_مرکز": "قریه ظلم آباد",
    "Polling_Center_Location": "Zulm Abad Village ",
    "Map_Accuracy": "Building",
    "Map_Accuracy_Dari": "تعمیر",
    "Status": "Open",
    "Status_Dari": null,
    "PS_Male": 2,
    "PS_Female": 1,
    "PS_Total": 3,
    "ولسوالي": "ادرسکن ",
    "Region": "Western Region"
   },
   "geometry": {
    "x": 6919473.7492332179,
    "y": 3969742.2950017508
   }
  },
  {
   "attributes": {
    "OBJECTID": 2902,
    "ولایت": "هرات",
    "Province": "HERAT",
    "PC_Code": "3209459",
    "District": "ADRASKAN",
    "د_مرکز_نوم__نام_مرکز": "مکتب ابتدایی قلعه خرچان",
    "Polling_Center_Name": "Kharchan Qala Primary School ",
    "د_مرکز_ځای__موقعیت_مرکز": "قریه خرچان",
    "Polling_Center_Location": "Kharchan Qalaa ",
    "Map_Accuracy": "Building",
    "Map_Accuracy_Dari": "تعمیر",
    "Status": "Open",
    "Status_Dari": null,
    "PS_Male": 1,
    "PS_Female": 1,
    "PS_Total": 2,
    "ولسوالي": "ادرسکن ",
    "Region": "Western Region"
   },
   "geometry": {
    "x": 6933902.0009051263,
    "y": 3979570.6751347124
   }
  },
  {
   "attributes": {
    "OBJECTID": 2903,
    "ولایت": "هرات",
    "Province": "HERAT",
    "PC_Code": "3211246",
    "District": "GHORYAN",
    "د_مرکز_نوم__نام_مرکز": "مسجدغنجان",
    "Polling_Center_Name": "Ghanjan Mosque ",
    "د_مرکز_ځای__موقعیت_مرکز": " مرکز غنجان",
    "Polling_Center_Location": "Ghanjan Center",
    "Map_Accuracy": "Building",
    "Map_Accuracy_Dari": "تعمیر",
    "Status": "Open",
    "Status_Dari": null,
    "PS_Male": 2,
    "PS_Female": 1,
    "PS_Total": 3,
    "ولسوالي": "غوریان ",
    "Region": "Western Region"
   },
   "geometry": {
    "x": 6843391.9556711847,
    "y": 4074700.7983537195
   }
  },
  {
   "attributes": {
    "OBJECTID": 2904,
    "ولایت": "هرات",
    "Province": "HERAT",
    "PC_Code": "3211256",
    "District": "GHORYAN",
    "د_مرکز_نوم__نام_مرکز": "مکتب وزیر اکبر خان",
    "Polling_Center_Name": "Wazir Akbar Khan School ",
    "د_مرکز_ځای__موقعیت_مرکز": " مرکز ولسوالی دوم",
    "Polling_Center_Location": "Scond District Center",
    "Map_Accuracy": "Building",
    "Map_Accuracy_Dari": "تعمیر",
    "Status": "Open",
    "Status_Dari": null,
    "PS_Male": 3,
    "PS_Female": 3,
    "PS_Total": 6,
    "ولسوالي": "غوریان ",
    "Region": "Western Region"
   },
   "geometry": {
    "x": 6845591.2603417402,
    "y": 4075377.0524042458
   }
  },
  {
   "attributes": {
    "OBJECTID": 2905,
    "ولایت": "هرات",
    "Province": "HERAT",
    "PC_Code": "3211257",
    "District": "GHORYAN",
    "د_مرکز_نوم__نام_مرکز": "مسجد جامع قیسان ",
    "Polling_Center_Name": "Qaisan Mosque",
    "د_مرکز_ځای__موقعیت_مرکز": "محل فاقدان",
    "Polling_Center_Location": "Mahal-e- Faqedan",
    "Map_Accuracy": "Building",
    "Map_Accuracy_Dari": "تعمیر",
    "Status": "Open",
    "Status_Dari": null,
    "PS_Male": 3,
    "PS_Female": 1,
    "PS_Total": 4,
    "ولسوالي": "غوریان ",
    "Region": "Western Region"
   },
   "geometry": {
    "x": 6846544.8264394598,
    "y": 4075354.7519656257
   }
  },
  {
   "attributes": {
    "OBJECTID": 2906,
    "ولایت": "هرات",
    "Province": "HERAT",
    "PC_Code": "3212374",
    "District": "OBE",
    "د_مرکز_نوم__نام_مرکز": "مکتب دخترانه مرکز اوبه دوم",
    "Polling_Center_Name": "Markaz-e-Obe Duowm Girls School ",
    "د_مرکز_ځای__موقعیت_مرکز": "مرکز اوبه دوم ",
    "Polling_Center_Location": "Markaz-e- Obah Duowm",
    "Map_Accuracy": "Building",
    "Map_Accuracy_Dari": "تعمیر",
    "Status": "Open",
    "Status_Dari": null,
    "PS_Male": 2,
    "PS_Female": 1,
    "PS_Total": 3,
    "ولسوالي": "اوبه ",
    "Region": "Western Region"
   },
   "geometry": {
    "x": 7032553.9792991681,
    "y": 4079433.7919296338
   }
  },
  {
   "attributes": {
    "OBJECTID": 2907,
    "ولایت": "هرات",
    "Province": "HERAT",
    "PC_Code": "3213239",
    "District": "KOHSAN",
    "د_مرکز_نوم__نام_مرکز": "مکتب ابتدایی کمانه",
    "Polling_Center_Name": "Kamana Primary School",
    "د_مرکز_ځای__موقعیت_مرکز": " کمانه",
    "Polling_Center_Location": "Kamana",
    "Map_Accuracy": "Building",
    "Map_Accuracy_Dari": "تعمیر",
    "Status": "Open",
    "Status_Dari": null,
    "PS_Male": 1,
    "PS_Female": 2,
    "PS_Total": 3,
    "ولسوالي": "کهسان ",
    "Region": "Western Region"
   },
   "geometry": {
    "x": 6805414.7580178669,
    "y": 4170572.1142166457
   }
  },
  {
   "attributes": {
    "OBJECTID": 2908,
    "ولایت": "هرات",
    "Province": "HERAT",
    "PC_Code": "3213447",
    "District": "KOHSAN",
    "د_مرکز_نوم__نام_مرکز": "مسجد نائب غفور",
    "Polling_Center_Name": "Naeeb Ghafoor Mosqu ",
    "د_مرکز_ځای__موقعیت_مرکز": "نائب غفور ",
    "Polling_Center_Location": "Naeeb Ghafoor ",
    "Map_Accuracy": "Village",
    "Map_Accuracy_Dari": "قریه",
    "Status": "Open",
    "Status_Dari": null,
    "PS_Male": 2,
    "PS_Female": 1,
    "PS_Total": 3,
    "ولسوالي": "کهسان ",
    "Region": "Western Region"
   },
   "geometry": {
    "x": 6799139.1674767099,
    "y": 4132253.8314791522
   }
  },
  {
   "attributes": {
    "OBJECTID": 2909,
    "ولایت": "هرات",
    "Province": "HERAT",
    "PC_Code": "3209482",
    "District": "ADRASKAN",
    "د_مرکز_نوم__نام_مرکز": "مسجد غلام كشته",
    "Polling_Center_Name": "Ghulam kushta Mosque",
    "د_مرکز_ځای__موقعیت_مرکز": " غلام كشته",
    "Polling_Center_Location": "Ghulam kushta",
    "Map_Accuracy": "Building",
    "Map_Accuracy_Dari": "تعمیر",
    "Status": "Open",
    "Status_Dari": null,
    "PS_Male": 2,
    "PS_Female": 1,
    "PS_Total": 3,
    "ولسوالي": "ادرسکن",
    "Region": "Western Region"
   },
   "geometry": {
    "x": 6892932.3771542907,
    "y": 3978629.307237485
   }
  },
  {
   "attributes": {
    "OBJECTID": 2910,
    "ولایت": "هرات",
    "Province": "HERAT",
    "PC_Code": "3216483",
    "District": "CHISHT-E-SHARIF",
    "د_مرکز_نوم__نام_مرکز": "مکتب شیرخان",
    "Polling_Center_Name": "Shir khan School",
    "د_مرکز_ځای__موقعیت_مرکز": "دره تخت",
    "Polling_Center_Location": "Dara takht",
    "Map_Accuracy": "Building",
    "Map_Accuracy_Dari": "تعمیر",
    "Status": "Open",
    "Status_Dari": null,
    "PS_Male": 2,
    "PS_Female": 1,
    "PS_Total": 3,
    "ولسوالي": "چشت شریف",
    "Region": "Western Region"
   },
   "geometry": {
    "x": 7130073.6855188655,
    "y": 4077931.4778996287
   }
  },
  {
   "attributes": {
    "OBJECTID": 2911,
    "ولایت": " فراه",
    "Province": "FARAH",
    "PC_Code": "3301246",
    "District": "FARAH",
    "د_مرکز_نوم__نام_مرکز": "مکتب ذکور کاریزک",
    "Polling_Center_Name": "Kariz male School",
    "د_مرکز_ځای__موقعیت_مرکز": "کاریزک",
    "Polling_Center_Location": "Karizak",
    "Map_Accuracy": "Building",
    "Map_Accuracy_Dari": "تعمیر",
    "Status": "Open",
    "Status_Dari": null,
    "PS_Male": 3,
    "PS_Female": 1,
    "PS_Total": 4,
    "ولسوالي": " فراه",
    "Region": "Western Region"
   },
   "geometry": {
    "x": 6907081.194417771,
    "y": 3800617.3999297917
   }
  },
  {
   "attributes": {
    "OBJECTID": 2912,
    "ولایت": " فراه",
    "Province": "FARAH",
    "PC_Code": "3301012",
    "District": "FARAH",
    "د_مرکز_نوم__نام_مرکز": "لیسه نسوان شیر علی خان",
    "Polling_Center_Name": "Shir Ali Khan Girls High School",
    "د_مرکز_ځای__موقعیت_مرکز": "نوده",
    "Polling_Center_Location": "Nawda",
    "Map_Accuracy": "Building",
    "Map_Accuracy_Dari": "تعمیر",
    "Status": "Open",
    "Status_Dari": null,
    "PS_Male": 2,
    "PS_Female": 2,
    "PS_Total": 4,
    "ولسوالي": "فراه",
    "Region": "Western Region"
   },
   "geometry": {
    "x": 6903614.1059076926,
    "y": 3794834.045489707
   }
  },
  {
   "attributes": {
    "OBJECTID": 2913,
    "ولایت": " فراه",
    "Province": "FARAH",
    "PC_Code": "3301013",
    "District": "FARAH",
    "د_مرکز_نوم__نام_مرکز": "مکتب متوسطه",
    "Polling_Center_Name": "Secondary School",
    "د_مرکز_ځای__موقعیت_مرکز": "تجگ",
    "Polling_Center_Location": "Tajag",
    "Map_Accuracy": "Building",
    "Map_Accuracy_Dari": "تعمیر",
    "Status": "Open",
    "Status_Dari": null,
    "PS_Male": 3,
    "PS_Female": 1,
    "PS_Total": 4,
    "ولسوالي": "فراه",
    "Region": "Western Region"
   },
   "geometry": {
    "x": 6881131.5506656384,
    "y": 3772891.4654435664
   }
  },
  {
   "attributes": {
    "OBJECTID": 2914,
    "ولایت": " فراه",
    "Province": "FARAH",
    "PC_Code": "3301015",
    "District": "FARAH",
    "د_مرکز_نوم__نام_مرکز": " لیسه ملا معین ",
    "Polling_Center_Name": "Molla Moeen High School",
    "د_مرکز_ځای__موقعیت_مرکز": "دارا باد بالا ",
    "Polling_Center_Location": "Dar Abad Bala",
    "Map_Accuracy": "Building",
    "Map_Accuracy_Dari": "تعمیر",
    "Status": "Open",
    "Status_Dari": null,
    "PS_Male": 2,
    "PS_Female": 2,
    "PS_Total": 4,
    "ولسوالي": "فراه",
    "Region": "Western Region"
   },
   "geometry": {
    "x": 6905309.3837538119,
    "y": 3809312.5517997909
   }
  },
  {
   "attributes": {
    "OBJECTID": 2915,
    "ولایت": " فراه",
    "Province": "FARAH",
    "PC_Code": "3301016",
    "District": "FARAH",
    "د_مرکز_نوم__نام_مرکز": "لیسه مردانه ",
    "Polling_Center_Name": "Boys High School",
    "د_مرکز_ځای__موقعیت_مرکز": "رج",
    "Polling_Center_Location": "Ruj",
    "Map_Accuracy": "Building",
    "Map_Accuracy_Dari": "تعمیر",
    "Status": "Open",
    "Status_Dari": null,
    "PS_Male": 3,
    "PS_Female": 2,
    "PS_Total": 5,
    "ولسوالي": "فراه",
    "Region": "Western Region"
   },
   "geometry": {
    "x": 6904378.6659815805,
    "y": 3814010.4454344837
   }
  },
  {
   "attributes": {
    "OBJECTID": 2916,
    "ولایت": " فراه",
    "Province": "FARAH",
    "PC_Code": "3301018",
    "District": "FARAH",
    "د_مرکز_نوم__نام_مرکز": "مکتب متوسطه ",
    "Polling_Center_Name": "Secondary School",
    "د_مرکز_ځای__موقعیت_مرکز": "کاریز شیخ ها ",
    "Polling_Center_Location": "Kariz Shaikh Ha",
    "Map_Accuracy": "Building",
    "Map_Accuracy_Dari": "تعمیر",
    "Status": "Open",
    "Status_Dari": null,
    "PS_Male": 3,
    "PS_Female": 1,
    "PS_Total": 4,
    "ولسوالي": "فراه",
    "Region": "Western Region"
   },
   "geometry": {
    "x": 6899917.4772755112,
    "y": 3812182.3140228675
   }
  },
  {
   "attributes": {
    "OBJECTID": 2917,
    "ولایت": " فراه",
    "Province": "FARAH",
    "PC_Code": "3301019",
    "District": "FARAH",
    "د_مرکز_نوم__نام_مرکز": "لیسه شمالگاه ",
    "Polling_Center_Name": "Shamalgah High School",
    "د_مرکز_ځای__موقعیت_مرکز": "شمالگاه",
    "Polling_Center_Location": "Shamalgah",
    "Map_Accuracy": "Building",
    "Map_Accuracy_Dari": "تعمیر",
    "Status": "Open",
    "Status_Dari": null,
    "PS_Male": 2,
    "PS_Female": 2,
    "PS_Total": 4,
    "ولسوالي": "فراه",
    "Region": "Western Region"
   },
   "geometry": {
    "x": 6931008.149441218,
    "y": 3828922.1865991107
   }
  },
  {
   "attributes": {
    "OBJECTID": 2918,
    "ولایت": " فراه",
    "Province": "FARAH",
    "PC_Code": "3301026",
    "District": "FARAH",
    "د_مرکز_نوم__نام_مرکز": " لیسه سور و شوراب",
    "Polling_Center_Name": "Sor Shurab High School",
    "د_مرکز_ځای__موقعیت_مرکز": "سور",
    "Polling_Center_Location": "Sor Shurab",
    "Map_Accuracy": "Building",
    "Map_Accuracy_Dari": "تعمیر",
    "Status": "Open",
    "Status_Dari": null,
    "PS_Male": 2,
    "PS_Female": 2,
    "PS_Total": 4,
    "ولسوالي": "فراه",
    "Region": "Western Region"
   },
   "geometry": {
    "x": 6924518.532596156,
    "y": 3824909.6937569263
   }
  },
  {
   "attributes": {
    "OBJECTID": 2919,
    "ولایت": " فراه",
    "Province": "FARAH",
    "PC_Code": "3301027",
    "District": "FARAH",
    "د_مرکز_نوم__نام_مرکز": "مکتب ابتدایی",
    "Polling_Center_Name": "Primary School",
    "د_مرکز_ځای__موقعیت_مرکز": "برنک توت",
    "Polling_Center_Location": "Barank Toot",
    "Map_Accuracy": "Building",
    "Map_Accuracy_Dari": "تعمیر",
    "Status": "Open",
    "Status_Dari": null,
    "PS_Male": 3,
    "PS_Female": 1,
    "PS_Total": 4,
    "ولسوالي": "فراه",
    "Region": "Western Region"
   },
   "geometry": {
    "x": 6909470.4751502061,
    "y": 3815033.1165532786
   }
  },
  {
   "attributes": {
    "OBJECTID": 2920,
    "ولایت": " فراه",
    "Province": "FARAH",
    "PC_Code": "3305093",
    "District": "SHIB KOH",
    "د_مرکز_نوم__نام_مرکز": "مکتب ابتدائیه ",
    "Polling_Center_Name": "Primary School ",
    "د_مرکز_ځای__موقعیت_مرکز": "کاریز ملهم ",
    "Polling_Center_Location": "Kariz Malham ",
    "Map_Accuracy": "Building",
    "Map_Accuracy_Dari": "تعمیر",
    "Status": "Open",
    "Status_Dari": null,
    "PS_Male": 1,
    "PS_Female": 1,
    "PS_Total": 2,
    "ولسوالي": "شیب کوه ",
    "Region": "Western Region"
   },
   "geometry": {
    "x": 6870044.7561113574,
    "y": 3805295.5504705366
   }
  },
  {
   "attributes": {
    "OBJECTID": 2921,
    "ولایت": " فراه",
    "Province": "FARAH",
    "PC_Code": "3305094",
    "District": "SHIB KOH",
    "د_مرکز_نوم__نام_مرکز": "مکتب ابتدائیه جرگ",
    "Polling_Center_Name": "Jarag Primary School ",
    "د_مرکز_ځای__موقعیت_مرکز": " جرگ",
    "Polling_Center_Location": "Jarag",
    "Map_Accuracy": "Building",
    "Map_Accuracy_Dari": "تعمیر",
    "Status": "Open",
    "Status_Dari": null,
    "PS_Male": 2,
    "PS_Female": 1,
    "PS_Total": 3,
    "ولسوالي": "شیب کوه ",
    "Region": "Western Region"
   },
   "geometry": {
    "x": 6836320.1534739975,
    "y": 3782360.054948966
   }
  },
  {
   "attributes": {
    "OBJECTID": 2922,
    "ولایت": " فراه",
    "Province": "FARAH",
    "PC_Code": "3306162",
    "District": "BALA BULUK",
    "د_مرکز_نوم__نام_مرکز": "مسجد ابخرما",
    "Polling_Center_Name": "Aab Khurma Mosque ",
    "د_مرکز_ځای__موقعیت_مرکز": "ابخرما",
    "Polling_Center_Location": "Aab Khurma",
    "Map_Accuracy": "Building",
    "Map_Accuracy_Dari": "تعمیر",
    "Status": "Open",
    "Status_Dari": null,
    "PS_Male": 2,
    "PS_Female": 1,
    "PS_Total": 3,
    "ولسوالي": "بالا بلوک ",
    "Region": "Western Region"
   },
   "geometry": {
    "x": 6951493.3113051159,
    "y": 3877650.1154106488
   }
  },
  {
   "attributes": {
    "OBJECTID": 2923,
    "ولایت": " فراه",
    "Province": "FARAH",
    "PC_Code": "3309095",
    "District": "LASH-E-JUWAYN",
    "د_مرکز_نوم__نام_مرکز": "لیسه ذکور ابن ایمن جوینی",
    "Polling_Center_Name": "Ibn-e-Eman Jaweni High School ",
    "د_مرکز_ځای__موقعیت_مرکز": " مرکز جوین ",
    "Polling_Center_Location": "Jawin District Center ",
    "Map_Accuracy": "Building",
    "Map_Accuracy_Dari": "تعمیر",
    "Status": "Open",
    "Status_Dari": null,
    "PS_Male": 2,
    "PS_Female": 1,
    "PS_Total": 3,
    "ولسوالي": "لاش جوین ",
    "Region": "Western Region"
   },
   "geometry": {
    "x": 6859538.2934396844,
    "y": 3725522.1124045285
   }
  },
  {
   "attributes": {
    "OBJECTID": 2924,
    "ولایت": " فراه",
    "Province": "FARAH",
    "PC_Code": "3309107",
    "District": "LASH-E-JUWAYN",
    "د_مرکز_نوم__نام_مرکز": " مکتب ابتدائیه پنج ده ",
    "Polling_Center_Name": "Panj Deh Primary School ",
    "د_مرکز_ځای__موقعیت_مرکز": "پنج ده ",
    "Polling_Center_Location": "Panj Deh ",
    "Map_Accuracy": "Building",
    "Map_Accuracy_Dari": "تعمیر",
    "Status": "Open",
    "Status_Dari": null,
    "PS_Male": 2,
    "PS_Female": 1,
    "PS_Total": 3,
    "ولسوالي": "لاش جوین ",
    "Region": "Western Region"
   },
   "geometry": {
    "x": 6855683.7748077381,
    "y": 3730255.4590412881
   }
  },
  {
   "attributes": {
    "OBJECTID": 2925,
    "ولایت": " فراه",
    "Province": "FARAH",
    "PC_Code": "3311189",
    "District": "PUR CHAMAN",
    "د_مرکز_نوم__نام_مرکز": "مکتب ابتدائیه چورگ",
    "Polling_Center_Name": "Chorag Primary School",
    "د_مرکز_ځای__موقعیت_مرکز": "چورگ",
    "Polling_Center_Location": "Chorag",
    "Map_Accuracy": "Building",
    "Map_Accuracy_Dari": "تعمیر",
    "Status": "Open",
    "Status_Dari": null,
    "PS_Male": 2,
    "PS_Female": 1,
    "PS_Total": 3,
    "ولسوالي": "پرچمن",
    "Region": "Western Region"
   },
   "geometry": {
    "x": 7106284.1998251639,
    "y": 3880558.5904967217
   }
  },
  {
   "attributes": {
    "OBJECTID": 2926,
    "ولایت": " فراه",
    "Province": "FARAH",
    "PC_Code": "3311190",
    "District": "PUR CHAMAN",
    "د_مرکز_نوم__نام_مرکز": " مسجد سپا وست",
    "Polling_Center_Name": "Sepawast Mosque ",
    "د_مرکز_ځای__موقعیت_مرکز": " سپا وست",
    "Polling_Center_Location": "Sepawast ",
    "Map_Accuracy": "Building",
    "Map_Accuracy_Dari": "تعمیر",
    "Status": "Open",
    "Status_Dari": null,
    "PS_Male": 1,
    "PS_Female": 1,
    "PS_Total": 2,
    "ولسوالي": "پرچمن",
    "Region": "Western Region"
   },
   "geometry": {
    "x": 7148046.9301974624,
    "y": 3895911.622799471
   }
  },
  {
   "attributes": {
    "OBJECTID": 2927,
    "ولایت": " فراه",
    "Province": "FARAH",
    "PC_Code": "3311201",
    "District": "PUR CHAMAN",
    "د_مرکز_نوم__نام_مرکز": " مسجد راز کلگی",
    "Polling_Center_Name": "Raz Kelagai Mosque  ",
    "د_مرکز_ځای__موقعیت_مرکز": " راز کلگی",
    "Polling_Center_Location": "Raz Kelagai ",
    "Map_Accuracy": "Building",
    "Map_Accuracy_Dari": "تعمیر",
    "Status": "Open",
    "Status_Dari": null,
    "PS_Male": 1,
    "PS_Female": 1,
    "PS_Total": 2,
    "ولسوالي": "پرچمن",
    "Region": "Western Region"
   },
   "geometry": {
    "x": 7086235.4782700622,
    "y": 3936706.0018541678
   }
  },
  {
   "attributes": {
    "OBJECTID": 2928,
    "ولایت": " فراه",
    "Province": "FARAH",
    "PC_Code": "3311203",
    "District": "PUR CHAMAN",
    "د_مرکز_نوم__نام_مرکز": "مسجد لاروست ",
    "Polling_Center_Name": "Larust Mosque  ",
    "د_مرکز_ځای__موقعیت_مرکز": " لاروست ",
    "Polling_Center_Location": "Larust ",
    "Map_Accuracy": "Building",
    "Map_Accuracy_Dari": "تعمیر",
    "Status": "Open",
    "Status_Dari": null,
    "PS_Male": 1,
    "PS_Female": 1,
    "PS_Total": 2,
    "ولسوالي": "پرچمن",
    "Region": "Western Region"
   },
   "geometry": {
    "x": 7103194.9169764118,
    "y": 3941840.7989768642
   }
  },
  {
   "attributes": {
    "OBJECTID": 2929,
    "ولایت": " فراه",
    "Province": "FARAH",
    "PC_Code": "3311204",
    "District": "PUR CHAMAN",
    "د_مرکز_نوم__نام_مرکز": " مسجد ولیمه",
    "Polling_Center_Name": "Walima Mosque  ",
    "د_مرکز_ځای__موقعیت_مرکز": " ولیمه",
    "Polling_Center_Location": "Walima",
    "Map_Accuracy": "Building",
    "Map_Accuracy_Dari": "تعمیر",
    "Status": "Open",
    "Status_Dari": null,
    "PS_Male": 1,
    "PS_Female": 1,
    "PS_Total": 2,
    "ولسوالي": "پرچمن",
    "Region": "Western Region"
   },
   "geometry": {
    "x": 7108308.6683298722,
    "y": 3952197.236075242
   }
  },
  {
   "attributes": {
    "OBJECTID": 2930,
    "ولایت": " فراه",
    "Province": "FARAH",
    "PC_Code": "3311212",
    "District": "PUR CHAMAN",
    "د_مرکز_نوم__نام_مرکز": " مسجد خیر آباد",
    "Polling_Center_Name": "Khair Abad Mosque",
    "د_مرکز_ځای__موقعیت_مرکز": " خیر آباد",
    "Polling_Center_Location": "Khair Abad ",
    "Map_Accuracy": "Building",
    "Map_Accuracy_Dari": "تعمیر",
    "Status": "Open",
    "Status_Dari": null,
    "PS_Male": 2,
    "PS_Female": 1,
    "PS_Total": 3,
    "ولسوالي": "پرچمن",
    "Region": "Western Region"
   },
   "geometry": {
    "x": 7065272.3839835664,
    "y": 3913677.5694058063
   }
  },
  {
   "attributes": {
    "OBJECTID": 2931,
    "ولایت": " فراه",
    "Province": "FARAH",
    "PC_Code": "3311213",
    "District": "PUR CHAMAN",
    "د_مرکز_نوم__نام_مرکز": " مسجد ده ترکان",
    "Polling_Center_Name": "Deh Turkan Mosque ",
    "د_مرکز_ځای__موقعیت_مرکز": " ده ترکان",
    "Polling_Center_Location": "Deh Turkan ",
    "Map_Accuracy": "Building",
    "Map_Accuracy_Dari": "تعمیر",
    "Status": "Open",
    "Status_Dari": null,
    "PS_Male": 1,
    "PS_Female": 1,
    "PS_Total": 2,
    "ولسوالي": "پرچمن",
    "Region": "Western Region"
   },
   "geometry": {
    "x": 7106732.1617012592,
    "y": 3897233.5797163658
   }
  },
  {
   "attributes": {
    "OBJECTID": 2932,
    "ولایت": " فراه",
    "Province": "FARAH",
    "PC_Code": "3301007",
    "District": "FARAH",
    "د_مرکز_نوم__نام_مرکز": "مسجد شور آباد",
    "Polling_Center_Name": "Shor Abad Mosque",
    "د_مرکز_ځای__موقعیت_مرکز": "شور آباد",
    "Polling_Center_Location": "Shor Abad",
    "Map_Accuracy": "Building",
    "Map_Accuracy_Dari": "تعمیر",
    "Status": "Open",
    "Status_Dari": null,
    "PS_Male": 2,
    "PS_Female": 2,
    "PS_Total": 4,
    "ولسوالي": "فراه",
    "Region": "Western Region"
   },
   "geometry": {
    "x": 6909593.716958466,
    "y": 3807555.0848076269
   }
  },
  {
   "attributes": {
    "OBJECTID": 2933,
    "ولایت": " فراه",
    "Province": "FARAH",
    "PC_Code": "3301008",
    "District": "FARAH",
    "د_مرکز_نوم__نام_مرکز": " لیسه اناث",
    "Polling_Center_Name": "Girls High School",
    "د_مرکز_ځای__موقعیت_مرکز": "کهدانک ",
    "Polling_Center_Location": "Kahdanak ",
    "Map_Accuracy": "Building",
    "Map_Accuracy_Dari": "تعمیر",
    "Status": "Open",
    "Status_Dari": null,
    "PS_Male": 3,
    "PS_Female": 2,
    "PS_Total": 5,
    "ولسوالي": "فراه",
    "Region": "Western Region"
   },
   "geometry": {
    "x": 6912804.7933488982,
    "y": 3805791.8527094703
   }
  },
  {
   "attributes": {
    "OBJECTID": 2934,
    "ولایت": " فراه",
    "Province": "FARAH",
    "PC_Code": "3301023",
    "District": "FARAH",
    "د_مرکز_نوم__نام_مرکز": "لیسه مردانه ",
    "Polling_Center_Name": "Boys High School",
    "د_مرکز_ځای__موقعیت_مرکز": "گینهکان ",
    "Polling_Center_Location": "Ginehkan",
    "Map_Accuracy": "Building",
    "Map_Accuracy_Dari": "تعمیر",
    "Status": "Open",
    "Status_Dari": null,
    "PS_Male": 3,
    "PS_Female": 1,
    "PS_Total": 4,
    "ولسوالي": "فراه",
    "Region": "Western Region"
   },
   "geometry": {
    "x": 6906150.7631819099,
    "y": 3813081.4973019431
   }
  },
  {
   "attributes": {
    "OBJECTID": 2935,
    "ولایت": " فراه",
    "Province": "FARAH",
    "PC_Code": "3301024",
    "District": "FARAH",
    "د_مرکز_نوم__نام_مرکز": "لیسه نسوان ",
    "Polling_Center_Name": "Girls High School",
    "د_مرکز_ځای__موقعیت_مرکز": "دارآباد پاین",
    "Polling_Center_Location": "Dar Abad Payen",
    "Map_Accuracy": "Building",
    "Map_Accuracy_Dari": "تعمیر",
    "Status": "Open",
    "Status_Dari": null,
    "PS_Male": 4,
    "PS_Female": 1,
    "PS_Total": 5,
    "ولسوالي": "فراه",
    "Region": "Western Region"
   },
   "geometry": {
    "x": 6904616.5523938192,
    "y": 3807589.319097118
   }
  },
  {
   "attributes": {
    "OBJECTID": 2936,
    "ولایت": " فراه",
    "Province": "FARAH",
    "PC_Code": "3301030",
    "District": "FARAH",
    "د_مرکز_نوم__نام_مرکز": "لیسه نسوان محبوبه پوپل",
    "Polling_Center_Name": "Mahboba Popal Girls High School",
    "د_مرکز_ځای__موقعیت_مرکز": "ناحیه چهارم ",
    "Polling_Center_Location": "Nahia 4",
    "Map_Accuracy": "Building",
    "Map_Accuracy_Dari": "تعمیر",
    "Status": "Open",
    "Status_Dari": null,
    "PS_Male": 2,
    "PS_Female": 2,
    "PS_Total": 4,
    "ولسوالي": "فراه",
    "Region": "Western Region"
   },
   "geometry": {
    "x": 6913218.6769892806,
    "y": 3811721.1964553404
   }
  },
  {
   "attributes": {
    "OBJECTID": 2937,
    "ولایت": " فراه",
    "Province": "FARAH",
    "PC_Code": "3301031",
    "District": "FARAH",
    "د_مرکز_نوم__نام_مرکز": "مسجد تخت",
    "Polling_Center_Name": "Takht Mosque",
    "د_مرکز_ځای__موقعیت_مرکز": "تخت",
    "Polling_Center_Location": "Takht",
    "Map_Accuracy": "Building",
    "Map_Accuracy_Dari": "تعمیر",
    "Status": "Open",
    "Status_Dari": null,
    "PS_Male": 3,
    "PS_Female": 1,
    "PS_Total": 4,
    "ولسوالي": "فراه",
    "Region": "Western Region"
   },
   "geometry": {
    "x": 6893543.3978167521,
    "y": 3772632.2394126975
   }
  },
  {
   "attributes": {
    "OBJECTID": 2938,
    "ولایت": " فراه",
    "Province": "FARAH",
    "PC_Code": "3301036",
    "District": "FARAH",
    "د_مرکز_نوم__نام_مرکز": "خیمه غرب کاریز شیخها",
    "Polling_Center_Name": "Kariz Shaikh ha Western Tent",
    "د_مرکز_ځای__موقعیت_مرکز": "امیر آباد ( کوچی )",
    "Polling_Center_Location": "Amir Abad (Kuchi)",
    "Map_Accuracy": "Village",
    "Map_Accuracy_Dari": "قریه",
    "Status": "Open",
    "Status_Dari": null,
    "PS_Male": 1,
    "PS_Female": 2,
    "PS_Total": 3,
    "ولسوالي": "فراه",
    "Region": "Western Region"
   },
   "geometry": {
    "x": 6898266.9532042798,
    "y": 3810475.920117673
   }
  },
  {
   "attributes": {
    "OBJECTID": 2939,
    "ولایت": " فراه",
    "Province": "FARAH",
    "PC_Code": "3302040",
    "District": "PUSHTRUD",
    "د_مرکز_نوم__نام_مرکز": "لیسه زرعت مساو ",
    "Polling_Center_Name": "Masaw Agriculture High School ",
    "د_مرکز_ځای__موقعیت_مرکز": "مساو",
    "Polling_Center_Location": "Masaw ",
    "Map_Accuracy": "Building",
    "Map_Accuracy_Dari": "تعمیر",
    "Status": "Open",
    "Status_Dari": null,
    "PS_Male": 1,
    "PS_Female": 1,
    "PS_Total": 2,
    "ولسوالي": "پشت رود",
    "Region": "Western Region"
   },
   "geometry": {
    "x": 6906726.1836485723,
    "y": 3823489.4876340926
   }
  },
  {
   "attributes": {
    "OBJECTID": 2940,
    "ولایت": " فراه",
    "Province": "FARAH",
    "PC_Code": "3302041",
    "District": "PUSHTRUD",
    "د_مرکز_نوم__نام_مرکز": "مکتب متوسطه روکین ",
    "Polling_Center_Name": "Rokin Secondary School ",
    "د_مرکز_ځای__موقعیت_مرکز": "روکین",
    "Polling_Center_Location": "Rokin ",
    "Map_Accuracy": "Building",
    "Map_Accuracy_Dari": "تعمیر",
    "Status": "Open",
    "Status_Dari": null,
    "PS_Male": 3,
    "PS_Female": 1,
    "PS_Total": 4,
    "ولسوالي": "پشت رود",
    "Region": "Western Region"
   },
   "geometry": {
    "x": 6902145.3955079876,
    "y": 3817796.1942718322
   }
  },
  {
   "attributes": {
    "OBJECTID": 2941,
    "ولایت": " فراه",
    "Province": "FARAH",
    "PC_Code": "3304077",
    "District": "QALA-E-KAH",
    "د_مرکز_نوم__نام_مرکز": "لیسه ذکور چاه زندان",
    "Polling_Center_Name": "Chah-e-Zendan Boys High School ",
    "د_مرکز_ځای__موقعیت_مرکز": " چاه زندان",
    "Polling_Center_Location": "Chah-e-Zendan ",
    "Map_Accuracy": "Village",
    "Map_Accuracy_Dari": "قریه",
    "Status": "Open",
    "Status_Dari": null,
    "PS_Male": 1,
    "PS_Female": 1,
    "PS_Total": 2,
    "ولسوالي": "قلعه کاه ",
    "Region": "Western Region"
   },
   "geometry": {
    "x": 6837081.7658077665,
    "y": 3809804.398557235
   }
  },
  {
   "attributes": {
    "OBJECTID": 2942,
    "ولایت": " فراه",
    "Province": "FARAH",
    "PC_Code": "3304078",
    "District": "QALA-E-KAH",
    "د_مرکز_نوم__نام_مرکز": "مسجد ملک اختر",
    "Polling_Center_Name": "Malak Akhtar Mosque ",
    "د_مرکز_ځای__موقعیت_مرکز": "دزد بر ",
    "Polling_Center_Location": "Duzd Bar",
    "Map_Accuracy": "Building",
    "Map_Accuracy_Dari": "تعمیر",
    "Status": "Open",
    "Status_Dari": null,
    "PS_Male": 2,
    "PS_Female": 1,
    "PS_Total": 3,
    "ولسوالي": "قلعه کاه ",
    "Region": "Western Region"
   },
   "geometry": {
    "x": 6858979.3404652914,
    "y": 3799869.8379676328
   }
  },
  {
   "attributes": {
    "OBJECTID": 2943,
    "ولایت": " فراه",
    "Province": "FARAH",
    "PC_Code": "3304082",
    "District": "QALA-E-KAH",
    "د_مرکز_نوم__نام_مرکز": "مسجد کوجر",
    "Polling_Center_Name": "Kojar Mosque ",
    "د_مرکز_ځای__موقعیت_مرکز": "کوجر",
    "Polling_Center_Location": "Kojar",
    "Map_Accuracy": "Building",
    "Map_Accuracy_Dari": "تعمیر",
    "Status": "Open",
    "Status_Dari": null,
    "PS_Male": 1,
    "PS_Female": 1,
    "PS_Total": 2,
    "ولسوالي": "قلعه کاه ",
    "Region": "Western Region"
   },
   "geometry": {
    "x": 6834073.1038738377,
    "y": 3808876.6084148064
   }
  },
  {
   "attributes": {
    "OBJECTID": 2944,
    "ولایت": " فراه",
    "Province": "FARAH",
    "PC_Code": "3304083",
    "District": "QALA-E-KAH",
    "د_مرکز_نوم__نام_مرکز": " مسجد جوی چشمه",
    "Polling_Center_Name": "Joy-e-Cheshma Mosque ",
    "د_مرکز_ځای__موقعیت_مرکز": "جوی چشمه",
    "Polling_Center_Location": "Joy-e-Cheshma",
    "Map_Accuracy": "Building",
    "Map_Accuracy_Dari": "تعمیر",
    "Status": "Open",
    "Status_Dari": null,
    "PS_Male": 1,
    "PS_Female": 1,
    "PS_Total": 2,
    "ولسوالي": "قلعه کاه ",
    "Region": "Western Region"
   },
   "geometry": {
    "x": 6820086.1337953787,
    "y": 3802785.7189040971
   }
  },
  {
   "attributes": {
    "OBJECTID": 2945,
    "ولایت": " فراه",
    "Province": "FARAH",
    "PC_Code": "3305088",
    "District": "SHIB KOH",
    "د_مرکز_نوم__نام_مرکز": " لیسه نسوان دو قلعه ",
    "Polling_Center_Name": "Du Qala Girls High School ",
    "د_مرکز_ځای__موقعیت_مرکز": "دو قلعه",
    "Polling_Center_Location": "Du Qala",
    "Map_Accuracy": "Building",
    "Map_Accuracy_Dari": "تعمیر",
    "Status": "Open",
    "Status_Dari": null,
    "PS_Male": 2,
    "PS_Female": 1,
    "PS_Total": 3,
    "ولسوالي": "شیب کوه ",
    "Region": "Western Region"
   },
   "geometry": {
    "x": 6841178.6024808828,
    "y": 3782728.5766368532
   }
  },
  {
   "attributes": {
    "OBJECTID": 2946,
    "ولایت": " فراه",
    "Province": "FARAH",
    "PC_Code": "3305089",
    "District": "SHIB KOH",
    "د_مرکز_نوم__نام_مرکز": " مکتب ابتدائیه باجده ",
    "Polling_Center_Name": "Bajdeh Primary School",
    "د_مرکز_ځای__موقعیت_مرکز": "باجده",
    "Polling_Center_Location": "Bajdeh ",
    "Map_Accuracy": "Building",
    "Map_Accuracy_Dari": "تعمیر",
    "Status": "Open",
    "Status_Dari": null,
    "PS_Male": 1,
    "PS_Female": 1,
    "PS_Total": 2,
    "ولسوالي": "شیب کوه ",
    "Region": "Western Region"
   },
   "geometry": {
    "x": 6867797.0998199731,
    "y": 3781119.7327471171
   }
  },
  {
   "attributes": {
    "OBJECTID": 2947,
    "ولایت": " فراه",
    "Province": "FARAH",
    "PC_Code": "3306130",
    "District": "BALA BULUK",
    "د_مرکز_نوم__نام_مرکز": " مسجد تودنک",
    "Polling_Center_Name": "Todanak Mosque ",
    "د_مرکز_ځای__موقعیت_مرکز": " تودنک",
    "Polling_Center_Location": "Todanak ",
    "Map_Accuracy": "Building",
    "Map_Accuracy_Dari": "تعمیر",
    "Status": "Open",
    "Status_Dari": null,
    "PS_Male": 1,
    "PS_Female": 1,
    "PS_Total": 2,
    "ولسوالي": "بالا بلوک ",
    "Region": "Western Region"
   },
   "geometry": {
    "x": 6966290.1384714535,
    "y": 3863964.5063041099
   }
  },
  {
   "attributes": {
    "OBJECTID": 2948,
    "ولایت": " فراه",
    "Province": "FARAH",
    "PC_Code": "3306131",
    "District": "BALA BULUK",
    "د_مرکز_نوم__نام_مرکز": " مسجد شیوان",
    "Polling_Center_Name": "Shewan Mosque  ",
    "د_مرکز_ځای__موقعیت_مرکز": " قریه شیوان",
    "Polling_Center_Location": "Shewan Village ",
    "Map_Accuracy": "Building",
    "Map_Accuracy_Dari": "تعمیر",
    "Status": "Open",
    "Status_Dari": null,
    "PS_Male": 2,
    "PS_Female": 1,
    "PS_Total": 3,
    "ولسوالي": "بالا بلوک ",
    "Region": "Western Region"
   },
   "geometry": {
    "x": 6957748.0640621139,
    "y": 3845123.6889304165
   }
  },
  {
   "attributes": {
    "OBJECTID": 2949,
    "ولایت": " فراه",
    "Province": "FARAH",
    "PC_Code": "3306135",
    "District": "BALA BULUK",
    "د_مرکز_نوم__نام_مرکز": " مسجد دهزک",
    "Polling_Center_Name": "Dehzak Mosque ",
    "د_مرکز_ځای__موقعیت_مرکز": "دهزک",
    "Polling_Center_Location": "Dehzak ",
    "Map_Accuracy": "Building",
    "Map_Accuracy_Dari": "تعمیر",
    "Status": "Open",
    "Status_Dari": null,
    "PS_Male": 1,
    "PS_Female": 1,
    "PS_Total": 2,
    "ولسوالي": "بالا بلوک ",
    "Region": "Western Region"
   },
   "geometry": {
    "x": 6960236.1036619153,
    "y": 3843847.8520980789
   }
  },
  {
   "attributes": {
    "OBJECTID": 2950,
    "ولایت": " فراه",
    "Province": "FARAH",
    "PC_Code": "3306136",
    "District": "BALA BULUK",
    "د_مرکز_نوم__نام_مرکز": " مسجد  چکاب",
    "Polling_Center_Name": "Chakab Mosque",
    "د_مرکز_ځای__موقعیت_مرکز": " چکاب",
    "Polling_Center_Location": "Chakab ",
    "Map_Accuracy": "Building",
    "Map_Accuracy_Dari": "تعمیر",
    "Status": "Open",
    "Status_Dari": null,
    "PS_Male": 1,
    "PS_Female": 1,
    "PS_Total": 2,
    "ولسوالي": "بالا بلوک ",
    "Region": "Western Region"
   },
   "geometry": {
    "x": 7004429.1444592914,
    "y": 3836340.153715685
   }
  },
  {
   "attributes": {
    "OBJECTID": 2951,
    "ولایت": " فراه",
    "Province": "FARAH",
    "PC_Code": "3306244",
    "District": "BALA BULUK",
    "د_مرکز_نوم__نام_مرکز": "مسجد حاجی محمد عوض",
    "Polling_Center_Name": "Haji Mohammd Ewaz Mosque",
    "د_مرکز_ځای__موقعیت_مرکز": "خواجه خضر",
    "Polling_Center_Location": "Khwaja Khezar ",
    "Map_Accuracy": "Building",
    "Map_Accuracy_Dari": "تعمیر",
    "Status": "Open",
    "Status_Dari": null,
    "PS_Male": 1,
    "PS_Female": 1,
    "PS_Total": 2,
    "ولسوالي": "بالا بلوک ",
    "Region": "Western Region"
   },
   "geometry": {
    "x": 6959012.769249795,
    "y": 3845395.6541006435
   }
  },
  {
   "attributes": {
    "OBJECTID": 2952,
    "ولایت": " فراه",
    "Province": "FARAH",
    "PC_Code": "3307062",
    "District": "ANAR DARA",
    "د_مرکز_نوم__نام_مرکز": "مکتب زهکن ",
    "Polling_Center_Name": "Zehkan School",
    "د_مرکز_ځای__موقعیت_مرکز": "زهکن",
    "Polling_Center_Location": "Zehkan",
    "Map_Accuracy": "Building",
    "Map_Accuracy_Dari": "تعمیر",
    "Status": "Open",
    "Status_Dari": null,
    "PS_Male": 2,
    "PS_Female": 1,
    "PS_Total": 3,
    "ولسوالي": "انار دره ",
    "Region": "Western Region"
   },
   "geometry": {
    "x": 6857320.9227289632,
    "y": 3848268.2251474136
   }
  },
  {
   "attributes": {
    "OBJECTID": 2953,
    "ولایت": " فراه",
    "Province": "FARAH",
    "PC_Code": "3307063",
    "District": "ANAR DARA",
    "د_مرکز_نوم__نام_مرکز": "مکتب ابتدائیه و متوسطه جدید کلاته عالم خان",
    "Polling_Center_Name": "Kalata Alam Khan New Secondary School ",
    "د_مرکز_ځای__موقعیت_مرکز": "کلا ته عالم خان",
    "Polling_Center_Location": "Kalata Alam Khan ",
    "Map_Accuracy": "Building",
    "Map_Accuracy_Dari": "تعمیر",
    "Status": "Open",
    "Status_Dari": null,
    "PS_Male": 1,
    "PS_Female": 1,
    "PS_Total": 2,
    "ولسوالي": "انار دره ",
    "Region": "Western Region"
   },
   "geometry": {
    "x": 6853593.8448764635,
    "y": 3841052.217389571
   }
  },
  {
   "attributes": {
    "OBJECTID": 2954,
    "ولایت": " فراه",
    "Province": "FARAH",
    "PC_Code": "3307064",
    "District": "ANAR DARA",
    "د_مرکز_نوم__نام_مرکز": "لیسه شیخ عبدالصمد نظری",
    "Polling_Center_Name": "Shaikh Abdul Samad Nazari High School ",
    "د_مرکز_ځای__موقعیت_مرکز": "مرکز اناردره",
    "Polling_Center_Location": "Anar Dara Center",
    "Map_Accuracy": "Building",
    "Map_Accuracy_Dari": "تعمیر",
    "Status": "Open",
    "Status_Dari": null,
    "PS_Male": 2,
    "PS_Female": 1,
    "PS_Total": 3,
    "ولسوالي": "انار دره ",
    "Region": "Western Region"
   },
   "geometry": {
    "x": 6862987.1560548097,
    "y": 3863582.2119469196
   }
  },
  {
   "attributes": {
    "OBJECTID": 2955,
    "ولایت": " فراه",
    "Province": "FARAH",
    "PC_Code": "3307067",
    "District": "ANAR DARA",
    "د_مرکز_نوم__نام_مرکز": "مسجد گورکک",
    "Polling_Center_Name": "Gorkak Mosque ",
    "د_مرکز_ځای__موقعیت_مرکز": "گورکک",
    "Polling_Center_Location": "Gorkak",
    "Map_Accuracy": "Building",
    "Map_Accuracy_Dari": "تعمیر",
    "Status": "Open",
    "Status_Dari": null,
    "PS_Male": 1,
    "PS_Female": 1,
    "PS_Total": 2,
    "ولسوالي": "انار دره ",
    "Region": "Western Region"
   },
   "geometry": {
    "x": 6866883.5408340525,
    "y": 3856648.5054737702
   }
  },
  {
   "attributes": {
    "OBJECTID": 2956,
    "ولایت": " فراه",
    "Province": "FARAH",
    "PC_Code": "3307068",
    "District": "ANAR DARA",
    "د_مرکز_نوم__نام_مرکز": "مسجد سد کا",
    "Polling_Center_Name": "Sadka Mosque ",
    "د_مرکز_ځای__موقعیت_مرکز": "سد کاه ",
    "Polling_Center_Location": "Sadkah",
    "Map_Accuracy": "Building",
    "Map_Accuracy_Dari": "تعمیر",
    "Status": "Open",
    "Status_Dari": null,
    "PS_Male": 2,
    "PS_Female": 1,
    "PS_Total": 3,
    "ولسوالي": "انار دره ",
    "Region": "Western Region"
   },
   "geometry": {
    "x": 6850556.2309693666,
    "y": 3844639.5136420769
   }
  },
  {
   "attributes": {
    "OBJECTID": 2957,
    "ولایت": " فراه",
    "Province": "FARAH",
    "PC_Code": "3308108",
    "District": "BAKWA",
    "د_مرکز_نوم__نام_مرکز": "مسجد مرکز ( سلطان بکواه ) ",
    "Polling_Center_Name": "Center Mosque (Sultan Bakwa)",
    "د_مرکز_ځای__موقعیت_مرکز": "مرکز",
    "Polling_Center_Location": "Bakwa District Center",
    "Map_Accuracy": "Village",
    "Map_Accuracy_Dari": "قریه",
    "Status": "Open",
    "Status_Dari": null,
    "PS_Male": 4,
    "PS_Female": 1,
    "PS_Total": 5,
    "ولسوالي": "بکواه",
    "Region": "Western Region"
   },
   "geometry": {
    "x": 7007491.4234259641,
    "y": 3795038.6838261369
   }
  },
  {
   "attributes": {
    "OBJECTID": 2958,
    "ولایت": " فراه",
    "Province": "FARAH",
    "PC_Code": "3311186",
    "District": "PUR CHAMAN",
    "د_مرکز_نوم__نام_مرکز": "مکتب ابتدائیه روباط لروند",
    "Polling_Center_Name": "Rubat Larwand Primary School",
    "د_مرکز_ځای__موقعیت_مرکز": " روباط لروند",
    "Polling_Center_Location": "Rubat Larwand ",
    "Map_Accuracy": "Building",
    "Map_Accuracy_Dari": "تعمیر",
    "Status": "Open",
    "Status_Dari": null,
    "PS_Male": 2,
    "PS_Female": 1,
    "PS_Total": 3,
    "ولسوالي": "پرچمن",
    "Region": "Western Region"
   },
   "geometry": {
    "x": 7101816.6369650504,
    "y": 3896619.9337843573
   }
  },
  {
   "attributes": {
    "OBJECTID": 2959,
    "ولایت": " فراه",
    "Province": "FARAH",
    "PC_Code": "3311187",
    "District": "PUR CHAMAN",
    "د_مرکز_نوم__نام_مرکز": "مکتب ابتدائیه خرم جان",
    "Polling_Center_Name": "Khurram Jan Primary School",
    "د_مرکز_ځای__موقعیت_مرکز": "خرم جان",
    "Polling_Center_Location": "Khurram Jan ",
    "Map_Accuracy": "Building",
    "Map_Accuracy_Dari": "تعمیر",
    "Status": "Open",
    "Status_Dari": null,
    "PS_Male": 2,
    "PS_Female": 1,
    "PS_Total": 3,
    "ولسوالي": "پرچمن",
    "Region": "Western Region"
   },
   "geometry": {
    "x": 7116197.1782164061,
    "y": 3892182.6148163807
   }
  },
  {
   "attributes": {
    "OBJECTID": 2960,
    "ولایت": " فراه",
    "Province": "FARAH",
    "PC_Code": "3311195",
    "District": "PUR CHAMAN",
    "د_مرکز_نوم__نام_مرکز": " مسجد تولی",
    "Polling_Center_Name": "Tolai Mosque ",
    "د_مرکز_ځای__موقعیت_مرکز": " تولی",
    "Polling_Center_Location": "Tolai",
    "Map_Accuracy": "Building",
    "Map_Accuracy_Dari": "تعمیر",
    "Status": "Open",
    "Status_Dari": null,
    "PS_Male": 1,
    "PS_Female": 1,
    "PS_Total": 2,
    "ولسوالي": "پرچمن",
    "Region": "Western Region"
   },
   "geometry": {
    "x": 7126229.8551165154,
    "y": 3908841.9510600227
   }
  },
  {
   "attributes": {
    "OBJECTID": 2961,
    "ولایت": " فراه",
    "Province": "FARAH",
    "PC_Code": "3311196",
    "District": "PUR CHAMAN",
    "د_مرکز_نوم__نام_مرکز": " مسجد لاخسار",
    "Polling_Center_Name": "Lakhsar Mosque ",
    "د_مرکز_ځای__موقعیت_مرکز": " لاخسار",
    "Polling_Center_Location": "Lakhsar ",
    "Map_Accuracy": "Building",
    "Map_Accuracy_Dari": "تعمیر",
    "Status": "Open",
    "Status_Dari": null,
    "PS_Male": 1,
    "PS_Female": 1,
    "PS_Total": 2,
    "ولسوالي": "پرچمن",
    "Region": "Western Region"
   },
   "geometry": {
    "x": 7120205.1696907198,
    "y": 3955223.1273816577
   }
  },
  {
   "attributes": {
    "OBJECTID": 2962,
    "ولایت": " فراه",
    "Province": "FARAH",
    "PC_Code": "3311207",
    "District": "PUR CHAMAN",
    "د_مرکز_نوم__نام_مرکز": " مسجد خار",
    "Polling_Center_Name": "Khaar Mosque  ",
    "د_مرکز_ځای__موقعیت_مرکز": " خار",
    "Polling_Center_Location": "Khaar ",
    "Map_Accuracy": "Building",
    "Map_Accuracy_Dari": "تعمیر",
    "Status": "Open",
    "Status_Dari": null,
    "PS_Male": 1,
    "PS_Female": 1,
    "PS_Total": 2,
    "ولسوالي": "پرچمن",
    "Region": "Western Region"
   },
   "geometry": {
    "x": 7138522.2920762375,
    "y": 3888991.1589931361
   }
  },
  {
   "attributes": {
    "OBJECTID": 2963,
    "ولایت": " فراه",
    "Province": "FARAH",
    "PC_Code": "3311208",
    "District": "PUR CHAMAN",
    "د_مرکز_نوم__نام_مرکز": "مسجد ابشو",
    "Polling_Center_Name": "Aab Shu Mosque  ",
    "د_مرکز_ځای__موقعیت_مرکز": "ابشو",
    "Polling_Center_Location": "Aab Shu",
    "Map_Accuracy": "Building",
    "Map_Accuracy_Dari": "تعمیر",
    "Status": "Open",
    "Status_Dari": null,
    "PS_Male": 2,
    "PS_Female": 1,
    "PS_Total": 3,
    "ولسوالي": "پرچمن",
    "Region": "Western Region"
   },
   "geometry": {
    "x": 7124737.772076522,
    "y": 3895486.7066828758
   }
  },
  {
   "attributes": {
    "OBJECTID": 2964,
    "ولایت": " فراه",
    "Province": "FARAH",
    "PC_Code": "3311214",
    "District": "PUR CHAMAN",
    "د_مرکز_نوم__نام_مرکز": "مسجد دوخاری ",
    "Polling_Center_Name": "Dukhari Mosque ( Kochi )",
    "د_مرکز_ځای__موقعیت_مرکز": " دوخاری (کوچی) ",
    "Polling_Center_Location": "Dukhari (Kochi)",
    "Map_Accuracy": "Building",
    "Map_Accuracy_Dari": "تعمیر",
    "Status": "Open",
    "Status_Dari": null,
    "PS_Male": 1,
    "PS_Female": 1,
    "PS_Total": 2,
    "ولسوالي": "پرچمن",
    "Region": "Western Region"
   },
   "geometry": {
    "x": 7139815.6842966992,
    "y": 3884874.2944835234
   }
  },
  {
   "attributes": {
    "OBJECTID": 2965,
    "ولایت": " فراه",
    "Province": "FARAH",
    "PC_Code": "3311215",
    "District": "PUR CHAMAN",
    "د_مرکز_نوم__نام_مرکز": "مسجد رود بارزوری",
    "Polling_Center_Name": "Rud-e-Bar Zuri Mosque ",
    "د_مرکز_ځای__موقعیت_مرکز": "رود بار زوری ( کوچی ) ",
    "Polling_Center_Location": "Rud-e-Bar Zuri (Kuchi)",
    "Map_Accuracy": "Building",
    "Map_Accuracy_Dari": "تعمیر",
    "Status": "Open",
    "Status_Dari": null,
    "PS_Male": 1,
    "PS_Female": 1,
    "PS_Total": 2,
    "ولسوالي": "پرچمن",
    "Region": "Western Region"
   },
   "geometry": {
    "x": 7097734.6803682707,
    "y": 3875452.4524117159
   }
  },
  {
   "attributes": {
    "OBJECTID": 2966,
    "ولایت": " فراه",
    "Province": "FARAH",
    "PC_Code": "3311218",
    "District": "PUR CHAMAN",
    "د_مرکز_نوم__نام_مرکز": "مسجد ویردری",
    "Polling_Center_Name": "Werdari Mosque",
    "د_مرکز_ځای__موقعیت_مرکز": " ویردری",
    "Polling_Center_Location": "Werdari ",
    "Map_Accuracy": "Building",
    "Map_Accuracy_Dari": "تعمیر",
    "Status": "Open",
    "Status_Dari": null,
    "PS_Male": 1,
    "PS_Female": 1,
    "PS_Total": 2,
    "ولسوالي": "پرچمن",
    "Region": "Western Region"
   },
   "geometry": {
    "x": 7110980.6388979265,
    "y": 3953602.7236822201
   }
  },
  {
   "attributes": {
    "OBJECTID": 2967,
    "ولایت": " فراه",
    "Province": "FARAH",
    "PC_Code": "3311219",
    "District": "PUR CHAMAN",
    "د_مرکز_نوم__نام_مرکز": "مسجد ویری",
    "Polling_Center_Name": "Wery Mosque",
    "د_مرکز_ځای__موقعیت_مرکز": "ویری",
    "Polling_Center_Location": "Wery ",
    "Map_Accuracy": "Building",
    "Map_Accuracy_Dari": "تعمیر",
    "Status": "Open",
    "Status_Dari": null,
    "PS_Male": 1,
    "PS_Female": 1,
    "PS_Total": 2,
    "ولسوالي": "پرچمن",
    "Region": "Western Region"
   },
   "geometry": {
    "x": 7084898.0692097507,
    "y": 3942593.6719408557
   }
  },
  {
   "attributes": {
    "OBJECTID": 2968,
    "ولایت": "نيمروز",
    "Province": "NIMROZ",
    "PC_Code": "3402018",
    "District": "KANG",
    "د_مرکز_نوم__نام_مرکز": "مکتب  دهک ناروئی",
    "Polling_Center_Name": "Dehak-e-Naroye School",
    "د_مرکز_ځای__موقعیت_مرکز": " دهک ناروئی",
    "Polling_Center_Location": "Dehak-e-Naroye",
    "Map_Accuracy": "Building",
    "Map_Accuracy_Dari": "تعمیر",
    "Status": "Open",
    "Status_Dari": null,
    "PS_Male": 1,
    "PS_Female": 1,
    "PS_Total": 2,
    "ولسوالي": "کنگ",
    "Region": "Southern Region"
   },
   "geometry": {
    "x": 6881883.7865586998,
    "y": 3668073.2247223137
   }
  },
  {
   "attributes": {
    "OBJECTID": 2969,
    "ولایت": "نيمروز",
    "Province": "NIMROZ",
    "PC_Code": "3402019",
    "District": "KANG",
    "د_مرکز_نوم__نام_مرکز": "مکتب قریه سر لوف",
    "Polling_Center_Name": "Sar Loof Village School",
    "د_مرکز_ځای__موقعیت_مرکز": "قریه سر لوف",
    "Polling_Center_Location": "Sar Loof Village",
    "Map_Accuracy": "Building",
    "Map_Accuracy_Dari": "تعمیر",
    "Status": "Open",
    "Status_Dari": null,
    "PS_Male": 1,
    "PS_Female": 1,
    "PS_Total": 2,
    "ولسوالي": "کنگ",
    "Region": "Southern Region"
   },
   "geometry": {
    "x": 6870948.1917027915,
    "y": 3685060.037537151
   }
  },
  {
   "attributes": {
    "OBJECTID": 2970,
    "ولایت": "نيمروز",
    "Province": "NIMROZ",
    "PC_Code": "3404024",
    "District": "CHAR BURJAK",
    "د_مرکز_نوم__نام_مرکز": "مکتب چگنی",
    "Polling_Center_Name": "Chagni School ",
    "د_مرکز_ځای__موقعیت_مرکز": " چگنی",
    "Polling_Center_Location": "Chagni ",
    "Map_Accuracy": "Building",
    "Map_Accuracy_Dari": "تعمیر",
    "Status": "Open",
    "Status_Dari": null,
    "PS_Male": 1,
    "PS_Female": 1,
    "PS_Total": 2,
    "ولسوالي": "چهار برجک",
    "Region": "Southern Region"
   },
   "geometry": {
    "x": 6885604.111770886,
    "y": 3551422.2557342076
   }
  },
  {
   "attributes": {
    "OBJECTID": 2971,
    "ولایت": "نيمروز",
    "Province": "NIMROZ",
    "PC_Code": "3404025",
    "District": "CHAR BURJAK",
    "د_مرکز_نوم__نام_مرکز": "مکتب قلعه فتح",
    "Polling_Center_Name": "Qala-e-Fatih School ",
    "د_مرکز_ځای__موقعیت_مرکز": "قلعه فتح",
    "Polling_Center_Location": "Qala-e-Fatih ",
    "Map_Accuracy": "Building",
    "Map_Accuracy_Dari": "تعمیر",
    "Status": "Open",
    "Status_Dari": null,
    "PS_Male": 2,
    "PS_Female": 1,
    "PS_Total": 3,
    "ولسوالي": "چهار برجک",
    "Region": "Southern Region"
   },
   "geometry": {
    "x": 6885111.530816487,
    "y": 3574886.3653059062
   }
  },
  {
   "attributes": {
    "OBJECTID": 2972,
    "ولایت": "نيمروز",
    "Province": "NIMROZ",
    "PC_Code": "3406052",
    "District": "DELARAM",
    "د_مرکز_نوم__نام_مرکز": "گاو میشی ",
    "Polling_Center_Name": "Gawmeshi ",
    "د_مرکز_ځای__موقعیت_مرکز": "گاو میشی ",
    "Polling_Center_Location": "Gawmeshi ",
    "Map_Accuracy": "Village",
    "Map_Accuracy_Dari": "قریه",
    "Status": "Open",
    "Status_Dari": null,
    "PS_Male": 1,
    "PS_Female": 1,
    "PS_Total": 2,
    "ولسوالي": "دلارام",
    "Region": "Southern Region"
   },
   "geometry": {
    "x": 7055170.3205316495,
    "y": 3781881.820365726
   }
  },
  {
   "attributes": {
    "OBJECTID": 2973,
    "ولایت": "نيمروز",
    "Province": "NIMROZ",
    "PC_Code": "3406053",
    "District": "DELARAM",
    "د_مرکز_نوم__نام_مرکز": "قریه پیروزی ",
    "Polling_Center_Name": "Perozi Village",
    "د_مرکز_ځای__موقعیت_مرکز": "قریه پیروزی ",
    "Polling_Center_Location": "Perozi Village",
    "Map_Accuracy": "Village",
    "Map_Accuracy_Dari": "قریه",
    "Status": "Open",
    "Status_Dari": null,
    "PS_Male": 1,
    "PS_Female": 1,
    "PS_Total": 2,
    "ولسوالي": "دلارام",
    "Region": "Southern Region"
   },
   "geometry": {
    "x": 7043998.7539587421,
    "y": 3770150.1483250274
   }
  },
  {
   "attributes": {
    "OBJECTID": 2974,
    "ولایت": "نيمروز",
    "Province": "NIMROZ",
    "PC_Code": "3403062",
    "District": "ASL-E-CHAKHANSUR",
    "د_مرکز_نوم__نام_مرکز": "میدانی",
    "Polling_Center_Name": "Open Field",
    "د_مرکز_ځای__موقعیت_مرکز": "ملاعبدالله,سرک",
    "Polling_Center_Location": "Mullah abdullah, Sarak",
    "Map_Accuracy": "Village",
    "Map_Accuracy_Dari": "قریه",
    "Status": "Open",
    "Status_Dari": null,
    "PS_Male": 2,
    "PS_Female": 1,
    "PS_Total": 3,
    "ولسوالي": "اصل چغانسور",
    "Region": "Southern Region"
   },
   "geometry": {
    "x": 6924166.0063666701,
    "y": 3666198.8442272036
   }
  },
  {
   "attributes": {
    "OBJECTID": 2975,
    "ولایت": "نيمروز",
    "Province": "NIMROZ",
    "PC_Code": "3401003",
    "District": "ZARANJ",
    "د_مرکز_نوم__نام_مرکز": "لیسه رودآبه",
    "Polling_Center_Name": "Rud Aaba High School ",
    "د_مرکز_ځای__موقعیت_مرکز": "زرنج ",
    "Polling_Center_Location": "Zaranj ",
    "Map_Accuracy": "Building",
    "Map_Accuracy_Dari": "تعمیر",
    "Status": "Open",
    "Status_Dari": null,
    "PS_Male": 4,
    "PS_Female": 2,
    "PS_Total": 6,
    "ولسوالي": " زرنج",
    "Region": "Southern Region"
   },
   "geometry": {
    "x": 6886035.7675679671,
    "y": 3625812.8839790705
   }
  },
  {
   "attributes": {
    "OBJECTID": 2976,
    "ولایت": "نيمروز",
    "Province": "NIMROZ",
    "PC_Code": "3401004",
    "District": "ZARANJ",
    "د_مرکز_نوم__نام_مرکز": "لیسه نسوان",
    "Polling_Center_Name": "Girls High School ",
    "د_مرکز_ځای__موقعیت_مرکز": "زرنج ",
    "Polling_Center_Location": "Zaranj ",
    "Map_Accuracy": "Building",
    "Map_Accuracy_Dari": "تعمیر",
    "Status": "Open",
    "Status_Dari": null,
    "PS_Male": 4,
    "PS_Female": 3,
    "PS_Total": 7,
    "ولسوالي": " زرنج",
    "Region": "Southern Region"
   },
   "geometry": {
    "x": 6886033.4365378292,
    "y": 3627667.6648629699
   }
  },
  {
   "attributes": {
    "OBJECTID": 2977,
    "ولایت": "نيمروز",
    "Province": "NIMROZ",
    "PC_Code": "3403033",
    "District": "ASL-E-CHAKHANSUR",
    "د_مرکز_نوم__نام_مرکز": "مکتب قریه امیر بنیاد",
    "Polling_Center_Name": "Amir Bunyad School ",
    "د_مرکز_ځای__موقعیت_مرکز": "قریه امیر بنیاد",
    "Polling_Center_Location": "Amir Bunyad Village",
    "Map_Accuracy": "Building",
    "Map_Accuracy_Dari": "تعمیر",
    "Status": "Open",
    "Status_Dari": null,
    "PS_Male": 2,
    "PS_Female": 1,
    "PS_Total": 3,
    "ولسوالي": "اصل چغانسور",
    "Region": "Southern Region"
   },
   "geometry": {
    "x": 6917022.4472917579,
    "y": 3654928.418243635
   }
  },
  {
   "attributes": {
    "OBJECTID": 2978,
    "ولایت": "نيمروز",
    "Province": "NIMROZ",
    "PC_Code": "3403034",
    "District": "ASL-E-CHAKHANSUR",
    "د_مرکز_نوم__نام_مرکز": "منزل عبدالرحمن",
    "Polling_Center_Name": "Abdul Rahman House",
    "د_مرکز_ځای__موقعیت_مرکز": "منزل عبدالرحمن",
    "Polling_Center_Location": "Abdul Rahman House ",
    "Map_Accuracy": "Building",
    "Map_Accuracy_Dari": "تعمیر",
    "Status": "Open",
    "Status_Dari": null,
    "PS_Male": 2,
    "PS_Female": 1,
    "PS_Total": 3,
    "ولسوالي": "اصل چغانسور",
    "Region": "Southern Region"
   },
   "geometry": {
    "x": 6919131.4507045848,
    "y": 3662813.5584757049
   }
  },
  {
   "attributes": {
    "OBJECTID": 2979,
    "ولایت": "نيمروز",
    "Province": "NIMROZ",
    "PC_Code": "3405045",
    "District": "KHASHROD",
    "د_مرکز_نوم__نام_مرکز": "مسجد قریه",
    "Polling_Center_Name": "Khash Village Mosque ",
    "د_مرکز_ځای__موقعیت_مرکز": "خاش",
    "Polling_Center_Location": "Khash Village",
    "Map_Accuracy": "Village",
    "Map_Accuracy_Dari": "قریه",
    "Status": "Open",
    "Status_Dari": null,
    "PS_Male": 1,
    "PS_Female": 1,
    "PS_Total": 2,
    "ولسوالي": "خاشرود",
    "Region": "Southern Region"
   },
   "geometry": {
    "x": 6989816.3039209424,
    "y": 3701656.209631592
   }
  },
  {
   "attributes": {
    "OBJECTID": 2980,
    "ولایت": "نيمروز",
    "Province": "NIMROZ",
    "PC_Code": "3405046",
    "District": "KHASHROD",
    "د_مرکز_نوم__نام_مرکز": "مسجد قریه",
    "Polling_Center_Name": "Manaar Village Mosque",
    "د_مرکز_ځای__موقعیت_مرکز": "منار",
    "Polling_Center_Location": "Manaar Village",
    "Map_Accuracy": "Building",
    "Map_Accuracy_Dari": "تعمیر",
    "Status": "Open",
    "Status_Dari": null,
    "PS_Male": 2,
    "PS_Female": 1,
    "PS_Total": 3,
    "ولسوالي": "خاشرود",
    "Region": "Southern Region"
   },
   "geometry": {
    "x": 7013510.2367486171,
    "y": 3733336.822137129
   }
  },
  {
   "attributes": {
    "OBJECTID": 2981,
    "ولایت": "نيمروز",
    "Province": "NIMROZ",
    "PC_Code": "3406049",
    "District": "DELARAM",
    "د_مرکز_نوم__نام_مرکز": "کلینیک صحی گلستان",
    "Polling_Center_Name": "Gulistan Health Clinic",
    "د_مرکز_ځای__موقعیت_مرکز": "مرکز ولسوالی",
    "Polling_Center_Location": "District Capital",
    "Map_Accuracy": "Building",
    "Map_Accuracy_Dari": "تعمیر",
    "Status": "Open",
    "Status_Dari": null,
    "PS_Male": 2,
    "PS_Female": 1,
    "PS_Total": 3,
    "ولسوالي": "دلارام",
    "Region": "Southern Region"
   },
   "geometry": {
    "x": 7060283.5698342063,
    "y": 3785328.2243986572
   }
  },
  {
   "attributes": {
    "OBJECTID": 2982,
    "ولایت": "نيمروز",
    "Province": "NIMROZ",
    "PC_Code": "3406050",
    "District": "DELARAM",
    "د_مرکز_نوم__نام_مرکز": "مسجد قریه راکن",
    "Polling_Center_Name": "Raken Village Mosque",
    "د_مرکز_ځای__موقعیت_مرکز": "قریه راکن",
    "Polling_Center_Location": "Raken Village",
    "Map_Accuracy": "Village",
    "Map_Accuracy_Dari": "قریه",
    "Status": "Open",
    "Status_Dari": null,
    "PS_Male": 1,
    "PS_Female": 1,
    "PS_Total": 2,
    "ولسوالي": "دلارام",
    "Region": "Southern Region"
   },
   "geometry": {
    "x": 7026336.3538187444,
    "y": 3752572.9959155102
   }
  },
  {
   "attributes": {
    "OBJECTID": 2983,
    "ولایت": "ننگرهار",
    "Province": "NANGARHAR",
    "PC_Code": "0603091",
    "District": "SURKH RUD",
    "د_مرکز_نوم__نام_مرکز": "چارباغ مکتب",
    "Polling_Center_Name": "CharBagh School",
    "د_مرکز_ځای__موقعیت_مرکز": "چهارباغ",
    "Polling_Center_Location": "CharBagh",
    "Map_Accuracy": "Building",
    "Map_Accuracy_Dari": "تعمیر",
    "Status": "Open",
    "Status_Dari": null,
    "PS_Male": 2,
    "PS_Female": 1,
    "PS_Total": 3,
    "ولسوالي": "سرخرود",
    "Region": "Eastern Region"
   },
   "geometry": {
    "x": 7834902.8046410987,
    "y": 4087454.7729905923
   }
  },
  {
   "attributes": {
    "OBJECTID": 2984,
    "ولایت": "ننگرهار",
    "Province": "NANGARHAR",
    "PC_Code": "0605184",
    "District": "KAMA",
    "د_مرکز_نوم__نام_مرکز": "کوچي کلي ميدان",
    "Polling_Center_Name": "Kochi Village Maidan",
    "د_مرکز_ځای__موقعیت_مرکز": "ګج",
    "Polling_Center_Location": "Gach",
    "Map_Accuracy": "Village",
    "Map_Accuracy_Dari": "قریه",
    "Status": "Open",
    "Status_Dari": null,
    "PS_Male": 1,
    "PS_Female": 2,
    "PS_Total": 3,
    "ولسوالي": "کامه",
    "Region": "Eastern Region"
   },
   "geometry": {
    "x": 7856378.0765651567,
    "y": 4090063.3724705549
   }
  },
  {
   "attributes": {
    "OBJECTID": 2985,
    "ولایت": "ننگرهار",
    "Province": "NANGARHAR",
    "PC_Code": "0605185",
    "District": "KAMA",
    "د_مرکز_نوم__نام_مرکز": "سپدري جومات",
    "Polling_Center_Name": "Spadree Mosque",
    "د_مرکز_ځای__موقعیت_مرکز": "سپدري",
    "Polling_Center_Location": "Spadree",
    "Map_Accuracy": "Building",
    "Map_Accuracy_Dari": "تعمیر",
    "Status": "Open",
    "Status_Dari": null,
    "PS_Male": 1,
    "PS_Female": 2,
    "PS_Total": 3,
    "ولسوالي": "کامه",
    "Region": "Eastern Region"
   },
   "geometry": {
    "x": 7863798.1573740123,
    "y": 4088647.6947048898
   }
  },
  {
   "attributes": {
    "OBJECTID": 2986,
    "ولایت": "ننگرهار",
    "Province": "NANGARHAR",
    "PC_Code": "0605183",
    "District": "KAMA",
    "د_مرکز_نوم__نام_مرکز": "ډاک کلي میدان",
    "Polling_Center_Name": "Daag Village Maidan",
    "د_مرکز_ځای__موقعیت_مرکز": "ډاګ کلي",
    "Polling_Center_Location": "Dak Village",
    "Map_Accuracy": "Village",
    "Map_Accuracy_Dari": "قریه",
    "Status": "Open",
    "Status_Dari": null,
    "PS_Male": 1,
    "PS_Female": 1,
    "PS_Total": 2,
    "ولسوالي": "کامه",
    "Region": "Eastern Region"
   },
   "geometry": {
    "x": 7854117.8411713047,
    "y": 4087510.2384131234
   }
  },
  {
   "attributes": {
    "OBJECTID": 2987,
    "ولایت": "ننگرهار",
    "Province": "NANGARHAR",
    "PC_Code": "0606207",
    "District": "KUZ KUNAR",
    "د_مرکز_نوم__نام_مرکز": "پوري کلي جومات",
    "Polling_Center_Name": "Poory Village Mosque",
    "د_مرکز_ځای__موقعیت_مرکز": "بوډيالۍ پوري کلي",
    "Polling_Center_Location": "Bodyalai Poory Village",
    "Map_Accuracy": "Village",
    "Map_Accuracy_Dari": "قریه",
    "Status": "Open",
    "Status_Dari": null,
    "PS_Male": 2,
    "PS_Female": 0,
    "PS_Total": 2,
    "ولسوالي": "کوز کنړ",
    "Region": "Eastern Region"
   },
   "geometry": {
    "x": 7860977.3916085921,
    "y": 4110758.0475531123
   }
  },
  {
   "attributes": {
    "OBJECTID": 2988,
    "ولایت": "ننگرهار",
    "Province": "NANGARHAR",
    "PC_Code": "0606208",
    "District": "KUZ KUNAR",
    "د_مرکز_نوم__نام_مرکز": "رحمت آباد جومات",
    "Polling_Center_Name": "Rahmat Abad Mosque",
    "د_مرکز_ځای__موقعیت_مرکز": "رحمت آباد",
    "Polling_Center_Location": "Rahmat Abad",
    "Map_Accuracy": "Building",
    "Map_Accuracy_Dari": "تعمیر",
    "Status": "Open",
    "Status_Dari": null,
    "PS_Male": 1,
    "PS_Female": 1,
    "PS_Total": 2,
    "ولسوالي": "کوز کنړ",
    "Region": "Eastern Region"
   },
   "geometry": {
    "x": 7859062.7754037846,
    "y": 4108147.5642205444
   }
  },
  {
   "attributes": {
    "OBJECTID": 2989,
    "ولایت": "ننگرهار",
    "Province": "NANGARHAR",
    "PC_Code": "0607143",
    "District": "RODAT",
    "د_مرکز_نوم__نام_مرکز": "کاترغي جومات",
    "Polling_Center_Name": "Katarghey Mosque",
    "د_مرکز_ځای__موقعیت_مرکز": "کاترغى",
    "Polling_Center_Location": "Katarghey",
    "Map_Accuracy": "Building",
    "Map_Accuracy_Dari": "تعمیر",
    "Status": "Open",
    "Status_Dari": null,
    "PS_Male": 2,
    "PS_Female": 0,
    "PS_Total": 2,
    "ولسوالي": "رودات",
    "Region": "Eastern Region"
   },
   "geometry": {
    "x": 7850731.7794469055,
    "y": 4068078.1644342472
   }
  },
  {
   "attributes": {
    "OBJECTID": 2990,
    "ولایت": "ننگرهار",
    "Province": "NANGARHAR",
    "PC_Code": "0607144",
    "District": "RODAT",
    "د_مرکز_نوم__نام_مرکز": "خالی میدان",
    "Polling_Center_Name": "Open Space",
    "د_مرکز_ځای__موقعیت_مرکز": "کاترغى",
    "Polling_Center_Location": "Katarghey",
    "Map_Accuracy": "Village",
    "Map_Accuracy_Dari": "قریه",
    "Status": "Open",
    "Status_Dari": null,
    "PS_Male": 0,
    "PS_Female": 2,
    "PS_Total": 2,
    "ولسوالي": "رودات",
    "Region": "Eastern Region"
   },
   "geometry": {
    "x": 7850694.4729459565,
    "y": 4068450.4342780644
   }
  },
  {
   "attributes": {
    "OBJECTID": 2991,
    "ولایت": "ننگرهار",
    "Province": "NANGARHAR",
    "PC_Code": "0612217",
    "District": "DARAH-E-NOOR",
    "د_مرکز_نوم__نام_مرکز": "برکلی مسجد",
    "Polling_Center_Name": "Bar kaley Mosque",
    "د_مرکز_ځای__موقعیت_مرکز": "ډاګه",
    "Polling_Center_Location": "Daaga",
    "Map_Accuracy": "Village",
    "Map_Accuracy_Dari": "قریه",
    "Status": "Open",
    "Status_Dari": null,
    "PS_Male": 2,
    "PS_Female": 1,
    "PS_Total": 3,
    "ولسوالي": "دره نور",
    "Region": "Eastern Region"
   },
   "geometry": {
    "x": 7859103.7498819539,
    "y": 4114414.6694800681
   }
  },
  {
   "attributes": {
    "OBJECTID": 2992,
    "ولایت": "ننگرهار",
    "Province": "NANGARHAR",
    "PC_Code": "0614494",
    "District": "GOSHTA",
    "د_مرکز_نوم__نام_مرکز": "حبيب  خان کور",
    "Polling_Center_Name": "Habib Khan House",
    "د_مرکز_ځای__موقعیت_مرکز": "دورخيل",
    "Polling_Center_Location": "Dor Khel",
    "Map_Accuracy": "Village",
    "Map_Accuracy_Dari": "قریه",
    "Status": "Open",
    "Status_Dari": null,
    "PS_Male": 0,
    "PS_Female": 2,
    "PS_Total": 2,
    "ولسوالي": "ګوشته",
    "Region": "Eastern Region"
   },
   "geometry": {
    "x": 7881693.6716596838,
    "y": 4076057.0670229113
   }
  },
  {
   "attributes": {
    "OBJECTID": 2993,
    "ولایت": "ننگرهار",
    "Province": "NANGARHAR",
    "PC_Code": "0615371",
    "District": "ACHIN",
    "د_مرکز_نوم__نام_مرکز": "معروف چينه جامع جومات",
    "Polling_Center_Name": "Maroof Cheena Jaame Mosque",
    "د_مرکز_ځای__موقعیت_مرکز": "معروف چينه",
    "Polling_Center_Location": "Maroof Cheena",
    "Map_Accuracy": "Building",
    "Map_Accuracy_Dari": "تعمیر",
    "Status": "Open",
    "Status_Dari": null,
    "PS_Male": 1,
    "PS_Female": 1,
    "PS_Total": 2,
    "ولسوالي": "اچین",
    "Region": "Eastern Region"
   },
   "geometry": {
    "x": 7871358.1400661217,
    "y": 4055531.3200065927
   }
  },
  {
   "attributes": {
    "OBJECTID": 2994,
    "ولایت": "ننگرهار",
    "Province": "NANGARHAR",
    "PC_Code": "0616436",
    "District": "SHINWAR",
    "د_مرکز_نوم__نام_مرکز": "حضرت بلال مدرسه",
    "Polling_Center_Name": "Hazrat Bilal Madrassa",
    "د_مرکز_ځای__موقعیت_مرکز": "شيرګړ",
    "Polling_Center_Location": "Sher Garh",
    "Map_Accuracy": "Building",
    "Map_Accuracy_Dari": "تعمیر",
    "Status": "Open",
    "Status_Dari": null,
    "PS_Male": 0,
    "PS_Female": 3,
    "PS_Total": 3,
    "ولسوالي": "شینوار",
    "Region": "Eastern Region"
   },
   "geometry": {
    "x": 7880946.2592401635,
    "y": 4054822.0884784805
   }
  },
  {
   "attributes": {
    "OBJECTID": 2995,
    "ولایت": "ننگرهار",
    "Province": "NANGARHAR",
    "PC_Code": "0616437",
    "District": "SHINWAR",
    "د_مرکز_نوم__نام_مرکز": "مکتب ٢٨ وياله",
    "Polling_Center_Name": "28 Viyala School",
    "د_مرکز_ځای__موقعیت_مرکز": "٢٨ وياله",
    "Polling_Center_Location": "28 Viyala",
    "Map_Accuracy": "Building",
    "Map_Accuracy_Dari": "تعمیر",
    "Status": "Open",
    "Status_Dari": null,
    "PS_Male": 4,
    "PS_Female": 1,
    "PS_Total": 5,
    "ولسوالي": "شینوار",
    "Region": "Eastern Region"
   },
   "geometry": {
    "x": 7886913.2722641593,
    "y": 4058132.0278396779
   }
  },
  {
   "attributes": {
    "OBJECTID": 2996,
    "ولایت": "ننگرهار",
    "Province": "NANGARHAR",
    "PC_Code": "0618502",
    "District": "LALPOOR",
    "د_مرکز_نوم__نام_مرکز": "شيرآباد ليسه",
    "Polling_Center_Name": "Sher Abad High School",
    "د_مرکز_ځای__موقعیت_مرکز": "لالپور",
    "Polling_Center_Location": "Lal Poora",
    "Map_Accuracy": "Building",
    "Map_Accuracy_Dari": "تعمیر",
    "Status": "Open",
    "Status_Dari": null,
    "PS_Male": 5,
    "PS_Female": 2,
    "PS_Total": 7,
    "ولسوالي": "لعل پور",
    "Region": "Eastern Region"
   },
   "geometry": {
    "x": 7908481.8288083039,
    "y": 4059932.9160403456
   }
  },
  {
   "attributes": {
    "OBJECTID": 2997,
    "ولایت": "ننگرهار",
    "Province": "NANGARHAR",
    "PC_Code": "0620411",
    "District": "NAZYAN",
    "د_مرکز_نوم__نام_مرکز": "سروبي مشورتي دفتر",
    "Polling_Center_Name": "Sarobay Consultancy Office",
    "د_مرکز_ځای__موقعیت_مرکز": "سروبي",
    "Polling_Center_Location": "Sarobay",
    "Map_Accuracy": "Village",
    "Map_Accuracy_Dari": "قریه",
    "Status": "Open",
    "Status_Dari": null,
    "PS_Male": 0,
    "PS_Female": 3,
    "PS_Total": 3,
    "ولسوالي": "نازیان",
    "Region": "Eastern Region"
   },
   "geometry": {
    "x": 7882598.7069122037,
    "y": 4045900.5175097245
   }
  },
  {
   "attributes": {
    "OBJECTID": 2998,
    "ولایت": "غزنى",
    "Province": "GHAZNI",
    "PC_Code": "1101053",
    "District": "GHAZNI",
    "د_مرکز_نوم__نام_مرکز": "مسجد قلعه کوچی",
    "Polling_Center_Name": "Qala-e-Kochi Mosque",
    "د_مرکز_ځای__موقعیت_مرکز": "قلعه کوچی",
    "Polling_Center_Location": "Qala-e-Kuchi",
    "Map_Accuracy": "Village",
    "Map_Accuracy_Dari": "قریه",
    "Status": "Open",
    "Status_Dari": null,
    "PS_Male": 1,
    "PS_Female": 2,
    "PS_Total": 3,
    "ولسوالي": "غزنی",
    "Region": "South Eastern Region"
   },
   "geometry": {
    "x": 7610053.2862473689,
    "y": 3967817.8426645687
   }
  },
  {
   "attributes": {
    "OBJECTID": 2999,
    "ولایت": "لغمان",
    "Province": "LAGHMAN",
    "PC_Code": "0704067",
    "District": "ALINGAR",
    "د_مرکز_نوم__نام_مرکز": "دنيمنائي دکلي جومات",
    "Polling_Center_Name": "Nimnaye Village Mosque",
    "د_مرکز_ځای__موقعیت_مرکز": "نیمنایی نیازی",
    "Polling_Center_Location": "Nimnaye Niazai",
    "Map_Accuracy": "Village",
    "Map_Accuracy_Dari": "قریه",
    "Status": "Open",
    "Status_Dari": null,
    "PS_Male": 3,
    "PS_Female": 2,
    "PS_Total": 5,
    "ولسوالي": "علینګار",
    "Region": "Eastern Region"
   },
   "geometry": {
    "x": 7827244.5257254243,
    "y": 4131545.6644458347
   }
  },
  {
   "attributes": {
    "OBJECTID": 3000,
    "ولایت": "لغمان",
    "Province": "LAGHMAN",
    "PC_Code": "0704068",
    "District": "ALINGAR",
    "د_مرکز_نوم__نام_مرکز": "د شېخانو لېسه ",
    "Polling_Center_Name": "Shekhano High School",
    "د_مرکز_ځای__موقعیت_مرکز": "شیخانو کلی",
    "Polling_Center_Location": "Shekhano Village",
    "Map_Accuracy": "Building",
    "Map_Accuracy_Dari": "تعمیر",
    "Status": "Open",
    "Status_Dari": null,
    "PS_Male": 2,
    "PS_Female": 2,
    "PS_Total": 4,
    "ولسوالي": "علینګار",
    "Region": "Eastern Region"
   },
   "geometry": {
    "x": 7829442.2696967265,
    "y": 4134140.7572472682
   }
  }
 ]
}