{
 "displayFieldName": "Polling_Center_Name",
 "fieldAliases": {
  "OBJECTID": "OBJECTID",
  "ولایت": "ولایت",
  "Province": "Province",
  "PC_Code": "PC_Code",
  "District": "District",
  "د_مرکز_نوم__نام_مرکز": "د_مرکز_نوم__نام_مرکز",
  "Polling_Center_Name": "Polling_Center_Name",
  "د_مرکز_ځای__موقعیت_مرکز": "د_مرکز_ځای__موقعیت_مرکز",
  "Polling_Center_Location": "Polling_Center_Location",
  "Map_Accuracy": "Map_Accuracy",
  "Map_Accuracy_Dari": "Map_Accuracy_Dari",
  "Status": "Status",
  "Status_Dari": "Status_Dari",
  "PS_Male": "PS_Male",
  "PS_Female": "PS_Female",
  "PS_Total": "PS_Total",
  "ولسوالي": "ولسوالي",
  "Region": "Region"
 },
 "geometryType": "esriGeometryPoint",
 "spatialReference": {
  "wkid": 102100,
  "latestWkid": 3857
 },
 "fields": [
  {
   "name": "OBJECTID",
   "type": "esriFieldTypeOID",
   "alias": "OBJECTID"
  },
  {
   "name": "ولایت",
   "type": "esriFieldTypeString",
   "alias": "ولایت",
   "length": 255
  },
  {
   "name": "Province",
   "type": "esriFieldTypeString",
   "alias": "Province",
   "length": 255
  },
  {
   "name": "PC_Code",
   "type": "esriFieldTypeString",
   "alias": "PC_Code",
   "length": 255
  },
  {
   "name": "District",
   "type": "esriFieldTypeString",
   "alias": "District",
   "length": 255
  },
  {
   "name": "د_مرکز_نوم__نام_مرکز",
   "type": "esriFieldTypeString",
   "alias": "د_مرکز_نوم__نام_مرکز",
   "length": 255
  },
  {
   "name": "Polling_Center_Name",
   "type": "esriFieldTypeString",
   "alias": "Polling_Center_Name",
   "length": 255
  },
  {
   "name": "د_مرکز_ځای__موقعیت_مرکز",
   "type": "esriFieldTypeString",
   "alias": "د_مرکز_ځای__موقعیت_مرکز",
   "length": 255
  },
  {
   "name": "Polling_Center_Location",
   "type": "esriFieldTypeString",
   "alias": "Polling_Center_Location",
   "length": 255
  },
  {
   "name": "Map_Accuracy",
   "type": "esriFieldTypeString",
   "alias": "Map_Accuracy",
   "length": 10
  },
  {
   "name": "Map_Accuracy_Dari",
   "type": "esriFieldTypeString",
   "alias": "Map_Accuracy_Dari",
   "length": 50
  },
  {
   "name": "Status",
   "type": "esriFieldTypeString",
   "alias": "Status",
   "length": 6
  },
  {
   "name": "Status_Dari",
   "type": "esriFieldTypeString",
   "alias": "Status_Dari",
   "length": 8
  },
  {
   "name": "PS_Male",
   "type": "esriFieldTypeSmallInteger",
   "alias": "PS_Male"
  },
  {
   "name": "PS_Female",
   "type": "esriFieldTypeSmallInteger",
   "alias": "PS_Female"
  },
  {
   "name": "PS_Total",
   "type": "esriFieldTypeSmallInteger",
   "alias": "PS_Total"
  },
  {
   "name": "ولسوالي",
   "type": "esriFieldTypeString",
   "alias": "ولسوالي",
   "length": 255
  },
  {
   "name": "Region",
   "type": "esriFieldTypeString",
   "alias": "Region",
   "length": 50
  }
 ],
 "features": [
  {
   "attributes": {
    "OBJECTID": 2601,
    "ولایت": "بدخشان",
    "Province": "BADAKHSHAN",
    "PC_Code": "1711186",
    "District": "TASHKAN",
    "د_مرکز_نوم__نام_مرکز": "مکتب دشت لارینگ",
    "Polling_Center_Name": "Dasht Laryang School",
    "د_مرکز_ځای__موقعیت_مرکز": "دشت لارینگ",
    "Polling_Center_Location": "Dasht Laryang",
    "Map_Accuracy": "Building",
    "Map_Accuracy_Dari": "تعمیر",
    "Status": "Open",
    "Status_Dari": null,
    "PS_Male": 1,
    "PS_Female": 1,
    "PS_Total": 2,
    "ولسوالي": "تشکان ",
    "Region": "North Eastern Region"
   },
   "geometry": {
    "x": 7834811.5694128368,
    "y": 4406162.5913430033
   }
  },
  {
   "attributes": {
    "OBJECTID": 2602,
    "ولایت": "بدخشان",
    "Province": "BADAKHSHAN",
    "PC_Code": "1713145",
    "District": "SHAHR-E-BUZURG",
    "د_مرکز_نوم__نام_مرکز": "مکتب سنگی خواه ",
    "Polling_Center_Name": "Sangi Khwah School",
    "د_مرکز_ځای__موقعیت_مرکز": "سنگی خواه ",
    "Polling_Center_Location": "Sangi Khwah",
    "Map_Accuracy": "Building",
    "Map_Accuracy_Dari": "تعمیر",
    "Status": "Open",
    "Status_Dari": null,
    "PS_Male": 1,
    "PS_Female": 1,
    "PS_Total": 2,
    "ولسوالي": "شهر بزرگ",
    "Region": "North Eastern Region"
   },
   "geometry": {
    "x": 7795811.350203231,
    "y": 4495992.7474797694
   }
  },
  {
   "attributes": {
    "OBJECTID": 2603,
    "ولایت": "بدخشان",
    "Province": "BADAKHSHAN",
    "PC_Code": "1714229",
    "District": "RAGHISTAN",
    "د_مرکز_نوم__نام_مرکز": "مسجد زیرکی ",
    "Polling_Center_Name": "Zerakai Mosque",
    "د_مرکز_ځای__موقعیت_مرکز": "زیرکی",
    "Polling_Center_Location": "Zerakai",
    "Map_Accuracy": "Building",
    "Map_Accuracy_Dari": "تعمیر",
    "Status": "Open",
    "Status_Dari": null,
    "PS_Male": 3,
    "PS_Female": 1,
    "PS_Total": 4,
    "ولسوالي": "راغستان ",
    "Region": "North Eastern Region"
   },
   "geometry": {
    "x": 7854008.9640301429,
    "y": 4522140.3052067719
   }
  },
  {
   "attributes": {
    "OBJECTID": 2604,
    "ولایت": "بدخشان",
    "Province": "BADAKHSHAN",
    "PC_Code": "1715159",
    "District": "KISHM",
    "د_مرکز_نوم__نام_مرکز": "مکتب خشکه دره ",
    "Polling_Center_Name": "Khushka Dara School",
    "د_مرکز_ځای__موقعیت_مرکز": "خشکه دره ",
    "Polling_Center_Location": "Khushka Dara",
    "Map_Accuracy": "Building",
    "Map_Accuracy_Dari": "تعمیر",
    "Status": "Open",
    "Status_Dari": null,
    "PS_Male": 1,
    "PS_Female": 1,
    "PS_Total": 2,
    "ولسوالي": "کشم",
    "Region": "North Eastern Region"
   },
   "geometry": {
    "x": 7805951.6006932678,
    "y": 4406805.9630532982
   }
  },
  {
   "attributes": {
    "OBJECTID": 2605,
    "ولایت": "بدخشان",
    "Province": "BADAKHSHAN",
    "PC_Code": "1715160",
    "District": "KISHM",
    "د_مرکز_نوم__نام_مرکز": "مکتب دشت خاورک ",
    "Polling_Center_Name": "Dasht Khawrak School",
    "د_مرکز_ځای__موقعیت_مرکز": "دشت خاورک",
    "Polling_Center_Location": "Dasht Khawrak",
    "Map_Accuracy": "Building",
    "Map_Accuracy_Dari": "تعمیر",
    "Status": "Open",
    "Status_Dari": null,
    "PS_Male": 2,
    "PS_Female": 2,
    "PS_Total": 4,
    "ولسوالي": "کشم",
    "Region": "North Eastern Region"
   },
   "geometry": {
    "x": 7812283.6704025939,
    "y": 4392058.9817212606
   }
  },
  {
   "attributes": {
    "OBJECTID": 2606,
    "ولایت": "فارياب",
    "Province": "FARYAB",
    "PC_Code": "2903057",
    "District": "KHWAJA SABZ POSH-E-WALI",
    "د_مرکز_نوم__نام_مرکز": "تعمیر شورای همبستگی بولک بچه ",
    "Polling_Center_Name": "Bolak Bacha Solidarity Council Building",
    "د_مرکز_ځای__موقعیت_مرکز": "بولک بچه ",
    "Polling_Center_Location": "Bolak Bacha",
    "Map_Accuracy": "Building",
    "Map_Accuracy_Dari": "تعمیر",
    "Status": "Open",
    "Status_Dari": null,
    "PS_Male": 2,
    "PS_Female": 1,
    "PS_Total": 3,
    "ولسوالي": "خواجه سبز پوش ولی",
    "Region": "Northern Region"
   },
   "geometry": {
    "x": 7233155.845020094,
    "y": 4305873.4031420071
   }
  },
  {
   "attributes": {
    "OBJECTID": 2607,
    "ولایت": "فارياب",
    "Province": "FARYAB",
    "PC_Code": "2903058",
    "District": "KHWAJA SABZ POSH-E-WALI",
    "د_مرکز_نوم__نام_مرکز": "تعمیر لیسه ذکور ده نو ",
    "Polling_Center_Name": "Deh Naw Boys High School",
    "د_مرکز_ځای__موقعیت_مرکز": "ده نو ",
    "Polling_Center_Location": "Deh Naw",
    "Map_Accuracy": "Building",
    "Map_Accuracy_Dari": "تعمیر",
    "Status": "Open",
    "Status_Dari": null,
    "PS_Male": 2,
    "PS_Female": 2,
    "PS_Total": 4,
    "ولسوالي": "خواجه سبز پوش ولی",
    "Region": "Northern Region"
   },
   "geometry": {
    "x": 7218065.0431160778,
    "y": 4310609.7939489502
   }
  },
  {
   "attributes": {
    "OBJECTID": 2608,
    "ولایت": "فارياب",
    "Province": "FARYAB",
    "PC_Code": "2903061",
    "District": "KHWAJA SABZ POSH-E-WALI",
    "د_مرکز_نوم__نام_مرکز": "تعمیر شورای همبستگی سملیک پوگانی",
    "Polling_Center_Name": "Samleek Pogani Solidarity Council Building",
    "د_مرکز_ځای__موقعیت_مرکز": "سملیک پوگانی",
    "Polling_Center_Location": "Samleek Pogani",
    "Map_Accuracy": "Building",
    "Map_Accuracy_Dari": "تعمیر",
    "Status": "Open",
    "Status_Dari": null,
    "PS_Male": 2,
    "PS_Female": 2,
    "PS_Total": 4,
    "ولسوالي": "خواجه سبز پوش ولی",
    "Region": "Northern Region"
   },
   "geometry": {
    "x": 7221822.5880000107,
    "y": 4304731.2999911681
   }
  },
  {
   "attributes": {
    "OBJECTID": 2609,
    "ولایت": "فارياب",
    "Province": "FARYAB",
    "PC_Code": "2903062",
    "District": "KHWAJA SABZ POSH-E-WALI",
    "د_مرکز_نوم__نام_مرکز": "لیسه نسوان بادغیسی ",
    "Polling_Center_Name": "Badghisi Girls High School",
    "د_مرکز_ځای__موقعیت_مرکز": "بادغیسی ",
    "Polling_Center_Location": "Badghisi",
    "Map_Accuracy": "Building",
    "Map_Accuracy_Dari": "تعمیر",
    "Status": "Open",
    "Status_Dari": null,
    "PS_Male": 1,
    "PS_Female": 2,
    "PS_Total": 3,
    "ولسوالي": "خواجه سبز پوش ولی",
    "Region": "Northern Region"
   },
   "geometry": {
    "x": 7218929.8619761532,
    "y": 4306564.8288988182
   }
  },
  {
   "attributes": {
    "OBJECTID": 2610,
    "ولایت": "فارياب",
    "Province": "FARYAB",
    "PC_Code": "2904063",
    "District": "ALMAR",
    "د_مرکز_نوم__نام_مرکز": "لیسه ذکور المار ",
    "Polling_Center_Name": "Almaar Boys High School",
    "د_مرکز_ځای__موقعیت_مرکز": "بازار المار",
    "Polling_Center_Location": "Bazar Almaar",
    "Map_Accuracy": "Building",
    "Map_Accuracy_Dari": "تعمیر",
    "Status": "Open",
    "Status_Dari": null,
    "PS_Male": 4,
    "PS_Female": 3,
    "PS_Total": 7,
    "ولسوالي": "المار",
    "Region": "Northern Region"
   },
   "geometry": {
    "x": 7183857.5632443354,
    "y": 4279639.0541277798
   }
  },
  {
   "attributes": {
    "OBJECTID": 2611,
    "ولایت": "فارياب",
    "Province": "FARYAB",
    "PC_Code": "2904073",
    "District": "ALMAR",
    "د_مرکز_نوم__نام_مرکز": "مکتب متوسطه قرایی ",
    "Polling_Center_Name": "Qarayee Secondary School",
    "د_مرکز_ځای__موقعیت_مرکز": "قرایی",
    "Polling_Center_Location": "Qarayee",
    "Map_Accuracy": "Building",
    "Map_Accuracy_Dari": "تعمیر",
    "Status": "Open",
    "Status_Dari": null,
    "PS_Male": 2,
    "PS_Female": 1,
    "PS_Total": 3,
    "ولسوالي": "المار",
    "Region": "Northern Region"
   },
   "geometry": {
    "x": 7187800.1222351557,
    "y": 4240777.4887214191
   }
  },
  {
   "attributes": {
    "OBJECTID": 2612,
    "ولایت": "فارياب",
    "Province": "FARYAB",
    "PC_Code": "2904076",
    "District": "ALMAR",
    "د_مرکز_نوم__نام_مرکز": "مکتب ابتدای خوش بایی",
    "Polling_Center_Name": "Khosh Bayee Primary School",
    "د_مرکز_ځای__موقعیت_مرکز": "خوش بایی",
    "Polling_Center_Location": "Khosh Bayee",
    "Map_Accuracy": "Building",
    "Map_Accuracy_Dari": "تعمیر",
    "Status": "Open",
    "Status_Dari": null,
    "PS_Male": 2,
    "PS_Female": 1,
    "PS_Total": 3,
    "ولسوالي": "المار",
    "Region": "Northern Region"
   },
   "geometry": {
    "x": 7191094.8919583522,
    "y": 4242427.7962744217
   }
  },
  {
   "attributes": {
    "OBJECTID": 2613,
    "ولایت": "فارياب",
    "Province": "FARYAB",
    "PC_Code": "2904077",
    "District": "ALMAR",
    "د_مرکز_نوم__نام_مرکز": "مکتب ابتدای آق مسجد",
    "Polling_Center_Name": "Aaq Masjid Primary School",
    "د_مرکز_ځای__موقعیت_مرکز": "آق مسجد,",
    "Polling_Center_Location": "Aaq Masjid",
    "Map_Accuracy": "Building",
    "Map_Accuracy_Dari": "تعمیر",
    "Status": "Open",
    "Status_Dari": null,
    "PS_Male": 1,
    "PS_Female": 1,
    "PS_Total": 2,
    "ولسوالي": "المار",
    "Region": "Northern Region"
   },
   "geometry": {
    "x": 7185652.0857560793,
    "y": 4244461.8653291902
   }
  },
  {
   "attributes": {
    "OBJECTID": 2614,
    "ولایت": "فارياب",
    "Province": "FARYAB",
    "PC_Code": "2905138",
    "District": "BIL CHIRAGH",
    "د_مرکز_نوم__نام_مرکز": "مدرسه مرکز بلچراغ",
    "Polling_Center_Name": "Balcheragh Madrassa",
    "د_مرکز_ځای__موقعیت_مرکز": "بلچراغ",
    "Polling_Center_Location": "Balcheragh",
    "Map_Accuracy": "Village",
    "Map_Accuracy_Dari": "قریه",
    "Status": "Open",
    "Status_Dari": null,
    "PS_Male": 3,
    "PS_Female": 2,
    "PS_Total": 5,
    "ولسوالي": "بل چراغ",
    "Region": "Northern Region"
   },
   "geometry": {
    "x": 7261561.4175970023,
    "y": 4279065.83658926
   }
  },
  {
   "attributes": {
    "OBJECTID": 2615,
    "ولایت": "فارياب",
    "Province": "FARYAB",
    "PC_Code": "2905139",
    "District": "BIL CHIRAGH",
    "د_مرکز_نوم__نام_مرکز": "مکتب ذکور تاش قلعه",
    "Polling_Center_Name": "Tash Qala Boys School",
    "د_مرکز_ځای__موقعیت_مرکز": "تاش قلعه",
    "Polling_Center_Location": "Tash Qala",
    "Map_Accuracy": "Village",
    "Map_Accuracy_Dari": "قریه",
    "Status": "Open",
    "Status_Dari": null,
    "PS_Male": 2,
    "PS_Female": 2,
    "PS_Total": 4,
    "ولسوالي": "بل چراغ",
    "Region": "Northern Region"
   },
   "geometry": {
    "x": 7293194.0754203079,
    "y": 4286434.4843510929
   }
  },
  {
   "attributes": {
    "OBJECTID": 2616,
    "ولایت": "فارياب",
    "Province": "FARYAB",
    "PC_Code": "2906149",
    "District": "SHIRIN TAGAB",
    "د_مرکز_نوم__نام_مرکز": "مکتب ذکور اسلام قلعه",
    "Polling_Center_Name": "Islam Qala Boys School",
    "د_مرکز_ځای__موقعیت_مرکز": "اسلام قلعه",
    "Polling_Center_Location": "Islam Qala",
    "Map_Accuracy": "Building",
    "Map_Accuracy_Dari": "تعمیر",
    "Status": "Open",
    "Status_Dari": null,
    "PS_Male": 3,
    "PS_Female": 2,
    "PS_Total": 5,
    "ولسوالي": "شیرین تگاب",
    "Region": "Northern Region"
   },
   "geometry": {
    "x": 7220626.3320540227,
    "y": 4331782.0543498453
   }
  },
  {
   "attributes": {
    "OBJECTID": 2617,
    "ولایت": "فارياب",
    "Province": "FARYAB",
    "PC_Code": "2906150",
    "District": "SHIRIN TAGAB",
    "د_مرکز_نوم__نام_مرکز": "مکتب مهد",
    "Polling_Center_Name": "Mahd School",
    "د_مرکز_ځای__موقعیت_مرکز": "قریه مهد",
    "Polling_Center_Location": "Mahd Village",
    "Map_Accuracy": "Building",
    "Map_Accuracy_Dari": "تعمیر",
    "Status": "Open",
    "Status_Dari": null,
    "PS_Male": 3,
    "PS_Female": 2,
    "PS_Total": 5,
    "ولسوالي": "شیرین تگاب",
    "Region": "Northern Region"
   },
   "geometry": {
    "x": 7230271.0627551069,
    "y": 4322024.9180389689
   }
  },
  {
   "attributes": {
    "OBJECTID": 2618,
    "ولایت": "فارياب",
    "Province": "FARYAB",
    "PC_Code": "2906208",
    "District": "SHIRIN TAGAB",
    "د_مرکز_نوم__نام_مرکز": "مسجد جامع کلته شور",
    "Polling_Center_Name": "Kalta Shor Mosque",
    "د_مرکز_ځای__موقعیت_مرکز": "کلته شور",
    "Polling_Center_Location": "Kalta Shor ",
    "Map_Accuracy": "Village",
    "Map_Accuracy_Dari": "قریه",
    "Status": "Open",
    "Status_Dari": null,
    "PS_Male": 2,
    "PS_Female": 1,
    "PS_Total": 3,
    "ولسوالي": "شیرین تگاب",
    "Region": "Northern Region"
   },
   "geometry": {
    "x": 7237480.581633931,
    "y": 4315738.9905025838
   }
  },
  {
   "attributes": {
    "OBJECTID": 2619,
    "ولایت": "فارياب",
    "Province": "FARYAB",
    "PC_Code": "2907204",
    "District": "QAISAR",
    "د_مرکز_نوم__نام_مرکز": "مسجد جامع خطائی",
    "Polling_Center_Name": "Khatayee Mosque",
    "د_مرکز_ځای__موقعیت_مرکز": "قریه خطائی",
    "Polling_Center_Location": "Khatayee Village",
    "Map_Accuracy": "Building",
    "Map_Accuracy_Dari": "تعمیر",
    "Status": "Open",
    "Status_Dari": null,
    "PS_Male": 1,
    "PS_Female": 1,
    "PS_Total": 2,
    "ولسوالي": "قیصار",
    "Region": "Northern Region"
   },
   "geometry": {
    "x": 7131104.8384073665,
    "y": 4256474.9774069805
   }
  },
  {
   "attributes": {
    "OBJECTID": 2620,
    "ولایت": "فارياب",
    "Province": "FARYAB",
    "PC_Code": "2908123",
    "District": "GURZIWAN",
    "د_مرکز_نوم__نام_مرکز": "مسجد جامع غولبیان",
    "Polling_Center_Name": "Gholbayan Mosque",
    "د_مرکز_ځای__موقعیت_مرکز": "غولبیان",
    "Polling_Center_Location": "Gholbiyan ",
    "Map_Accuracy": "Building",
    "Map_Accuracy_Dari": "تعمیر",
    "Status": "Open",
    "Status_Dari": null,
    "PS_Male": 2,
    "PS_Female": 3,
    "PS_Total": 5,
    "ولسوالي": "گرزیوان",
    "Region": "Northern Region"
   },
   "geometry": {
    "x": 7275372.4594654068,
    "y": 4264269.4840888204
   }
  },
  {
   "attributes": {
    "OBJECTID": 2621,
    "ولایت": "فارياب",
    "Province": "FARYAB",
    "PC_Code": "2908126",
    "District": "GURZIWAN",
    "د_مرکز_نوم__نام_مرکز": "مسجد جامع تخاره",
    "Polling_Center_Name": "Takhara Mosque",
    "د_مرکز_ځای__موقعیت_مرکز": "قریه تخاره",
    "Polling_Center_Location": "Takhara Village",
    "Map_Accuracy": "Building",
    "Map_Accuracy_Dari": "تعمیر",
    "Status": "Open",
    "Status_Dari": null,
    "PS_Male": 2,
    "PS_Female": 2,
    "PS_Total": 4,
    "ولسوالي": "گرزیوان",
    "Region": "Northern Region"
   },
   "geometry": {
    "x": 7272807.0973472903,
    "y": 4260104.0598574951
   }
  },
  {
   "attributes": {
    "OBJECTID": 2622,
    "ولایت": "فارياب",
    "Province": "FARYAB",
    "PC_Code": "2908127",
    "District": "GURZIWAN",
    "د_مرکز_نوم__نام_مرکز": "مدرسه دره زنگ",
    "Polling_Center_Name": "Dara-e-Zang Madrassa",
    "د_مرکز_ځای__موقعیت_مرکز": "دره زنگ",
    "Polling_Center_Location": "Dara-e-Zang",
    "Map_Accuracy": "Building",
    "Map_Accuracy_Dari": "تعمیر",
    "Status": "Open",
    "Status_Dari": null,
    "PS_Male": 3,
    "PS_Female": 2,
    "PS_Total": 5,
    "ولسوالي": "گرزیوان",
    "Region": "Northern Region"
   },
   "geometry": {
    "x": 7267032.4065547539,
    "y": 4250758.5480503468
   }
  },
  {
   "attributes": {
    "OBJECTID": 2623,
    "ولایت": "فارياب",
    "Province": "FARYAB",
    "PC_Code": "2910117",
    "District": "KOHISTAN",
    "د_مرکز_نوم__نام_مرکز": "مسجد بام سرخ",
    "Polling_Center_Name": "Baam Surkh Mosque",
    "د_مرکز_ځای__موقعیت_مرکز": "بام سرخ",
    "Polling_Center_Location": "Baam Surkh",
    "Map_Accuracy": "Building",
    "Map_Accuracy_Dari": "تعمیر",
    "Status": "Open",
    "Status_Dari": null,
    "PS_Male": 1,
    "PS_Female": 1,
    "PS_Total": 2,
    "ولسوالي": "کوهستان",
    "Region": "Northern Region"
   },
   "geometry": {
    "x": 7264829.8947696676,
    "y": 4217582.4620141396
   }
  },
  {
   "attributes": {
    "OBJECTID": 2624,
    "ولایت": "فارياب",
    "Province": "FARYAB",
    "PC_Code": "2912192",
    "District": "QURGHAN",
    "د_مرکز_نوم__نام_مرکز": "مسجد خلیفه عبدالله",
    "Polling_Center_Name": "Khalifa Abdullah Mosque",
    "د_مرکز_ځای__موقعیت_مرکز": "باغ بوستان پایان",
    "Polling_Center_Location": "Bagh Bostan Payan",
    "Map_Accuracy": "Building",
    "Map_Accuracy_Dari": "تعمیر",
    "Status": "Open",
    "Status_Dari": null,
    "PS_Male": 1,
    "PS_Female": 1,
    "PS_Total": 2,
    "ولسوالي": "قرغان",
    "Region": "Northern Region"
   },
   "geometry": {
    "x": 7243814.1196473427,
    "y": 4433295.0963702453
   }
  },
  {
   "attributes": {
    "OBJECTID": 2625,
    "ولایت": "فارياب",
    "Province": "FARYAB",
    "PC_Code": "2912193",
    "District": "QURGHAN",
    "د_مرکز_نوم__نام_مرکز": "مکتب ابتدایی کهنه قرغان",
    "Polling_Center_Name": "Kuhna Qarghan Primary School",
    "د_مرکز_ځای__موقعیت_مرکز": "قرغان",
    "Polling_Center_Location": "Qarghan",
    "Map_Accuracy": "Building",
    "Map_Accuracy_Dari": "تعمیر",
    "Status": "Open",
    "Status_Dari": null,
    "PS_Male": 2,
    "PS_Female": 1,
    "PS_Total": 3,
    "ولسوالي": "قرغان",
    "Region": "Northern Region"
   },
   "geometry": {
    "x": 7243513.2464408213,
    "y": 4427561.7048915885
   }
  },
  {
   "attributes": {
    "OBJECTID": 2626,
    "ولایت": "فارياب",
    "Province": "FARYAB",
    "PC_Code": "2903210",
    "District": "KHWAJA SABZ POSH-E-WALI",
    "د_مرکز_نوم__نام_مرکز": "مسجد جامع ینگی قلعه",
    "Polling_Center_Name": "Yangi qala Mosque",
    "د_مرکز_ځای__موقعیت_مرکز": "ینگی قلعه",
    "Polling_Center_Location": "Yangi qala",
    "Map_Accuracy": "Building",
    "Map_Accuracy_Dari": "تعمیر",
    "Status": "Open",
    "Status_Dari": null,
    "PS_Male": 2,
    "PS_Female": 1,
    "PS_Total": 3,
    "ولسوالي": "خواجه سبزپوش",
    "Region": "Northern Region"
   },
   "geometry": {
    "x": 7220573.5922188656,
    "y": 4312902.5954651618
   }
  },
  {
   "attributes": {
    "OBJECTID": 2627,
    "ولایت": "فارياب",
    "Province": "FARYAB",
    "PC_Code": "2903211",
    "District": "KHWAJA SABZ POSH-E-WALI",
    "د_مرکز_نوم__نام_مرکز": "مکتب ذکور قزل قشلاق",
    "Polling_Center_Name": "Qezl qshlaq male School",
    "د_مرکز_ځای__موقعیت_مرکز": "قزل قشلاق",
    "Polling_Center_Location": "Qezel qeshlaq",
    "Map_Accuracy": "Building",
    "Map_Accuracy_Dari": "تعمیر",
    "Status": "Open",
    "Status_Dari": null,
    "PS_Male": 2,
    "PS_Female": 1,
    "PS_Total": 3,
    "ولسوالي": "خواجه سبزپوش",
    "Region": "Northern Region"
   },
   "geometry": {
    "x": 7221444.7097583693,
    "y": 4303685.7503633173
   }
  },
  {
   "attributes": {
    "OBJECTID": 2628,
    "ولایت": "فارياب",
    "Province": "FARYAB",
    "PC_Code": "2908213",
    "District": "GURZIWAN",
    "د_مرکز_نوم__نام_مرکز": "مکتب نسوان پخلسوز",
    "Polling_Center_Name": "Pakhal soz female School",
    "د_مرکز_ځای__موقعیت_مرکز": "پخلسوز",
    "Polling_Center_Location": "Pakhlsoz",
    "Map_Accuracy": "Building",
    "Map_Accuracy_Dari": "تعمیر",
    "Status": "Open",
    "Status_Dari": null,
    "PS_Male": 2,
    "PS_Female": 1,
    "PS_Total": 3,
    "ولسوالي": "گرزیوان",
    "Region": "Northern Region"
   },
   "geometry": {
    "x": 7266575.2148457216,
    "y": 4256447.6707365168
   }
  },
  {
   "attributes": {
    "OBJECTID": 2629,
    "ولایت": "فارياب",
    "Province": "FARYAB",
    "PC_Code": "2910214",
    "District": "KOHISTAN",
    "د_مرکز_نوم__نام_مرکز": "مسجد",
    "Polling_Center_Name": "Mosque",
    "د_مرکز_ځای__موقعیت_مرکز": "پشت دروازه",
    "Polling_Center_Location": "Pusht darwaza",
    "Map_Accuracy": "Building",
    "Map_Accuracy_Dari": "تعمیر",
    "Status": "Open",
    "Status_Dari": null,
    "PS_Male": 2,
    "PS_Female": 1,
    "PS_Total": 3,
    "ولسوالي": "کوهستان",
    "Region": "Northern Region"
   },
   "geometry": {
    "x": 7275450.0625088271,
    "y": 4216512.0208680537
   }
  },
  {
   "attributes": {
    "OBJECTID": 2630,
    "ولایت": "فارياب",
    "Province": "FARYAB",
    "PC_Code": "2901010",
    "District": "MAIMANA",
    "د_مرکز_نوم__نام_مرکز": "مکتب متوسطه جرنیل غوث الدین",
    "Polling_Center_Name": "Jarnail Ghawsuddin Secondary School",
    "د_مرکز_ځای__موقعیت_مرکز": "ناحیه سوم",
    "Polling_Center_Location": "D03 - Nahia 3",
    "Map_Accuracy": "Building",
    "Map_Accuracy_Dari": "تعمیر",
    "Status": "Open",
    "Status_Dari": null,
    "PS_Male": 5,
    "PS_Female": 0,
    "PS_Total": 5,
    "ولسوالي": "میمنه ",
    "Region": "Northern Region"
   },
   "geometry": {
    "x": 7210897.6308346437,
    "y": 4289846.8794458173
   }
  },
  {
   "attributes": {
    "OBJECTID": 2631,
    "ولایت": "فارياب",
    "Province": "FARYAB",
    "PC_Code": "2901011",
    "District": "MAIMANA",
    "د_مرکز_نوم__نام_مرکز": "مکتب نسوان پشه خانی",
    "Polling_Center_Name": "Pasha Khani Girls School",
    "د_مرکز_ځای__موقعیت_مرکز": "ناحیه سوم",
    "Polling_Center_Location": "D03 - Nahia 3",
    "Map_Accuracy": "Building",
    "Map_Accuracy_Dari": "تعمیر",
    "Status": "Open",
    "Status_Dari": null,
    "PS_Male": 0,
    "PS_Female": 5,
    "PS_Total": 5,
    "ولسوالي": "میمنه ",
    "Region": "Northern Region"
   },
   "geometry": {
    "x": 7211087.5196220353,
    "y": 4288170.5616538562
   }
  },
  {
   "attributes": {
    "OBJECTID": 2632,
    "ولایت": "فارياب",
    "Province": "FARYAB",
    "PC_Code": "2901199",
    "District": "MAIMANA",
    "د_مرکز_نوم__نام_مرکز": "مدیریت وتر نری",
    "Polling_Center_Name": "Veterinary Mudiriyat",
    "د_مرکز_ځای__موقعیت_مرکز": "ناحیه جهارم",
    "Polling_Center_Location": "D04 - Nahia 4",
    "Map_Accuracy": "Building",
    "Map_Accuracy_Dari": "تعمیر",
    "Status": "Open",
    "Status_Dari": null,
    "PS_Male": 3,
    "PS_Female": 2,
    "PS_Total": 5,
    "ولسوالي": "میمنه",
    "Region": "Northern Region"
   },
   "geometry": {
    "x": 7211767.4212231748,
    "y": 4290570.877563295
   }
  },
  {
   "attributes": {
    "OBJECTID": 2633,
    "ولایت": "فارياب",
    "Province": "FARYAB",
    "PC_Code": "2903056",
    "District": "KHWAJA SABZ POSH-E-WALI",
    "د_مرکز_نوم__نام_مرکز": "مکتب نسوان شباختو ",
    "Polling_Center_Name": "Shabakhto Girls School",
    "د_مرکز_ځای__موقعیت_مرکز": "شباختو",
    "Polling_Center_Location": "Shabakhto",
    "Map_Accuracy": "Building",
    "Map_Accuracy_Dari": "تعمیر",
    "Status": "Open",
    "Status_Dari": null,
    "PS_Male": 2,
    "PS_Female": 1,
    "PS_Total": 3,
    "ولسوالي": "خواجه سبز پوش ولی",
    "Region": "Northern Region"
   },
   "geometry": {
    "x": 7223946.271114083,
    "y": 4296744.3584096972
   }
  },
  {
   "attributes": {
    "OBJECTID": 2634,
    "ولایت": "فارياب",
    "Province": "FARYAB",
    "PC_Code": "2906154",
    "District": "SHIRIN TAGAB",
    "د_مرکز_نوم__نام_مرکز": "مکتب متوسطه ذکور شاه یوسف",
    "Polling_Center_Name": "Shah Yousuf Boys Secondary School",
    "د_مرکز_ځای__موقعیت_مرکز": "شاه یوسف",
    "Polling_Center_Location": "Shah Yousuf",
    "Map_Accuracy": "Village",
    "Map_Accuracy_Dari": "قریه",
    "Status": "Open",
    "Status_Dari": null,
    "PS_Male": 1,
    "PS_Female": 1,
    "PS_Total": 2,
    "ولسوالي": "شیرین تگاب",
    "Region": "Northern Region"
   },
   "geometry": {
    "x": 7230459.5055023115,
    "y": 4343652.668443392
   }
  },
  {
   "attributes": {
    "OBJECTID": 2635,
    "ولایت": "فارياب",
    "Province": "FARYAB",
    "PC_Code": "2906155",
    "District": "SHIRIN TAGAB",
    "د_مرکز_نوم__نام_مرکز": "لیسه شمس الدین شهید",
    "Polling_Center_Name": "Shamsuddin Shaheed High School",
    "د_مرکز_ځای__موقعیت_مرکز": "فیض آباد",
    "Polling_Center_Location": "Faiz Abad",
    "Map_Accuracy": "Village",
    "Map_Accuracy_Dari": "قریه",
    "Status": "Open",
    "Status_Dari": null,
    "PS_Male": 2,
    "PS_Female": 2,
    "PS_Total": 4,
    "ولسوالي": "شیرین تگاب",
    "Region": "Northern Region"
   },
   "geometry": {
    "x": 7221554.2724049576,
    "y": 4340941.5105928127
   }
  },
  {
   "attributes": {
    "OBJECTID": 2636,
    "ولایت": "فارياب",
    "Province": "FARYAB",
    "PC_Code": "2907092",
    "District": "QAISAR",
    "د_مرکز_نوم__نام_مرکز": "مسجد جامع ثور",
    "Polling_Center_Name": "Sawr Mosque",
    "د_مرکز_ځای__موقعیت_مرکز": "ثور",
    "Polling_Center_Location": "Sawr",
    "Map_Accuracy": "Building",
    "Map_Accuracy_Dari": "تعمیر",
    "Status": "Open",
    "Status_Dari": null,
    "PS_Male": 1,
    "PS_Female": 1,
    "PS_Total": 2,
    "ولسوالي": "قیصار ",
    "Region": "Northern Region"
   },
   "geometry": {
    "x": 7161925.7745413193,
    "y": 4263420.7592920884
   }
  },
  {
   "attributes": {
    "OBJECTID": 2637,
    "ولایت": "فارياب",
    "Province": "FARYAB",
    "PC_Code": "2908132",
    "District": "GURZIWAN",
    "د_مرکز_نوم__نام_مرکز": "لیسه جر قلعه",
    "Polling_Center_Name": "Jar Qala High School",
    "د_مرکز_ځای__موقعیت_مرکز": "جر قلعه",
    "Polling_Center_Location": "Jar Qala",
    "Map_Accuracy": "Building",
    "Map_Accuracy_Dari": "تعمیر",
    "Status": "Open",
    "Status_Dari": null,
    "PS_Male": 2,
    "PS_Female": 2,
    "PS_Total": 4,
    "ولسوالي": "گرزیوان",
    "Region": "Northern Region"
   },
   "geometry": {
    "x": 7254098.9663635576,
    "y": 4258548.0032650968
   }
  },
  {
   "attributes": {
    "OBJECTID": 2638,
    "ولایت": "فارياب",
    "Province": "FARYAB",
    "PC_Code": "2908133",
    "District": "GURZIWAN",
    "د_مرکز_نوم__نام_مرکز": "مدرسه تگاب شان",
    "Polling_Center_Name": "Tagab Shan Madrassa",
    "د_مرکز_ځای__موقعیت_مرکز": "تگاب شان",
    "Polling_Center_Location": "Tagab Shan",
    "Map_Accuracy": "Building",
    "Map_Accuracy_Dari": "تعمیر",
    "Status": "Open",
    "Status_Dari": null,
    "PS_Male": 2,
    "PS_Female": 2,
    "PS_Total": 4,
    "ولسوالي": "گرزیوان",
    "Region": "Northern Region"
   },
   "geometry": {
    "x": 7251279.5753938444,
    "y": 4255633.8517562216
   }
  },
  {
   "attributes": {
    "OBJECTID": 2639,
    "ولایت": "فارياب",
    "Province": "FARYAB",
    "PC_Code": "2911170",
    "District": "QARAM QUL",
    "د_مرکز_نوم__نام_مرکز": "لیسه ذکور قرمقول",
    "Polling_Center_Name": "Qaramqol Boys High School",
    "د_مرکز_ځای__موقعیت_مرکز": "قریه آلتی بولک وسطی",
    "Polling_Center_Location": "Aalti Bolak Wasati Village",
    "Map_Accuracy": "Building",
    "Map_Accuracy_Dari": "تعمیر",
    "Status": "Open",
    "Status_Dari": null,
    "PS_Male": 3,
    "PS_Female": 1,
    "PS_Total": 4,
    "ولسوالي": "قرم قل",
    "Region": "Northern Region"
   },
   "geometry": {
    "x": 7245029.7229208322,
    "y": 4420235.0999623481
   }
  },
  {
   "attributes": {
    "OBJECTID": 2640,
    "ولایت": "فارياب",
    "Province": "FARYAB",
    "PC_Code": "2911173",
    "District": "QARAM QUL",
    "د_مرکز_نوم__نام_مرکز": "مکتب نسوان یوسف میرزایی",
    "Polling_Center_Name": "Yousuf Mir Zayee Girls School",
    "د_مرکز_ځای__موقعیت_مرکز": "یوسف میر زایی",
    "Polling_Center_Location": "Yousuf Mir Zayee",
    "Map_Accuracy": "Building",
    "Map_Accuracy_Dari": "تعمیر",
    "Status": "Open",
    "Status_Dari": null,
    "PS_Male": 2,
    "PS_Female": 2,
    "PS_Total": 4,
    "ولسوالي": "قرم قل",
    "Region": "Northern Region"
   },
   "geometry": {
    "x": 7251025.5910700401,
    "y": 4416654.25187694
   }
  },
  {
   "attributes": {
    "OBJECTID": 2641,
    "ولایت": "فارياب",
    "Province": "FARYAB",
    "PC_Code": "2911174",
    "District": "QARAM QUL",
    "د_مرکز_نوم__نام_مرکز": "مکتب نسوان آلتی بولک",
    "Polling_Center_Name": "Aalti Bolak Girls School",
    "د_مرکز_ځای__موقعیت_مرکز": "آلتی بولک",
    "Polling_Center_Location": "Aalti Bolak",
    "Map_Accuracy": "Building",
    "Map_Accuracy_Dari": "تعمیر",
    "Status": "Open",
    "Status_Dari": null,
    "PS_Male": 2,
    "PS_Female": 2,
    "PS_Total": 4,
    "ولسوالي": "قرم قل",
    "Region": "Northern Region"
   },
   "geometry": {
    "x": 7244856.6155466763,
    "y": 4418730.3138271375
   }
  },
  {
   "attributes": {
    "OBJECTID": 2642,
    "ولایت": "فارياب",
    "Province": "FARYAB",
    "PC_Code": "2912198",
    "District": "QURGHAN",
    "د_مرکز_نوم__نام_مرکز": "لیسه باغ بوستان ",
    "Polling_Center_Name": "Bagh Bostan High School",
    "د_مرکز_ځای__موقعیت_مرکز": "قرغان",
    "Polling_Center_Location": "Qarghan",
    "Map_Accuracy": "Building",
    "Map_Accuracy_Dari": "تعمیر",
    "Status": "Open",
    "Status_Dari": null,
    "PS_Male": 2,
    "PS_Female": 2,
    "PS_Total": 4,
    "ولسوالي": "قرغان",
    "Region": "Northern Region"
   },
   "geometry": {
    "x": 7246129.3580015916,
    "y": 4427832.1593539985
   }
  },
  {
   "attributes": {
    "OBJECTID": 2643,
    "ولایت": "فارياب",
    "Province": "FARYAB",
    "PC_Code": "2913181",
    "District": "ANDKHOY",
    "د_مرکز_نوم__نام_مرکز": "لیسه نسوان یولدوز",
    "Polling_Center_Name": "Yoldoz Girls High School",
    "د_مرکز_ځای__موقعیت_مرکز": "شهر نو",
    "Polling_Center_Location": "Shahr-e-Naw",
    "Map_Accuracy": "Building",
    "Map_Accuracy_Dari": "تعمیر",
    "Status": "Open",
    "Status_Dari": null,
    "PS_Male": 4,
    "PS_Female": 3,
    "PS_Total": 7,
    "ولسوالي": "اندخوی",
    "Region": "Northern Region"
   },
   "geometry": {
    "x": 7249491.0207200013,
    "y": 4431483.5164402341
   }
  },
  {
   "attributes": {
    "OBJECTID": 2644,
    "ولایت": "فارياب",
    "Province": "FARYAB",
    "PC_Code": "2913183",
    "District": "ANDKHOY",
    "د_مرکز_نوم__نام_مرکز": "لیسه نسوان ینگی تیگرمان",
    "Polling_Center_Name": "Yangee Tigarman Girls High School",
    "د_مرکز_ځای__موقعیت_مرکز": "ینگی تیگرمان",
    "Polling_Center_Location": "Yangee Tigarman",
    "Map_Accuracy": "Building",
    "Map_Accuracy_Dari": "تعمیر",
    "Status": "Open",
    "Status_Dari": null,
    "PS_Male": 3,
    "PS_Female": 3,
    "PS_Total": 6,
    "ولسوالي": "اندخوی",
    "Region": "Northern Region"
   },
   "geometry": {
    "x": 7248253.8415028062,
    "y": 4426004.6496913293
   }
  },
  {
   "attributes": {
    "OBJECTID": 2645,
    "ولایت": "هلمند",
    "Province": "HELMAND",
    "PC_Code": "3001003",
    "District": "LASHKARGAH",
    "د_مرکز_نوم__نام_مرکز": "د نجونو ليسه",
    "Polling_Center_Name": "Girls High School",
    "د_مرکز_ځای__موقعیت_مرکز": "ناحیه 2",
    "Polling_Center_Location": "D02 - Nahia 2",
    "Map_Accuracy": "Building",
    "Map_Accuracy_Dari": "تعمیر",
    "Status": "Open",
    "Status_Dari": null,
    "PS_Male": 0,
    "PS_Female": 6,
    "PS_Total": 6,
    "ولسوالي": "لشکرگاه",
    "Region": "Southern Region"
   },
   "geometry": {
    "x": 7165140.949715401,
    "y": 3709147.6967600221
   }
  },
  {
   "attributes": {
    "OBJECTID": 2646,
    "ولایت": "هلمند",
    "Province": "HELMAND",
    "PC_Code": "3001004",
    "District": "LASHKARGAH",
    "د_مرکز_نوم__نام_مرکز": "متوسطه ذكور",
    "Polling_Center_Name": "Boys Secondary School",
    "د_مرکز_ځای__موقعیت_مرکز": "ناحیه 2",
    "Polling_Center_Location": "D02 - Nahia 2",
    "Map_Accuracy": "Building",
    "Map_Accuracy_Dari": "تعمیر",
    "Status": "Open",
    "Status_Dari": null,
    "PS_Male": 6,
    "PS_Female": 0,
    "PS_Total": 6,
    "ولسوالي": "لشکرگاه",
    "Region": "Southern Region"
   },
   "geometry": {
    "x": 7165146.908647744,
    "y": 3709001.5521477894
   }
  },
  {
   "attributes": {
    "OBJECTID": 2647,
    "ولایت": "هلمند",
    "Province": "HELMAND",
    "PC_Code": "3001012",
    "District": "LASHKARGAH",
    "د_مرکز_نوم__نام_مرکز": "نمرات C1 مکتب",
    "Polling_Center_Name": "Numarat C1 School",
    "د_مرکز_ځای__موقعیت_مرکز": "نمرات C1",
    "Polling_Center_Location": "C1 Numarat",
    "Map_Accuracy": "Building",
    "Map_Accuracy_Dari": "تعمیر",
    "Status": "Open",
    "Status_Dari": null,
    "PS_Male": 5,
    "PS_Female": 0,
    "PS_Total": 5,
    "ولسوالي": "لشکرگاه",
    "Region": "Southern Region"
   },
   "geometry": {
    "x": 7166201.2289033849,
    "y": 3711878.4087004652
   }
  },
  {
   "attributes": {
    "OBJECTID": 2648,
    "ولایت": "هلمند",
    "Province": "HELMAND",
    "PC_Code": "3001013",
    "District": "LASHKARGAH",
    "د_مرکز_نوم__نام_مرکز": "د تور تانک د هلکانو مکتب",
    "Polling_Center_Name": "Tor Tank Boys School",
    "د_مرکز_ځای__موقعیت_مرکز": "تور تانک",
    "Polling_Center_Location": "Tor Tank",
    "Map_Accuracy": "Building",
    "Map_Accuracy_Dari": "تعمیر",
    "Status": "Open",
    "Status_Dari": null,
    "PS_Male": 9,
    "PS_Female": 1,
    "PS_Total": 10,
    "ولسوالي": "لشکرگاه",
    "Region": "Southern Region"
   },
   "geometry": {
    "x": 7164669.4192767106,
    "y": 3710649.4896515259
   }
  },
  {
   "attributes": {
    "OBJECTID": 2649,
    "ولایت": "هلمند",
    "Province": "HELMAND",
    "PC_Code": "3002062",
    "District": "NAD ALI",
    "د_مرکز_نوم__نام_مرکز": "مكتب ابتدائيه دهنه ۳۱غربی",
    "Polling_Center_Name": "Dahna 31 Gharbi Primary School",
    "د_مرکز_ځای__موقعیت_مرکز": "دهنه ۳۱غربی",
    "Polling_Center_Location": "Dahna 31 Gharbi",
    "Map_Accuracy": "Village",
    "Map_Accuracy_Dari": "قریه",
    "Status": "Open",
    "Status_Dari": null,
    "PS_Male": 7,
    "PS_Female": 0,
    "PS_Total": 7,
    "ولسوالي": "نادعلی",
    "Region": "Southern Region"
   },
   "geometry": {
    "x": 7159867.4159308281,
    "y": 3727477.7412271192
   }
  },
  {
   "attributes": {
    "OBJECTID": 2650,
    "ولایت": "هلمند",
    "Province": "HELMAND",
    "PC_Code": "3002065",
    "District": "NAD ALI",
    "د_مرکز_نوم__نام_مرکز": "مکتب ناقل آباد",
    "Polling_Center_Name": "Naqil Abad School",
    "د_مرکز_ځای__موقعیت_مرکز": "ناقل آباد",
    "Polling_Center_Location": "Naqil Abad",
    "Map_Accuracy": "Village",
    "Map_Accuracy_Dari": "قریه",
    "Status": "Open",
    "Status_Dari": null,
    "PS_Male": 4,
    "PS_Female": 0,
    "PS_Total": 4,
    "ولسوالي": "نادعلی",
    "Region": "Southern Region"
   },
   "geometry": {
    "x": 7154621.3992111897,
    "y": 3723395.406554943
   }
  },
  {
   "attributes": {
    "OBJECTID": 2651,
    "ولایت": "هلمند",
    "Province": "HELMAND",
    "PC_Code": "3004038",
    "District": "NAHR-E-SARAJ",
    "د_مرکز_نوم__نام_مرکز": "دگرشک د حاجی فابریکه ",
    "Polling_Center_Name": "Gereshk Haji Fabrika",
    "د_مرکز_ځای__موقعیت_مرکز": "گرشک",
    "Polling_Center_Location": "Gereshk",
    "Map_Accuracy": "Building",
    "Map_Accuracy_Dari": "تعمیر",
    "Status": "Open",
    "Status_Dari": null,
    "PS_Male": 3,
    "PS_Female": 2,
    "PS_Total": 5,
    "ولسوالي": "نهرسراج",
    "Region": "Southern Region"
   },
   "geometry": {
    "x": 7186825.4265848882,
    "y": 3739834.420770301
   }
  },
  {
   "attributes": {
    "OBJECTID": 2652,
    "ولایت": "هلمند",
    "Province": "HELMAND",
    "PC_Code": "3004039",
    "District": "NAHR-E-SARAJ",
    "د_مرکز_نوم__نام_مرکز": "د نجونو لیسه",
    "Polling_Center_Name": "Girls High School",
    "د_مرکز_ځای__موقعیت_مرکز": "گرشک",
    "Polling_Center_Location": "Gereshk",
    "Map_Accuracy": "Building",
    "Map_Accuracy_Dari": "تعمیر",
    "Status": "Open",
    "Status_Dari": null,
    "PS_Male": 0,
    "PS_Female": 4,
    "PS_Total": 4,
    "ولسوالي": "نهرسراج",
    "Region": "Southern Region"
   },
   "geometry": {
    "x": 7187913.6235879678,
    "y": 3739706.7976663993
   }
  },
  {
   "attributes": {
    "OBJECTID": 2653,
    "ولایت": "هلمند",
    "Province": "HELMAND",
    "PC_Code": "3006121",
    "District": "GARM SER",
    "د_مرکز_نوم__نام_مرکز": "دحسن آباد بارجاوي مكتب",
    "Polling_Center_Name": "Hassan Abad Barjawi School",
    "د_مرکز_ځای__موقعیت_مرکز": "د حاجی داود خان کلي",
    "Polling_Center_Location": "Haji Dawood Khan Village",
    "Map_Accuracy": "Building",
    "Map_Accuracy_Dari": "تعمیر",
    "Status": "Open",
    "Status_Dari": null,
    "PS_Male": 3,
    "PS_Female": 0,
    "PS_Total": 3,
    "ولسوالي": "گرم سیر",
    "Region": "Southern Region"
   },
   "geometry": {
    "x": 7143482.4726261785,
    "y": 3642627.9282531785
   }
  },
  {
   "attributes": {
    "OBJECTID": 2654,
    "ولایت": "هلمند",
    "Province": "HELMAND",
    "PC_Code": "3008129",
    "District": "SANGIN QALA",
    "د_مرکز_نوم__نام_مرکز": "مركزي شفاخانه",
    "Polling_Center_Name": "Central Hospital",
    "د_مرکز_ځای__موقعیت_مرکز": "نوی مکتب با زار",
    "Polling_Center_Location": "Nawai Maktab Bazar",
    "Map_Accuracy": "Building",
    "Map_Accuracy_Dari": "تعمیر",
    "Status": "Open",
    "Status_Dari": null,
    "PS_Male": 3,
    "PS_Female": 2,
    "PS_Total": 5,
    "ولسوالي": "سنگین قلعه",
    "Region": "Southern Region"
   },
   "geometry": {
    "x": 7218051.575684079,
    "y": 3770876.3108650353
   }
  },
  {
   "attributes": {
    "OBJECTID": 2655,
    "ولایت": "هلمند",
    "Province": "HELMAND",
    "PC_Code": "3008130",
    "District": "SANGIN QALA",
    "د_مرکز_نوم__نام_مرکز": "مسجد جامع مركزي",
    "Polling_Center_Name": "Central Mosque",
    "د_مرکز_ځای__موقعیت_مرکز": "د ولسوالی بازار",
    "Polling_Center_Location": "District Bazar",
    "Map_Accuracy": "Building",
    "Map_Accuracy_Dari": "تعمیر",
    "Status": "Open",
    "Status_Dari": null,
    "PS_Male": 5,
    "PS_Female": 0,
    "PS_Total": 5,
    "ولسوالي": "سنگین قلعه",
    "Region": "Southern Region"
   },
   "geometry": {
    "x": 7217680.8995908583,
    "y": 3772757.2452842053
   }
  },
  {
   "attributes": {
    "OBJECTID": 2656,
    "ولایت": "هلمند",
    "Province": "HELMAND",
    "PC_Code": "3014086",
    "District": "MARJA",
    "د_مرکز_نوم__نام_مرکز": "تعمير بلاک ـ ۴ ف",
    "Polling_Center_Name": "Block 4 - F Building",
    "د_مرکز_ځای__موقعیت_مرکز": "بلاک ـ ۴ ف",
    "Polling_Center_Location": "Block 4 - F",
    "Map_Accuracy": "Village",
    "Map_Accuracy_Dari": "قریه",
    "Status": "Open",
    "Status_Dari": null,
    "PS_Male": 2,
    "PS_Female": 1,
    "PS_Total": 3,
    "ولسوالي": "مارجه",
    "Region": "Southern Region"
   },
   "geometry": {
    "x": 7131853.1736654649,
    "y": 3699756.2938173674
   }
  },
  {
   "attributes": {
    "OBJECTID": 2657,
    "ولایت": "هلمند",
    "Province": "HELMAND",
    "PC_Code": "3014087",
    "District": "MARJA",
    "د_مرکز_نوم__نام_مرکز": "د فيض الله كور( کوچی مرکز)",
    "Polling_Center_Name": "Faizullah Private House (Kochi Center)",
    "د_مرکز_ځای__موقعیت_مرکز": "تریخ زابر",
    "Polling_Center_Location": "Treekh Zabar",
    "Map_Accuracy": "Village",
    "Map_Accuracy_Dari": "قریه",
    "Status": "Open",
    "Status_Dari": null,
    "PS_Male": 2,
    "PS_Female": 1,
    "PS_Total": 3,
    "ولسوالي": "مارجه",
    "Region": "Southern Region"
   },
   "geometry": {
    "x": 7150098.4482252402,
    "y": 3701661.0509470128
   }
  },
  {
   "attributes": {
    "OBJECTID": 2658,
    "ولایت": "هلمند",
    "Province": "HELMAND",
    "PC_Code": "3002070",
    "District": "NAD ALI",
    "د_مرکز_نوم__نام_مرکز": "مکتب لوی باغ",
    "Polling_Center_Name": "Loy Bagh School",
    "د_مرکز_ځای__موقعیت_مرکز": "لوی باغ",
    "Polling_Center_Location": "Loy Bagh",
    "Map_Accuracy": "Building",
    "Map_Accuracy_Dari": "تعمیر",
    "Status": "Open",
    "Status_Dari": null,
    "PS_Male": 3,
    "PS_Female": 1,
    "PS_Total": 4,
    "ولسوالي": "نادعلی",
    "Region": "Southern Region"
   },
   "geometry": {
    "x": 7153717.1420819145,
    "y": 3714855.2898320532
   }
  },
  {
   "attributes": {
    "OBJECTID": 2659,
    "ولایت": "هلمند",
    "Province": "HELMAND",
    "PC_Code": "3002071",
    "District": "NAD ALI",
    "د_مرکز_نوم__نام_مرکز": "لیسه چاه انجیر",
    "Polling_Center_Name": "Chah Enjeer High School",
    "د_مرکز_ځای__موقعیت_مرکز": "چاه انجیر",
    "Polling_Center_Location": "Chah Enjeer ",
    "Map_Accuracy": "Building",
    "Map_Accuracy_Dari": "تعمیر",
    "Status": "Open",
    "Status_Dari": null,
    "PS_Male": 2,
    "PS_Female": 2,
    "PS_Total": 4,
    "ولسوالي": "نادعلی",
    "Region": "Southern Region"
   },
   "geometry": {
    "x": 7159247.7893811706,
    "y": 3721570.2353068958
   }
  },
  {
   "attributes": {
    "OBJECTID": 2660,
    "ولایت": "هلمند",
    "Province": "HELMAND",
    "PC_Code": "3002080",
    "District": "NAD ALI",
    "د_مرکز_نوم__نام_مرکز": "مکتب شین کلی",
    "Polling_Center_Name": "Sheen Village School",
    "د_مرکز_ځای__موقعیت_مرکز": "شین کلی",
    "Polling_Center_Location": "Sheen Village",
    "Map_Accuracy": "Building",
    "Map_Accuracy_Dari": "تعمیر",
    "Status": "Open",
    "Status_Dari": null,
    "PS_Male": 3,
    "PS_Female": 1,
    "PS_Total": 4,
    "ولسوالي": "نادعلی",
    "Region": "Southern Region"
   },
   "geometry": {
    "x": 7148930.9850655431,
    "y": 3716383.3177364124
   }
  },
  {
   "attributes": {
    "OBJECTID": 2661,
    "ولایت": "هلمند",
    "Province": "HELMAND",
    "PC_Code": "3002081",
    "District": "NAD ALI",
    "د_مرکز_نوم__نام_مرکز": "نور محمد كلي مكتب",
    "Polling_Center_Name": "Noor Mohammad Village School",
    "د_مرکز_ځای__موقعیت_مرکز": "جنوبی جا انجیر مکتب",
    "Polling_Center_Location": "Jonobi Ja Enjeer Maktab",
    "Map_Accuracy": "Village",
    "Map_Accuracy_Dari": "قریه",
    "Status": "Open",
    "Status_Dari": null,
    "PS_Male": 3,
    "PS_Female": 1,
    "PS_Total": 4,
    "ولسوالي": "نادعلی",
    "Region": "Southern Region"
   },
   "geometry": {
    "x": 7138480.6875297511,
    "y": 3726110.7510346835
   }
  },
  {
   "attributes": {
    "OBJECTID": 2662,
    "ولایت": "هلمند",
    "Province": "HELMAND",
    "PC_Code": "3003092",
    "District": "NAWA-E-BARAKZAYI",
    "د_مرکز_نوم__نام_مرکز": "مكتب منګل زی",
    "Polling_Center_Name": "Mangal Zai School",
    "د_مرکز_ځای__موقعیت_مرکز": "منګل زی",
    "Polling_Center_Location": "Mangal Zai",
    "Map_Accuracy": "Building",
    "Map_Accuracy_Dari": "تعمیر",
    "Status": "Open",
    "Status_Dari": null,
    "PS_Male": 3,
    "PS_Female": 1,
    "PS_Total": 4,
    "ولسوالي": "ناوه بارکزایی",
    "Region": "Southern Region"
   },
   "geometry": {
    "x": 7164645.0904019978,
    "y": 3688054.8459561057
   }
  },
  {
   "attributes": {
    "OBJECTID": 2663,
    "ولایت": "هلمند",
    "Province": "HELMAND",
    "PC_Code": "3003093",
    "District": "NAWA-E-BARAKZAYI",
    "د_مرکز_نوم__نام_مرکز": "لیسه خلج",
    "Polling_Center_Name": "Khalj High School",
    "د_مرکز_ځای__موقعیت_مرکز": "خلج",
    "Polling_Center_Location": "Khalj",
    "Map_Accuracy": "Building",
    "Map_Accuracy_Dari": "تعمیر",
    "Status": "Open",
    "Status_Dari": null,
    "PS_Male": 4,
    "PS_Female": 0,
    "PS_Total": 4,
    "ولسوالي": "ناوه بارکزایی",
    "Region": "Southern Region"
   },
   "geometry": {
    "x": 7155848.9314813092,
    "y": 3681910.2064088527
   }
  },
  {
   "attributes": {
    "OBJECTID": 2664,
    "ولایت": "هلمند",
    "Province": "HELMAND",
    "PC_Code": "3003103",
    "District": "NAWA-E-BARAKZAYI",
    "د_مرکز_نوم__نام_مرکز": "كلينيك خرابه",
    "Polling_Center_Name": "Kharaba Clinic",
    "د_مرکز_ځای__موقعیت_مرکز": "خرابه",
    "Polling_Center_Location": "Kharaba",
    "Map_Accuracy": "Building",
    "Map_Accuracy_Dari": "تعمیر",
    "Status": "Open",
    "Status_Dari": null,
    "PS_Male": 5,
    "PS_Female": 0,
    "PS_Total": 5,
    "ولسوالي": "ناوه بارکزایی",
    "Region": "Southern Region"
   },
   "geometry": {
    "x": 7162844.5354870446,
    "y": 3685848.6231372482
   }
  },
  {
   "attributes": {
    "OBJECTID": 2665,
    "ولایت": "هلمند",
    "Province": "HELMAND",
    "PC_Code": "3003104",
    "District": "NAWA-E-BARAKZAYI",
    "د_مرکز_نوم__نام_مرکز": "د باسلانو روغتیایي مرکز",
    "Polling_Center_Name": "Baslan Clinic",
    "د_مرکز_ځای__موقعیت_مرکز": "باسلان",
    "Polling_Center_Location": "Baslan",
    "Map_Accuracy": "Building",
    "Map_Accuracy_Dari": "تعمیر",
    "Status": "Open",
    "Status_Dari": null,
    "PS_Male": 5,
    "PS_Female": 0,
    "PS_Total": 5,
    "ولسوالي": "ناوه بارکزایی",
    "Region": "Southern Region"
   },
   "geometry": {
    "x": 7157196.7834230531,
    "y": 3678878.12177489
   }
  },
  {
   "attributes": {
    "OBJECTID": 2666,
    "ولایت": "هلمند",
    "Province": "HELMAND",
    "PC_Code": "3006114",
    "District": "GARM SER",
    "د_مرکز_نوم__نام_مرکز": "د حاجی حضرت علی خان د کلی مكتب",
    "Polling_Center_Name": "Haji Hazrat Ali Khan Village School",
    "د_مرکز_ځای__موقعیت_مرکز": "د حاجی حضرت علی کلی",
    "Polling_Center_Location": "Haji Hazar Ali Village",
    "Map_Accuracy": "Building",
    "Map_Accuracy_Dari": "تعمیر",
    "Status": "Open",
    "Status_Dari": null,
    "PS_Male": 4,
    "PS_Female": 1,
    "PS_Total": 5,
    "ولسوالي": "گرم سیر",
    "Region": "Southern Region"
   },
   "geometry": {
    "x": 7146846.6177692283,
    "y": 3638732.6012414023
   }
  },
  {
   "attributes": {
    "OBJECTID": 2667,
    "ولایت": "هلمند",
    "Province": "HELMAND",
    "PC_Code": "3006115",
    "District": "GARM SER",
    "د_مرکز_نوم__نام_مرکز": "مكتب كودلي",
    "Polling_Center_Name": "Kodalee School",
    "د_مرکز_ځای__موقعیت_مرکز": "د حاجی باری داد کلی",
    "Polling_Center_Location": "Haji Bari Dad Village",
    "Map_Accuracy": "Building",
    "Map_Accuracy_Dari": "تعمیر",
    "Status": "Open",
    "Status_Dari": null,
    "PS_Male": 3,
    "PS_Female": 0,
    "PS_Total": 3,
    "ولسوالي": "گرم سیر",
    "Region": "Southern Region"
   },
   "geometry": {
    "x": 7145060.2026559934,
    "y": 3635073.4419500716
   }
  },
  {
   "attributes": {
    "OBJECTID": 2668,
    "ولایت": "هلمند",
    "Province": "HELMAND",
    "PC_Code": "3007204",
    "District": "NAWZAD",
    "د_مرکز_نوم__نام_مرکز": "مکتب مرکز ولسوالی",
    "Polling_Center_Name": "District Center School",
    "د_مرکز_ځای__موقعیت_مرکز": "مرکز ولسوالی",
    "Polling_Center_Location": "District Compound",
    "Map_Accuracy": "Building",
    "Map_Accuracy_Dari": "تعمیر",
    "Status": "Open",
    "Status_Dari": null,
    "PS_Male": 6,
    "PS_Female": 1,
    "PS_Total": 7,
    "ولسوالي": "نوزاد",
    "Region": "Southern Region"
   },
   "geometry": {
    "x": 7176872.8396056304,
    "y": 3816519.8032640307
   }
  },
  {
   "attributes": {
    "OBJECTID": 2669,
    "ولایت": "هلمند",
    "Province": "HELMAND",
    "PC_Code": "3008133",
    "District": "SANGIN QALA",
    "د_مرکز_نوم__نام_مرکز": "شیرعلی مسجد",
    "Polling_Center_Name": "Sher Ali Mosque",
    "د_مرکز_ځای__موقعیت_مرکز": "نسوزي سفلی",
    "Polling_Center_Location": "Nasozi Sufla",
    "Map_Accuracy": "Village",
    "Map_Accuracy_Dari": "قریه",
    "Status": "Open",
    "Status_Dari": null,
    "PS_Male": 3,
    "PS_Female": 1,
    "PS_Total": 4,
    "ولسوالي": "سنگین قلعه",
    "Region": "Southern Region"
   },
   "geometry": {
    "x": 7231717.0261300588,
    "y": 3784238.0474204877
   }
  },
  {
   "attributes": {
    "OBJECTID": 2670,
    "ولایت": "هلمند",
    "Province": "HELMAND",
    "PC_Code": "3008134",
    "District": "SANGIN QALA",
    "د_مرکز_نوم__نام_مرکز": "مكتب نسوزي",
    "Polling_Center_Name": "Nasozi School",
    "د_مرکز_ځای__موقعیت_مرکز": "نسوزي",
    "Polling_Center_Location": "Nasozi",
    "Map_Accuracy": "Village",
    "Map_Accuracy_Dari": "قریه",
    "Status": "Open",
    "Status_Dari": null,
    "PS_Male": 5,
    "PS_Female": 0,
    "PS_Total": 5,
    "ولسوالي": "سنگین قلعه",
    "Region": "Southern Region"
   },
   "geometry": {
    "x": 7232389.7554164045,
    "y": 3785861.9315292886
   }
  },
  {
   "attributes": {
    "OBJECTID": 2671,
    "ولایت": "هلمند",
    "Province": "HELMAND",
    "PC_Code": "3009180",
    "District": "MUSA QALA",
    "د_مرکز_نوم__نام_مرکز": "مارکیت اختر جان",
    "Polling_Center_Name": "Akhtar Jan Market",
    "د_مرکز_ځای__موقعیت_مرکز": "مرکز ولسوالی",
    "Polling_Center_Location": "District Compound",
    "Map_Accuracy": "Building",
    "Map_Accuracy_Dari": "تعمیر",
    "Status": "Open",
    "Status_Dari": null,
    "PS_Male": 4,
    "PS_Female": 2,
    "PS_Total": 6,
    "ولسوالي": "موسی قلعه",
    "Region": "Southern Region"
   },
   "geometry": {
    "x": 7210489.0927562099,
    "y": 3809501.505829928
   }
  },
  {
   "attributes": {
    "OBJECTID": 2672,
    "ولایت": "هلمند",
    "Province": "HELMAND",
    "PC_Code": "3009187",
    "District": "MUSA QALA",
    "د_مرکز_نوم__نام_مرکز": "چيك اپ مكتب",
    "Polling_Center_Name": "Cheek Aab School",
    "د_مرکز_ځای__موقعیت_مرکز": "چیک اب",
    "Polling_Center_Location": "Cheek Aab",
    "Map_Accuracy": "Village",
    "Map_Accuracy_Dari": "قریه",
    "Status": "Open",
    "Status_Dari": null,
    "PS_Male": 3,
    "PS_Female": 2,
    "PS_Total": 5,
    "ولسوالي": "موسی قلعه",
    "Region": "Southern Region"
   },
   "geometry": {
    "x": 7214734.4496675488,
    "y": 3800150.3473396222
   }
  },
  {
   "attributes": {
    "OBJECTID": 2673,
    "ولایت": "هلمند",
    "Province": "HELMAND",
    "PC_Code": "3014074",
    "District": "MARJA",
    "د_مرکز_نوم__نام_مرکز": "مکتب مارجه بلاک ـ ۹",
    "Polling_Center_Name": "Marja Block 9 School",
    "د_مرکز_ځای__موقعیت_مرکز": "مارجه بلاک ـ ۹",
    "Polling_Center_Location": "Marja Block 9",
    "Map_Accuracy": "Village",
    "Map_Accuracy_Dari": "قریه",
    "Status": "Open",
    "Status_Dari": null,
    "PS_Male": 2,
    "PS_Female": 1,
    "PS_Total": 3,
    "ولسوالي": "مارجه",
    "Region": "Southern Region"
   },
   "geometry": {
    "x": 7132494.6488915803,
    "y": 3683382.450902082
   }
  },
  {
   "attributes": {
    "OBJECTID": 2674,
    "ولایت": "هلمند",
    "Province": "HELMAND",
    "PC_Code": "3014075",
    "District": "MARJA",
    "د_مرکز_نوم__نام_مرکز": "خانه ملک",
    "Polling_Center_Name": "Malak Private House",
    "د_مرکز_ځای__موقعیت_مرکز": "سیستانی",
    "Polling_Center_Location": "Sistani",
    "Map_Accuracy": "Village",
    "Map_Accuracy_Dari": "قریه",
    "Status": "Open",
    "Status_Dari": null,
    "PS_Male": 6,
    "PS_Female": 2,
    "PS_Total": 8,
    "ولسوالي": "مارجه",
    "Region": "Southern Region"
   },
   "geometry": {
    "x": 7129573.4729454583,
    "y": 3694075.1309406711
   }
  },
  {
   "attributes": {
    "OBJECTID": 2675,
    "ولایت": "هلمند",
    "Province": "HELMAND",
    "PC_Code": "3001010",
    "District": "LASHKARGAH",
    "د_مرکز_نوم__نام_مرکز": "لیسه کارته لگن",
    "Polling_Center_Name": "Karta-e-Lagan High School",
    "د_مرکز_ځای__موقعیت_مرکز": " کارته لگن ناحیه 2",
    "Polling_Center_Location": "Karta-e-Lagan Nahia 2",
    "Map_Accuracy": "Building",
    "Map_Accuracy_Dari": "تعمیر",
    "Status": "Open",
    "Status_Dari": null,
    "PS_Male": 8,
    "PS_Female": 0,
    "PS_Total": 8,
    "ولسوالي": "لشکرگاه",
    "Region": "Southern Region"
   },
   "geometry": {
    "x": 7166241.8471591808,
    "y": 3709857.9674338549
   }
  },
  {
   "attributes": {
    "OBJECTID": 2676,
    "ولایت": "هلمند",
    "Province": "HELMAND",
    "PC_Code": "3001019",
    "District": "LASHKARGAH",
    "د_مرکز_نوم__نام_مرکز": "د حاجی کریم داد کلی مکتب",
    "Polling_Center_Name": "Haji Kareem Dad Village School",
    "د_مرکز_ځای__موقعیت_مرکز": "حاجی کریم داد کلی",
    "Polling_Center_Location": "Haji Kareem Dad Village",
    "Map_Accuracy": "Building",
    "Map_Accuracy_Dari": "تعمیر",
    "Status": "Open",
    "Status_Dari": null,
    "PS_Male": 5,
    "PS_Female": 0,
    "PS_Total": 5,
    "ولسوالي": "لشکرگاه",
    "Region": "Southern Region"
   },
   "geometry": {
    "x": 7165337.987440492,
    "y": 3698120.1947953049
   }
  },
  {
   "attributes": {
    "OBJECTID": 2677,
    "ولایت": "هلمند",
    "Province": "HELMAND",
    "PC_Code": "3001029",
    "District": "LASHKARGAH",
    "د_مرکز_نوم__نام_مرکز": "کورغوجت مکتب باباجی",
    "Polling_Center_Name": "Korghojat School Babaji",
    "د_مرکز_ځای__موقعیت_مرکز": "د رحیم خیلو کلی",
    "Polling_Center_Location": "Raheemkhelo Village",
    "Map_Accuracy": "Building",
    "Map_Accuracy_Dari": "تعمیر",
    "Status": "Open",
    "Status_Dari": null,
    "PS_Male": 2,
    "PS_Female": 2,
    "PS_Total": 4,
    "ولسوالي": "لشکرگاه",
    "Region": "Southern Region"
   },
   "geometry": {
    "x": 7170971.1165761724,
    "y": 3727249.5439425376
   }
  },
  {
   "attributes": {
    "OBJECTID": 2678,
    "ولایت": "هلمند",
    "Province": "HELMAND",
    "PC_Code": "3001030",
    "District": "LASHKARGAH",
    "د_مرکز_نوم__نام_مرکز": "د خان محمد مسجد",
    "Polling_Center_Name": "Khan Mohammad Mosque",
    "د_مرکز_ځای__موقعیت_مرکز": "د مهاجرینو کمپ",
    "Polling_Center_Location": "Muhajereeno Camp",
    "Map_Accuracy": "Building",
    "Map_Accuracy_Dari": "تعمیر",
    "Status": "Open",
    "Status_Dari": null,
    "PS_Male": 3,
    "PS_Female": 3,
    "PS_Total": 6,
    "ولسوالي": "لشکرگاه",
    "Region": "Southern Region"
   },
   "geometry": {
    "x": 7164251.8676591134,
    "y": 3715871.2293343628
   }
  },
  {
   "attributes": {
    "OBJECTID": 2679,
    "ولایت": "هلمند",
    "Province": "HELMAND",
    "PC_Code": "3003107",
    "District": "NAWA-E-BARAKZAYI",
    "د_مرکز_نوم__نام_مرکز": "مكتب ګورګین صفلا",
    "Polling_Center_Name": "Gorgeen Sufla School",
    "د_مرکز_ځای__موقعیت_مرکز": "ګورګین صفلا",
    "Polling_Center_Location": "Gorgeen Sufla",
    "Map_Accuracy": "Building",
    "Map_Accuracy_Dari": "تعمیر",
    "Status": "Open",
    "Status_Dari": null,
    "PS_Male": 3,
    "PS_Female": 1,
    "PS_Total": 4,
    "ولسوالي": "ناوه بارکزایی",
    "Region": "Southern Region"
   },
   "geometry": {
    "x": 7161964.6228172109,
    "y": 3692725.7950153719
   }
  },
  {
   "attributes": {
    "OBJECTID": 2680,
    "ولایت": "هلمند",
    "Province": "HELMAND",
    "PC_Code": "3003108",
    "District": "NAWA-E-BARAKZAYI",
    "د_مرکز_نوم__نام_مرکز": "مكتب ګورګین علیا",
    "Polling_Center_Name": "Gorgeen Ulya School",
    "د_مرکز_ځای__موقعیت_مرکز": "ګورګین علیا",
    "Polling_Center_Location": "Gorgeen Ulya",
    "Map_Accuracy": "Building",
    "Map_Accuracy_Dari": "تعمیر",
    "Status": "Open",
    "Status_Dari": null,
    "PS_Male": 3,
    "PS_Female": 1,
    "PS_Total": 4,
    "ولسوالي": "ناوه بارکزایی",
    "Region": "Southern Region"
   },
   "geometry": {
    "x": 7160118.1886873245,
    "y": 3679953.4993279316
   }
  },
  {
   "attributes": {
    "OBJECTID": 2681,
    "ولایت": "هلمند",
    "Province": "HELMAND",
    "PC_Code": "3004055",
    "District": "NAHR-E-SARAJ",
    "د_مرکز_نوم__نام_مرکز": "خانه حاجي سليم",
    "Polling_Center_Name": "Haji Saleem Private House",
    "د_مرکز_ځای__موقعیت_مرکز": "سربند",
    "Polling_Center_Location": "Sarband",
    "Map_Accuracy": "Village",
    "Map_Accuracy_Dari": "قریه",
    "Status": "Open",
    "Status_Dari": null,
    "PS_Male": 3,
    "PS_Female": 1,
    "PS_Total": 4,
    "ولسوالي": "نهرسراج",
    "Region": "Southern Region"
   },
   "geometry": {
    "x": 7194524.6053946726,
    "y": 3742085.2079971186
   }
  },
  {
   "attributes": {
    "OBJECTID": 2682,
    "ولایت": "هلمند",
    "Province": "HELMAND",
    "PC_Code": "3006125",
    "District": "GARM SER",
    "د_مرکز_نوم__نام_مرکز": "د هزارجفت کلی مکتب",
    "Polling_Center_Name": "Hazar Joft Village School",
    "د_مرکز_ځای__موقعیت_مرکز": "هزارجفت کلی",
    "Polling_Center_Location": "Hazar Joft Village",
    "Map_Accuracy": "Village",
    "Map_Accuracy_Dari": "قریه",
    "Status": "Open",
    "Status_Dari": null,
    "PS_Male": 2,
    "PS_Female": 2,
    "PS_Total": 4,
    "ولسوالي": "گرم سیر",
    "Region": "Southern Region"
   },
   "geometry": {
    "x": 7146540.067268678,
    "y": 3649768.5215071142
   }
  },
  {
   "attributes": {
    "OBJECTID": 2683,
    "ولایت": "هلمند",
    "Province": "HELMAND",
    "PC_Code": "3011217",
    "District": "REG-E-KHAN NISHIN",
    "د_مرکز_نوم__نام_مرکز": "دفتر ولسوالی",
    "Polling_Center_Name": "District Building Office",
    "د_مرکز_ځای__موقعیت_مرکز": "مرکز ولسوالی",
    "Polling_Center_Location": "District Compound",
    "Map_Accuracy": "Building",
    "Map_Accuracy_Dari": "تعمیر",
    "Status": "Open",
    "Status_Dari": null,
    "PS_Male": 2,
    "PS_Female": 1,
    "PS_Total": 3,
    "ولسوالي": "ریگ خانشین",
    "Region": "Southern Region"
   },
   "geometry": {
    "x": 7100583.7958684117,
    "y": 3574622.6376842214
   }
  },
  {
   "attributes": {
    "OBJECTID": 2684,
    "ولایت": "هلمند",
    "Province": "HELMAND",
    "PC_Code": "3014083",
    "District": "MARJA",
    "د_مرکز_نوم__نام_مرکز": "مکتب مارجه بلاک ـ ۱۱ خورد",
    "Polling_Center_Name": "Marja Block 11 Khord School",
    "د_مرکز_ځای__موقعیت_مرکز": "مارجه بلاک ـ ۱۱ خورد",
    "Polling_Center_Location": "Marja Block 11 Khord",
    "Map_Accuracy": "Village",
    "Map_Accuracy_Dari": "قریه",
    "Status": "Open",
    "Status_Dari": null,
    "PS_Male": 2,
    "PS_Female": 1,
    "PS_Total": 3,
    "ولسوالي": "مارجه",
    "Region": "Southern Region"
   },
   "geometry": {
    "x": 7135801.0325772511,
    "y": 3681032.8565512849
   }
  },
  {
   "attributes": {
    "OBJECTID": 2685,
    "ولایت": "بادغيس",
    "Province": "BADGHIS",
    "PC_Code": "3102028",
    "District": "AB KAMARI",
    "د_مرکز_نوم__نام_مرکز": "لیسه جعفری",
    "Polling_Center_Name": "Jafari High School",
    "د_مرکز_ځای__موقعیت_مرکز": "قریه جعفری",
    "Polling_Center_Location": "Jafari Village ",
    "Map_Accuracy": "Village",
    "Map_Accuracy_Dari": "قریه",
    "Status": "Open",
    "Status_Dari": null,
    "PS_Male": 3,
    "PS_Female": 1,
    "PS_Total": 4,
    "ولسوالي": "آبکمری",
    "Region": "Western Region"
   },
   "geometry": {
    "x": 7015098.1903604707,
    "y": 4193097.0823399629
   }
  },
  {
   "attributes": {
    "OBJECTID": 2686,
    "ولایت": "بادغيس",
    "Province": "BADGHIS",
    "PC_Code": "3102037",
    "District": "AB KAMARI",
    "د_مرکز_نوم__نام_مرکز": "مکتب متوسطه مبارکشاه",
    "Polling_Center_Name": "Mobarak Shah Secondary School",
    "د_مرکز_ځای__موقعیت_مرکز": "مبارک شاه ",
    "Polling_Center_Location": "Mobarak Shah ",
    "Map_Accuracy": "Building",
    "Map_Accuracy_Dari": "تعمیر",
    "Status": "Open",
    "Status_Dari": null,
    "PS_Male": 1,
    "PS_Female": 1,
    "PS_Total": 2,
    "ولسوالي": "آبکمری",
    "Region": "Western Region"
   },
   "geometry": {
    "x": 7018613.6086727558,
    "y": 4170508.9427584824
   }
  },
  {
   "attributes": {
    "OBJECTID": 2687,
    "ولایت": "بادغيس",
    "Province": "BADGHIS",
    "PC_Code": "3102038",
    "District": "AB KAMARI",
    "د_مرکز_نوم__نام_مرکز": "مکتب سنگ خرس ",
    "Polling_Center_Name": "Sang-e- khars School",
    "د_مرکز_ځای__موقعیت_مرکز": "قریه سنگ خرس",
    "Polling_Center_Location": "Sang-e- Khers Village",
    "Map_Accuracy": "Building",
    "Map_Accuracy_Dari": "تعمیر",
    "Status": "Open",
    "Status_Dari": null,
    "PS_Male": 1,
    "PS_Female": 1,
    "PS_Total": 2,
    "ولسوالي": "آبکمری",
    "Region": "Western Region"
   },
   "geometry": {
    "x": 7020226.006931589,
    "y": 4175407.0443227435
   }
  },
  {
   "attributes": {
    "OBJECTID": 2688,
    "ولایت": "بادغيس",
    "Province": "BADGHIS",
    "PC_Code": "3102048",
    "District": "AB KAMARI",
    "د_مرکز_نوم__نام_مرکز": "مکتب قریه کوکجایل",
    "Polling_Center_Name": "Kokjail Village School",
    "د_مرکز_ځای__موقعیت_مرکز": "قریه کوکجایل",
    "Polling_Center_Location": "Kokjail Village",
    "Map_Accuracy": "Building",
    "Map_Accuracy_Dari": "تعمیر",
    "Status": "Open",
    "Status_Dari": null,
    "PS_Male": 2,
    "PS_Female": 1,
    "PS_Total": 3,
    "ولسوالي": "آبکمری",
    "Region": "Western Region"
   },
   "geometry": {
    "x": 6993352.0124368127,
    "y": 4145998.389129099
   }
  },
  {
   "attributes": {
    "OBJECTID": 2689,
    "ولایت": "بادغيس",
    "Province": "BADGHIS",
    "PC_Code": "3102049",
    "District": "AB KAMARI",
    "د_مرکز_نوم__نام_مرکز": "مکتب آب باریک",
    "Polling_Center_Name": "Aab Barik School",
    "د_مرکز_ځای__موقعیت_مرکز": "آب باریک",
    "Polling_Center_Location": "Aab Barik",
    "Map_Accuracy": "Building",
    "Map_Accuracy_Dari": "تعمیر",
    "Status": "Open",
    "Status_Dari": null,
    "PS_Male": 2,
    "PS_Female": 1,
    "PS_Total": 3,
    "ولسوالي": "آبکمری",
    "Region": "Western Region"
   },
   "geometry": {
    "x": 6981922.4540384393,
    "y": 4150236.3528345753
   }
  },
  {
   "attributes": {
    "OBJECTID": 2690,
    "ولایت": "بادغيس",
    "Province": "BADGHIS",
    "PC_Code": "3103022",
    "District": "MUQUR",
    "د_مرکز_نوم__نام_مرکز": "مسجد قریه خواجه پسته",
    "Polling_Center_Name": "Khwaja pesta Village Mosque",
    "د_مرکز_ځای__موقعیت_مرکز": "خواجه پسته ",
    "Polling_Center_Location": "khwaja pesta",
    "Map_Accuracy": "Building",
    "Map_Accuracy_Dari": "تعمیر",
    "Status": "Open",
    "Status_Dari": null,
    "PS_Male": 2,
    "PS_Female": 1,
    "PS_Total": 3,
    "ولسوالي": "مقر",
    "Region": "Western Region"
   },
   "geometry": {
    "x": 7035492.743724836,
    "y": 4178354.5337003726
   }
  },
  {
   "attributes": {
    "OBJECTID": 2691,
    "ولایت": "بادغيس",
    "Province": "BADGHIS",
    "PC_Code": "3103023",
    "District": "MUQUR",
    "د_مرکز_نوم__نام_مرکز": "مکتب ابتدائیه قریه جکنه",
    "Polling_Center_Name": "Jaknah Primary School",
    "د_مرکز_ځای__موقعیت_مرکز": "قریه جکنه ",
    "Polling_Center_Location": "Jaknah Village",
    "Map_Accuracy": "Building",
    "Map_Accuracy_Dari": "تعمیر",
    "Status": "Open",
    "Status_Dari": null,
    "PS_Male": 1,
    "PS_Female": 1,
    "PS_Total": 2,
    "ولسوالي": "مقر",
    "Region": "Western Region"
   },
   "geometry": {
    "x": 7039415.2195663247,
    "y": 4177123.3746733214
   }
  },
  {
   "attributes": {
    "OBJECTID": 2692,
    "ولایت": "بادغيس",
    "Province": "BADGHIS",
    "PC_Code": "3104054",
    "District": "QADIS",
    "د_مرکز_نوم__نام_مرکز": "لیسه جمیعت",
    "Polling_Center_Name": "Jamiat High School",
    "د_مرکز_ځای__موقعیت_مرکز": "مرکز ولسوالی",
    "Polling_Center_Location": "District Center ",
    "Map_Accuracy": "Building",
    "Map_Accuracy_Dari": "تعمیر",
    "Status": "Open",
    "Status_Dari": null,
    "PS_Male": 3,
    "PS_Female": 1,
    "PS_Total": 4,
    "ولسوالي": "قادس",
    "Region": "Western Region"
   },
   "geometry": {
    "x": 7062287.9841326494,
    "y": 4137041.0506438506
   }
  },
  {
   "attributes": {
    "OBJECTID": 2693,
    "ولایت": "بادغيس",
    "Province": "BADGHIS",
    "PC_Code": "3104064",
    "District": "QADIS",
    "د_مرکز_نوم__نام_مرکز": " مسجد ارباب محمد ",
    "Polling_Center_Name": "Arbab Mohammad Village ",
    "د_مرکز_ځای__موقعیت_مرکز": "ارباب محمد قریه ",
    "Polling_Center_Location": "Arbab Mohammad Village",
    "Map_Accuracy": "District",
    "Map_Accuracy_Dari": "ولسوالی",
    "Status": "Open",
    "Status_Dari": null,
    "PS_Male": 1,
    "PS_Female": 1,
    "PS_Total": 2,
    "ولسوالي": "قادس",
    "Region": "Western Region"
   },
   "geometry": {
    "x": 7076506.9562750654,
    "y": 4125258.2548879911
   }
  },
  {
   "attributes": {
    "OBJECTID": 2694,
    "ولایت": "بادغيس",
    "Province": "BADGHIS",
    "PC_Code": "3104065",
    "District": "QADIS",
    "د_مرکز_نوم__نام_مرکز": "قریه دو آبی ",
    "Polling_Center_Name": "Deh Aabi Village ",
    "د_مرکز_ځای__موقعیت_مرکز": "ده ابی ",
    "Polling_Center_Location": "Deh Aabi ",
    "Map_Accuracy": "Village",
    "Map_Accuracy_Dari": "قریه",
    "Status": "Open",
    "Status_Dari": null,
    "PS_Male": 1,
    "PS_Female": 1,
    "PS_Total": 2,
    "ولسوالي": "قادس",
    "Region": "Western Region"
   },
   "geometry": {
    "x": 7079833.210489844,
    "y": 4116716.8648951165
   }
  },
  {
   "attributes": {
    "OBJECTID": 2695,
    "ولایت": "بادغيس",
    "Province": "BADGHIS",
    "PC_Code": "3104079",
    "District": "QADIS",
    "د_مرکز_نوم__نام_مرکز": "مدرسه قریه بارگل",
    "Polling_Center_Name": "Bargul Village Madrassa",
    "د_مرکز_ځای__موقعیت_مرکز": "قریه بارگل",
    "Polling_Center_Location": "Bargul Village",
    "Map_Accuracy": "Building",
    "Map_Accuracy_Dari": "تعمیر",
    "Status": "Open",
    "Status_Dari": null,
    "PS_Male": 1,
    "PS_Female": 1,
    "PS_Total": 2,
    "ولسوالي": "قادس",
    "Region": "Western Region"
   },
   "geometry": {
    "x": 7100156.5115877334,
    "y": 4110615.2648066143
   }
  },
  {
   "attributes": {
    "OBJECTID": 2696,
    "ولایت": "بادغيس",
    "Province": "BADGHIS",
    "PC_Code": "3105147",
    "District": "BALA MURGHAB",
    "د_مرکز_نوم__نام_مرکز": "مکتب مرکز مرغاب",
    "Polling_Center_Name": "Markaz Murghab School",
    "د_مرکز_ځای__موقعیت_مرکز": " مرکز مرغاب",
    "Polling_Center_Location": "Markaz Murghab",
    "Map_Accuracy": "Building",
    "Map_Accuracy_Dari": "تعمیر",
    "Status": "Open",
    "Status_Dari": null,
    "PS_Male": 4,
    "PS_Female": 0,
    "PS_Total": 4,
    "ولسوالي": "بالا مرغاب",
    "Region": "Western Region"
   },
   "geometry": {
    "x": 7050210.1691474225,
    "y": 4243247.4388062367
   }
  },
  {
   "attributes": {
    "OBJECTID": 2697,
    "ولایت": "بادغيس",
    "Province": "BADGHIS",
    "PC_Code": "3105149",
    "District": "BALA MURGHAB",
    "د_مرکز_نوم__نام_مرکز": "مکتب جوی خواجه",
    "Polling_Center_Name": "Joy-e-Khwaja School",
    "د_مرکز_ځای__موقعیت_مرکز": " جوی خواجه",
    "Polling_Center_Location": "Joy-e-Khwaja",
    "Map_Accuracy": "Village",
    "Map_Accuracy_Dari": "قریه",
    "Status": "Open",
    "Status_Dari": null,
    "PS_Male": 2,
    "PS_Female": 1,
    "PS_Total": 3,
    "ولسوالي": "بالا مرغاب",
    "Region": "Western Region"
   },
   "geometry": {
    "x": 7050249.1685951846,
    "y": 4239248.6434767582
   }
  },
  {
   "attributes": {
    "OBJECTID": 2698,
    "ولایت": "بادغيس",
    "Province": "BADGHIS",
    "PC_Code": "3105150",
    "District": "BALA MURGHAB",
    "د_مرکز_نوم__نام_مرکز": "مسجد بز بای",
    "Polling_Center_Name": "Buz Baye Mosque",
    "د_مرکز_ځای__موقعیت_مرکز": " بز بای",
    "Polling_Center_Location": "Buz Baye",
    "Map_Accuracy": "Village",
    "Map_Accuracy_Dari": "قریه",
    "Status": "Open",
    "Status_Dari": null,
    "PS_Male": 1,
    "PS_Female": 1,
    "PS_Total": 2,
    "ولسوالي": "بالا مرغاب",
    "Region": "Western Region"
   },
   "geometry": {
    "x": 7053903.0249394178,
    "y": 4226368.3597878898
   }
  },
  {
   "attributes": {
    "OBJECTID": 2699,
    "ولایت": "بادغيس",
    "Province": "BADGHIS",
    "PC_Code": "3106109",
    "District": "JAWAND",
    "د_مرکز_نوم__نام_مرکز": "مسجد قریه تخت زرد",
    "Polling_Center_Name": "Takht-e- Zard Village Mosque",
    "د_مرکز_ځای__موقعیت_مرکز": " تخت زرد",
    "Polling_Center_Location": "Takht-e- Zard ",
    "Map_Accuracy": "Village",
    "Map_Accuracy_Dari": "قریه",
    "Status": "Open",
    "Status_Dari": null,
    "PS_Male": 1,
    "PS_Female": 1,
    "PS_Total": 2,
    "ولسوالي": "جوند",
    "Region": "Western Region"
   },
   "geometry": {
    "x": 7172264.2516486086,
    "y": 4185511.0839860449
   }
  },
  {
   "attributes": {
    "OBJECTID": 2700,
    "ولایت": "بادغيس",
    "Province": "BADGHIS",
    "PC_Code": "3106110",
    "District": "JAWAND",
    "د_مرکز_نوم__نام_مرکز": "مسجد قریه غو کلان",
    "Polling_Center_Name": "Ghow kalan Village Mosque",
    "د_مرکز_ځای__موقعیت_مرکز": " غو کلان",
    "Polling_Center_Location": "Ghow kalan ",
    "Map_Accuracy": "Village",
    "Map_Accuracy_Dari": "قریه",
    "Status": "Open",
    "Status_Dari": null,
    "PS_Male": 1,
    "PS_Female": 1,
    "PS_Total": 2,
    "ولسوالي": "جوند",
    "Region": "Western Region"
   },
   "geometry": {
    "x": 7150068.2205307065,
    "y": 4160252.5149805192
   }
  },
  {
   "attributes": {
    "OBJECTID": 2701,
    "ولایت": "بادغيس",
    "Province": "BADGHIS",
    "PC_Code": "3106112",
    "District": "JAWAND",
    "د_مرکز_نوم__نام_مرکز": "مسجد ربات",
    "Polling_Center_Name": "Rubat Mosque",
    "د_مرکز_ځای__موقعیت_مرکز": " ربات",
    "Polling_Center_Location": "Rubat ",
    "Map_Accuracy": "Village",
    "Map_Accuracy_Dari": "قریه",
    "Status": "Open",
    "Status_Dari": null,
    "PS_Male": 1,
    "PS_Female": 1,
    "PS_Total": 2,
    "ولسوالي": "جوند",
    "Region": "Western Region"
   },
   "geometry": {
    "x": 7164364.8135276632,
    "y": 4149950.815420168
   }
  },
  {
   "attributes": {
    "OBJECTID": 2702,
    "ولایت": "بادغيس",
    "Province": "BADGHIS",
    "PC_Code": "3106113",
    "District": "JAWAND",
    "د_مرکز_نوم__نام_مرکز": "مسجد رباتک",
    "Polling_Center_Name": "Rubatak Mosque",
    "د_مرکز_ځای__موقعیت_مرکز": " رباتک",
    "Polling_Center_Location": "Rubatak ",
    "Map_Accuracy": "Village",
    "Map_Accuracy_Dari": "قریه",
    "Status": "Open",
    "Status_Dari": null,
    "PS_Male": 1,
    "PS_Female": 1,
    "PS_Total": 2,
    "ولسوالي": "جوند",
    "Region": "Western Region"
   },
   "geometry": {
    "x": 7164375.9376843767,
    "y": 4149981.9293120126
   }
  },
  {
   "attributes": {
    "OBJECTID": 2703,
    "ولایت": "بادغيس",
    "Province": "BADGHIS",
    "PC_Code": "3107140",
    "District": "GHORMACH",
    "د_مرکز_نوم__نام_مرکز": "مسجد قریه پبتو",
    "Polling_Center_Name": "Petow Village Mosque",
    "د_مرکز_ځای__موقعیت_مرکز": "پبتو",
    "Polling_Center_Location": "Petow",
    "Map_Accuracy": "Building",
    "Map_Accuracy_Dari": "تعمیر",
    "Status": "Open",
    "Status_Dari": null,
    "PS_Male": 3,
    "PS_Female": 1,
    "PS_Total": 4,
    "ولسوالي": "غورماچ",
    "Region": "Western Region"
   },
   "geometry": {
    "x": 7104244.3781362791,
    "y": 4264997.2718487885
   }
  },
  {
   "attributes": {
    "OBJECTID": 2704,
    "ولایت": "بادغيس",
    "Province": "BADGHIS",
    "PC_Code": "3101002",
    "District": "QALA-E-NOW",
    "د_مرکز_نوم__نام_مرکز": "لیسه نسوان شهر قلعه نو",
    "Polling_Center_Name": "Shahr-e-Qala-e-Now Girls School",
    "د_مرکز_ځای__موقعیت_مرکز": "قلعه نو",
    "Polling_Center_Location": "Qala-e-Now ",
    "Map_Accuracy": "Building",
    "Map_Accuracy_Dari": "تعمیر",
    "Status": "Open",
    "Status_Dari": null,
    "PS_Male": 4,
    "PS_Female": 5,
    "PS_Total": 9,
    "ولسوالي": "قلعه نو",
    "Region": "Western Region"
   },
   "geometry": {
    "x": 7027673.6972005591,
    "y": 4161727.4484876655
   }
  },
  {
   "attributes": {
    "OBJECTID": 2705,
    "ولایت": "بادغيس",
    "Province": "BADGHIS",
    "PC_Code": "3101003",
    "District": "QALA-E-NOW",
    "د_مرکز_نوم__نام_مرکز": "مکتب فرستان ",
    "Polling_Center_Name": "Ferestan School",
    "د_مرکز_ځای__موقعیت_مرکز": "فرستان ",
    "Polling_Center_Location": "Faristan ",
    "Map_Accuracy": "Building",
    "Map_Accuracy_Dari": "تعمیر",
    "Status": "Open",
    "Status_Dari": null,
    "PS_Male": 4,
    "PS_Female": 3,
    "PS_Total": 7,
    "ولسوالي": "قلعه نو",
    "Region": "Western Region"
   },
   "geometry": {
    "x": 7027929.7286897963,
    "y": 4166019.5320023838
   }
  },
  {
   "attributes": {
    "OBJECTID": 2706,
    "ولایت": "بادغيس",
    "Province": "BADGHIS",
    "PC_Code": "3101006",
    "District": "QALA-E-NOW",
    "د_مرکز_نوم__نام_مرکز": "مکتب قر قیطو",
    "Polling_Center_Name": "Qarqeito School",
    "د_مرکز_ځای__موقعیت_مرکز": " قر قیطو",
    "Polling_Center_Location": "Qarqeito",
    "Map_Accuracy": "Building",
    "Map_Accuracy_Dari": "تعمیر",
    "Status": "Open",
    "Status_Dari": null,
    "PS_Male": 4,
    "PS_Female": 2,
    "PS_Total": 6,
    "ولسوالي": "قلعه نو",
    "Region": "Western Region"
   },
   "geometry": {
    "x": 7030134.2108298736,
    "y": 4160501.9455405446
   }
  },
  {
   "attributes": {
    "OBJECTID": 2707,
    "ولایت": "بادغيس",
    "Province": "BADGHIS",
    "PC_Code": "3101007",
    "District": "QALA-E-NOW",
    "د_مرکز_نوم__نام_مرکز": "مکتب خا ریستا ن",
    "Polling_Center_Name": "Khareesan School",
    "د_مرکز_ځای__موقعیت_مرکز": " خا ریستا ن",
    "Polling_Center_Location": "kharestan ",
    "Map_Accuracy": "Building",
    "Map_Accuracy_Dari": "تعمیر",
    "Status": "Open",
    "Status_Dari": null,
    "PS_Male": 3,
    "PS_Female": 2,
    "PS_Total": 5,
    "ولسوالي": "قلعه نو",
    "Region": "Western Region"
   },
   "geometry": {
    "x": 7036682.7357230736,
    "y": 4156762.425276272
   }
  },
  {
   "attributes": {
    "OBJECTID": 2708,
    "ولایت": "بادغيس",
    "Province": "BADGHIS",
    "PC_Code": "3101012",
    "District": "QALA-E-NOW",
    "د_مرکز_نوم__نام_مرکز": "مسجد ملمنجی",
    "Polling_Center_Name": "Malmanji Mosque",
    "د_مرکز_ځای__موقعیت_مرکز": "ملمنجی",
    "Polling_Center_Location": "Malmanji ",
    "Map_Accuracy": "Building",
    "Map_Accuracy_Dari": "تعمیر",
    "Status": "Open",
    "Status_Dari": null,
    "PS_Male": 3,
    "PS_Female": 2,
    "PS_Total": 5,
    "ولسوالي": "قلعه نو",
    "Region": "Western Region"
   },
   "geometry": {
    "x": 7036248.4839554643,
    "y": 4126797.6899198717
   }
  },
  {
   "attributes": {
    "OBJECTID": 2709,
    "ولایت": "بادغيس",
    "Province": "BADGHIS",
    "PC_Code": "3101013",
    "District": "QALA-E-NOW",
    "د_مرکز_نوم__نام_مرکز": "مکتب تگاب اسماعیل",
    "Polling_Center_Name": "Tagab Esmaeel School",
    "د_مرکز_ځای__موقعیت_مرکز": "تگاب اسماعیل",
    "Polling_Center_Location": "Takab Esmaeel ",
    "Map_Accuracy": "Building",
    "Map_Accuracy_Dari": "تعمیر",
    "Status": "Open",
    "Status_Dari": null,
    "PS_Male": 3,
    "PS_Female": 2,
    "PS_Total": 5,
    "ولسوالي": "قلعه نو",
    "Region": "Western Region"
   },
   "geometry": {
    "x": 7024091.7532473756,
    "y": 4159637.0315019111
   }
  },
  {
   "attributes": {
    "OBJECTID": 2710,
    "ولایت": "بادغيس",
    "Province": "BADGHIS",
    "PC_Code": "3101017",
    "District": "QALA-E-NOW",
    "د_مرکز_نوم__نام_مرکز": "بازاراعلم چوب",
    "Polling_Center_Name": "Aalam Chob Bazar",
    "د_مرکز_ځای__موقعیت_مرکز": " اعلم چوب",
    "Polling_Center_Location": "Aalam ",
    "Map_Accuracy": "Village",
    "Map_Accuracy_Dari": "قریه",
    "Status": "Open",
    "Status_Dari": null,
    "PS_Male": 2,
    "PS_Female": 2,
    "PS_Total": 4,
    "ولسوالي": "قلعه نو",
    "Region": "Western Region"
   },
   "geometry": {
    "x": 7015889.3090384696,
    "y": 4139293.7802628423
   }
  },
  {
   "attributes": {
    "OBJECTID": 2711,
    "ولایت": "بادغيس",
    "Province": "BADGHIS",
    "PC_Code": "3101018",
    "District": "QALA-E-NOW",
    "د_مرکز_نوم__نام_مرکز": "کلینیک چکاب",
    "Polling_Center_Name": "Chakab Clinic",
    "د_مرکز_ځای__موقعیت_مرکز": " چکاب",
    "Polling_Center_Location": "Chakab ",
    "Map_Accuracy": "Building",
    "Map_Accuracy_Dari": "تعمیر",
    "Status": "Open",
    "Status_Dari": null,
    "PS_Male": 2,
    "PS_Female": 2,
    "PS_Total": 4,
    "ولسوالي": "قلعه نو",
    "Region": "Western Region"
   },
   "geometry": {
    "x": 7018931.8421538621,
    "y": 4132583.9076567995
   }
  },
  {
   "attributes": {
    "OBJECTID": 2712,
    "ولایت": "بادغيس",
    "Province": "BADGHIS",
    "PC_Code": "3102043",
    "District": "AB KAMARI",
    "د_مرکز_نوم__نام_مرکز": "مسجد گنده آب",
    "Polling_Center_Name": "Gandah Aab school",
    "د_مرکز_ځای__موقعیت_مرکز": " گنده آب",
    "Polling_Center_Location": "Gandah Aab",
    "Map_Accuracy": "Village",
    "Map_Accuracy_Dari": "قریه",
    "Status": "Open",
    "Status_Dari": null,
    "PS_Male": 2,
    "PS_Female": 1,
    "PS_Total": 3,
    "ولسوالي": "آبکمری",
    "Region": "Western Region"
   },
   "geometry": {
    "x": 7001286.2145215385,
    "y": 4136993.9946746207
   }
  },
  {
   "attributes": {
    "OBJECTID": 2713,
    "ولایت": "بادغيس",
    "Province": "BADGHIS",
    "PC_Code": "3102044",
    "District": "AB KAMARI",
    "د_مرکز_نوم__نام_مرکز": "مسجد جامع قریه دهستان",
    "Polling_Center_Name": "Dehistan Village Mosque",
    "د_مرکز_ځای__موقعیت_مرکز": "دهستان",
    "Polling_Center_Location": "Dehistan ",
    "Map_Accuracy": "Village",
    "Map_Accuracy_Dari": "قریه",
    "Status": "Open",
    "Status_Dari": null,
    "PS_Male": 2,
    "PS_Female": 1,
    "PS_Total": 3,
    "ولسوالي": "آبکمری",
    "Region": "Western Region"
   },
   "geometry": {
    "x": 7005055.2230866328,
    "y": 4122064.339361791
   }
  },
  {
   "attributes": {
    "OBJECTID": 2714,
    "ولایت": "بادغيس",
    "Province": "BADGHIS",
    "PC_Code": "3104058",
    "District": "QADIS",
    "د_مرکز_نوم__نام_مرکز": "مکتب جولیق",
    "Polling_Center_Name": "Joleeq School",
    "د_مرکز_ځای__موقعیت_مرکز": "جولیق",
    "Polling_Center_Location": "Joleeq ",
    "Map_Accuracy": "Building",
    "Map_Accuracy_Dari": "تعمیر",
    "Status": "Open",
    "Status_Dari": null,
    "PS_Male": 2,
    "PS_Female": 1,
    "PS_Total": 3,
    "ولسوالي": "قادس",
    "Region": "Western Region"
   },
   "geometry": {
    "x": 7054677.3722229358,
    "y": 4123759.8799991664
   }
  },
  {
   "attributes": {
    "OBJECTID": 2715,
    "ولایت": "بادغيس",
    "Province": "BADGHIS",
    "PC_Code": "3104059",
    "District": "QADIS",
    "د_مرکز_نوم__نام_مرکز": "مکتب بویه ها",
    "Polling_Center_Name": "Boyaha Village",
    "د_مرکز_ځای__موقعیت_مرکز": "بویه ها",
    "Polling_Center_Location": "Boyaha",
    "Map_Accuracy": "Building",
    "Map_Accuracy_Dari": "تعمیر",
    "Status": "Open",
    "Status_Dari": null,
    "PS_Male": 1,
    "PS_Female": 1,
    "PS_Total": 2,
    "ولسوالي": "قادس",
    "Region": "Western Region"
   },
   "geometry": {
    "x": 7063669.5781252533,
    "y": 4126823.7021826608
   }
  },
  {
   "attributes": {
    "OBJECTID": 2716,
    "ولایت": "بادغيس",
    "Province": "BADGHIS",
    "PC_Code": "3104068",
    "District": "QADIS",
    "د_مرکز_نوم__نام_مرکز": "مکتب باب دوستی ",
    "Polling_Center_Name": "Bab-e- Doosti Village ",
    "د_مرکز_ځای__موقعیت_مرکز": "باب دوستی ",
    "Polling_Center_Location": "Bab-e- Doosti ",
    "Map_Accuracy": "Building",
    "Map_Accuracy_Dari": "تعمیر",
    "Status": "Open",
    "Status_Dari": null,
    "PS_Male": 1,
    "PS_Female": 1,
    "PS_Total": 2,
    "ولسوالي": "قادس",
    "Region": "Western Region"
   },
   "geometry": {
    "x": 7046964.6614158489,
    "y": 4158548.8139772383
   }
  },
  {
   "attributes": {
    "OBJECTID": 2717,
    "ولایت": "بادغيس",
    "Province": "BADGHIS",
    "PC_Code": "3104069",
    "District": "QADIS",
    "د_مرکز_نوم__نام_مرکز": "مکتب تاکک",
    "Polling_Center_Name": "Takak School",
    "د_مرکز_ځای__موقعیت_مرکز": "مکتب تاکک",
    "Polling_Center_Location": "Takak School",
    "Map_Accuracy": "Building",
    "Map_Accuracy_Dari": "تعمیر",
    "Status": "Open",
    "Status_Dari": null,
    "PS_Male": 1,
    "PS_Female": 1,
    "PS_Total": 2,
    "ولسوالي": "قادس",
    "Region": "Western Region"
   },
   "geometry": {
    "x": 7070134.4107988849,
    "y": 4139647.0351597196
   }
  },
  {
   "attributes": {
    "OBJECTID": 2718,
    "ولایت": "بادغيس",
    "Province": "BADGHIS",
    "PC_Code": "3104076",
    "District": "QADIS",
    "د_مرکز_نوم__نام_مرکز": "مدرسه گنبد شیخ غیاث الدین",
    "Polling_Center_Name": "Gunbad Shekh Ghiasuddin Madrassa",
    "د_مرکز_ځای__موقعیت_مرکز": "قریه گنبد شیخ غیاث الدین",
    "Polling_Center_Location": "Gunbad shekh Gheyasuddin Village",
    "Map_Accuracy": "District",
    "Map_Accuracy_Dari": "ولسوالی",
    "Status": "Open",
    "Status_Dari": null,
    "PS_Male": 1,
    "PS_Female": 1,
    "PS_Total": 2,
    "ولسوالي": "قادس",
    "Region": "Western Region"
   },
   "geometry": {
    "x": 7093432.5627617724,
    "y": 4143967.5489832126
   }
  },
  {
   "attributes": {
    "OBJECTID": 2719,
    "ولایت": "بادغيس",
    "Province": "BADGHIS",
    "PC_Code": "3104077",
    "District": "QADIS",
    "د_مرکز_نوم__نام_مرکز": "مسجد جامع نایک",
    "Polling_Center_Name": "Nayek Mosque",
    "د_مرکز_ځای__موقعیت_مرکز": "قریه نایک",
    "Polling_Center_Location": "Nayek Village",
    "Map_Accuracy": "Village",
    "Map_Accuracy_Dari": "قریه",
    "Status": "Open",
    "Status_Dari": null,
    "PS_Male": 1,
    "PS_Female": 1,
    "PS_Total": 2,
    "ولسوالي": "قادس",
    "Region": "Western Region"
   },
   "geometry": {
    "x": 7092570.1840249347,
    "y": 4132231.256697841
   }
  },
  {
   "attributes": {
    "OBJECTID": 2720,
    "ولایت": "بادغيس",
    "Province": "BADGHIS",
    "PC_Code": "3104082",
    "District": "QADIS",
    "د_مرکز_نوم__نام_مرکز": "مسجد خیرخانه",
    "Polling_Center_Name": "khair Khana Mosque",
    "د_مرکز_ځای__موقعیت_مرکز": "قریه خیرخانه",
    "Polling_Center_Location": "Khair Khana Village",
    "Map_Accuracy": "Village",
    "Map_Accuracy_Dari": "قریه",
    "Status": "Open",
    "Status_Dari": null,
    "PS_Male": 1,
    "PS_Female": 1,
    "PS_Total": 2,
    "ولسوالي": "قادس",
    "Region": "Western Region"
   },
   "geometry": {
    "x": 7082810.660664944,
    "y": 4159080.5258181295
   }
  },
  {
   "attributes": {
    "OBJECTID": 2721,
    "ولایت": "بادغيس",
    "Province": "BADGHIS",
    "PC_Code": "3106093",
    "District": "JAWAND",
    "د_مرکز_نوم__نام_مرکز": "مسجید میل نو ",
    "Polling_Center_Name": "Meel Naw Mosque",
    "د_مرکز_ځای__موقعیت_مرکز": "میل نو",
    "Polling_Center_Location": "Meel Naw ",
    "Map_Accuracy": "Village",
    "Map_Accuracy_Dari": "قریه",
    "Status": "Open",
    "Status_Dari": null,
    "PS_Male": 2,
    "PS_Female": 1,
    "PS_Total": 3,
    "ولسوالي": "جوند",
    "Region": "Western Region"
   },
   "geometry": {
    "x": 7122187.4815042662,
    "y": 4130191.9210995948
   }
  },
  {
   "attributes": {
    "OBJECTID": 2722,
    "ولایت": "بادغيس",
    "Province": "BADGHIS",
    "PC_Code": "3106094",
    "District": "JAWAND",
    "د_مرکز_نوم__نام_مرکز": "مکتب آب خور ",
    "Polling_Center_Name": "Aab Khor School",
    "د_مرکز_ځای__موقعیت_مرکز": "اب خور ",
    "Polling_Center_Location": "Aab khor ",
    "Map_Accuracy": "Building",
    "Map_Accuracy_Dari": "تعمیر",
    "Status": "Open",
    "Status_Dari": null,
    "PS_Male": 2,
    "PS_Female": 1,
    "PS_Total": 3,
    "ولسوالي": "جوند",
    "Region": "Western Region"
   },
   "geometry": {
    "x": 7132044.023140071,
    "y": 4138708.312822036
   }
  },
  {
   "attributes": {
    "OBJECTID": 2723,
    "ولایت": "بادغيس",
    "Province": "BADGHIS",
    "PC_Code": "3106104",
    "District": "JAWAND",
    "د_مرکز_نوم__نام_مرکز": "مسجد چشمه بید",
    "Polling_Center_Name": "Chushm Bed Mosque",
    "د_مرکز_ځای__موقعیت_مرکز": " چشمه بید",
    "Polling_Center_Location": "Chushmah bid ",
    "Map_Accuracy": "Building",
    "Map_Accuracy_Dari": "تعمیر",
    "Status": "Open",
    "Status_Dari": null,
    "PS_Male": 1,
    "PS_Female": 1,
    "PS_Total": 2,
    "ولسوالي": "جوند",
    "Region": "Western Region"
   },
   "geometry": {
    "x": 7194525.9824167788,
    "y": 4156594.7118162909
   }
  },
  {
   "attributes": {
    "OBJECTID": 2724,
    "ولایت": "بادغيس",
    "Province": "BADGHIS",
    "PC_Code": "3106105",
    "District": "JAWAND",
    "د_مرکز_نوم__نام_مرکز": "مسجد قریه چشمه چهار",
    "Polling_Center_Name": "Chushma Char Village Mosque",
    "د_مرکز_ځای__موقعیت_مرکز": "چشمه چهار",
    "Polling_Center_Location": "Chushmah Char ",
    "Map_Accuracy": "Building",
    "Map_Accuracy_Dari": "تعمیر",
    "Status": "Open",
    "Status_Dari": null,
    "PS_Male": 1,
    "PS_Female": 1,
    "PS_Total": 2,
    "ولسوالي": "جوند",
    "Region": "Western Region"
   },
   "geometry": {
    "x": 7191299.7476512818,
    "y": 4149081.2020706404
   }
  },
  {
   "attributes": {
    "OBJECTID": 2725,
    "ولایت": "بادغيس",
    "Province": "BADGHIS",
    "PC_Code": "3107124",
    "District": "GHORMACH",
    "د_مرکز_نوم__نام_مرکز": "مکتب مرکز",
    "Polling_Center_Name": "Center School",
    "د_مرکز_ځای__موقعیت_مرکز": "غورماچ",
    "Polling_Center_Location": "Ghormach ",
    "Map_Accuracy": "Building",
    "Map_Accuracy_Dari": "تعمیر",
    "Status": "Open",
    "Status_Dari": null,
    "PS_Male": 5,
    "PS_Female": 0,
    "PS_Total": 5,
    "ولسوالي": "غورماچ",
    "Region": "Western Region"
   },
   "geometry": {
    "x": 7099977.0445310669,
    "y": 4264833.6681894874
   }
  },
  {
   "attributes": {
    "OBJECTID": 2726,
    "ولایت": "بادغيس",
    "Province": "BADGHIS",
    "PC_Code": "3107125",
    "District": "GHORMACH",
    "د_مرکز_نوم__نام_مرکز": "قریه آب گرمک",
    "Polling_Center_Name": "Abgarmak Village",
    "د_مرکز_ځای__موقعیت_مرکز": "قریه آب گرمک",
    "Polling_Center_Location": "Abgarmak Village",
    "Map_Accuracy": "Building",
    "Map_Accuracy_Dari": "تعمیر",
    "Status": "Open",
    "Status_Dari": null,
    "PS_Male": 2,
    "PS_Female": 1,
    "PS_Total": 3,
    "ولسوالي": "غورماچ",
    "Region": "Western Region"
   },
   "geometry": {
    "x": 7104931.7258981597,
    "y": 4264550.7612931989
   }
  },
  {
   "attributes": {
    "OBJECTID": 2727,
    "ولایت": "بادغيس",
    "Province": "BADGHIS",
    "PC_Code": "3101008",
    "District": "QALA-E-NOW",
    "د_مرکز_نوم__نام_مرکز": "تعمیر مرکز اجتماعی قریه نجک زاد سرهنگ",
    "Polling_Center_Name": "Social Center Building Najakzad Sarhang Village",
    "د_مرکز_ځای__موقعیت_مرکز": "قریه نچک",
    "Polling_Center_Location": "Nechak Village ",
    "Map_Accuracy": "Building",
    "Map_Accuracy_Dari": "تعمیر",
    "Status": "Open",
    "Status_Dari": null,
    "PS_Male": 4,
    "PS_Female": 1,
    "PS_Total": 5,
    "ولسوالي": "قلعه نو",
    "Region": "Western Region"
   },
   "geometry": {
    "x": 7039844.5977666276,
    "y": 4137224.6019985653
   }
  },
  {
   "attributes": {
    "OBJECTID": 2728,
    "ولایت": "بادغيس",
    "Province": "BADGHIS",
    "PC_Code": "3101009",
    "District": "QALA-E-NOW",
    "د_مرکز_نوم__نام_مرکز": "مکتب باغک",
    "Polling_Center_Name": "Baghak School",
    "د_مرکز_ځای__موقعیت_مرکز": " باغک",
    "Polling_Center_Location": "Baghak ",
    "Map_Accuracy": "Building",
    "Map_Accuracy_Dari": "تعمیر",
    "Status": "Open",
    "Status_Dari": null,
    "PS_Male": 4,
    "PS_Female": 2,
    "PS_Total": 6,
    "ولسوالي": "قلعه نو",
    "Region": "Western Region"
   },
   "geometry": {
    "x": 7028674.2935567489,
    "y": 4157726.1262043971
   }
  },
  {
   "attributes": {
    "OBJECTID": 2729,
    "ولایت": "بادغيس",
    "Province": "BADGHIS",
    "PC_Code": "3102035",
    "District": "AB KAMARI",
    "د_مرکز_نوم__نام_مرکز": "مکتب لیسه هیچکه ",
    "Polling_Center_Name": "Hichkah High School",
    "د_مرکز_ځای__موقعیت_مرکز": "هیچکه ",
    "Polling_Center_Location": "Hichkah",
    "Map_Accuracy": "Village",
    "Map_Accuracy_Dari": "قریه",
    "Status": "Open",
    "Status_Dari": null,
    "PS_Male": 2,
    "PS_Female": 1,
    "PS_Total": 3,
    "ولسوالي": "آبکمری",
    "Region": "Western Region"
   },
   "geometry": {
    "x": 7019712.5435539195,
    "y": 4184421.5326761487
   }
  },
  {
   "attributes": {
    "OBJECTID": 2730,
    "ولایت": "بادغيس",
    "Province": "BADGHIS",
    "PC_Code": "3102045",
    "District": "AB KAMARI",
    "د_مرکز_نوم__نام_مرکز": "مسجد  جامع سینه اردو",
    "Polling_Center_Name": "Sina Urdo Mosque",
    "د_مرکز_ځای__موقعیت_مرکز": "بازار سینه اردو",
    "Polling_Center_Location": "Seena Urdo Bazar",
    "Map_Accuracy": "Building",
    "Map_Accuracy_Dari": "تعمیر",
    "Status": "Open",
    "Status_Dari": null,
    "PS_Male": 2,
    "PS_Female": 1,
    "PS_Total": 3,
    "ولسوالي": "آبکمری",
    "Region": "Western Region"
   },
   "geometry": {
    "x": 6993061.5364707354,
    "y": 4123948.1357782991
   }
  },
  {
   "attributes": {
    "OBJECTID": 2731,
    "ولایت": "بادغيس",
    "Province": "BADGHIS",
    "PC_Code": "3102046",
    "District": "AB KAMARI",
    "د_مرکز_نوم__نام_مرکز": "مکتب پده لاغری",
    "Polling_Center_Name": "Padeh laghari School",
    "د_مرکز_ځای__موقعیت_مرکز": " پده لاغری",
    "Polling_Center_Location": "Padeh laghari ",
    "Map_Accuracy": "Building",
    "Map_Accuracy_Dari": "تعمیر",
    "Status": "Open",
    "Status_Dari": null,
    "PS_Male": 2,
    "PS_Female": 1,
    "PS_Total": 3,
    "ولسوالي": "آبکمری",
    "Region": "Western Region"
   },
   "geometry": {
    "x": 7002537.1172055546,
    "y": 4149239.4094683379
   }
  },
  {
   "attributes": {
    "OBJECTID": 2732,
    "ولایت": "بادغيس",
    "Province": "BADGHIS",
    "PC_Code": "3102175",
    "District": "AB KAMARI",
    "د_مرکز_نوم__نام_مرکز": "مکتب تحت دره کوکچایل",
    "Polling_Center_Name": "Takh-e-Dara Kockchail School",
    "د_مرکز_ځای__موقعیت_مرکز": "دره کوک چایل",
    "Polling_Center_Location": "Kockchail Dara",
    "Map_Accuracy": "Building",
    "Map_Accuracy_Dari": "تعمیر",
    "Status": "Open",
    "Status_Dari": null,
    "PS_Male": 2,
    "PS_Female": 1,
    "PS_Total": 3,
    "ولسوالي": "آبکمری",
    "Region": "Western Region"
   },
   "geometry": {
    "x": 6996652.7833937602,
    "y": 4146486.2815881986
   }
  },
  {
   "attributes": {
    "OBJECTID": 2733,
    "ولایت": "بادغيس",
    "Province": "BADGHIS",
    "PC_Code": "3102176",
    "District": "AB KAMARI",
    "د_مرکز_نوم__نام_مرکز": "مکتب قریه سیر زارک",
    "Polling_Center_Name": "Serzarak Village School",
    "د_مرکز_ځای__موقعیت_مرکز": "قریه سیر زارک",
    "Polling_Center_Location": "Sir Zarak Village ",
    "Map_Accuracy": "Building",
    "Map_Accuracy_Dari": "تعمیر",
    "Status": "Open",
    "Status_Dari": null,
    "PS_Male": 1,
    "PS_Female": 1,
    "PS_Total": 2,
    "ولسوالي": "آبکمری",
    "Region": "Western Region"
   },
   "geometry": {
    "x": 7009997.7505917177,
    "y": 4134216.5467764288
   }
  },
  {
   "attributes": {
    "OBJECTID": 2734,
    "ولایت": "بادغيس",
    "Province": "BADGHIS",
    "PC_Code": "3103020",
    "District": "MUQUR",
    "د_مرکز_نوم__نام_مرکز": "تعمیر ولسوالی و کلینیک رباط",
    "Polling_Center_Name": "District Building and Rubat Clinic",
    "د_مرکز_ځای__موقعیت_مرکز": "رباط ",
    "Polling_Center_Location": "Rubat",
    "Map_Accuracy": "Building",
    "Map_Accuracy_Dari": "تعمیر",
    "Status": "Open",
    "Status_Dari": null,
    "PS_Male": 3,
    "PS_Female": 1,
    "PS_Total": 4,
    "ولسوالي": "مقر",
    "Region": "Western Region"
   },
   "geometry": {
    "x": 7043195.5560027966,
    "y": 4174675.1916610952
   }
  },
  {
   "attributes": {
    "OBJECTID": 2735,
    "ولایت": "بادغيس",
    "Province": "BADGHIS",
    "PC_Code": "3106091",
    "District": "JAWAND",
    "د_مرکز_نوم__نام_مرکز": "مسجد قریه ریگی",
    "Polling_Center_Name": "Rigee Village Mosque",
    "د_مرکز_ځای__موقعیت_مرکز": "ریگی",
    "Polling_Center_Location": "Rigee",
    "Map_Accuracy": "Village",
    "Map_Accuracy_Dari": "قریه",
    "Status": "Open",
    "Status_Dari": null,
    "PS_Male": 2,
    "PS_Female": 1,
    "PS_Total": 3,
    "ولسوالي": "جوند",
    "Region": "Western Region"
   },
   "geometry": {
    "x": 7102025.3120297166,
    "y": 4143315.6724978411
   }
  },
  {
   "attributes": {
    "OBJECTID": 2736,
    "ولایت": "بادغيس",
    "Province": "BADGHIS",
    "PC_Code": "3106101",
    "District": "JAWAND",
    "د_مرکز_نوم__نام_مرکز": "مسجد فریه کازک",
    "Polling_Center_Name": "Kazak Village Mosque",
    "د_مرکز_ځای__موقعیت_مرکز": " کازک",
    "Polling_Center_Location": "Kazak ",
    "Map_Accuracy": "Village",
    "Map_Accuracy_Dari": "قریه",
    "Status": "Open",
    "Status_Dari": null,
    "PS_Male": 1,
    "PS_Female": 1,
    "PS_Total": 2,
    "ولسوالي": "جوند",
    "Region": "Western Region"
   },
   "geometry": {
    "x": 7162545.7395022241,
    "y": 4175157.0517881117
   }
  },
  {
   "attributes": {
    "OBJECTID": 2737,
    "ولایت": "بادغيس",
    "Province": "BADGHIS",
    "PC_Code": "3106199",
    "District": "JAWAND",
    "د_مرکز_نوم__نام_مرکز": "مسجد پای چنگ",
    "Polling_Center_Name": "Pai chang Mosque",
    "د_مرکز_ځای__موقعیت_مرکز": "پای چنگ",
    "Polling_Center_Location": "Pai chang",
    "Map_Accuracy": "Building",
    "Map_Accuracy_Dari": "تعمیر",
    "Status": "Open",
    "Status_Dari": null,
    "PS_Male": 2,
    "PS_Female": 1,
    "PS_Total": 3,
    "ولسوالي": "جوند",
    "Region": "Western Region"
   },
   "geometry": {
    "x": 7167982.2480269372,
    "y": 4134078.1115626958
   }
  },
  {
   "attributes": {
    "OBJECTID": 2738,
    "ولایت": "بادغيس",
    "Province": "BADGHIS",
    "PC_Code": "3106200",
    "District": "JAWAND",
    "د_مرکز_نوم__نام_مرکز": "مسجد حضرت ملا",
    "Polling_Center_Name": "Hazrat mullah Mosque",
    "د_مرکز_ځای__موقعیت_مرکز": "حضرت ملا",
    "Polling_Center_Location": "Hazrat mulah",
    "Map_Accuracy": "Building",
    "Map_Accuracy_Dari": "تعمیر",
    "Status": "Open",
    "Status_Dari": null,
    "PS_Male": 2,
    "PS_Female": 1,
    "PS_Total": 3,
    "ولسوالي": "جوند",
    "Region": "Western Region"
   },
   "geometry": {
    "x": 7164811.6144527914,
    "y": 4146468.6566667464
   }
  },
  {
   "attributes": {
    "OBJECTID": 2739,
    "ولایت": "بادغيس",
    "Province": "BADGHIS",
    "PC_Code": "3104193",
    "District": "QADIS",
    "د_مرکز_نوم__نام_مرکز": "مکتب شورک",
    "Polling_Center_Name": "Shorak Mosque",
    "د_مرکز_ځای__موقعیت_مرکز": "شورک",
    "Polling_Center_Location": "Shorak",
    "Map_Accuracy": "Building",
    "Map_Accuracy_Dari": "تعمیر",
    "Status": "Open",
    "Status_Dari": null,
    "PS_Male": 2,
    "PS_Female": 1,
    "PS_Total": 3,
    "ولسوالي": "قادیس",
    "Region": "Western Region"
   },
   "geometry": {
    "x": 7109058.7281495277,
    "y": 4124892.1296774321
   }
  },
  {
   "attributes": {
    "OBJECTID": 2740,
    "ولایت": "بادغيس",
    "Province": "BADGHIS",
    "PC_Code": "3105194",
    "District": "BALA MURGHAB",
    "د_مرکز_نوم__نام_مرکز": "قریه کپه بابا",
    "Polling_Center_Name": "Kapa baba Village",
    "د_مرکز_ځای__موقعیت_مرکز": "کپه بابا",
    "Polling_Center_Location": "Kapa baba",
    "Map_Accuracy": "Village",
    "Map_Accuracy_Dari": "قریه",
    "Status": "Open",
    "Status_Dari": null,
    "PS_Male": 2,
    "PS_Female": 1,
    "PS_Total": 3,
    "ولسوالي": "بالا مرغاب",
    "Region": "Western Region"
   },
   "geometry": {
    "x": 7052664.9438117109,
    "y": 4239358.273581651
   }
  },
  {
   "attributes": {
    "OBJECTID": 2741,
    "ولایت": "هرات",
    "Province": "HERAT",
    "PC_Code": "3201005",
    "District": "HERAT",
    "د_مرکز_نوم__نام_مرکز": "لیسه جامی",
    "Polling_Center_Name": "Jami High School",
    "د_مرکز_ځای__موقعیت_مرکز": "ناحیه سوم",
    "Polling_Center_Location": "D03 - Nahia 3",
    "Map_Accuracy": "Building",
    "Map_Accuracy_Dari": "تعمیر",
    "Status": "Open",
    "Status_Dari": null,
    "PS_Male": 4,
    "PS_Female": 5,
    "PS_Total": 9,
    "ولسوالي": "هرات",
    "Region": "Western Region"
   },
   "geometry": {
    "x": 6924085.1391018173,
    "y": 4075112.8503125049
   }
  },
  {
   "attributes": {
    "OBJECTID": 2742,
    "ولایت": "هرات",
    "Province": "HERAT",
    "PC_Code": "3201006",
    "District": "HERAT",
    "د_مرکز_نوم__نام_مرکز": "لیسه خواجه محمد تاکی",
    "Polling_Center_Name": "Khwaja Mohammad Taki High School",
    "د_مرکز_ځای__موقعیت_مرکز": " ناحیه سوم",
    "Polling_Center_Location": "D03 - Nahia 3",
    "Map_Accuracy": "Building",
    "Map_Accuracy_Dari": "تعمیر",
    "Status": "Open",
    "Status_Dari": null,
    "PS_Male": 5,
    "PS_Female": 6,
    "PS_Total": 11,
    "ولسوالي": "هرات",
    "Region": "Western Region"
   },
   "geometry": {
    "x": 6924041.0855265316,
    "y": 4074547.8710600208
   }
  },
  {
   "attributes": {
    "OBJECTID": 2743,
    "ولایت": "هرات",
    "Province": "HERAT",
    "PC_Code": "3201008",
    "District": "HERAT",
    "د_مرکز_نوم__نام_مرکز": "لیسه ذکور بالیا ن",
    "Polling_Center_Name": "Balian Boys School",
    "د_مرکز_ځای__موقعیت_مرکز": " ناحیه چهارم",
    "Polling_Center_Location": "D04 - Nahia 4",
    "Map_Accuracy": "Building",
    "Map_Accuracy_Dari": "تعمیر",
    "Status": "Open",
    "Status_Dari": null,
    "PS_Male": 3,
    "PS_Female": 4,
    "PS_Total": 7,
    "ولسوالي": "هرات",
    "Region": "Western Region"
   },
   "geometry": {
    "x": 6925200.6873037843,
    "y": 4074921.0967277274
   }
  },
  {
   "attributes": {
    "OBJECTID": 2744,
    "ولایت": "هرات",
    "Province": "HERAT",
    "PC_Code": "3201009",
    "District": "HERAT",
    "د_مرکز_نوم__نام_مرکز": "مهدیه غور درواز",
    "Polling_Center_Name": "Mehdeiah Ghur -e- Darwaz",
    "د_مرکز_ځای__موقعیت_مرکز": " ناحیه پنجم",
    "Polling_Center_Location": "D05 - Nahia 5",
    "Map_Accuracy": "Village",
    "Map_Accuracy_Dari": "قریه",
    "Status": "Open",
    "Status_Dari": null,
    "PS_Male": 4,
    "PS_Female": 5,
    "PS_Total": 9,
    "ولسوالي": "هرات",
    "Region": "Western Region"
   },
   "geometry": {
    "x": 6923637.0035673175,
    "y": 4077247.5093017449
   }
  },
  {
   "attributes": {
    "OBJECTID": 2745,
    "ولایت": "هرات",
    "Province": "HERAT",
    "PC_Code": "3201011",
    "District": "HERAT",
    "د_مرکز_نوم__نام_مرکز": "لیسه تجربوی",
    "Polling_Center_Name": "Experimental School",
    "د_مرکز_ځای__موقعیت_مرکز": " ناحیه پنجم",
    "Polling_Center_Location": "D05 - Nahia 5",
    "Map_Accuracy": "Building",
    "Map_Accuracy_Dari": "تعمیر",
    "Status": "Open",
    "Status_Dari": null,
    "PS_Male": 5,
    "PS_Female": 6,
    "PS_Total": 11,
    "ولسوالي": "هرات",
    "Region": "Western Region"
   },
   "geometry": {
    "x": 6924735.2015134497,
    "y": 4077193.1150825382
   }
  },
  {
   "attributes": {
    "OBJECTID": 2746,
    "ولایت": "هرات",
    "Province": "HERAT",
    "PC_Code": "3201012",
    "District": "HERAT",
    "د_مرکز_نوم__نام_مرکز": "لیسه میرمن حیاتی (باغدشت)",
    "Polling_Center_Name": "Merman Hayati Bagh- e- Dasht High School",
    "د_مرکز_ځای__موقعیت_مرکز": " ناحیه پنجم",
    "Polling_Center_Location": "D05 - Nahia 5",
    "Map_Accuracy": "Building",
    "Map_Accuracy_Dari": "تعمیر",
    "Status": "Open",
    "Status_Dari": null,
    "PS_Male": 4,
    "PS_Female": 4,
    "PS_Total": 8,
    "ولسوالي": "هرات",
    "Region": "Western Region"
   },
   "geometry": {
    "x": 6923817.6483841958,
    "y": 4077290.932358318
   }
  },
  {
   "attributes": {
    "OBJECTID": 2747,
    "ولایت": "هرات",
    "Province": "HERAT",
    "PC_Code": "3201021",
    "District": "HERAT",
    "د_مرکز_نوم__نام_مرکز": "مسجد اختیارالدین",
    "Polling_Center_Name": "Ekhtiarudden Mosque",
    "د_مرکز_ځای__موقعیت_مرکز": " ناحیه هفتم",
    "Polling_Center_Location": "D07 - Nahia 7",
    "Map_Accuracy": "Building",
    "Map_Accuracy_Dari": "تعمیر",
    "Status": "Open",
    "Status_Dari": null,
    "PS_Male": 7,
    "PS_Female": 0,
    "PS_Total": 7,
    "ولسوالي": "هرات",
    "Region": "Western Region"
   },
   "geometry": {
    "x": 6922891.2475818116,
    "y": 4075098.0061666672
   }
  },
  {
   "attributes": {
    "OBJECTID": 2748,
    "ولایت": "هرات",
    "Province": "HERAT",
    "PC_Code": "3201022",
    "District": "HERAT",
    "د_مرکز_نوم__نام_مرکز": "مکتب امیر علی شیرنوایی",
    "Polling_Center_Name": "Amir Ali Shir Nawayee School",
    "د_مرکز_ځای__موقعیت_مرکز": "ناحیه هشتم",
    "Polling_Center_Location": "D09 - Nahia 9",
    "Map_Accuracy": "Building",
    "Map_Accuracy_Dari": "تعمیر",
    "Status": "Open",
    "Status_Dari": null,
    "PS_Male": 5,
    "PS_Female": 5,
    "PS_Total": 10,
    "ولسوالي": "هرات",
    "Region": "Western Region"
   },
   "geometry": {
    "x": 6925983.8945055734,
    "y": 4077189.0332005019
   }
  },
  {
   "attributes": {
    "OBJECTID": 2749,
    "ولایت": "هرات",
    "Province": "HERAT",
    "PC_Code": "3201026",
    "District": "HERAT",
    "د_مرکز_نوم__نام_مرکز": "مکتب صلاح الدین سلجوقی",
    "Polling_Center_Name": "Salahuddin Saljoqi School",
    "د_مرکز_ځای__موقعیت_مرکز": "ناحیه نهم",
    "Polling_Center_Location": "D09 - Nahia 9",
    "Map_Accuracy": "Village",
    "Map_Accuracy_Dari": "قریه",
    "Status": "Open",
    "Status_Dari": null,
    "PS_Male": 3,
    "PS_Female": 4,
    "PS_Total": 7,
    "ولسوالي": "هرات",
    "Region": "Western Region"
   },
   "geometry": {
    "x": 6920553.2321465546,
    "y": 4080502.1496463618
   }
  },
  {
   "attributes": {
    "OBJECTID": 2750,
    "ولایت": "هرات",
    "Province": "HERAT",
    "PC_Code": "3201027",
    "District": "HERAT",
    "د_مرکز_نوم__نام_مرکز": "مکتب عبدالعلی شاه توخی",
    "Polling_Center_Name": "Abdul Ali Shah Tokhi School",
    "د_مرکز_ځای__موقعیت_مرکز": "ناحیه دوازدهم",
    "Polling_Center_Location": "D12 - Nahia 12",
    "Map_Accuracy": "Building",
    "Map_Accuracy_Dari": "تعمیر",
    "Status": "Open",
    "Status_Dari": null,
    "PS_Male": 6,
    "PS_Female": 5,
    "PS_Total": 11,
    "ولسوالي": "هرات",
    "Region": "Western Region"
   },
   "geometry": {
    "x": 6922327.2284573978,
    "y": 4077864.8562565655
   }
  },
  {
   "attributes": {
    "OBJECTID": 2751,
    "ولایت": "هرات",
    "Province": "HERAT",
    "PC_Code": "3201029",
    "District": "HERAT",
    "د_مرکز_نوم__نام_مرکز": "متوسطه هریوا",
    "Polling_Center_Name": "Hareewa Secondary school",
    "د_مرکز_ځای__موقعیت_مرکز": "ناحیه دهم",
    "Polling_Center_Location": "D10 - Nahia 10",
    "Map_Accuracy": "Building",
    "Map_Accuracy_Dari": "تعمیر",
    "Status": "Open",
    "Status_Dari": null,
    "PS_Male": 3,
    "PS_Female": 4,
    "PS_Total": 7,
    "ولسوالي": "هرات",
    "Region": "Western Region"
   },
   "geometry": {
    "x": 6922977.1940210732,
    "y": 4073898.5274255062
   }
  },
  {
   "attributes": {
    "OBJECTID": 2752,
    "ولایت": "هرات",
    "Province": "HERAT",
    "PC_Code": "3201030",
    "District": "HERAT",
    "د_مرکز_نوم__نام_مرکز": "مسجد حضرت بلال",
    "Polling_Center_Name": "Hazrat -e- Belal Mosque",
    "د_مرکز_ځای__موقعیت_مرکز": " ناحیه دهم",
    "Polling_Center_Location": "D10 - Nahia 10",
    "Map_Accuracy": "Building",
    "Map_Accuracy_Dari": "تعمیر",
    "Status": "Open",
    "Status_Dari": null,
    "PS_Male": 4,
    "PS_Female": 5,
    "PS_Total": 9,
    "ولسوالي": "هرات",
    "Region": "Western Region"
   },
   "geometry": {
    "x": 6921424.2002953021,
    "y": 4073623.2787762228
   }
  },
  {
   "attributes": {
    "OBJECTID": 2753,
    "ولایت": "هرات",
    "Province": "HERAT",
    "PC_Code": "3201430",
    "District": "HERAT",
    "د_مرکز_نوم__نام_مرکز": "ریاست عودت مهاجرین",
    "Polling_Center_Name": "Imigration Department ",
    "د_مرکز_ځای__موقعیت_مرکز": "ناحیه دوازدهم",
    "Polling_Center_Location": "D12 - Nahia 12",
    "Map_Accuracy": "Building",
    "Map_Accuracy_Dari": "تعمیر",
    "Status": "Open",
    "Status_Dari": null,
    "PS_Male": 5,
    "PS_Female": 4,
    "PS_Total": 9,
    "ولسوالي": "هرات",
    "Region": "Western Region"
   },
   "geometry": {
    "x": 6918589.1623692838,
    "y": 4079799.0235951138
   }
  },
  {
   "attributes": {
    "OBJECTID": 2754,
    "ولایت": "هرات",
    "Province": "HERAT",
    "PC_Code": "3202033",
    "District": "ENJIL",
    "د_مرکز_نوم__نام_مرکز": "مسجد پایانده",
    "Polling_Center_Name": "Paienda Mosque ",
    "د_مرکز_ځای__موقعیت_مرکز": " جغاره دوم",
    "Polling_Center_Location": "Second Cheghra",
    "Map_Accuracy": "Building",
    "Map_Accuracy_Dari": "تعمیر",
    "Status": "Open",
    "Status_Dari": null,
    "PS_Male": 0,
    "PS_Female": 4,
    "PS_Total": 4,
    "ولسوالي": "انجیل",
    "Region": "Western Region"
   },
   "geometry": {
    "x": 6925034.2123448877,
    "y": 4068732.6381280529
   }
  },
  {
   "attributes": {
    "OBJECTID": 2755,
    "ولایت": "هرات",
    "Province": "HERAT",
    "PC_Code": "3202034",
    "District": "ENJIL",
    "د_مرکز_نوم__نام_مرکز": "لیسه قفسلان\r\n",
    "Polling_Center_Name": "Qafaslan Mosque",
    "د_مرکز_ځای__موقعیت_مرکز": "قفسلان",
    "Polling_Center_Location": "Qafaslan",
    "Map_Accuracy": "Building",
    "Map_Accuracy_Dari": "تعمیر",
    "Status": "Open",
    "Status_Dari": null,
    "PS_Male": 4,
    "PS_Female": 3,
    "PS_Total": 7,
    "ولسوالي": "انجیل",
    "Region": "Western Region"
   },
   "geometry": {
    "x": 6923088.4497257983,
    "y": 4070948.9287206829
   }
  },
  {
   "attributes": {
    "OBJECTID": 2756,
    "ولایت": "هرات",
    "Province": "HERAT",
    "PC_Code": "3202067",
    "District": "ENJIL",
    "د_مرکز_نوم__نام_مرکز": "لیسه شهید دشتی",
    "Polling_Center_Name": "Shaheed-e-Dashti High School",
    "د_مرکز_ځای__موقعیت_مرکز": "قریه زمان آباد ",
    "Polling_Center_Location": "Zaman Abad Village ",
    "Map_Accuracy": "Building",
    "Map_Accuracy_Dari": "تعمیر",
    "Status": "Open",
    "Status_Dari": null,
    "PS_Male": 1,
    "PS_Female": 1,
    "PS_Total": 2,
    "ولسوالي": "انجیل",
    "Region": "Western Region"
   },
   "geometry": {
    "x": 6929028.8098580744,
    "y": 4073325.1135550486
   }
  },
  {
   "attributes": {
    "OBJECTID": 2757,
    "ولایت": "هرات",
    "Province": "HERAT",
    "PC_Code": "3202068",
    "District": "ENJIL",
    "د_مرکز_نوم__نام_مرکز": "مکتب متوسطه تاوه بریان",
    "Polling_Center_Name": "Tawah Beryan School",
    "د_مرکز_ځای__موقعیت_مرکز": "قریه  تاوه بریان",
    "Polling_Center_Location": "Tawah Beryan Village ",
    "Map_Accuracy": "Building",
    "Map_Accuracy_Dari": "تعمیر",
    "Status": "Open",
    "Status_Dari": null,
    "PS_Male": 2,
    "PS_Female": 1,
    "PS_Total": 3,
    "ولسوالي": "انجیل",
    "Region": "Western Region"
   },
   "geometry": {
    "x": 6937980.2372045228,
    "y": 4073063.817159743
   }
  },
  {
   "attributes": {
    "OBJECTID": 2758,
    "ولایت": "هرات",
    "Province": "HERAT",
    "PC_Code": "3202072",
    "District": "ENJIL",
    "د_مرکز_نوم__نام_مرکز": "دفتر مهاجرین",
    "Polling_Center_Name": "Immigrants Office",
    "د_مرکز_ځای__موقعیت_مرکز": "مسلخ اول",
    "Polling_Center_Location": "Maslakh Awal",
    "Map_Accuracy": "Building",
    "Map_Accuracy_Dari": "تعمیر",
    "Status": "Open",
    "Status_Dari": null,
    "PS_Male": 1,
    "PS_Female": 1,
    "PS_Total": 2,
    "ولسوالي": "انجیل",
    "Region": "Western Region"
   },
   "geometry": {
    "x": 6907801.771492932,
    "y": 4085577.5654444858
   }
  },
  {
   "attributes": {
    "OBJECTID": 2759,
    "ولایت": "هرات",
    "Province": "HERAT",
    "PC_Code": "3202073",
    "District": "ENJIL",
    "د_مرکز_نوم__نام_مرکز": "لیسه اسحق سلیمان ",
    "Polling_Center_Name": "Eshaq Suliman High School",
    "د_مرکز_ځای__موقعیت_مرکز": "قریه اسحق سلیمان ",
    "Polling_Center_Location": "Eshaq Suliman Village ",
    "Map_Accuracy": "Building",
    "Map_Accuracy_Dari": "تعمیر",
    "Status": "Open",
    "Status_Dari": null,
    "PS_Male": 2,
    "PS_Female": 3,
    "PS_Total": 5,
    "ولسوالي": "انجیل",
    "Region": "Western Region"
   },
   "geometry": {
    "x": 6916210.6565843215,
    "y": 4082921.6672595819
   }
  },
  {
   "attributes": {
    "OBJECTID": 2760,
    "ولایت": "هرات",
    "Province": "HERAT",
    "PC_Code": "3202077",
    "District": "ENJIL",
    "د_مرکز_نوم__نام_مرکز": "مکتب متوسطه خواجه عبیدالله احرار",
    "Polling_Center_Name": "Khwaja Abdullah Ahrar Secondary School ",
    "د_مرکز_ځای__موقعیت_مرکز": "بزدانك حسن خان",
    "Polling_Center_Location": "Bazdank Hasan khan",
    "Map_Accuracy": "Village",
    "Map_Accuracy_Dari": "قریه",
    "Status": "Open",
    "Status_Dari": null,
    "PS_Male": 1,
    "PS_Female": 1,
    "PS_Total": 2,
    "ولسوالي": "انجیل",
    "Region": "Western Region"
   },
   "geometry": {
    "x": 6921047.3637814568,
    "y": 4070168.3737578653
   }
  },
  {
   "attributes": {
    "OBJECTID": 2761,
    "ولایت": "هرات",
    "Province": "HERAT",
    "PC_Code": "3202434",
    "District": "ENJIL",
    "د_مرکز_نوم__نام_مرکز": "مسجد رباط سروستان",
    "Polling_Center_Name": "Rubat-e-Srosetan Mosque",
    "د_مرکز_ځای__موقعیت_مرکز": "قریه رباط سروستان",
    "Polling_Center_Location": "Rubat-e-Srosetan Village",
    "Map_Accuracy": "Building",
    "Map_Accuracy_Dari": "تعمیر",
    "Status": "Open",
    "Status_Dari": null,
    "PS_Male": 2,
    "PS_Female": 1,
    "PS_Total": 3,
    "ولسوالي": "انجیل",
    "Region": "Western Region"
   },
   "geometry": {
    "x": 6915394.8539224323,
    "y": 4069803.2961995825
   }
  },
  {
   "attributes": {
    "OBJECTID": 2762,
    "ولایت": "هرات",
    "Province": "HERAT",
    "PC_Code": "3202435",
    "District": "ENJIL",
    "د_مرکز_نوم__نام_مرکز": "مکتب لیسه باباجی",
    "Polling_Center_Name": "Babaji High School",
    "د_مرکز_ځای__موقعیت_مرکز": "محله باباجی ناحیه دوازدهم شهر هرات",
    "Polling_Center_Location": "Muhala Babaji 12th Nahia Heart City",
    "Map_Accuracy": "Building",
    "Map_Accuracy_Dari": "تعمیر",
    "Status": "Open",
    "Status_Dari": null,
    "PS_Male": 3,
    "PS_Female": 1,
    "PS_Total": 4,
    "ولسوالي": "انجیل",
    "Region": "Western Region"
   },
   "geometry": {
    "x": 6921170.3784979507,
    "y": 4079704.4923770451
   }
  },
  {
   "attributes": {
    "OBJECTID": 2763,
    "ولایت": "هرات",
    "Province": "HERAT",
    "PC_Code": "3203088",
    "District": "GUZARA",
    "د_مرکز_نوم__نام_مرکز": "مسجد جامع کورت سفلی",
    "Polling_Center_Name": "Kort-e-Sufla Mosque",
    "د_مرکز_ځای__موقعیت_مرکز": " قریه کورت سفلی",
    "Polling_Center_Location": "Kort Sufla Village ",
    "Map_Accuracy": "Village",
    "Map_Accuracy_Dari": "قریه",
    "Status": "Open",
    "Status_Dari": null,
    "PS_Male": 3,
    "PS_Female": 1,
    "PS_Total": 4,
    "ولسوالي": "گذره",
    "Region": "Western Region"
   },
   "geometry": {
    "x": 6937031.7116533453,
    "y": 4059936.9755472331
   }
  },
  {
   "attributes": {
    "OBJECTID": 2764,
    "ولایت": "هرات",
    "Province": "HERAT",
    "PC_Code": "3203089",
    "District": "GUZARA",
    "د_مرکز_نوم__نام_مرکز": "مسجد جامع چهارکبوترخان",
    "Polling_Center_Name": "Char Kabotar Khan Mosque ",
    "د_مرکز_ځای__موقعیت_مرکز": "قریه چهار کبوترخان",
    "Polling_Center_Location": "Char Kabotar Khan Village",
    "Map_Accuracy": "Village",
    "Map_Accuracy_Dari": "قریه",
    "Status": "Open",
    "Status_Dari": null,
    "PS_Male": 1,
    "PS_Female": 1,
    "PS_Total": 2,
    "ولسوالي": "گذره",
    "Region": "Western Region"
   },
   "geometry": {
    "x": 6933859.2564470479,
    "y": 4061221.604446861
   }
  },
  {
   "attributes": {
    "OBJECTID": 2765,
    "ولایت": "هرات",
    "Province": "HERAT",
    "PC_Code": "3203099",
    "District": "GUZARA",
    "د_مرکز_نوم__نام_مرکز": "لیسه کوفان ",
    "Polling_Center_Name": "Kofan High School ",
    "د_مرکز_ځای__موقعیت_مرکز": "قریه کوفان ",
    "Polling_Center_Location": "kofan Village ",
    "Map_Accuracy": "Building",
    "Map_Accuracy_Dari": "تعمیر",
    "Status": "Open",
    "Status_Dari": null,
    "PS_Male": 1,
    "PS_Female": 1,
    "PS_Total": 2,
    "ولسوالي": "گذره",
    "Region": "Western Region"
   },
   "geometry": {
    "x": 6913589.9775848417,
    "y": 4057581.5586068202
   }
  },
  {
   "attributes": {
    "OBJECTID": 2766,
    "ولایت": "هرات",
    "Province": "HERAT",
    "PC_Code": "3203100",
    "District": "GUZARA",
    "د_مرکز_نوم__نام_مرکز": "مکتب متوسطه زنگان",
    "Polling_Center_Name": "Zangan Secondary School ",
    "د_مرکز_ځای__موقعیت_مرکز": "قریه زنگان ",
    "Polling_Center_Location": "Zangan Village",
    "Map_Accuracy": "Building",
    "Map_Accuracy_Dari": "تعمیر",
    "Status": "Open",
    "Status_Dari": null,
    "PS_Male": 1,
    "PS_Female": 1,
    "PS_Total": 2,
    "ولسوالي": "گذره",
    "Region": "Western Region"
   },
   "geometry": {
    "x": 6912735.6583791394,
    "y": 4062274.8844006299
   }
  },
  {
   "attributes": {
    "OBJECTID": 2767,
    "ولایت": "هرات",
    "Province": "HERAT",
    "PC_Code": "3204148",
    "District": "KARRUKH",
    "د_مرکز_نوم__نام_مرکز": "لیسه مرکز کرخ",
    "Polling_Center_Name": "Karrokh Primary School",
    "د_مرکز_ځای__موقعیت_مرکز": "مرکز کرخ ",
    "Polling_Center_Location": "Karrukh Center ",
    "Map_Accuracy": "Building",
    "Map_Accuracy_Dari": "تعمیر",
    "Status": "Open",
    "Status_Dari": null,
    "PS_Male": 5,
    "PS_Female": 2,
    "PS_Total": 7,
    "ولسوالي": "کرخ ",
    "Region": "Western Region"
   },
   "geometry": {
    "x": 6966604.8342191456,
    "y": 4095097.7069814559
   }
  },
  {
   "attributes": {
    "OBJECTID": 2768,
    "ولایت": "هرات",
    "Province": "HERAT",
    "PC_Code": "3204149",
    "District": "KARRUKH",
    "د_مرکز_نوم__نام_مرکز": "مسجد سبز پوش ",
    "Polling_Center_Name": "Sabz Posh Mosque ",
    "د_مرکز_ځای__موقعیت_مرکز": "پایان محله کرخ ",
    "Polling_Center_Location": "Paeen Muhala Karrukh  ",
    "Map_Accuracy": "Building",
    "Map_Accuracy_Dari": "تعمیر",
    "Status": "Open",
    "Status_Dari": null,
    "PS_Male": 3,
    "PS_Female": 1,
    "PS_Total": 4,
    "ولسوالي": "کرخ ",
    "Region": "Western Region"
   },
   "geometry": {
    "x": 6967145.7467568638,
    "y": 4092992.3075107071
   }
  },
  {
   "attributes": {
    "OBJECTID": 2769,
    "ولایت": "هرات",
    "Province": "HERAT",
    "PC_Code": "3204151",
    "District": "KARRUKH",
    "د_مرکز_نوم__نام_مرکز": "مکتب دهن غار ",
    "Polling_Center_Name": "Dahan Ghar School ",
    "د_مرکز_ځای__موقعیت_مرکز": "دهن غار ",
    "Polling_Center_Location": "Dahan Ghar ",
    "Map_Accuracy": "Building",
    "Map_Accuracy_Dari": "تعمیر",
    "Status": "Open",
    "Status_Dari": null,
    "PS_Male": 2,
    "PS_Female": 1,
    "PS_Total": 3,
    "ولسوالي": "کرخ ",
    "Region": "Western Region"
   },
   "geometry": {
    "x": 6963345.0143632824,
    "y": 4090348.6913482044
   }
  },
  {
   "attributes": {
    "OBJECTID": 2770,
    "ولایت": "هرات",
    "Province": "HERAT",
    "PC_Code": "3204152",
    "District": "KARRUKH",
    "د_مرکز_نوم__نام_مرکز": "مکتب مجقندک ",
    "Polling_Center_Name": "Mujqandak School ",
    "د_مرکز_ځای__موقعیت_مرکز": "قریه مجقندک ",
    "Polling_Center_Location": "Mujqandak Village",
    "Map_Accuracy": "Building",
    "Map_Accuracy_Dari": "تعمیر",
    "Status": "Open",
    "Status_Dari": null,
    "PS_Male": 2,
    "PS_Female": 1,
    "PS_Total": 3,
    "ولسوالي": "کرخ ",
    "Region": "Western Region"
   },
   "geometry": {
    "x": 6955993.4707385134,
    "y": 4089900.5573699032
   }
  },
  {
   "attributes": {
    "OBJECTID": 2771,
    "ولایت": "هرات",
    "Province": "HERAT",
    "PC_Code": "3204155",
    "District": "KARRUKH",
    "د_مرکز_نوم__نام_مرکز": "مکتب فالیزکار",
    "Polling_Center_Name": "Faliz Kar School",
    "د_مرکز_ځای__موقعیت_مرکز": "قریه نهستان ",
    "Polling_Center_Location": "Nahistan Village ",
    "Map_Accuracy": "Building",
    "Map_Accuracy_Dari": "تعمیر",
    "Status": "Open",
    "Status_Dari": null,
    "PS_Male": 1,
    "PS_Female": 1,
    "PS_Total": 2,
    "ولسوالي": "کرخ ",
    "Region": "Western Region"
   },
   "geometry": {
    "x": 6948320.1425408795,
    "y": 4095847.8991651824
   }
  },
  {
   "attributes": {
    "OBJECTID": 2772,
    "ولایت": "هرات",
    "Province": "HERAT",
    "PC_Code": "3204156",
    "District": "KARRUKH",
    "د_مرکز_نوم__نام_مرکز": "مکتب معلومه ",
    "Polling_Center_Name": "Maluma School ",
    "د_مرکز_ځای__موقعیت_مرکز": "قریه معلومه ",
    "Polling_Center_Location": "Maluma Village ",
    "Map_Accuracy": "Building",
    "Map_Accuracy_Dari": "تعمیر",
    "Status": "Open",
    "Status_Dari": null,
    "PS_Male": 1,
    "PS_Female": 1,
    "PS_Total": 2,
    "ولسوالي": "کرخ ",
    "Region": "Western Region"
   },
   "geometry": {
    "x": 6981479.6740846382,
    "y": 4093616.9703534595
   }
  },
  {
   "attributes": {
    "OBJECTID": 2773,
    "ولایت": "هرات",
    "Province": "HERAT",
    "PC_Code": "3205263",
    "District": "ZENDAJAN",
    "د_مرکز_نوم__نام_مرکز": "مکتب جاده شاده ",
    "Polling_Center_Name": "Jadah-e- Shadah School ",
    "د_مرکز_ځای__موقعیت_مرکز": "قریه شاده",
    "Polling_Center_Location": "Shadah Village ",
    "Map_Accuracy": "Building",
    "Map_Accuracy_Dari": "تعمیر",
    "Status": "Open",
    "Status_Dari": null,
    "PS_Male": 1,
    "PS_Female": 2,
    "PS_Total": 3,
    "ولسوالي": "زنده جان ",
    "Region": "Western Region"
   },
   "geometry": {
    "x": 6864619.8244797289,
    "y": 4083312.5247052754
   }
  },
  {
   "attributes": {
    "OBJECTID": 2774,
    "ولایت": "هرات",
    "Province": "HERAT",
    "PC_Code": "3205264",
    "District": "ZENDAJAN",
    "د_مرکز_نوم__نام_مرکز": "مکتب شیخ ابولیث",
    "Polling_Center_Name": "Shaikh Abu Lais School ",
    "د_مرکز_ځای__موقعیت_مرکز": "قریه اوغه",
    "Polling_Center_Location": "Ogha Village",
    "Map_Accuracy": "Building",
    "Map_Accuracy_Dari": "تعمیر",
    "Status": "Open",
    "Status_Dari": null,
    "PS_Male": 2,
    "PS_Female": 1,
    "PS_Total": 3,
    "ولسوالي": "زنده جان ",
    "Region": "Western Region"
   },
   "geometry": {
    "x": 6866623.6632564021,
    "y": 4081811.2912549633
   }
  },
  {
   "attributes": {
    "OBJECTID": 2775,
    "ولایت": "هرات",
    "Province": "HERAT",
    "PC_Code": "3205274",
    "District": "ZENDAJAN",
    "د_مرکز_نوم__نام_مرکز": "مکتب جدید ملکی ها",
    "Polling_Center_Name": "Mulkiha New School ",
    "د_مرکز_ځای__موقعیت_مرکز": " ملکی ها",
    "Polling_Center_Location": "Mulkiha ",
    "Map_Accuracy": "Building",
    "Map_Accuracy_Dari": "تعمیر",
    "Status": "Open",
    "Status_Dari": null,
    "PS_Male": 2,
    "PS_Female": 1,
    "PS_Total": 3,
    "ولسوالي": "زنده جان ",
    "Region": "Western Region"
   },
   "geometry": {
    "x": 6870270.9472978991,
    "y": 4073870.2268349025
   }
  },
  {
   "attributes": {
    "OBJECTID": 2776,
    "ولایت": "هرات",
    "Province": "HERAT",
    "PC_Code": "3206122",
    "District": "PASHTUN ZARGHUN",
    "د_مرکز_نوم__نام_مرکز": "مسجد بزیان",
    "Polling_Center_Name": "Bazyan Mosque",
    "د_مرکز_ځای__موقعیت_مرکز": "  قریه بزیان",
    "Polling_Center_Location": "Bazyan Village",
    "Map_Accuracy": "Village",
    "Map_Accuracy_Dari": "قریه",
    "Status": "Open",
    "Status_Dari": null,
    "PS_Male": 2,
    "PS_Female": 0,
    "PS_Total": 2,
    "ولسوالي": "پشتون زرغون",
    "Region": "Western Region"
   },
   "geometry": {
    "x": 6985489.3275589515,
    "y": 4061326.2160893278
   }
  },
  {
   "attributes": {
    "OBJECTID": 2777,
    "ولایت": "هرات",
    "Province": "HERAT",
    "PC_Code": "3206123",
    "District": "PASHTUN ZARGHUN",
    "د_مرکز_نوم__نام_مرکز": "مکتب بزیان",
    "Polling_Center_Name": "Bazyan School",
    "د_مرکز_ځای__موقعیت_مرکز": "  قریه بزیان",
    "Polling_Center_Location": "Bazyan Village",
    "Map_Accuracy": "Village",
    "Map_Accuracy_Dari": "قریه",
    "Status": "Open",
    "Status_Dari": null,
    "PS_Male": 0,
    "PS_Female": 2,
    "PS_Total": 2,
    "ولسوالي": "پشتون زرغون",
    "Region": "Western Region"
   },
   "geometry": {
    "x": 6985533.4412467657,
    "y": 4061077.0126174628
   }
  },
  {
   "attributes": {
    "OBJECTID": 2778,
    "ولایت": "هرات",
    "Province": "HERAT",
    "PC_Code": "3206137",
    "District": "PASHTUN ZARGHUN",
    "د_مرکز_نوم__نام_مرکز": "مکتب غوران ",
    "Polling_Center_Name": "Ghooran School ",
    "د_مرکز_ځای__موقعیت_مرکز": "غوران ",
    "Polling_Center_Location": "Ghooran ",
    "Map_Accuracy": "Building",
    "Map_Accuracy_Dari": "تعمیر",
    "Status": "Open",
    "Status_Dari": null,
    "PS_Male": 1,
    "PS_Female": 1,
    "PS_Total": 2,
    "ولسوالي": "پشتون زرغون",
    "Region": "Western Region"
   },
   "geometry": {
    "x": 6953451.4812606899,
    "y": 4068216.7162340069
   }
  },
  {
   "attributes": {
    "OBJECTID": 2779,
    "ولایت": "هرات",
    "Province": "HERAT",
    "PC_Code": "3206138",
    "District": "PASHTUN ZARGHUN",
    "د_مرکز_نوم__نام_مرکز": "مکتب لیسه مارآباد",
    "Polling_Center_Name": "Mar Abad Secondary School ",
    "د_مرکز_ځای__موقعیت_مرکز": "قریه مارآباد",
    "Polling_Center_Location": "Mar Abad Village ",
    "Map_Accuracy": "Building",
    "Map_Accuracy_Dari": "تعمیر",
    "Status": "Open",
    "Status_Dari": null,
    "PS_Male": 3,
    "PS_Female": 2,
    "PS_Total": 5,
    "ولسوالي": "پشتون زرغون",
    "Region": "Western Region"
   },
   "geometry": {
    "x": 7000682.2717749411,
    "y": 4063246.7517940379
   }
  },
  {
   "attributes": {
    "OBJECTID": 2780,
    "ولایت": "هرات",
    "Province": "HERAT",
    "PC_Code": "3206140",
    "District": "PASHTUN ZARGHUN",
    "د_مرکز_نوم__نام_مرکز": "مکتب توران ",
    "Polling_Center_Name": "Turan School ",
    "د_مرکز_ځای__موقعیت_مرکز": "قریه توران ",
    "Polling_Center_Location": "Turan Village ",
    "Map_Accuracy": "Building",
    "Map_Accuracy_Dari": "تعمیر",
    "Status": "Open",
    "Status_Dari": null,
    "PS_Male": 1,
    "PS_Female": 1,
    "PS_Total": 2,
    "ولسوالي": "پشتون زرغون",
    "Region": "Western Region"
   },
   "geometry": {
    "x": 6964350.2082144441,
    "y": 4070412.8192281621
   }
  },
  {
   "attributes": {
    "OBJECTID": 2781,
    "ولایت": "هرات",
    "Province": "HERAT",
    "PC_Code": "3207168",
    "District": "KUSHK (RUBAT-E-SANGI)",
    "د_مرکز_نوم__نام_مرکز": "مكتب چهار اولنگ",
    "Polling_Center_Name": "Chahar Aolang School ",
    "د_مرکز_ځای__موقعیت_مرکز": "قریه  چهار اولنگ",
    "Polling_Center_Location": "Chahar Aolang Village  ",
    "Map_Accuracy": "Building",
    "Map_Accuracy_Dari": "تعمیر",
    "Status": "Open",
    "Status_Dari": null,
    "PS_Male": 2,
    "PS_Female": 1,
    "PS_Total": 3,
    "ولسوالي": "کشک (رباط سنگی)",
    "Region": "Western Region"
   },
   "geometry": {
    "x": 6907982.75583426,
    "y": 4126366.9231740925
   }
  },
  {
   "attributes": {
    "OBJECTID": 2782,
    "ولایت": "هرات",
    "Province": "HERAT",
    "PC_Code": "3207179",
    "District": "KUSHK (RUBAT-E-SANGI)",
    "د_مرکز_نوم__نام_مرکز": "مکتب خلیفه رحمت",
    "Polling_Center_Name": "Khaleefa Rahmat School ",
    "د_مرکز_ځای__موقعیت_مرکز": "قریه خلیفه رحمت",
    "Polling_Center_Location": "Khaleefa Rahmat Village  ",
    "Map_Accuracy": "Building",
    "Map_Accuracy_Dari": "تعمیر",
    "Status": "Open",
    "Status_Dari": null,
    "PS_Male": 2,
    "PS_Female": 1,
    "PS_Total": 3,
    "ولسوالي": "کشک (رباط سنگی)",
    "Region": "Western Region"
   },
   "geometry": {
    "x": 6934175.5629877774,
    "y": 4132036.4113570252
   }
  },
  {
   "attributes": {
    "OBJECTID": 2783,
    "ولایت": "هرات",
    "Province": "HERAT",
    "PC_Code": "3207189",
    "District": "KUSHK (RUBAT-E-SANGI)",
    "د_مرکز_نوم__نام_مرکز": "مکتب تورغندی اول",
    "Polling_Center_Name": "Torghandi Awal School ",
    "د_مرکز_ځای__موقعیت_مرکز": "شهرک تورغندی",
    "Polling_Center_Location": "Shahrak Torghondi ",
    "Map_Accuracy": "Building",
    "Map_Accuracy_Dari": "تعمیر",
    "Status": "Open",
    "Status_Dari": null,
    "PS_Male": 4,
    "PS_Female": 0,
    "PS_Total": 4,
    "ولسوالي": "کشک (رباط سنگی)",
    "Region": "Western Region"
   },
   "geometry": {
    "x": 6933324.0256561488,
    "y": 4197083.1869499395
   }
  },
  {
   "attributes": {
    "OBJECTID": 2784,
    "ولایت": "هرات",
    "Province": "HERAT",
    "PC_Code": "3207190",
    "District": "KUSHK (RUBAT-E-SANGI)",
    "د_مرکز_نوم__نام_مرکز": "مکتب لیسه نسوان",
    "Polling_Center_Name": "Girls High School ",
    "د_مرکز_ځای__موقعیت_مرکز": "شهرک تور غندی ",
    "Polling_Center_Location": "Shahrak Torghondi ",
    "Map_Accuracy": "Building",
    "Map_Accuracy_Dari": "تعمیر",
    "Status": "Open",
    "Status_Dari": null,
    "PS_Male": 0,
    "PS_Female": 4,
    "PS_Total": 4,
    "ولسوالي": "کشک (رباط سنگی)",
    "Region": "Western Region"
   },
   "geometry": {
    "x": 6933311.5600995645,
    "y": 4197082.8475539619
   }
  },
  {
   "attributes": {
    "OBJECTID": 2785,
    "ولایت": "هرات",
    "Province": "HERAT",
    "PC_Code": "3208196",
    "District": "GULRAN",
    "د_مرکز_نوم__نام_مرکز": "لیسه قره باغ",
    "Polling_Center_Name": "Qarabagh Primary School ",
    "د_مرکز_ځای__موقعیت_مرکز": " بازار قره باغ",
    "Polling_Center_Location": "Bazar Qarabagh ",
    "Map_Accuracy": "Building",
    "Map_Accuracy_Dari": "تعمیر",
    "Status": "Open",
    "Status_Dari": null,
    "PS_Male": 5,
    "PS_Female": 1,
    "PS_Total": 6,
    "ولسوالي": "گلران ",
    "Region": "Western Region"
   },
   "geometry": {
    "x": 6876798.1845648764,
    "y": 4155515.3765046829
   }
  },
  {
   "attributes": {
    "OBJECTID": 2786,
    "ولایت": "هرات",
    "Province": "HERAT",
    "PC_Code": "3209284",
    "District": "ADRASKAN",
    "د_مرکز_نوم__نام_مرکز": "مسجدجهان خان",
    "Polling_Center_Name": "Jahan Khan Mosque ",
    "د_مرکز_ځای__موقعیت_مرکز": " جهان خان",
    "Polling_Center_Location": "Jahan Khan ",
    "Map_Accuracy": "Building",
    "Map_Accuracy_Dari": "تعمیر",
    "Status": "Open",
    "Status_Dari": null,
    "PS_Male": 1,
    "PS_Female": 1,
    "PS_Total": 2,
    "ولسوالي": "ادرسکن ",
    "Region": "Western Region"
   },
   "geometry": {
    "x": 6940729.3121046796,
    "y": 4005700.1394168045
   }
  },
  {
   "attributes": {
    "OBJECTID": 2787,
    "ولایت": "هرات",
    "Province": "HERAT",
    "PC_Code": "3209285",
    "District": "ADRASKAN",
    "د_مرکز_نوم__نام_مرکز": "مکتب خاربید میرآباد",
    "Polling_Center_Name": "Kharbed-e- Mir Abad School ",
    "د_مرکز_ځای__موقعیت_مرکز": "میرآباد",
    "Polling_Center_Location": "Mir Abad ",
    "Map_Accuracy": "Building",
    "Map_Accuracy_Dari": "تعمیر",
    "Status": "Open",
    "Status_Dari": null,
    "PS_Male": 2,
    "PS_Female": 1,
    "PS_Total": 3,
    "ولسوالي": "ادرسکن ",
    "Region": "Western Region"
   },
   "geometry": {
    "x": 6975984.8438315401,
    "y": 3977966.7840164751
   }
  },
  {
   "attributes": {
    "OBJECTID": 2788,
    "ولایت": "هرات",
    "Province": "HERAT",
    "PC_Code": "3210407",
    "District": "KUSHK-E-KUHNA",
    "د_مرکز_نوم__نام_مرکز": "مکتب متوسطه دختران ککلم دوم",
    "Polling_Center_Name": "Kakalam Duowm Girls Secondary School ",
    "د_مرکز_ځای__موقعیت_مرکز": "مرکز ولسوالی",
    "Polling_Center_Location": "Second Kaklam ",
    "Map_Accuracy": "Building",
    "Map_Accuracy_Dari": "تعمیر",
    "Status": "Open",
    "Status_Dari": null,
    "PS_Male": 0,
    "PS_Female": 2,
    "PS_Total": 2,
    "ولسوالي": "کشک کهنه ",
    "Region": "Western Region"
   },
   "geometry": {
    "x": 6964297.6899050782,
    "y": 4143592.1090022903
   }
  },
  {
   "attributes": {
    "OBJECTID": 2789,
    "ولایت": "هرات",
    "Province": "HERAT",
    "PC_Code": "3210417",
    "District": "KUSHK-E-KUHNA",
    "د_مرکز_نوم__نام_مرکز": "مکتب خواجه قلندر",
    "Polling_Center_Name": "Khwaja Qalandar School ",
    "د_مرکز_ځای__موقعیت_مرکز": "خواجه قلندر ",
    "Polling_Center_Location": "Khwaja Qalandar ",
    "Map_Accuracy": "Building",
    "Map_Accuracy_Dari": "تعمیر",
    "Status": "Open",
    "Status_Dari": null,
    "PS_Male": 2,
    "PS_Female": 1,
    "PS_Total": 3,
    "ولسوالي": "کشک کهنه ",
    "Region": "Western Region"
   },
   "geometry": {
    "x": 6974937.3029328855,
    "y": 4134626.9310811237
   }
  },
  {
   "attributes": {
    "OBJECTID": 2790,
    "ولایت": "هرات",
    "Province": "HERAT",
    "PC_Code": "3210418",
    "District": "KUSHK-E-KUHNA",
    "د_مرکز_نوم__نام_مرکز": "مکتب زنده حشم",
    "Polling_Center_Name": "Zenda Hashm School ",
    "د_مرکز_ځای__موقعیت_مرکز": "قریه زنده حشم",
    "Polling_Center_Location": "Zenda Hashm Village",
    "Map_Accuracy": "Building",
    "Map_Accuracy_Dari": "تعمیر",
    "Status": "Open",
    "Status_Dari": null,
    "PS_Male": 2,
    "PS_Female": 1,
    "PS_Total": 3,
    "ولسوالي": "کشک کهنه ",
    "Region": "Western Region"
   },
   "geometry": {
    "x": 6979793.3518915512,
    "y": 4138114.0577911581
   }
  },
  {
   "attributes": {
    "OBJECTID": 2791,
    "ولایت": "هرات",
    "Province": "HERAT",
    "PC_Code": "3211248",
    "District": "GHORYAN",
    "د_مرکز_نوم__نام_مرکز": "مسجد جامع گندم منه",
    "Polling_Center_Name": "Gandummna Mosque",
    "د_مرکز_ځای__موقعیت_مرکز": "گندم منه",
    "Polling_Center_Location": "Gandummna ",
    "Map_Accuracy": "Building",
    "Map_Accuracy_Dari": "تعمیر",
    "Status": "Open",
    "Status_Dari": null,
    "PS_Male": 2,
    "PS_Female": 1,
    "PS_Total": 3,
    "ولسوالي": "غوریان ",
    "Region": "Western Region"
   },
   "geometry": {
    "x": 6849662.5592104709,
    "y": 4076364.4517908581
   }
  },
  {
   "attributes": {
    "OBJECTID": 2792,
    "ولایت": "هرات",
    "Province": "HERAT",
    "PC_Code": "3211249",
    "District": "GHORYAN",
    "د_مرکز_نوم__نام_مرکز": "مکتب دخترانه برنآباد زنانه",
    "Polling_Center_Name": "Barna Abad Zanana Girls School ",
    "د_مرکز_ځای__موقعیت_مرکز": "قریه برنآباد",
    "Polling_Center_Location": "Barnabad Village",
    "Map_Accuracy": "Building",
    "Map_Accuracy_Dari": "تعمیر",
    "Status": "Open",
    "Status_Dari": null,
    "PS_Male": 0,
    "PS_Female": 3,
    "PS_Total": 3,
    "ولسوالي": "غوریان ",
    "Region": "Western Region"
   },
   "geometry": {
    "x": 6856647.6969576869,
    "y": 4080660.7703351844
   }
  },
  {
   "attributes": {
    "OBJECTID": 2793,
    "ولایت": "هرات",
    "Province": "HERAT",
    "PC_Code": "3211259",
    "District": "GHORYAN",
    "د_مرکز_نوم__نام_مرکز": "مسجد جامع چاه ریگ",
    "Polling_Center_Name": "Chahe Rig Mosque ",
    "د_مرکز_ځای__موقعیت_مرکز": " مرکز قریه چاه ریگ",
    "Polling_Center_Location": "Markaz-e-Chahe Rig Village ",
    "Map_Accuracy": "Village",
    "Map_Accuracy_Dari": "قریه",
    "Status": "Open",
    "Status_Dari": null,
    "PS_Male": 2,
    "PS_Female": 2,
    "PS_Total": 4,
    "ولسوالي": "غوریان ",
    "Region": "Western Region"
   },
   "geometry": {
    "x": 6781164.4237698512,
    "y": 4097169.1174060344
   }
  },
  {
   "attributes": {
    "OBJECTID": 2794,
    "ولایت": "هرات",
    "Province": "HERAT",
    "PC_Code": "3212368",
    "District": "OBE",
    "د_مرکز_نوم__نام_مرکز": "مکتب صبیره",
    "Polling_Center_Name": "Saberah School ",
    "د_مرکز_ځای__موقعیت_مرکز": "قریه صبیره دشت",
    "Polling_Center_Location": "Sabera Dasht Village",
    "Map_Accuracy": "Building",
    "Map_Accuracy_Dari": "تعمیر",
    "Status": "Open",
    "Status_Dari": null,
    "PS_Male": 1,
    "PS_Female": 1,
    "PS_Total": 2,
    "ولسوالي": "اوبه ",
    "Region": "Western Region"
   },
   "geometry": {
    "x": 7020646.7088907817,
    "y": 4072255.2031982061
   }
  },
  {
   "attributes": {
    "OBJECTID": 2795,
    "ولایت": "هرات",
    "Province": "HERAT",
    "PC_Code": "3212369",
    "District": "OBE",
    "د_مرکز_نوم__نام_مرکز": "مسجد مسافران",
    "Polling_Center_Name": "Musafran Mosque ",
    "د_مرکز_ځای__موقعیت_مرکز": "مسافران ",
    "Polling_Center_Location": "Musafran ",
    "Map_Accuracy": "Village",
    "Map_Accuracy_Dari": "قریه",
    "Status": "Open",
    "Status_Dari": null,
    "PS_Male": 2,
    "PS_Female": 1,
    "PS_Total": 3,
    "ولسوالي": "اوبه ",
    "Region": "Western Region"
   },
   "geometry": {
    "x": 7029661.8777776584,
    "y": 4074914.6441479428
   }
  },
  {
   "attributes": {
    "OBJECTID": 2796,
    "ولایت": "هرات",
    "Province": "HERAT",
    "PC_Code": "3212371",
    "District": "OBE",
    "د_مرکز_نوم__نام_مرکز": "مکتب جنوا مردانه",
    "Polling_Center_Name": "Jenowa Boys School",
    "د_مرکز_ځای__موقعیت_مرکز": "قریه جنوا",
    "Polling_Center_Location": "Jenowa Village",
    "Map_Accuracy": "Building",
    "Map_Accuracy_Dari": "تعمیر",
    "Status": "Open",
    "Status_Dari": null,
    "PS_Male": 2,
    "PS_Female": 0,
    "PS_Total": 2,
    "ولسوالي": "اوبه ",
    "Region": "Western Region"
   },
   "geometry": {
    "x": 7059988.4774488416,
    "y": 4080559.0646941005
   }
  },
  {
   "attributes": {
    "OBJECTID": 2797,
    "ولایت": "هرات",
    "Province": "HERAT",
    "PC_Code": "3212372",
    "District": "OBE",
    "د_مرکز_نوم__نام_مرکز": "مکتب جدید جنوا زنانه",
    "Polling_Center_Name": "Jenowa Jaded Girls School ",
    "د_مرکز_ځای__موقعیت_مرکز": "قریه جنوا",
    "Polling_Center_Location": "Jenowa Village",
    "Map_Accuracy": "Village",
    "Map_Accuracy_Dari": "قریه",
    "Status": "Open",
    "Status_Dari": null,
    "PS_Male": 0,
    "PS_Female": 2,
    "PS_Total": 2,
    "ولسوالي": "اوبه ",
    "Region": "Western Region"
   },
   "geometry": {
    "x": 7059948.9211809821,
    "y": 4080446.3517576465
   }
  },
  {
   "attributes": {
    "OBJECTID": 2798,
    "ولایت": "هرات",
    "Province": "HERAT",
    "PC_Code": "3212386",
    "District": "OBE",
    "د_مرکز_نوم__نام_مرکز": "مسجد ده گاهی ",
    "Polling_Center_Name": "Deh Gahee Mosque ",
    "د_مرکز_ځای__موقعیت_مرکز": "ده گاهی مردانه ",
    "Polling_Center_Location": "Deh Gahee Mardanah ",
    "Map_Accuracy": "Village",
    "Map_Accuracy_Dari": "قریه",
    "Status": "Open",
    "Status_Dari": null,
    "PS_Male": 2,
    "PS_Female": 0,
    "PS_Total": 2,
    "ولسوالي": "اوبه ",
    "Region": "Western Region"
   },
   "geometry": {
    "x": 7066073.1473822491,
    "y": 4096588.0386023168
   }
  },
  {
   "attributes": {
    "OBJECTID": 2799,
    "ولایت": "هرات",
    "Province": "HERAT",
    "PC_Code": "3212387",
    "District": "OBE",
    "د_مرکز_نوم__نام_مرکز": "مسجد دواوم",
    "Polling_Center_Name": "Dawawm Mosque ",
    "د_مرکز_ځای__موقعیت_مرکز": "ده گاهی زنانه ",
    "Polling_Center_Location": "Deh Gahee Zananah ",
    "Map_Accuracy": "Village",
    "Map_Accuracy_Dari": "قریه",
    "Status": "Open",
    "Status_Dari": null,
    "PS_Male": 0,
    "PS_Female": 2,
    "PS_Total": 2,
    "ولسوالي": "اوبه ",
    "Region": "Western Region"
   },
   "geometry": {
    "x": 7066636.6533238133,
    "y": 4096442.2450886974
   }
  },
  {
   "attributes": {
    "OBJECTID": 2800,
    "ولایت": "هرات",
    "Province": "HERAT",
    "PC_Code": "3212468",
    "District": "OBE",
    "د_مرکز_نوم__نام_مرکز": "مسجد عبدالرحیم خان",
    "Polling_Center_Name": "Abdulrahim khan Mosque ",
    "د_مرکز_ځای__موقعیت_مرکز": "گنا ه آباد ",
    "Polling_Center_Location": "Gunah Abad ",
    "Map_Accuracy": "Village",
    "Map_Accuracy_Dari": "قریه",
    "Status": "Open",
    "Status_Dari": null,
    "PS_Male": 1,
    "PS_Female": 1,
    "PS_Total": 2,
    "ولسوالي": "اوبه ",
    "Region": "Western Region"
   },
   "geometry": {
    "x": 7026536.3437367314,
    "y": 4072378.6339864628
   }
  }
 ]
}