{
 "displayFieldName": "Polling_Center_Name",
 "fieldAliases": {
  "OBJECTID": "OBJECTID",
  "ولایت": "ولایت",
  "Province": "Province",
  "PC_Code": "PC_Code",
  "District": "District",
  "د_مرکز_نوم__نام_مرکز": "د_مرکز_نوم__نام_مرکز",
  "Polling_Center_Name": "Polling_Center_Name",
  "د_مرکز_ځای__موقعیت_مرکز": "د_مرکز_ځای__موقعیت_مرکز",
  "Polling_Center_Location": "Polling_Center_Location",
  "Map_Accuracy": "Map_Accuracy",
  "Map_Accuracy_Dari": "Map_Accuracy_Dari",
  "Status": "Status",
  "Status_Dari": "Status_Dari",
  "PS_Male": "PS_Male",
  "PS_Female": "PS_Female",
  "PS_Total": "PS_Total",
  "ولسوالي": "ولسوالي",
  "Region": "Region"
 },
 "geometryType": "esriGeometryPoint",
 "spatialReference": {
  "wkid": 102100,
  "latestWkid": 3857
 },
 "fields": [
  {
   "name": "OBJECTID",
   "type": "esriFieldTypeOID",
   "alias": "OBJECTID"
  },
  {
   "name": "ولایت",
   "type": "esriFieldTypeString",
   "alias": "ولایت",
   "length": 255
  },
  {
   "name": "Province",
   "type": "esriFieldTypeString",
   "alias": "Province",
   "length": 255
  },
  {
   "name": "PC_Code",
   "type": "esriFieldTypeString",
   "alias": "PC_Code",
   "length": 255
  },
  {
   "name": "District",
   "type": "esriFieldTypeString",
   "alias": "District",
   "length": 255
  },
  {
   "name": "د_مرکز_نوم__نام_مرکز",
   "type": "esriFieldTypeString",
   "alias": "د_مرکز_نوم__نام_مرکز",
   "length": 255
  },
  {
   "name": "Polling_Center_Name",
   "type": "esriFieldTypeString",
   "alias": "Polling_Center_Name",
   "length": 255
  },
  {
   "name": "د_مرکز_ځای__موقعیت_مرکز",
   "type": "esriFieldTypeString",
   "alias": "د_مرکز_ځای__موقعیت_مرکز",
   "length": 255
  },
  {
   "name": "Polling_Center_Location",
   "type": "esriFieldTypeString",
   "alias": "Polling_Center_Location",
   "length": 255
  },
  {
   "name": "Map_Accuracy",
   "type": "esriFieldTypeString",
   "alias": "Map_Accuracy",
   "length": 10
  },
  {
   "name": "Map_Accuracy_Dari",
   "type": "esriFieldTypeString",
   "alias": "Map_Accuracy_Dari",
   "length": 50
  },
  {
   "name": "Status",
   "type": "esriFieldTypeString",
   "alias": "Status",
   "length": 6
  },
  {
   "name": "Status_Dari",
   "type": "esriFieldTypeString",
   "alias": "Status_Dari",
   "length": 8
  },
  {
   "name": "PS_Male",
   "type": "esriFieldTypeSmallInteger",
   "alias": "PS_Male"
  },
  {
   "name": "PS_Female",
   "type": "esriFieldTypeSmallInteger",
   "alias": "PS_Female"
  },
  {
   "name": "PS_Total",
   "type": "esriFieldTypeSmallInteger",
   "alias": "PS_Total"
  },
  {
   "name": "ولسوالي",
   "type": "esriFieldTypeString",
   "alias": "ولسوالي",
   "length": 255
  },
  {
   "name": "Region",
   "type": "esriFieldTypeString",
   "alias": "Region",
   "length": 50
  }
 ],
 "features": [
  {
   "attributes": {
    "OBJECTID": 3201,
    "ولایت": "بادغيس",
    "Province": "BADGHIS",
    "PC_Code": "3106095",
    "District": "JAWAND",
    "د_مرکز_نوم__نام_مرکز": "مکتب جیجانی",
    "Polling_Center_Name": "Jeeghani School",
    "د_مرکز_ځای__موقعیت_مرکز": "جیجانی",
    "Polling_Center_Location": "Jeejani ",
    "Map_Accuracy": "Building",
    "Map_Accuracy_Dari": "تعمیر",
    "Status": "Open",
    "Status_Dari": null,
    "PS_Male": 2,
    "PS_Female": 1,
    "PS_Total": 3,
    "ولسوالي": "جوند",
    "Region": "Western Region"
   },
   "geometry": {
    "x": 7139553.4712361395,
    "y": 4152541.8764721337
   }
  },
  {
   "attributes": {
    "OBJECTID": 3202,
    "ولایت": "بادغيس",
    "Province": "BADGHIS",
    "PC_Code": "3106096",
    "District": "JAWAND",
    "د_مرکز_نوم__نام_مرکز": "مکتب خامین",
    "Polling_Center_Name": "Khameen School",
    "د_مرکز_ځای__موقعیت_مرکز": " خامین",
    "Polling_Center_Location": "Khameen ",
    "Map_Accuracy": "Building",
    "Map_Accuracy_Dari": "تعمیر",
    "Status": "Open",
    "Status_Dari": null,
    "PS_Male": 2,
    "PS_Female": 1,
    "PS_Total": 3,
    "ولسوالي": "جوند",
    "Region": "Western Region"
   },
   "geometry": {
    "x": 7142670.4904492125,
    "y": 4136978.5534187709
   }
  },
  {
   "attributes": {
    "OBJECTID": 3203,
    "ولایت": "هرات",
    "Province": "HERAT",
    "PC_Code": "3201013",
    "District": "HERAT",
    "د_مرکز_نوم__نام_مرکز": "لیسه انقلاب",
    "Polling_Center_Name": "Inqelab High School",
    "د_مرکز_ځای__موقعیت_مرکز": " ناحیه پنجم",
    "Polling_Center_Location": "D05 - Nahia 5",
    "Map_Accuracy": "Building",
    "Map_Accuracy_Dari": "تعمیر",
    "Status": "Open",
    "Status_Dari": null,
    "PS_Male": 5,
    "PS_Female": 3,
    "PS_Total": 8,
    "ولسوالي": "هرات",
    "Region": "Western Region"
   },
   "geometry": {
    "x": 6923839.8588490011,
    "y": 4075893.1486172355
   }
  },
  {
   "attributes": {
    "OBJECTID": 3204,
    "ولایت": "هرات",
    "Province": "HERAT",
    "PC_Code": "3201427",
    "District": "HERAT",
    "د_مرکز_نوم__نام_مرکز": "مکتب متوسطه کارته امین",
    "Polling_Center_Name": "Karti-e-Amin Secondary School",
    "د_مرکز_ځای__موقعیت_مرکز": "ناحیه ششم",
    "Polling_Center_Location": "D06 - Nahia 6",
    "Map_Accuracy": "Building",
    "Map_Accuracy_Dari": "تعمیر",
    "Status": "Open",
    "Status_Dari": null,
    "PS_Male": 4,
    "PS_Female": 4,
    "PS_Total": 8,
    "ولسوالي": "هرات",
    "Region": "Western Region"
   },
   "geometry": {
    "x": 6928589.5921279825,
    "y": 4075084.4159030886
   }
  },
  {
   "attributes": {
    "OBJECTID": 3205,
    "ولایت": "هرات",
    "Province": "HERAT",
    "PC_Code": "3202048",
    "District": "ENJIL",
    "د_مرکز_نوم__نام_مرکز": "لیسه صفی الدین",
    "Polling_Center_Name": "Safiudeen High School ",
    "د_مرکز_ځای__موقعیت_مرکز": "قبول دراز",
    "Polling_Center_Location": "Qabul Daraz ",
    "Map_Accuracy": "Building",
    "Map_Accuracy_Dari": "تعمیر",
    "Status": "Open",
    "Status_Dari": null,
    "PS_Male": 1,
    "PS_Female": 1,
    "PS_Total": 2,
    "ولسوالي": "انجیل",
    "Region": "Western Region"
   },
   "geometry": {
    "x": 6933789.1362997992,
    "y": 4074645.7449907623
   }
  },
  {
   "attributes": {
    "OBJECTID": 3206,
    "ولایت": "هرات",
    "Province": "HERAT",
    "PC_Code": "3203086",
    "District": "GUZARA",
    "د_مرکز_نوم__نام_مرکز": "نساجی",
    "Polling_Center_Name": "Nasaji",
    "د_مرکز_ځای__موقعیت_مرکز": "قریه گواشان(مرکز گذره اول)",
    "Polling_Center_Location": "Gawashan Village (Markaz Guzara Awal)",
    "Map_Accuracy": "Building",
    "Map_Accuracy_Dari": "تعمیر",
    "Status": "Open",
    "Status_Dari": null,
    "PS_Male": 5,
    "PS_Female": 0,
    "PS_Total": 5,
    "ولسوالي": "گذره",
    "Region": "Western Region"
   },
   "geometry": {
    "x": 6926508.5521712406,
    "y": 4063431.0912558287
   }
  },
  {
   "attributes": {
    "OBJECTID": 3207,
    "ولایت": "هرات",
    "Province": "HERAT",
    "PC_Code": "3203107",
    "District": "GUZARA",
    "د_مرکز_نوم__نام_مرکز": "لیسه امیر شاهی ",
    "Polling_Center_Name": "Amir Shahi High School ",
    "د_مرکز_ځای__موقعیت_مرکز": "سر اسیاب ",
    "Polling_Center_Location": "Sar Asyab ",
    "Map_Accuracy": "Building",
    "Map_Accuracy_Dari": "تعمیر",
    "Status": "Open",
    "Status_Dari": null,
    "PS_Male": 2,
    "PS_Female": 1,
    "PS_Total": 3,
    "ولسوالي": "گذره",
    "Region": "Western Region"
   },
   "geometry": {
    "x": 6921403.9368083896,
    "y": 4059166.5327597558
   }
  },
  {
   "attributes": {
    "OBJECTID": 3208,
    "ولایت": "هرات",
    "Province": "HERAT",
    "PC_Code": "3204157",
    "District": "KARRUKH",
    "د_مرکز_نوم__نام_مرکز": "مکتب جنده خان ",
    "Polling_Center_Name": "Janda Khan School ",
    "د_مرکز_ځای__موقعیت_مرکز": "قریه جنده خان ",
    "Polling_Center_Location": "Janda Khan Village",
    "Map_Accuracy": "Building",
    "Map_Accuracy_Dari": "تعمیر",
    "Status": "Open",
    "Status_Dari": null,
    "PS_Male": 2,
    "PS_Female": 1,
    "PS_Total": 3,
    "ولسوالي": "کرخ ",
    "Region": "Western Region"
   },
   "geometry": {
    "x": 6951282.2617957136,
    "y": 4072097.5037651779
   }
  },
  {
   "attributes": {
    "OBJECTID": 3209,
    "ولایت": "هرات",
    "Province": "HERAT",
    "PC_Code": "3212366",
    "District": "OBE",
    "د_مرکز_نوم__نام_مرکز": "مکتب بند بنفش ",
    "Polling_Center_Name": "Band-e- Benafsh School",
    "د_مرکز_ځای__موقعیت_مرکز": "قریه بند بنفش",
    "Polling_Center_Location": "Band-e- Benafsh Village",
    "Map_Accuracy": "Village",
    "Map_Accuracy_Dari": "قریه",
    "Status": "Open",
    "Status_Dari": null,
    "PS_Male": 2,
    "PS_Female": 0,
    "PS_Total": 2,
    "ولسوالي": "اوبه ",
    "Region": "Western Region"
   },
   "geometry": {
    "x": 7035948.7406417783,
    "y": 4079512.6716554328
   }
  },
  {
   "attributes": {
    "OBJECTID": 3210,
    "ولایت": "هرات",
    "Province": "HERAT",
    "PC_Code": "3206136",
    "District": "PASHTUN ZARGHUN",
    "د_مرکز_نوم__نام_مرکز": "مکتب منزل ",
    "Polling_Center_Name": "Manzil School ",
    "د_مرکز_ځای__موقعیت_مرکز": "قریه منزل ",
    "Polling_Center_Location": "Manzel Vilage ",
    "Map_Accuracy": "Building",
    "Map_Accuracy_Dari": "تعمیر",
    "Status": "Open",
    "Status_Dari": null,
    "PS_Male": 2,
    "PS_Female": 1,
    "PS_Total": 3,
    "ولسوالي": "پشتون زرغون",
    "Region": "Western Region"
   },
   "geometry": {
    "x": 6963029.4703610688,
    "y": 4061954.2873297301
   }
  },
  {
   "attributes": {
    "OBJECTID": 3211,
    "ولایت": "هرات",
    "Province": "HERAT",
    "PC_Code": "3207169",
    "District": "KUSHK (RUBAT-E-SANGI)",
    "د_مرکز_نوم__نام_مرکز": "مکتب عقابی",
    "Polling_Center_Name": "Oqabi School ",
    "د_مرکز_ځای__موقعیت_مرکز": "قریه عقابی",
    "Polling_Center_Location": "Oqabi Village ",
    "Map_Accuracy": "Building",
    "Map_Accuracy_Dari": "تعمیر",
    "Status": "Open",
    "Status_Dari": null,
    "PS_Male": 1,
    "PS_Female": 1,
    "PS_Total": 2,
    "ولسوالي": "کشک (رباط سنگی)",
    "Region": "Western Region"
   },
   "geometry": {
    "x": 6938732.4001833173,
    "y": 4148388.685960358
   }
  },
  {
   "attributes": {
    "OBJECTID": 3212,
    "ولایت": "کاپيسا",
    "Province": "KAPISA",
    "PC_Code": "0205051",
    "District": "NIJRAB",
    "د_مرکز_نوم__نام_مرکز": "باغ امان دره پته ",
    "Polling_Center_Name": "Bagh Aman Dara-e-Pata",
    "د_مرکز_ځای__موقعیت_مرکز": "باغ امان دره پته ",
    "Polling_Center_Location": "Baghi Aman Dara-e-Pata",
    "Map_Accuracy": "Building",
    "Map_Accuracy_Dari": "تعمیر",
    "Status": "Open",
    "Status_Dari": null,
    "PS_Male": 2,
    "PS_Female": 1,
    "PS_Total": 3,
    "ولسوالي": "نجراب ",
    "Region": "Central Region"
   },
   "geometry": {
    "x": 7752700.4751189239,
    "y": 4169083.3078030511
   }
  },
  {
   "attributes": {
    "OBJECTID": 3213,
    "ولایت": "کاپيسا",
    "Province": "KAPISA",
    "PC_Code": "0205052",
    "District": "NIJRAB",
    "د_مرکز_نوم__نام_مرکز": "مدرسه خروستان دره پته  ",
    "Polling_Center_Name": "Madrasa Khrustan Dara-e-Pata ",
    "د_مرکز_ځای__موقعیت_مرکز": "خروستان دره پته ",
    "Polling_Center_Location": "Khrustan Dara-e-Pata",
    "Map_Accuracy": "Building",
    "Map_Accuracy_Dari": "تعمیر",
    "Status": "Open",
    "Status_Dari": null,
    "PS_Male": 1,
    "PS_Female": 1,
    "PS_Total": 2,
    "ولسوالي": "نجراب ",
    "Region": "Central Region"
   },
   "geometry": {
    "x": 7755883.5145824058,
    "y": 4170797.1281553661
   }
  },
  {
   "attributes": {
    "OBJECTID": 3214,
    "ولایت": "ننگرهار",
    "Province": "NANGARHAR",
    "PC_Code": "0605171",
    "District": "KAMA",
    "د_مرکز_نوم__نام_مرکز": "ارباپان باغ",
    "Polling_Center_Name": "Arbapan Bagh",
    "د_مرکز_ځای__موقعیت_مرکز": "ارباپان",
    "Polling_Center_Location": "Arbapan",
    "Map_Accuracy": "Village",
    "Map_Accuracy_Dari": "قریه",
    "Status": "Open",
    "Status_Dari": null,
    "PS_Male": 0,
    "PS_Female": 2,
    "PS_Total": 2,
    "ولسوالي": "کامه",
    "Region": "Eastern Region"
   },
   "geometry": {
    "x": 7857279.692082908,
    "y": 4087898.814455546
   }
  },
  {
   "attributes": {
    "OBJECTID": 3215,
    "ولایت": "ننگرهار",
    "Province": "NANGARHAR",
    "PC_Code": "0605172",
    "District": "KAMA",
    "د_مرکز_نوم__نام_مرکز": "ارباپان جومات",
    "Polling_Center_Name": "Arbapan Mosque",
    "د_مرکز_ځای__موقعیت_مرکز": "ارباپان",
    "Polling_Center_Location": "Arbapan",
    "Map_Accuracy": "Village",
    "Map_Accuracy_Dari": "قریه",
    "Status": "Open",
    "Status_Dari": null,
    "PS_Male": 2,
    "PS_Female": 0,
    "PS_Total": 2,
    "ولسوالي": "کامه",
    "Region": "Eastern Region"
   },
   "geometry": {
    "x": 7857927.5147463856,
    "y": 4087978.1663939743
   }
  },
  {
   "attributes": {
    "OBJECTID": 3216,
    "ولایت": "ننگرهار",
    "Province": "NANGARHAR",
    "PC_Code": "0613351",
    "District": "KOT",
    "د_مرکز_نوم__نام_مرکز": "تریلې زوړ لوي جومات",
    "Polling_Center_Name": "Trelay Zawar  Mosque",
    "د_مرکز_ځای__موقعیت_مرکز": "تريلي کلي",
    "Polling_Center_Location": "Trelay Village",
    "Map_Accuracy": "Village",
    "Map_Accuracy_Dari": "قریه",
    "Status": "Open",
    "Status_Dari": null,
    "PS_Male": 2,
    "PS_Female": 0,
    "PS_Total": 2,
    "ولسوالي": "کوټ",
    "Region": "Eastern Region"
   },
   "geometry": {
    "x": 7866964.3664436815,
    "y": 4061956.7934952518
   }
  },
  {
   "attributes": {
    "OBJECTID": 3217,
    "ولایت": "ننگرهار",
    "Province": "NANGARHAR",
    "PC_Code": "0613352",
    "District": "KOT",
    "د_مرکز_نوم__نام_مرکز": "ترلې ميدان",
    "Polling_Center_Name": "Trelay Maidan",
    "د_مرکز_ځای__موقعیت_مرکز": "تريلي کلي",
    "Polling_Center_Location": "Trelay Village",
    "Map_Accuracy": "Village",
    "Map_Accuracy_Dari": "قریه",
    "Status": "Open",
    "Status_Dari": null,
    "PS_Male": 0,
    "PS_Female": 2,
    "PS_Total": 2,
    "ولسوالي": "کوټ",
    "Region": "Eastern Region"
   },
   "geometry": {
    "x": 7867553.066212398,
    "y": 4061077.0516680633
   }
  },
  {
   "attributes": {
    "OBJECTID": 3218,
    "ولایت": "ننگرهار",
    "Province": "NANGARHAR",
    "PC_Code": "0616423",
    "District": "SHINWAR",
    "د_مرکز_نوم__نام_مرکز": "قاريان جومات",
    "Polling_Center_Name": "Qaryan Mosque",
    "د_مرکز_ځای__موقعیت_مرکز": "٢٧ وياله",
    "Polling_Center_Location": "27 Viyala",
    "Map_Accuracy": "Village",
    "Map_Accuracy_Dari": "قریه",
    "Status": "Open",
    "Status_Dari": null,
    "PS_Male": 3,
    "PS_Female": 0,
    "PS_Total": 3,
    "ولسوالي": "شینوار",
    "Region": "Eastern Region"
   },
   "geometry": {
    "x": 7886963.4272607416,
    "y": 4060469.9697839026
   }
  },
  {
   "attributes": {
    "OBJECTID": 3219,
    "ولایت": "ننگرهار",
    "Province": "NANGARHAR",
    "PC_Code": "0616424",
    "District": "SHINWAR",
    "د_مرکز_نوم__نام_مرکز": "ميرانو جومات",
    "Polling_Center_Name": "Milano Mosque",
    "د_مرکز_ځای__موقعیت_مرکز": "کتيلي",
    "Polling_Center_Location": "Katelay",
    "Map_Accuracy": "Village",
    "Map_Accuracy_Dari": "قریه",
    "Status": "Open",
    "Status_Dari": null,
    "PS_Male": 3,
    "PS_Female": 0,
    "PS_Total": 3,
    "ولسوالي": "شینوار",
    "Region": "Eastern Region"
   },
   "geometry": {
    "x": 7884513.1494585993,
    "y": 4054060.5047709481
   }
  },
  {
   "attributes": {
    "OBJECTID": 3220,
    "ولایت": "لغمان",
    "Province": "LAGHMAN",
    "PC_Code": "0702039",
    "District": "QARGHAYEE",
    "د_مرکز_نوم__نام_مرکز": "د مشه خيلو  دهلکانو ليسه",
    "Polling_Center_Name": "Masha Khel Boys High School",
    "د_مرکز_ځای__موقعیت_مرکز": "مشه خیل",
    "Polling_Center_Location": "MashaKhel",
    "Map_Accuracy": "Village",
    "Map_Accuracy_Dari": "قریه",
    "Status": "Open",
    "Status_Dari": null,
    "PS_Male": 3,
    "PS_Female": 1,
    "PS_Total": 4,
    "ولسوالي": "قرغه یي",
    "Region": "Eastern Region"
   },
   "geometry": {
    "x": 7815529.9426764334,
    "y": 4107100.7081127493
   }
  },
  {
   "attributes": {
    "OBJECTID": 3221,
    "ولایت": "غزنى",
    "Province": "GHAZNI",
    "PC_Code": "1106115",
    "District": "JAGHATU",
    "د_مرکز_نوم__نام_مرکز": "مسجد ده نورالله",
    "Polling_Center_Name": "Deh Noorullah Mosque",
    "د_مرکز_ځای__موقعیت_مرکز": " ده نورالله ترگن",
    "Polling_Center_Location": "Deh Noorullah Torgan",
    "Map_Accuracy": "Village",
    "Map_Accuracy_Dari": "قریه",
    "Status": "Open",
    "Status_Dari": null,
    "PS_Male": 4,
    "PS_Female": 0,
    "PS_Total": 4,
    "ولسوالي": "جغتو",
    "Region": "South Eastern Region"
   },
   "geometry": {
    "x": 7592404.7676478727,
    "y": 3964997.6062871199
   }
  },
  {
   "attributes": {
    "OBJECTID": 3222,
    "ولایت": "غزنى",
    "Province": "GHAZNI",
    "PC_Code": "1106116",
    "District": "JAGHATU",
    "د_مرکز_نوم__نام_مرکز": "مهمان خانه عزیز الله",
    "Polling_Center_Name": "Azizullah Guest House",
    "د_مرکز_ځای__موقعیت_مرکز": " ده نورالله ترگن",
    "Polling_Center_Location": "Deh Noorullah Torgan",
    "Map_Accuracy": "Village",
    "Map_Accuracy_Dari": "قریه",
    "Status": "Open",
    "Status_Dari": null,
    "PS_Male": 0,
    "PS_Female": 3,
    "PS_Total": 3,
    "ولسوالي": "جغتو",
    "Region": "South Eastern Region"
   },
   "geometry": {
    "x": 7592422.7802546723,
    "y": 3965098.6457392205
   }
  },
  {
   "attributes": {
    "OBJECTID": 3223,
    "ولایت": "غزنى",
    "Province": "GHAZNI",
    "PC_Code": "1110261",
    "District": "NAWUR",
    "د_مرکز_نوم__نام_مرکز": "لیسه خواط",
    "Polling_Center_Name": "Khawat High School",
    "د_مرکز_ځای__موقعیت_مرکز": "قریه چاه اسپ",
    "Polling_Center_Location": "Chah Asp Village",
    "Map_Accuracy": "Building",
    "Map_Accuracy_Dari": "تعمیر",
    "Status": "Open",
    "Status_Dari": null,
    "PS_Male": 3,
    "PS_Female": 1,
    "PS_Total": 4,
    "ولسوالي": "ناور",
    "Region": "South Eastern Region"
   },
   "geometry": {
    "x": 7571338.0449341955,
    "y": 4037910.9176150607
   }
  },
  {
   "attributes": {
    "OBJECTID": 3224,
    "ولایت": "غزنى",
    "Province": "GHAZNI",
    "PC_Code": "1110262",
    "District": "NAWUR",
    "د_مرکز_نوم__نام_مرکز": "لیسه اتفاق",
    "Polling_Center_Name": "Etifaq High School",
    "د_مرکز_ځای__موقعیت_مرکز": "قریه دوآبی ",
    "Polling_Center_Location": "Do Aabi Village",
    "Map_Accuracy": "Building",
    "Map_Accuracy_Dari": "تعمیر",
    "Status": "Open",
    "Status_Dari": null,
    "PS_Male": 2,
    "PS_Female": 1,
    "PS_Total": 3,
    "ولسوالي": "ناور",
    "Region": "South Eastern Region"
   },
   "geometry": {
    "x": 7557332.2462770659,
    "y": 4014900.2580213062
   }
  },
  {
   "attributes": {
    "OBJECTID": 3225,
    "ولایت": "غزنى",
    "Province": "GHAZNI",
    "PC_Code": "1111189",
    "District": "QARA BAGH",
    "د_مرکز_نوم__نام_مرکز": "مکتب نی قلعه",
    "Polling_Center_Name": "Ny Qala School",
    "د_مرکز_ځای__موقعیت_مرکز": " نی قلعه",
    "Polling_Center_Location": "Ny Qala",
    "Map_Accuracy": "Building",
    "Map_Accuracy_Dari": "تعمیر",
    "Status": "Open",
    "Status_Dari": null,
    "PS_Male": 3,
    "PS_Female": 2,
    "PS_Total": 5,
    "ولسوالي": "قره باغ",
    "Region": "South Eastern Region"
   },
   "geometry": {
    "x": 7545559.4242100762,
    "y": 3931305.4185239812
   }
  },
  {
   "attributes": {
    "OBJECTID": 3226,
    "ولایت": "پکتيکا",
    "Province": "PAKTIKA",
    "PC_Code": "1204052",
    "District": "YAHYA KHEL",
    "د_مرکز_نوم__نام_مرکز": "میلمستون مردانه وزنانه نیک محمد ",
    "Polling_Center_Name": "Nik Mohammad Male & Female Guest House ",
    "د_مرکز_ځای__موقعیت_مرکز": "نیک محمد خیل،غیبی خیل",
    "Polling_Center_Location": "Nik muhammad khil_Ghaibi khil",
    "Map_Accuracy": "Village",
    "Map_Accuracy_Dari": "قریه",
    "Status": "Open",
    "Status_Dari": null,
    "PS_Male": 0,
    "PS_Female": 4,
    "PS_Total": 4,
    "ولسوالي": "یحی خیل",
    "Region": "South Eastern Region"
   },
   "geometry": {
    "x": 7640025.7474488895,
    "y": 3888633.0957004288
   }
  },
  {
   "attributes": {
    "OBJECTID": 3227,
    "ولایت": "پکتيکا",
    "Province": "PAKTIKA",
    "PC_Code": "1205083",
    "District": "SAR RAWZA",
    "د_مرکز_نوم__نام_مرکز": "ملاح جمعه گل جومات",
    "Polling_Center_Name": "Molla Joma Gul Mosque",
    "د_مرکز_ځای__موقعیت_مرکز": "گلر الدین",
    "Polling_Center_Location": "Gularuddin",
    "Map_Accuracy": "Building",
    "Map_Accuracy_Dari": "تعمیر",
    "Status": "Open",
    "Status_Dari": null,
    "PS_Male": 2,
    "PS_Female": 0,
    "PS_Total": 2,
    "ولسوالي": "سروضه ",
    "Region": "South Eastern Region"
   },
   "geometry": {
    "x": 7692853.3869635742,
    "y": 3899349.625243613
   }
  },
  {
   "attributes": {
    "OBJECTID": 3228,
    "ولایت": "پکتيکا",
    "Province": "PAKTIKA",
    "PC_Code": "1205084",
    "District": "SAR RAWZA",
    "د_مرکز_نوم__نام_مرکز": "گلرالدین میلمستون",
    "Polling_Center_Name": "Gularddin Guest House",
    "د_مرکز_ځای__موقعیت_مرکز": "گلر الدین",
    "Polling_Center_Location": "Gularuddin",
    "Map_Accuracy": "Village",
    "Map_Accuracy_Dari": "قریه",
    "Status": "Open",
    "Status_Dari": null,
    "PS_Male": 0,
    "PS_Female": 2,
    "PS_Total": 2,
    "ولسوالي": "سروضه ",
    "Region": "South Eastern Region"
   },
   "geometry": {
    "x": 7692952.3856131267,
    "y": 3898713.687461772
   }
  },
  {
   "attributes": {
    "OBJECTID": 3229,
    "ولایت": "پکتيکا",
    "Province": "PAKTIKA",
    "PC_Code": "1208141",
    "District": "GOMAL",
    "د_مرکز_نوم__نام_مرکز": "ولسوالی مرکز چهار بران ",
    "Polling_Center_Name": "District Center",
    "د_مرکز_ځای__موقعیت_مرکز": "چهار بران ",
    "Polling_Center_Location": "Charhar Baran",
    "Map_Accuracy": "Village",
    "Map_Accuracy_Dari": "قریه",
    "Status": "Open",
    "Status_Dari": null,
    "PS_Male": 2,
    "PS_Female": 0,
    "PS_Total": 2,
    "ولسوالي": "گومل",
    "Region": "South Eastern Region"
   },
   "geometry": {
    "x": 7673398.0105395485,
    "y": 3868159.7358610965
   }
  },
  {
   "attributes": {
    "OBJECTID": 3230,
    "ولایت": "پکتيکا",
    "Province": "PAKTIKA",
    "PC_Code": "1210294",
    "District": "SURUBI",
    "د_مرکز_نوم__نام_مرکز": "ابتدائيه ښوونځي ربات اضعر كلا",
    "Polling_Center_Name": "Rebat Asghar Kala Primary School",
    "د_مرکز_ځای__موقعیت_مرکز": "اضعر كلا",
    "Polling_Center_Location": "Asghar Kala",
    "Map_Accuracy": "District",
    "Map_Accuracy_Dari": "ولسوالی",
    "Status": "Open",
    "Status_Dari": null,
    "PS_Male": 0,
    "PS_Female": 2,
    "PS_Total": 2,
    "ولسوالي": "سروبی",
    "Region": "South Eastern Region"
   },
   "geometry": {
    "x": 7686402.9668244151,
    "y": 3863636.752049664
   }
  },
  {
   "attributes": {
    "OBJECTID": 3231,
    "ولایت": "پکتيکا",
    "Province": "PAKTIKA",
    "PC_Code": "1212190",
    "District": "ZIRUK",
    "د_مرکز_نوم__نام_مرکز": "کلینیک",
    "Polling_Center_Name": "Clinic",
    "د_مرکز_ځای__موقعیت_مرکز": "بازارعمومی کلینیک",
    "Polling_Center_Location": "Bazar",
    "Map_Accuracy": "Building",
    "Map_Accuracy_Dari": "تعمیر",
    "Status": "Open",
    "Status_Dari": null,
    "PS_Male": 0,
    "PS_Female": 2,
    "PS_Total": 2,
    "ولسوالي": "زیړوک",
    "Region": "South Eastern Region"
   },
   "geometry": {
    "x": 7715408.8954339186,
    "y": 3916098.5336454557
   }
  },
  {
   "attributes": {
    "OBJECTID": 3232,
    "ولایت": "پکتيکا",
    "Province": "PAKTIKA",
    "PC_Code": "1212191",
    "District": "ZIRUK",
    "د_مرکز_نوم__نام_مرکز": "بوستان کلینیک",
    "Polling_Center_Name": "Bostan Clinic",
    "د_مرکز_ځای__موقعیت_مرکز": "ستر کلی",
    "Polling_Center_Location": "Ster Kalai",
    "Map_Accuracy": "Village",
    "Map_Accuracy_Dari": "قریه",
    "Status": "Open",
    "Status_Dari": null,
    "PS_Male": 0,
    "PS_Female": 2,
    "PS_Total": 2,
    "ولسوالي": "زیړوک",
    "Region": "South Eastern Region"
   },
   "geometry": {
    "x": 7717631.0417507989,
    "y": 3917595.1022849786
   }
  },
  {
   "attributes": {
    "OBJECTID": 3233,
    "ولایت": "پکتيکا",
    "Province": "PAKTIKA",
    "PC_Code": "1214261",
    "District": "BARMAL",
    "د_مرکز_نوم__نام_مرکز": "پیتوګی منځنی ښوونځی",
    "Polling_Center_Name": "Petogay Secondary School",
    "د_مرکز_ځای__موقعیت_مرکز": "ﭙﯾتوگی",
    "Polling_Center_Location": "Petogay",
    "Map_Accuracy": "Building",
    "Map_Accuracy_Dari": "تعمیر",
    "Status": "Open",
    "Status_Dari": null,
    "PS_Male": 2,
    "PS_Female": 0,
    "PS_Total": 2,
    "ولسوالي": "برمل",
    "Region": "South Eastern Region"
   },
   "geometry": {
    "x": 7703332.3860036805,
    "y": 3836090.4992830614
   }
  },
  {
   "attributes": {
    "OBJECTID": 3234,
    "ولایت": "پکتيکا",
    "Province": "PAKTIKA",
    "PC_Code": "1215275",
    "District": "GIYAN",
    "د_مرکز_نوم__نام_مرکز": "اسلا شاه جومات",
    "Polling_Center_Name": "Esla Shah Mosque",
    "د_مرکز_ځای__موقعیت_مرکز": "اسلا شاه",
    "Polling_Center_Location": "Esla Shah",
    "Map_Accuracy": "District",
    "Map_Accuracy_Dari": "ولسوالی",
    "Status": "Open",
    "Status_Dari": null,
    "PS_Male": 2,
    "PS_Female": 0,
    "PS_Total": 2,
    "ولسوالي": "گیان",
    "Region": "South Eastern Region"
   },
   "geometry": {
    "x": 7721996.1472647777,
    "y": 3896633.8511131853
   }
  },
  {
   "attributes": {
    "OBJECTID": 3235,
    "ولایت": "پکتيکا",
    "Province": "PAKTIKA",
    "PC_Code": "1216218",
    "District": "DILA WA KHUSHAMAND",
    "د_مرکز_نوم__نام_مرکز": "د میراگل زوړ کور",
    "Polling_Center_Name": "Mera Gul Old House",
    "د_مرکز_ځای__موقعیت_مرکز": "ﮀوری",
    "Polling_Center_Location": "Chori",
    "Map_Accuracy": "Building",
    "Map_Accuracy_Dari": "تعمیر",
    "Status": "Open",
    "Status_Dari": null,
    "PS_Male": 0,
    "PS_Female": 2,
    "PS_Total": 2,
    "ولسوالي": "دیله و خوش امند",
    "Region": "South Eastern Region"
   },
   "geometry": {
    "x": 7590203.5638667978,
    "y": 3847468.6269841292
   }
  },
  {
   "attributes": {
    "OBJECTID": 3236,
    "ولایت": "پکتيا",
    "Province": "PAKTYA",
    "PC_Code": "1303088",
    "District": "ZURMAT",
    "د_مرکز_نوم__نام_مرکز": "کولالگو لیسه",
    "Polling_Center_Name": "Kolalgo High School",
    "د_مرکز_ځای__موقعیت_مرکز": "کولالگو",
    "Polling_Center_Location": "Kolalgo",
    "Map_Accuracy": "Building",
    "Map_Accuracy_Dari": "تعمیر",
    "Status": "Open",
    "Status_Dari": null,
    "PS_Male": 5,
    "PS_Female": 0,
    "PS_Total": 5,
    "ولسوالي": "زرمت",
    "Region": "South Eastern Region"
   },
   "geometry": {
    "x": 7668669.5403965013,
    "y": 3955572.4590787413
   }
  },
  {
   "attributes": {
    "OBJECTID": 3237,
    "ولایت": "پکتيا",
    "Province": "PAKTYA",
    "PC_Code": "1306027",
    "District": "SAYYID KARAM",
    "د_مرکز_نوم__نام_مرکز": "د خوشحال خیلو مدرسه",
    "Polling_Center_Name": "Khushal Khel Madrassa",
    "د_مرکز_ځای__موقعیت_مرکز": "خوشحال خیل",
    "Polling_Center_Location": "Khushal Khel",
    "Map_Accuracy": "Building",
    "Map_Accuracy_Dari": "تعمیر",
    "Status": "Open",
    "Status_Dari": null,
    "PS_Male": 2,
    "PS_Female": 0,
    "PS_Total": 2,
    "ولسوالي": "سید کرم",
    "Region": "South Eastern Region"
   },
   "geometry": {
    "x": 7730159.3001462147,
    "y": 3985709.1090542362
   }
  },
  {
   "attributes": {
    "OBJECTID": 3238,
    "ولایت": "پکتيا",
    "Province": "PAKTYA",
    "PC_Code": "1307060",
    "District": "JAJI ARYOB",
    "د_مرکز_نوم__نام_مرکز": "کوټکئ شیشتی مسجد",
    "Polling_Center_Name": "Kotkai Sheshti Mosque",
    "د_مرکز_ځای__موقعیت_مرکز": "شیشته",
    "Polling_Center_Location": "Shishta ",
    "Map_Accuracy": "Building",
    "Map_Accuracy_Dari": "تعمیر",
    "Status": "Open",
    "Status_Dari": null,
    "PS_Male": 0,
    "PS_Female": 4,
    "PS_Total": 4,
    "ولسوالي": "ځاځی اریوب",
    "Region": "South Eastern Region"
   },
   "geometry": {
    "x": 7758884.25724776,
    "y": 4019531.5131476079
   }
  },
  {
   "attributes": {
    "OBJECTID": 3239,
    "ولایت": "پکتيا",
    "Province": "PAKTYA",
    "PC_Code": "1308142",
    "District": "LAJA AHMAD KHEL",
    "د_مرکز_نوم__نام_مرکز": "سکندر خیل عالی لیسه",
    "Polling_Center_Name": "Sakandar Khel High School",
    "د_مرکز_ځای__موقعیت_مرکز": "ورسک کلی، احمدخیل",
    "Polling_Center_Location": "Woersak Village",
    "Map_Accuracy": "Building",
    "Map_Accuracy_Dari": "تعمیر",
    "Status": "Open",
    "Status_Dari": null,
    "PS_Male": 3,
    "PS_Female": 0,
    "PS_Total": 3,
    "ولسوالي": " لجه احمد خیل",
    "Region": "South Eastern Region"
   },
   "geometry": {
    "x": 7756901.6971917488,
    "y": 4014188.5291302931
   }
  },
  {
   "attributes": {
    "OBJECTID": 3240,
    "ولایت": "پکتيا",
    "Province": "PAKTYA",
    "PC_Code": "1313051",
    "District": "MEERZAKA",
    "د_مرکز_نوم__نام_مرکز": "مسجد چورړکای ",
    "Polling_Center_Name": "Chorrkay Mosque",
    "د_مرکز_ځای__موقعیت_مرکز": "چورړکای  میرزکه ",
    "Polling_Center_Location": "Chorrkay, Merzaka",
    "Map_Accuracy": "Village",
    "Map_Accuracy_Dari": "قریه",
    "Status": "Open",
    "Status_Dari": null,
    "PS_Male": 3,
    "PS_Female": 0,
    "PS_Total": 3,
    "ولسوالي": "میرزکه",
    "Region": "South Eastern Region"
   },
   "geometry": {
    "x": 7740030.8454229813,
    "y": 3997922.1850414798
   }
  },
  {
   "attributes": {
    "OBJECTID": 3241,
    "ولایت": "خوست",
    "Province": "KHOST",
    "PC_Code": "1401019",
    "District": "KHOST",
    "د_مرکز_نوم__نام_مرکز": "عسکري روغتون",
    "Polling_Center_Name": "Askari Hospital ",
    "د_مرکز_ځای__موقعیت_مرکز": "خوست ښار",
    "Polling_Center_Location": "Khost City",
    "Map_Accuracy": "Building",
    "Map_Accuracy_Dari": "تعمیر",
    "Status": "Open",
    "Status_Dari": null,
    "PS_Male": 3,
    "PS_Female": 2,
    "PS_Total": 5,
    "ولسوالي": "خوست",
    "Region": "South Eastern Region"
   },
   "geometry": {
    "x": 7783801.4521298921,
    "y": 3940859.4810237307
   }
  },
  {
   "attributes": {
    "OBJECTID": 3242,
    "ولایت": "خوست",
    "Province": "KHOST",
    "PC_Code": "1401020",
    "District": "KHOST",
    "د_مرکز_نوم__نام_مرکز": "معيوبينو رياست",
    "Polling_Center_Name": "Disabled Department ",
    "د_مرکز_ځای__موقعیت_مرکز": "ازادى مينه معيوبينو رياست",
    "Polling_Center_Location": "Azadi Mena",
    "Map_Accuracy": "Building",
    "Map_Accuracy_Dari": "تعمیر",
    "Status": "Open",
    "Status_Dari": null,
    "PS_Male": 4,
    "PS_Female": 2,
    "PS_Total": 6,
    "ولسوالي": "خوست",
    "Region": "South Eastern Region"
   },
   "geometry": {
    "x": 7781294.2499929368,
    "y": 3940779.8213184741
   }
  },
  {
   "attributes": {
    "OBJECTID": 3243,
    "ولایت": "خوست",
    "Province": "KHOST",
    "PC_Code": "1409060",
    "District": "BAAK",
    "د_مرکز_نوم__نام_مرکز": "توتک ښوونځى ",
    "Polling_Center_Name": "Totak Village School ",
    "د_مرکز_ځای__موقعیت_مرکز": " توتک",
    "Polling_Center_Location": "Totak",
    "Map_Accuracy": "Village",
    "Map_Accuracy_Dari": "قریه",
    "Status": "Open",
    "Status_Dari": null,
    "PS_Male": 2,
    "PS_Female": 1,
    "PS_Total": 3,
    "ولسوالي": "باک",
    "Region": "South Eastern Region"
   },
   "geometry": {
    "x": 7794824.5719354358,
    "y": 3973246.9187381426
   }
  },
  {
   "attributes": {
    "OBJECTID": 3244,
    "ولایت": "خوست",
    "Province": "KHOST",
    "PC_Code": "1409061",
    "District": "BAAK",
    "د_مرکز_نوم__نام_مرکز": "د نور افضل هجره",
    "Polling_Center_Name": "Noor Afzal Hojra",
    "د_مرکز_ځای__موقعیت_مرکز": " مانه کهول",
    "Polling_Center_Location": "Mana Kahol",
    "Map_Accuracy": "Village",
    "Map_Accuracy_Dari": "قریه",
    "Status": "Open",
    "Status_Dari": null,
    "PS_Male": 2,
    "PS_Female": 1,
    "PS_Total": 3,
    "ولسوالي": "باک",
    "Region": "South Eastern Region"
   },
   "geometry": {
    "x": 7795157.3971753977,
    "y": 3966851.4384233695
   }
  },
  {
   "attributes": {
    "OBJECTID": 3245,
    "ولایت": "نورستان",
    "Province": "NOORISTAN",
    "PC_Code": "1601005",
    "District": "PAROON",
    "د_مرکز_نوم__نام_مرکز": "مکتب ابتدائیه ذکور کشتکی",
    "Polling_Center_Name": "Kashtaki Boys Primary School",
    "د_مرکز_ځای__موقعیت_مرکز": "کشتکی",
    "Polling_Center_Location": "Kashtaki",
    "Map_Accuracy": "Village",
    "Map_Accuracy_Dari": "قریه",
    "Status": "Open",
    "Status_Dari": null,
    "PS_Male": 2,
    "PS_Female": 2,
    "PS_Total": 4,
    "ولسوالي": "پارون",
    "Region": "Eastern Region"
   },
   "geometry": {
    "x": 7896071.3030195506,
    "y": 4213726.8092059782
   }
  },
  {
   "attributes": {
    "OBJECTID": 3246,
    "ولایت": "نورستان",
    "Province": "NOORISTAN",
    "PC_Code": "1601006",
    "District": "PAROON",
    "د_مرکز_نوم__نام_مرکز": "متوسطه ذکور پرونز",
    "Polling_Center_Name": "Pronz Boys Secondary School",
    "د_مرکز_ځای__موقعیت_مرکز": "پرونز",
    "Polling_Center_Location": "Pronz",
    "Map_Accuracy": "Building",
    "Map_Accuracy_Dari": "تعمیر",
    "Status": "Open",
    "Status_Dari": null,
    "PS_Male": 2,
    "PS_Female": 1,
    "PS_Total": 3,
    "ولسوالي": "پارون",
    "Region": "Eastern Region"
   },
   "geometry": {
    "x": 7895204.4559183521,
    "y": 4221157.9397115251
   }
  },
  {
   "attributes": {
    "OBJECTID": 3247,
    "ولایت": "بلخ",
    "Province": "BALKH",
    "PC_Code": "2107258",
    "District": "SHOLGARA",
    "د_مرکز_نوم__نام_مرکز": "مکتب نسوان دالان",
    "Polling_Center_Name": "Dalan Girls School",
    "د_مرکز_ځای__موقعیت_مرکز": "قریه دالان",
    "Polling_Center_Location": "Dalan Village",
    "Map_Accuracy": "Building",
    "Map_Accuracy_Dari": "تعمیر",
    "Status": "Open",
    "Status_Dari": null,
    "PS_Male": 2,
    "PS_Female": 1,
    "PS_Total": 3,
    "ولسوالي": "شولگره",
    "Region": "Northern Region"
   },
   "geometry": {
    "x": 7477147.0248148711,
    "y": 4330352.6977416594
   }
  },
  {
   "attributes": {
    "OBJECTID": 3248,
    "ولایت": "بلخ",
    "Province": "BALKH",
    "PC_Code": "2107259",
    "District": "SHOLGARA",
    "د_مرکز_نوم__نام_مرکز": "مکتب پیکان دره",
    "Polling_Center_Name": "Paikan Dara School",
    "د_مرکز_ځای__موقعیت_مرکز": "قریه پیکان دره",
    "Polling_Center_Location": "Paikan Dara Village",
    "Map_Accuracy": "Building",
    "Map_Accuracy_Dari": "تعمیر",
    "Status": "Open",
    "Status_Dari": null,
    "PS_Male": 3,
    "PS_Female": 1,
    "PS_Total": 4,
    "ولسوالي": "شولگره",
    "Region": "Northern Region"
   },
   "geometry": {
    "x": 7453432.2418465717,
    "y": 4369477.5604332667
   }
  },
  {
   "attributes": {
    "OBJECTID": 3249,
    "ولایت": "بلخ",
    "Province": "BALKH",
    "PC_Code": "2108218",
    "District": "CHIMTAL",
    "د_مرکز_نوم__نام_مرکز": "مکتب پشم قلعه",
    "Polling_Center_Name": "Pashm Qala School",
    "د_مرکز_ځای__موقعیت_مرکز": "قریه پشمه قلعه",
    "Polling_Center_Location": "Pashm Qala Village",
    "Map_Accuracy": "Village",
    "Map_Accuracy_Dari": "قریه",
    "Status": "Open",
    "Status_Dari": null,
    "PS_Male": 2,
    "PS_Female": 1,
    "PS_Total": 3,
    "ولسوالي": "چمتال",
    "Region": "Northern Region"
   },
   "geometry": {
    "x": 7410282.6209003031,
    "y": 4393425.183449124
   }
  },
  {
   "attributes": {
    "OBJECTID": 3250,
    "ولایت": "بلخ",
    "Province": "BALKH",
    "PC_Code": "2108219",
    "District": "CHIMTAL",
    "د_مرکز_نوم__نام_مرکز": "مسجد اسیاب گرگ",
    "Polling_Center_Name": "Asyab Gorg Mosque",
    "د_مرکز_ځای__موقعیت_مرکز": "قریه اسیا ب گرگ",
    "Polling_Center_Location": "Asyab Gorg Village",
    "Map_Accuracy": "Building",
    "Map_Accuracy_Dari": "تعمیر",
    "Status": "Open",
    "Status_Dari": null,
    "PS_Male": 2,
    "PS_Female": 1,
    "PS_Total": 3,
    "ولسوالي": "چمتال",
    "Region": "Northern Region"
   },
   "geometry": {
    "x": 7422815.0793801015,
    "y": 4393572.4474554164
   }
  },
  {
   "attributes": {
    "OBJECTID": 3251,
    "ولایت": "زابل",
    "Province": "ZABUL",
    "PC_Code": "2610040",
    "District": "SHEMEL ZAYI",
    "د_مرکز_نوم__نام_مرکز": "ميرويس خان مكتب",
    "Polling_Center_Name": "Mirwais Khan School",
    "د_مرکز_ځای__موقعیت_مرکز": "ځنځير",
    "Polling_Center_Location": "Zanzeer",
    "Map_Accuracy": "Building",
    "Map_Accuracy_Dari": "تعمیر",
    "Status": "Open",
    "Status_Dari": null,
    "PS_Male": 2,
    "PS_Female": 0,
    "PS_Total": 2,
    "ولسوالي": "شملزایي",
    "Region": "Southern Region"
   },
   "geometry": {
    "x": 7550103.9811959919,
    "y": 3717575.9952413226
   }
  },
  {
   "attributes": {
    "OBJECTID": 3252,
    "ولایت": "زابل",
    "Province": "ZABUL",
    "PC_Code": "2610041",
    "District": "SHEMEL ZAYI",
    "د_مرکز_نوم__نام_مرکز": "د معارف مديريت",
    "Polling_Center_Name": "Maaref Mudiryat",
    "د_مرکز_ځای__موقعیت_مرکز": "مرکز شملزائي",
    "Polling_Center_Location": "Shamalzai Markaz",
    "Map_Accuracy": "Building",
    "Map_Accuracy_Dari": "تعمیر",
    "Status": "Open",
    "Status_Dari": null,
    "PS_Male": 4,
    "PS_Female": 3,
    "PS_Total": 7,
    "ولسوالي": "شملزایي",
    "Region": "Southern Region"
   },
   "geometry": {
    "x": 7530301.3959405981,
    "y": 3751385.6452264441
   }
  },
  {
   "attributes": {
    "OBJECTID": 3253,
    "ولایت": "کندهار",
    "Province": "کندهار",
    "PC_Code": "2704181",
    "District": "PANJWAYEE",
    "د_مرکز_نوم__نام_مرکز": "محمد جان كمپ",
    "Polling_Center_Name": "Mohammad Jan Camp",
    "د_مرکز_ځای__موقعیت_مرکز": "ټالكان",
    "Polling_Center_Location": "Talgan",
    "Map_Accuracy": "Village",
    "Map_Accuracy_Dari": "قریه",
    "Status": "Open",
    "Status_Dari": null,
    "PS_Male": 2,
    "PS_Female": 1,
    "PS_Total": 3,
    "ولسوالي": "پنجوایې",
    "Region": "Southern Region"
   },
   "geometry": {
    "x": 7272065.8787442325,
    "y": 3690799.274142812
   }
  },
  {
   "attributes": {
    "OBJECTID": 3254,
    "ولایت": "کندهار",
    "Province": "کندهار",
    "PC_Code": "2705157",
    "District": "ZHIRE",
    "د_مرکز_نوم__نام_مرکز": "څلورم كمپ مسجد",
    "Polling_Center_Name": "4th Camp Mosque",
    "د_مرکز_ځای__موقعیت_مرکز": "د ژړي دښت",
    "Polling_Center_Location": "Zharee Dasht",
    "Map_Accuracy": "Building",
    "Map_Accuracy_Dari": "تعمیر",
    "Status": "Open",
    "Status_Dari": null,
    "PS_Male": 3,
    "PS_Female": 2,
    "PS_Total": 5,
    "ولسوالي": "ژیړی",
    "Region": "Southern Region"
   },
   "geometry": {
    "x": 7278378.1079807207,
    "y": 3721009.2954178071
   }
  },
  {
   "attributes": {
    "OBJECTID": 3255,
    "ولایت": "کندهار",
    "Province": "کندهار",
    "PC_Code": "2705158",
    "District": "ZHIRE",
    "د_مرکز_نوم__نام_مرکز": "دوهم كمپ مسجد",
    "Polling_Center_Name": "2nd Camp Mosque",
    "د_مرکز_ځای__موقعیت_مرکز": "د ژړي دښت",
    "Polling_Center_Location": "Zharee Dasht",
    "Map_Accuracy": "Building",
    "Map_Accuracy_Dari": "تعمیر",
    "Status": "Open",
    "Status_Dari": null,
    "PS_Male": 1,
    "PS_Female": 1,
    "PS_Total": 2,
    "ولسوالي": "ژیړی",
    "Region": "Southern Region"
   },
   "geometry": {
    "x": 7279230.1295521325,
    "y": 3719872.3826124468
   }
  },
  {
   "attributes": {
    "OBJECTID": 3256,
    "ولایت": "کندهار",
    "Province": "کندهار",
    "PC_Code": "2711220",
    "District": "SPIN BOLDAK",
    "د_مرکز_نوم__نام_مرکز": "د شهيد عبدالله جان مكتب",
    "Polling_Center_Name": "Shaheed Abdullah Jan School",
    "د_مرکز_ځای__موقعیت_مرکز": "رباط",
    "Polling_Center_Location": "Rabat",
    "Map_Accuracy": "Village",
    "Map_Accuracy_Dari": "قریه",
    "Status": "Open",
    "Status_Dari": null,
    "PS_Male": 4,
    "PS_Female": 1,
    "PS_Total": 5,
    "ولسوالي": "سپین بولدک",
    "Region": "Southern Region"
   },
   "geometry": {
    "x": 7393843.9325454924,
    "y": 3638458.062205717
   }
  },
  {
   "attributes": {
    "OBJECTID": 3257,
    "ولایت": "هلمند",
    "Province": "HELMAND",
    "PC_Code": "3004056",
    "District": "NAHR-E-SARAJ",
    "د_مرکز_نوم__نام_مرکز": "خانه نورزي لعل محمد",
    "Polling_Center_Name": "Noorzi Lal Mohammad Private House",
    "د_مرکز_ځای__موقعیت_مرکز": "ډاګیان",
    "Polling_Center_Location": "Dagiyan",
    "Map_Accuracy": "Village",
    "Map_Accuracy_Dari": "قریه",
    "Status": "Open",
    "Status_Dari": null,
    "PS_Male": 3,
    "PS_Female": 1,
    "PS_Total": 4,
    "ولسوالي": "نهرسراج",
    "Region": "Southern Region"
   },
   "geometry": {
    "x": 7192826.295205622,
    "y": 3738230.0847571408
   }
  },
  {
   "attributes": {
    "OBJECTID": 3258,
    "ولایت": "هلمند",
    "Province": "HELMAND",
    "PC_Code": "3004057",
    "District": "NAHR-E-SARAJ",
    "د_مرکز_نوم__نام_مرکز": "مکتب باوزی",
    "Polling_Center_Name": "Bowzai School",
    "د_مرکز_ځای__موقعیت_مرکز": "باوزی",
    "Polling_Center_Location": "Bawzai",
    "Map_Accuracy": "Village",
    "Map_Accuracy_Dari": "قریه",
    "Status": "Open",
    "Status_Dari": null,
    "PS_Male": 3,
    "PS_Female": 1,
    "PS_Total": 4,
    "ولسوالي": "نهرسراج",
    "Region": "Southern Region"
   },
   "geometry": {
    "x": 7187299.0464904206,
    "y": 3735843.0155325052
   }
  },
  {
   "attributes": {
    "OBJECTID": 3259,
    "ولایت": "هلمند",
    "Province": "HELMAND",
    "PC_Code": "3007192",
    "District": "NAWZAD",
    "د_مرکز_نوم__نام_مرکز": "د حاجی محمد قاسم خان مسجد",
    "Polling_Center_Name": "Haji Mohammad Qasim Khan Mosque",
    "د_مرکز_ځای__موقعیت_مرکز": "دهنه",
    "Polling_Center_Location": "Dahna",
    "Map_Accuracy": "Building",
    "Map_Accuracy_Dari": "تعمیر",
    "Status": "Open",
    "Status_Dari": null,
    "PS_Male": 5,
    "PS_Female": 2,
    "PS_Total": 7,
    "ولسوالي": "نوزاد",
    "Region": "Southern Region"
   },
   "geometry": {
    "x": 7182676.8419332858,
    "y": 3809555.3865094567
   }
  },
  {
   "attributes": {
    "OBJECTID": 3260,
    "ولایت": "هرات",
    "Province": "HERAT",
    "PC_Code": "3206124",
    "District": "PASHTUN ZARGHUN",
    "د_مرکز_نوم__نام_مرکز": "مکتب پشکان اول",
    "Polling_Center_Name": "Pushkan Awal School ",
    "د_مرکز_ځای__موقعیت_مرکز": " پشکان اول",
    "Polling_Center_Location": "Pushkan Awal",
    "Map_Accuracy": "Village",
    "Map_Accuracy_Dari": "قریه",
    "Status": "Open",
    "Status_Dari": null,
    "PS_Male": 2,
    "PS_Female": 1,
    "PS_Total": 3,
    "ولسوالي": "پشتون زرغون",
    "Region": "Western Region"
   },
   "geometry": {
    "x": 6989044.5080801528,
    "y": 4060682.1681016674
   }
  },
  {
   "attributes": {
    "OBJECTID": 3261,
    "ولایت": "هرات",
    "Province": "HERAT",
    "PC_Code": "3207187",
    "District": "KUSHK (RUBAT-E-SANGI)",
    "د_مرکز_نوم__نام_مرکز": "مکتب خواجه نور",
    "Polling_Center_Name": "Khwaja Noor School ",
    "د_مرکز_ځای__موقعیت_مرکز": "قریه خواجه نور ",
    "Polling_Center_Location": "Khwaja Noor Village ",
    "Map_Accuracy": "Village",
    "Map_Accuracy_Dari": "قریه",
    "Status": "Open",
    "Status_Dari": null,
    "PS_Male": 2,
    "PS_Female": 2,
    "PS_Total": 4,
    "ولسوالي": "کشک (رباط سنگی)",
    "Region": "Western Region"
   },
   "geometry": {
    "x": 6944981.1991286725,
    "y": 4126217.4357738192
   }
  },
  {
   "attributes": {
    "OBJECTID": 3262,
    "ولایت": "هرات",
    "Province": "HERAT",
    "PC_Code": "3208203",
    "District": "GULRAN",
    "د_مرکز_نوم__نام_مرکز": "مسجد کاریز سام",
    "Polling_Center_Name": "Kariz-e- Sam Mosque ",
    "د_مرکز_ځای__موقعیت_مرکز": " کاریز سام",
    "Polling_Center_Location": "Kariz Sam ",
    "Map_Accuracy": "Village",
    "Map_Accuracy_Dari": "قریه",
    "Status": "Open",
    "Status_Dari": null,
    "PS_Male": 1,
    "PS_Female": 2,
    "PS_Total": 3,
    "ولسوالي": "گلران ",
    "Region": "Western Region"
   },
   "geometry": {
    "x": 6828315.1210236717,
    "y": 4198536.4220752278
   }
  },
  {
   "attributes": {
    "OBJECTID": 3263,
    "ولایت": "هرات",
    "Province": "HERAT",
    "PC_Code": "3208204",
    "District": "GULRAN",
    "د_مرکز_نوم__نام_مرکز": "مسجد کلاته",
    "Polling_Center_Name": "Kalatah Mosque ",
    "د_مرکز_ځای__موقعیت_مرکز": "قریه  کلاته",
    "Polling_Center_Location": "Kalata Village ",
    "Map_Accuracy": "Village",
    "Map_Accuracy_Dari": "قریه",
    "Status": "Open",
    "Status_Dari": null,
    "PS_Male": 2,
    "PS_Female": 1,
    "PS_Total": 3,
    "ولسوالي": "گلران ",
    "Region": "Western Region"
   },
   "geometry": {
    "x": 6831700.7185457945,
    "y": 4211078.9365541274
   }
  },
  {
   "attributes": {
    "OBJECTID": 3264,
    "ولایت": "هرات",
    "Province": "HERAT",
    "PC_Code": "3210415",
    "District": "KUSHK-E-KUHNA",
    "د_مرکز_نوم__نام_مرکز": "مسجد پایین محمد آباد چشمه خافی زنانه",
    "Polling_Center_Name": "Muhammad Abad Cheshma khafi Mosque(Female)",
    "د_مرکز_ځای__موقعیت_مرکز": "قریه چشمه خافی",
    "Polling_Center_Location": "Chashma-e- Khafi Village",
    "Map_Accuracy": "Village",
    "Map_Accuracy_Dari": "قریه",
    "Status": "Open",
    "Status_Dari": null,
    "PS_Male": 0,
    "PS_Female": 2,
    "PS_Total": 2,
    "ولسوالي": "کشک کهنه ",
    "Region": "Western Region"
   },
   "geometry": {
    "x": 6974049.4910319904,
    "y": 4140934.5903661917
   }
  },
  {
   "attributes": {
    "OBJECTID": 3265,
    "ولایت": "نيمروز",
    "Province": "NIMROZ",
    "PC_Code": "3404020",
    "District": "CHAR BURJAK",
    "د_مرکز_نوم__نام_مرکز": "شفخانه مرکزولسوالی",
    "Polling_Center_Name": "District Center Hospital ",
    "د_مرکز_ځای__موقعیت_مرکز": "مرکز ولسوالی ",
    "Polling_Center_Location": "Char Burjak District Center  ",
    "Map_Accuracy": "Building",
    "Map_Accuracy_Dari": "تعمیر",
    "Status": "Open",
    "Status_Dari": null,
    "PS_Male": 1,
    "PS_Female": 3,
    "PS_Total": 4,
    "ولسوالي": "چهار برجک",
    "Region": "Southern Region"
   },
   "geometry": {
    "x": 6908240.2211185358,
    "y": 3539413.211606028
   }
  },
  {
   "attributes": {
    "OBJECTID": 3266,
    "ولایت": "هرات",
    "Province": "HERAT",
    "PC_Code": "3213234",
    "District": "KOHSAN",
    "د_مرکز_نوم__نام_مرکز": "مکتب ابتدایی کلاته قاضی",
    "Polling_Center_Name": "Kalata Qazi Primary School ",
    "د_مرکز_ځای__موقعیت_مرکز": "کلاته قاضی",
    "Polling_Center_Location": "Kalat-e- Qazi ",
    "Map_Accuracy": "Building",
    "Map_Accuracy_Dari": "تعمیر",
    "Status": "Open",
    "Status_Dari": null,
    "PS_Male": 2,
    "PS_Female": 1,
    "PS_Total": 3,
    "ولسوالي": "کهسان ",
    "Region": "Western Region"
   },
   "geometry": {
    "x": 6801113.0234617349,
    "y": 4124895.6509223818
   }
  },
  {
   "attributes": {
    "OBJECTID": 3267,
    "ولایت": "هرات",
    "Province": "HERAT",
    "PC_Code": "3214306",
    "District": "SHINDAND",
    "د_مرکز_نوم__نام_مرکز": "مکتب کهنه سنگ",
    "Polling_Center_Name": "Kuhna Sang School ",
    "د_مرکز_ځای__موقعیت_مرکز": "کهنه سنگ ",
    "Polling_Center_Location": "Kuhna Sang ",
    "Map_Accuracy": "Building",
    "Map_Accuracy_Dari": "تعمیر",
    "Status": "Open",
    "Status_Dari": null,
    "PS_Male": 1,
    "PS_Female": 1,
    "PS_Total": 2,
    "ولسوالي": "شیندند",
    "Region": "Western Region"
   },
   "geometry": {
    "x": 6920185.5126990061,
    "y": 3934944.6906267172
   }
  },
  {
   "attributes": {
    "OBJECTID": 3268,
    "ولایت": "هرات",
    "Province": "HERAT",
    "PC_Code": "3214328",
    "District": "SHINDAND",
    "د_مرکز_نوم__نام_مرکز": "مسجد چنگان",
    "Polling_Center_Name": "Changan Mosque ",
    "د_مرکز_ځای__موقعیت_مرکز": "چنگان",
    "Polling_Center_Location": "Changan ",
    "Map_Accuracy": "Building",
    "Map_Accuracy_Dari": "تعمیر",
    "Status": "Open",
    "Status_Dari": null,
    "PS_Male": 2,
    "PS_Female": 1,
    "PS_Total": 3,
    "ولسوالي": "شیندند",
    "Region": "Western Region"
   },
   "geometry": {
    "x": 6927246.5669993544,
    "y": 3941697.1876198649
   }
  },
  {
   "attributes": {
    "OBJECTID": 3269,
    "ولایت": "هرات",
    "Province": "HERAT",
    "PC_Code": "3214329",
    "District": "SHINDAND",
    "د_مرکز_نوم__نام_مرکز": "مدرسه کودان",
    "Polling_Center_Name": "Kohdan Madrassa ",
    "د_مرکز_ځای__موقعیت_مرکز": "کودان ",
    "Polling_Center_Location": "Kohdan ",
    "Map_Accuracy": "Village",
    "Map_Accuracy_Dari": "قریه",
    "Status": "Open",
    "Status_Dari": null,
    "PS_Male": 2,
    "PS_Female": 1,
    "PS_Total": 3,
    "ولسوالي": "شیندند",
    "Region": "Western Region"
   },
   "geometry": {
    "x": 6932175.7328259647,
    "y": 3938478.2622674243
   }
  },
  {
   "attributes": {
    "OBJECTID": 3270,
    "ولایت": "هرات",
    "Province": "HERAT",
    "PC_Code": "3214350",
    "District": "SHINDAND",
    "د_مرکز_نوم__نام_مرکز": "مسجد واخل  کوه زور",
    "Polling_Center_Name": "Wakhal Koh-e- Zoor Mosque ",
    "د_مرکز_ځای__موقعیت_مرکز": "واخل ",
    "Polling_Center_Location": "Wakhal ",
    "Map_Accuracy": "Building",
    "Map_Accuracy_Dari": "تعمیر",
    "Status": "Open",
    "Status_Dari": null,
    "PS_Male": 1,
    "PS_Female": 1,
    "PS_Total": 2,
    "ولسوالي": "شیندند",
    "Region": "Western Region"
   },
   "geometry": {
    "x": 6975403.0469844416,
    "y": 3951175.4335317602
   }
  },
  {
   "attributes": {
    "OBJECTID": 3271,
    "ولایت": "هرات",
    "Province": "HERAT",
    "PC_Code": "3214351",
    "District": "SHINDAND",
    "د_مرکز_نوم__نام_مرکز": "مسجد دهن اوشه کوه زور",
    "Polling_Center_Name": "Dahan-e-Osha-Koh Zoor Mosque ",
    "د_مرکز_ځای__موقعیت_مرکز": "دهن اوشه ",
    "Polling_Center_Location": "Dahan-e- Oshah ",
    "Map_Accuracy": "Building",
    "Map_Accuracy_Dari": "تعمیر",
    "Status": "Open",
    "Status_Dari": null,
    "PS_Male": 2,
    "PS_Female": 1,
    "PS_Total": 3,
    "ولسوالي": "شیندند",
    "Region": "Western Region"
   },
   "geometry": {
    "x": 7011277.3993078461,
    "y": 3963078.0312912562
   }
  },
  {
   "attributes": {
    "OBJECTID": 3272,
    "ولایت": "هرات",
    "Province": "HERAT",
    "PC_Code": "3216392",
    "District": "CHISHT-E-SHARIF",
    "د_مرکز_نوم__نام_مرکز": "مسجد سونی",
    "Polling_Center_Name": "Sony Mosque",
    "د_مرکز_ځای__موقعیت_مرکز": "قریه سونی",
    "Polling_Center_Location": "Sony Village ",
    "Map_Accuracy": "Village",
    "Map_Accuracy_Dari": "قریه",
    "Status": "Open",
    "Status_Dari": null,
    "PS_Male": 1,
    "PS_Female": 1,
    "PS_Total": 2,
    "ولسوالي": "چشت شریف",
    "Region": "Western Region"
   },
   "geometry": {
    "x": 7083185.9286871655,
    "y": 4077754.3211479746
   }
  },
  {
   "attributes": {
    "OBJECTID": 3273,
    "ولایت": " فراه",
    "Province": "FARAH",
    "PC_Code": "3301009",
    "District": "FARAH",
    "د_مرکز_نوم__نام_مرکز": "مکتب متوسطه ",
    "Polling_Center_Name": "Secondary School",
    "د_مرکز_ځای__موقعیت_مرکز": "کرجی  ",
    "Polling_Center_Location": "Karji ",
    "Map_Accuracy": "Building",
    "Map_Accuracy_Dari": "تعمیر",
    "Status": "Open",
    "Status_Dari": null,
    "PS_Male": 3,
    "PS_Female": 1,
    "PS_Total": 4,
    "ولسوالي": "فراه",
    "Region": "Western Region"
   },
   "geometry": {
    "x": 6918900.4071014449,
    "y": 3816159.996831899
   }
  },
  {
   "attributes": {
    "OBJECTID": 3274,
    "ولایت": " فراه",
    "Province": "FARAH",
    "PC_Code": "3301010",
    "District": "FARAH",
    "د_مرکز_نوم__نام_مرکز": "لیسه چهار باغ ",
    "Polling_Center_Name": "Chahar Bagh High School",
    "د_مرکز_ځای__موقعیت_مرکز": "چهار باغ ",
    "Polling_Center_Location": "Chahar Bagh ",
    "Map_Accuracy": "Building",
    "Map_Accuracy_Dari": "تعمیر",
    "Status": "Open",
    "Status_Dari": null,
    "PS_Male": 2,
    "PS_Female": 2,
    "PS_Total": 4,
    "ولسوالي": "فراه",
    "Region": "Western Region"
   },
   "geometry": {
    "x": 6911857.4021433331,
    "y": 3813042.3846893366
   }
  },
  {
   "attributes": {
    "OBJECTID": 3275,
    "ولایت": " فراه",
    "Province": "FARAH",
    "PC_Code": "3301032",
    "District": "FARAH",
    "د_مرکز_نوم__نام_مرکز": " لیسه ذکور",
    "Polling_Center_Name": "Boys High School",
    "د_مرکز_ځای__موقعیت_مرکز": "قله ارباب ",
    "Polling_Center_Location": "Qala-e-Arbab",
    "Map_Accuracy": "Building",
    "Map_Accuracy_Dari": "تعمیر",
    "Status": "Open",
    "Status_Dari": null,
    "PS_Male": 3,
    "PS_Female": 2,
    "PS_Total": 5,
    "ولسوالي": "فراه",
    "Region": "Western Region"
   },
   "geometry": {
    "x": 6914986.48393643,
    "y": 3810742.420342437
   }
  },
  {
   "attributes": {
    "OBJECTID": 3276,
    "ولایت": " فراه",
    "Province": "FARAH",
    "PC_Code": "3303051",
    "District": "KHAK-E-SAFED",
    "د_مرکز_نوم__نام_مرکز": " مسجد خشک ابه",
    "Polling_Center_Name": "Khushk Aaba Mosque ",
    "د_مرکز_ځای__موقعیت_مرکز": "خشک ابه",
    "Polling_Center_Location": "Khushk Aaba",
    "Map_Accuracy": "Village",
    "Map_Accuracy_Dari": "قریه",
    "Status": "Open",
    "Status_Dari": null,
    "PS_Male": 2,
    "PS_Female": 1,
    "PS_Total": 3,
    "ولسوالي": "خاک سفید ",
    "Region": "Western Region"
   },
   "geometry": {
    "x": 6919627.9846141003,
    "y": 3851273.0392887481
   }
  },
  {
   "attributes": {
    "OBJECTID": 3277,
    "ولایت": " فراه",
    "Province": "FARAH",
    "PC_Code": "3303052",
    "District": "KHAK-E-SAFED",
    "د_مرکز_نوم__نام_مرکز": "لیسه ده نو",
    "Polling_Center_Name": "Deh Naw High School ",
    "د_مرکز_ځای__موقعیت_مرکز": "ده نو",
    "Polling_Center_Location": "Deh Naw ",
    "Map_Accuracy": "Building",
    "Map_Accuracy_Dari": "تعمیر",
    "Status": "Open",
    "Status_Dari": null,
    "PS_Male": 2,
    "PS_Female": 1,
    "PS_Total": 3,
    "ولسوالي": "خاک سفید ",
    "Region": "Western Region"
   },
   "geometry": {
    "x": 6913377.3050372684,
    "y": 3849473.6067970898
   }
  },
  {
   "attributes": {
    "OBJECTID": 3278,
    "ولایت": " فراه",
    "Province": "FARAH",
    "PC_Code": "3304079",
    "District": "QALA-E-KAH",
    "د_مرکز_نوم__نام_مرکز": "مسجد جامع اور",
    "Polling_Center_Name": "Or Mosque ",
    "د_مرکز_ځای__موقعیت_مرکز": " اور",
    "Polling_Center_Location": "Or",
    "Map_Accuracy": "Village",
    "Map_Accuracy_Dari": "قریه",
    "Status": "Open",
    "Status_Dari": null,
    "PS_Male": 1,
    "PS_Female": 1,
    "PS_Total": 2,
    "ولسوالي": "قلعه کاه ",
    "Region": "Western Region"
   },
   "geometry": {
    "x": 6835042.7356004696,
    "y": 3818011.2686272846
   }
  },
  {
   "attributes": {
    "OBJECTID": 3279,
    "ولایت": " فراه",
    "Province": "FARAH",
    "PC_Code": "3304080",
    "District": "QALA-E-KAH",
    "د_مرکز_نوم__نام_مرکز": "مسجد کشکک",
    "Polling_Center_Name": "Kashkak  Mosque ",
    "د_مرکز_ځای__موقعیت_مرکز": " کشکک",
    "Polling_Center_Location": "Kashkak ",
    "Map_Accuracy": "Building",
    "Map_Accuracy_Dari": "تعمیر",
    "Status": "Open",
    "Status_Dari": null,
    "PS_Male": 1,
    "PS_Female": 1,
    "PS_Total": 2,
    "ولسوالي": "قلعه کاه ",
    "Region": "Western Region"
   },
   "geometry": {
    "x": 6848235.6047517676,
    "y": 3802105.9918786357
   }
  },
  {
   "attributes": {
    "OBJECTID": 3280,
    "ولایت": " فراه",
    "Province": "FARAH",
    "PC_Code": "3306132",
    "District": "BALA BULUK",
    "د_مرکز_نوم__نام_مرکز": " مسجد شیخ لالا",
    "Polling_Center_Name": "Shaikh lala Mosque ",
    "د_مرکز_ځای__موقعیت_مرکز": " شیخ لالا",
    "Polling_Center_Location": "Shaikh lala",
    "Map_Accuracy": "Village",
    "Map_Accuracy_Dari": "قریه",
    "Status": "Open",
    "Status_Dari": null,
    "PS_Male": 1,
    "PS_Female": 1,
    "PS_Total": 2,
    "ولسوالي": "بالا بلوک ",
    "Region": "Western Region"
   },
   "geometry": {
    "x": 6956496.3331610812,
    "y": 3844682.5196287995
   }
  },
  {
   "attributes": {
    "OBJECTID": 3281,
    "ولایت": " فراه",
    "Province": "FARAH",
    "PC_Code": "3306133",
    "District": "BALA BULUK",
    "د_مرکز_نوم__نام_مرکز": " مسجد کال قلعه",
    "Polling_Center_Name": "Kal Qala Mosque ",
    "د_مرکز_ځای__موقعیت_مرکز": " کال قلعه",
    "Polling_Center_Location": "Kal Qala ",
    "Map_Accuracy": "Building",
    "Map_Accuracy_Dari": "تعمیر",
    "Status": "Open",
    "Status_Dari": null,
    "PS_Male": 1,
    "PS_Female": 1,
    "PS_Total": 2,
    "ولسوالي": "بالا بلوک ",
    "Region": "Western Region"
   },
   "geometry": {
    "x": 6960783.8256128822,
    "y": 3845721.2343789814
   }
  },
  {
   "attributes": {
    "OBJECTID": 3282,
    "ولایت": " فراه",
    "Province": "FARAH",
    "PC_Code": "3309105",
    "District": "LASH-E-JUWAYN",
    "د_مرکز_نوم__نام_مرکز": " مکتب ابتدائیه سمور",
    "Polling_Center_Name": "Samsor Primary School ",
    "د_مرکز_ځای__موقعیت_مرکز": " سمور",
    "Polling_Center_Location": "Samsor ",
    "Map_Accuracy": "Building",
    "Map_Accuracy_Dari": "تعمیر",
    "Status": "Open",
    "Status_Dari": null,
    "PS_Male": 1,
    "PS_Female": 1,
    "PS_Total": 2,
    "ولسوالي": "لاش جوین ",
    "Region": "Western Region"
   },
   "geometry": {
    "x": 6850948.0933880769,
    "y": 3722948.1144926357
   }
  },
  {
   "attributes": {
    "OBJECTID": 3283,
    "ولایت": " فراه",
    "Province": "FARAH",
    "PC_Code": "3311209",
    "District": "PUR CHAMAN",
    "د_مرکز_نوم__نام_مرکز": " مسجد نر غر",
    "Polling_Center_Name": "Nar Ghar Mosque",
    "د_مرکز_ځای__موقعیت_مرکز": " نرغر",
    "Polling_Center_Location": "Nar Ghar ",
    "Map_Accuracy": "Building",
    "Map_Accuracy_Dari": "تعمیر",
    "Status": "Open",
    "Status_Dari": null,
    "PS_Male": 2,
    "PS_Female": 1,
    "PS_Total": 3,
    "ولسوالي": "پرچمن",
    "Region": "Western Region"
   },
   "geometry": {
    "x": 7115966.6733995993,
    "y": 3880248.2948614927
   }
  },
  {
   "attributes": {
    "OBJECTID": 3284,
    "ولایت": " فراه",
    "Province": "FARAH",
    "PC_Code": "3311210",
    "District": "PUR CHAMAN",
    "د_مرکز_نوم__نام_مرکز": "مسجد تجگو",
    "Polling_Center_Name": "Tajgo Mosque ",
    "د_مرکز_ځای__موقعیت_مرکز": "مسجد تجگو",
    "Polling_Center_Location": "Tajgo Mosque ",
    "Map_Accuracy": "Building",
    "Map_Accuracy_Dari": "تعمیر",
    "Status": "Open",
    "Status_Dari": null,
    "PS_Male": 1,
    "PS_Female": 1,
    "PS_Total": 2,
    "ولسوالي": "پرچمن",
    "Region": "Western Region"
   },
   "geometry": {
    "x": 7097410.1339588379,
    "y": 3876131.541780083
   }
  },
  {
   "attributes": {
    "OBJECTID": 3285,
    "ولایت": "نيمروز",
    "Province": "NIMROZ",
    "PC_Code": "3402015",
    "District": "KANG",
    "د_مرکز_نوم__نام_مرکز": "مکتب حاجی نبی جان",
    "Polling_Center_Name": "Haji Nabi Jan School ",
    "د_مرکز_ځای__موقعیت_مرکز": "حاجی نبی جان",
    "Polling_Center_Location": "Haji Nabi Jan",
    "Map_Accuracy": "Building",
    "Map_Accuracy_Dari": "تعمیر",
    "Status": "Open",
    "Status_Dari": null,
    "PS_Male": 1,
    "PS_Female": 1,
    "PS_Total": 2,
    "ولسوالي": "کنگ",
    "Region": "Southern Region"
   },
   "geometry": {
    "x": 6883155.9456994822,
    "y": 3657133.5288479133
   }
  },
  {
   "attributes": {
    "OBJECTID": 3286,
    "ولایت": "نيمروز",
    "Province": "NIMROZ",
    "PC_Code": "3402016",
    "District": "KANG",
    "د_مرکز_نوم__نام_مرکز": "مکتب درویش",
    "Polling_Center_Name": "Darwish School ",
    "د_مرکز_ځای__موقعیت_مرکز": "درویش",
    "Polling_Center_Location": "Darwish",
    "Map_Accuracy": "Building",
    "Map_Accuracy_Dari": "تعمیر",
    "Status": "Open",
    "Status_Dari": null,
    "PS_Male": 2,
    "PS_Female": 2,
    "PS_Total": 4,
    "ولسوالي": "کنگ",
    "Region": "Southern Region"
   },
   "geometry": {
    "x": 6880419.5845983746,
    "y": 3652022.9219809696
   }
  },
  {
   "attributes": {
    "OBJECTID": 3287,
    "ولایت": "نيمروز",
    "Province": "NIMROZ",
    "PC_Code": "3406047",
    "District": "DELARAM",
    "د_مرکز_نوم__نام_مرکز": "مکتب ابتدایی اناث",
    "Polling_Center_Name": "Girls Primary School",
    "د_مرکز_ځای__موقعیت_مرکز": "مرکز ولسوالی",
    "Polling_Center_Location": "District Capital",
    "Map_Accuracy": "Building",
    "Map_Accuracy_Dari": "تعمیر",
    "Status": "Open",
    "Status_Dari": null,
    "PS_Male": 2,
    "PS_Female": 2,
    "PS_Total": 4,
    "ولسوالي": "دلارام",
    "Region": "Southern Region"
   },
   "geometry": {
    "x": 7059929.5515895886,
    "y": 3784732.1665316052
   }
  },
  {
   "attributes": {
    "OBJECTID": 3288,
    "ولایت": "کابل",
    "Province": "KABUL",
    "PC_Code": "0101010",
    "District": "KABUL-D01",
    "د_مرکز_نوم__نام_مرکز": " ليسه عايشه دراني",
    "Polling_Center_Name": "Aiesha Durani High School",
    "د_مرکز_ځای__موقعیت_مرکز": "پل باغ عمومي",
    "Polling_Center_Location": "Pul-e-Bagh Umomi",
    "Map_Accuracy": "Building",
    "Map_Accuracy_Dari": "تعمیر",
    "Status": "Open",
    "Status_Dari": null,
    "PS_Male": 3,
    "PS_Female": 2,
    "PS_Total": 5,
    "ولسوالي": "کابل - ناحیه 01",
    "Region": "Central Region"
   },
   "geometry": {
    "x": 7700624.3657317273,
    "y": 4098485.6188643537
   }
  },
  {
   "attributes": {
    "OBJECTID": 3289,
    "ولایت": "کابل",
    "Province": "KABUL",
    "PC_Code": "0101015",
    "District": "KABUL-D01",
    "د_مرکز_نوم__نام_مرکز": " مسجد باغبان کوچه",
    "Polling_Center_Name": "Baghban Kucha Mosque",
    "د_مرکز_ځای__موقعیت_مرکز": "باغبان کوچه",
    "Polling_Center_Location": "Baghban Kucha",
    "Map_Accuracy": "Building",
    "Map_Accuracy_Dari": "تعمیر",
    "Status": "Open",
    "Status_Dari": null,
    "PS_Male": 2,
    "PS_Female": 1,
    "PS_Total": 3,
    "ولسوالي": "کابل - ناحیه 01",
    "Region": "Central Region"
   },
   "geometry": {
    "x": 7700455.361593998,
    "y": 4098070.2467604838
   }
  },
  {
   "attributes": {
    "OBJECTID": 3290,
    "ولایت": "کابل",
    "Province": "KABUL",
    "PC_Code": "0101031",
    "District": "KABUL-D02",
    "د_مرکز_نوم__نام_مرکز": "ریاست اداره امور",
    "Polling_Center_Name": "Office of Administrative Affairs (OAA)",
    "د_مرکز_ځای__موقعیت_مرکز": "مراد خانی",
    "Polling_Center_Location": "Murad Khani",
    "Map_Accuracy": "Building",
    "Map_Accuracy_Dari": "تعمیر",
    "Status": "Open",
    "Status_Dari": null,
    "PS_Male": 2,
    "PS_Female": 2,
    "PS_Total": 4,
    "ولسوالي": "کابل - ناحیه 02",
    "Region": "Central Region"
   },
   "geometry": {
    "x": 7701397.618744649,
    "y": 4099238.2432316374
   }
  },
  {
   "attributes": {
    "OBJECTID": 3291,
    "ولایت": "کابل",
    "Province": "KABUL",
    "PC_Code": "0101488",
    "District": "KABUL-D02",
    "د_مرکز_نوم__نام_مرکز": " زیارت ابوالفضل",
    "Polling_Center_Name": "Ziarat Abu Alfazal ",
    "د_مرکز_ځای__موقعیت_مرکز": "مراد خانی",
    "Polling_Center_Location": "Murad Khani",
    "Map_Accuracy": "Building",
    "Map_Accuracy_Dari": "تعمیر",
    "Status": "Open",
    "Status_Dari": null,
    "PS_Male": 1,
    "PS_Female": 1,
    "PS_Total": 2,
    "ولسوالي": "کابل - ناحیه 02",
    "Region": "Central Region"
   },
   "geometry": {
    "x": 7701429.2813474182,
    "y": 4098657.7925902172
   }
  },
  {
   "attributes": {
    "OBJECTID": 3292,
    "ولایت": "کابل",
    "Province": "KABUL",
    "PC_Code": "0101034",
    "District": "KABUL-D03",
    "د_مرکز_نوم__نام_مرکز": "مکتب متوسطه سيد جمال الدين",
    "Polling_Center_Name": "Sayed Jamaluddin Secondary School",
    "د_مرکز_ځای__موقعیت_مرکز": "کارته چهار",
    "Polling_Center_Location": "Kart-e-Chahar",
    "Map_Accuracy": "Building",
    "Map_Accuracy_Dari": "تعمیر",
    "Status": "Open",
    "Status_Dari": null,
    "PS_Male": 4,
    "PS_Female": 4,
    "PS_Total": 8,
    "ولسوالي": "کابل - ناحیه 03",
    "Region": "Central Region"
   },
   "geometry": {
    "x": 7696607.3462467045,
    "y": 4097234.9946818771
   }
  },
  {
   "attributes": {
    "OBJECTID": 3293,
    "ولایت": "کابل",
    "Province": "KABUL",
    "PC_Code": "0101035",
    "District": "KABUL-D03",
    "د_مرکز_نوم__نام_مرکز": " مکتب متوسطه نمبر١٣ جمال مينه",
    "Polling_Center_Name": "Jamal Menah 13th Number Secondary School",
    "د_مرکز_ځای__موقعیت_مرکز": "جمال مينه",
    "Polling_Center_Location": "Jamal Menah",
    "Map_Accuracy": "Building",
    "Map_Accuracy_Dari": "تعمیر",
    "Status": "Open",
    "Status_Dari": null,
    "PS_Male": 4,
    "PS_Female": 5,
    "PS_Total": 9,
    "ولسوالي": "کابل - ناحیه 03",
    "Region": "Central Region"
   },
   "geometry": {
    "x": 7697031.5803733394,
    "y": 4098277.9430555659
   }
  },
  {
   "attributes": {
    "OBJECTID": 3294,
    "ولایت": "کابل",
    "Province": "KABUL",
    "PC_Code": "0101049",
    "District": "KABUL-D04",
    "د_مرکز_نوم__نام_مرکز": " ليسه نسوان ملالي",
    "Polling_Center_Name": "Malalai Girls High School",
    "د_مرکز_ځای__موقعیت_مرکز": "چهار راهي صدارت",
    "Polling_Center_Location": "Sedarat Square",
    "Map_Accuracy": "Building",
    "Map_Accuracy_Dari": "تعمیر",
    "Status": "Open",
    "Status_Dari": null,
    "PS_Male": 2,
    "PS_Female": 5,
    "PS_Total": 7,
    "ولسوالي": "کابل - ناحیه 04",
    "Region": "Central Region"
   },
   "geometry": {
    "x": 7699709.7748141242,
    "y": 4099735.7712812698
   }
  },
  {
   "attributes": {
    "OBJECTID": 3295,
    "ولایت": "کابل",
    "Province": "KABUL",
    "PC_Code": "0101053",
    "District": "KABUL-D04",
    "د_مرکز_نوم__نام_مرکز": "مکتب متوسطه ناصر خسرو بلخي",
    "Polling_Center_Name": "Naser Khusraw Balkh School",
    "د_مرکز_ځای__موقعیت_مرکز": "چهار راهي تايمني",
    "Polling_Center_Location": "Taimani Square",
    "Map_Accuracy": "Building",
    "Map_Accuracy_Dari": "تعمیر",
    "Status": "Open",
    "Status_Dari": null,
    "PS_Male": 4,
    "PS_Female": 5,
    "PS_Total": 9,
    "ولسوالي": "کابل - ناحیه 04",
    "Region": "Central Region"
   },
   "geometry": {
    "x": 7697422.4275582908,
    "y": 4102652.3566999319
   }
  },
  {
   "attributes": {
    "OBJECTID": 3296,
    "ولایت": "کابل",
    "Province": "KABUL",
    "PC_Code": "0101054",
    "District": "KABUL-D04",
    "د_مرکز_نوم__نام_مرکز": "ليسه رابيا",
    "Polling_Center_Name": "Rabia High School",
    "د_مرکز_ځای__موقعیت_مرکز": "کارته پروان",
    "Polling_Center_Location": "Kart-e-Parwan",
    "Map_Accuracy": "Building",
    "Map_Accuracy_Dari": "تعمیر",
    "Status": "Open",
    "Status_Dari": null,
    "PS_Male": 4,
    "PS_Female": 4,
    "PS_Total": 8,
    "ولسوالي": "کابل - ناحیه 04",
    "Region": "Central Region"
   },
   "geometry": {
    "x": 7696859.4904593257,
    "y": 4101896.7699471856
   }
  },
  {
   "attributes": {
    "OBJECTID": 3297,
    "ولایت": "کابل",
    "Province": "KABUL",
    "PC_Code": "0101068",
    "District": "KABUL-D04",
    "د_مرکز_نوم__نام_مرکز": "مسجد حاجي محمد داد",
    "Polling_Center_Name": "Haji Mohammad Dad Mosque",
    "د_مرکز_ځای__موقعیت_مرکز": "تايمني",
    "Polling_Center_Location": "Taimani",
    "Map_Accuracy": "Building",
    "Map_Accuracy_Dari": "تعمیر",
    "Status": "Open",
    "Status_Dari": null,
    "PS_Male": 2,
    "PS_Female": 3,
    "PS_Total": 5,
    "ولسوالي": "کابل - ناحیه 04",
    "Region": "Central Region"
   },
   "geometry": {
    "x": 7697657.6389631694,
    "y": 4102915.1234410158
   }
  },
  {
   "attributes": {
    "OBJECTID": 3298,
    "ولایت": "کابل",
    "Province": "KABUL",
    "PC_Code": "0101072",
    "District": "KABUL-D05",
    "د_مرکز_نوم__نام_مرکز": " مسجد صاحب زمان",
    "Polling_Center_Name": "Sahib-e- Zaman Mosque",
    "د_مرکز_ځای__موقعیت_مرکز": "افشار سیلو",
    "Polling_Center_Location": "Afshar-e-Selo",
    "Map_Accuracy": "Building",
    "Map_Accuracy_Dari": "تعمیر",
    "Status": "Open",
    "Status_Dari": null,
    "PS_Male": 2,
    "PS_Female": 2,
    "PS_Total": 4,
    "ولسوالي": "کابل - ناحیه 05",
    "Region": "Central Region"
   },
   "geometry": {
    "x": 7693335.9246735079,
    "y": 4100166.2765951827
   }
  },
  {
   "attributes": {
    "OBJECTID": 3299,
    "ولایت": "کابل",
    "Province": "KABUL",
    "PC_Code": "0101088",
    "District": "KABUL-D05",
    "د_مرکز_نوم__نام_مرکز": "  لیسه محمد اسماعیل حسن زی",
    "Polling_Center_Name": "Mohammad Ismail Hassanzai High School",
    "د_مرکز_ځای__موقعیت_مرکز": "قسمت ب خوشحال مینه",
    "Polling_Center_Location": "Phase B of Khush-hal Mina",
    "Map_Accuracy": "Building",
    "Map_Accuracy_Dari": "تعمیر",
    "Status": "Open",
    "Status_Dari": null,
    "PS_Male": 3,
    "PS_Female": 2,
    "PS_Total": 5,
    "ولسوالي": "کابل - ناحیه 05",
    "Region": "Central Region"
   },
   "geometry": {
    "x": 7692200.0484193303,
    "y": 4099939.7459930941
   }
  },
  {
   "attributes": {
    "OBJECTID": 3300,
    "ولایت": "کابل",
    "Province": "KABUL",
    "PC_Code": "0101092",
    "District": "KABUL-D05",
    "د_مرکز_نوم__نام_مرکز": " مسجد حضرت يوسف",
    "Polling_Center_Name": "Hazrat Yousuf Mosque",
    "د_مرکز_ځای__موقعیت_مرکز": "رحمت آباد",
    "Polling_Center_Location": "Rahmat Abad",
    "Map_Accuracy": "Building",
    "Map_Accuracy_Dari": "تعمیر",
    "Status": "Open",
    "Status_Dari": null,
    "PS_Male": 4,
    "PS_Female": 2,
    "PS_Total": 6,
    "ولسوالي": "کابل - ناحیه 05",
    "Region": "Central Region"
   },
   "geometry": {
    "x": 7690306.6185400113,
    "y": 4100901.8676966485
   }
  },
  {
   "attributes": {
    "OBJECTID": 3301,
    "ولایت": "کابل",
    "Province": "KABUL",
    "PC_Code": "0101107",
    "District": "KABUL-D06",
    "د_مرکز_نوم__نام_مرکز": " مسجد حضرت رسول",
    "Polling_Center_Name": "Hazrat Rasool Mosque",
    "د_مرکز_ځای__موقعیت_مرکز": "نو آباد قلعه جبار خان",
    "Polling_Center_Location": "Naw Abad Qala-e-Jabar Khan",
    "Map_Accuracy": "Building",
    "Map_Accuracy_Dari": "تعمیر",
    "Status": "Open",
    "Status_Dari": null,
    "PS_Male": 3,
    "PS_Female": 2,
    "PS_Total": 5,
    "ولسوالي": "کابل - ناحیه 06",
    "Region": "Central Region"
   },
   "geometry": {
    "x": 7689870.0257235058,
    "y": 4094113.0859279111
   }
  },
  {
   "attributes": {
    "OBJECTID": 3302,
    "ولایت": "هرات",
    "Province": "HERAT",
    "PC_Code": "3214320",
    "District": "SHINDAND",
    "د_مرکز_نوم__نام_مرکز": "مسجد ده  علیکه ",
    "Polling_Center_Name": "Deh Alaika Mosque ",
    "د_مرکز_ځای__موقعیت_مرکز": "ده علیکه ",
    "Polling_Center_Location": "Deh Alaika ",
    "Map_Accuracy": "Village",
    "Map_Accuracy_Dari": "قریه",
    "Status": "Open",
    "Status_Dari": null,
    "PS_Male": 2,
    "PS_Female": 1,
    "PS_Total": 3,
    "ولسوالي": "شیندند",
    "Region": "Western Region"
   },
   "geometry": {
    "x": 6900281.6100090705,
    "y": 3948461.1679271301
   }
  },
  {
   "attributes": {
    "OBJECTID": 3303,
    "ولایت": "هرات",
    "Province": "HERAT",
    "PC_Code": "3214465",
    "District": "SHINDAND",
    "د_مرکز_نوم__نام_مرکز": "مسجد جوي نو",
    "Polling_Center_Name": "Joy-e-now Mosque ",
    "د_مرکز_ځای__موقعیت_مرکز": "قریه جاک",
    "Polling_Center_Location": "Jak Village",
    "Map_Accuracy": "Building",
    "Map_Accuracy_Dari": "تعمیر",
    "Status": "Open",
    "Status_Dari": null,
    "PS_Male": 1,
    "PS_Female": 1,
    "PS_Total": 2,
    "ولسوالي": "شیندند",
    "Region": "Western Region"
   },
   "geometry": {
    "x": 6927119.8386646435,
    "y": 3934316.5332313054
   }
  },
  {
   "attributes": {
    "OBJECTID": 3304,
    "ولایت": "هرات",
    "Province": "HERAT",
    "PC_Code": "3214466",
    "District": "SHINDAND",
    "د_مرکز_نوم__نام_مرکز": "مسجد كشك",
    "Polling_Center_Name": "Kashak Mosque ",
    "د_مرکز_ځای__موقعیت_مرکز": "کشک ",
    "Polling_Center_Location": "Kashak",
    "Map_Accuracy": "Village",
    "Map_Accuracy_Dari": "قریه",
    "Status": "Open",
    "Status_Dari": null,
    "PS_Male": 1,
    "PS_Female": 1,
    "PS_Total": 2,
    "ولسوالي": "شیندند",
    "Region": "Western Region"
   },
   "geometry": {
    "x": 6938299.7831424279,
    "y": 3946598.1004136549
   }
  },
  {
   "attributes": {
    "OBJECTID": 3305,
    "ولایت": "هرات",
    "Province": "HERAT",
    "PC_Code": "3207176",
    "District": "KUSHK (RUBAT-E-SANGI)",
    "د_مرکز_نوم__نام_مرکز": "مکتب لک لک خانه",
    "Polling_Center_Name": "Lak Lak Khana School ",
    "د_مرکز_ځای__موقعیت_مرکز": "لک لک خانه",
    "Polling_Center_Location": "Lak Lak Khana ",
    "Map_Accuracy": "Building",
    "Map_Accuracy_Dari": "تعمیر",
    "Status": "Open",
    "Status_Dari": null,
    "PS_Male": 1,
    "PS_Female": 1,
    "PS_Total": 2,
    "ولسوالي": "کشک (رباط سنگی)",
    "Region": "Western Region"
   },
   "geometry": {
    "x": 6945122.2241142625,
    "y": 4142025.9913666286
   }
  },
  {
   "attributes": {
    "OBJECTID": 3306,
    "ولایت": "هرات",
    "Province": "HERAT",
    "PC_Code": "3213244",
    "District": "KOHSAN",
    "د_مرکز_نوم__نام_مرکز": "موقعیت کوچی ها",
    "Polling_Center_Name": "kochis Location",
    "د_مرکز_ځای__موقعیت_مرکز": " چاه زاییدی",
    "Polling_Center_Location": "Chah-e-Zaiedi",
    "Map_Accuracy": "District",
    "Map_Accuracy_Dari": "ولسوالی",
    "Status": "Open",
    "Status_Dari": null,
    "PS_Male": 1,
    "PS_Female": 1,
    "PS_Total": 2,
    "ولسوالي": "کهسان ",
    "Region": "Western Region"
   },
   "geometry": {
    "x": 6812357.0133821573,
    "y": 4107234.8455420546
   }
  },
  {
   "attributes": {
    "OBJECTID": 3307,
    "ولایت": "هرات",
    "Province": "HERAT",
    "PC_Code": "3214337",
    "District": "SHINDAND",
    "د_مرکز_نوم__نام_مرکز": "مسجد فرمکان",
    "Polling_Center_Name": "Farmakan Mosque ",
    "د_مرکز_ځای__موقعیت_مرکز": "فرمکان ",
    "Polling_Center_Location": "Farmakan ",
    "Map_Accuracy": "Building",
    "Map_Accuracy_Dari": "تعمیر",
    "Status": "Open",
    "Status_Dari": null,
    "PS_Male": 1,
    "PS_Female": 1,
    "PS_Total": 2,
    "ولسوالي": "شیندند",
    "Region": "Western Region"
   },
   "geometry": {
    "x": 6921401.6080046445,
    "y": 3920768.3158799708
   }
  },
  {
   "attributes": {
    "OBJECTID": 3308,
    "ولایت": "کندز",
    "Province": "KUNDUZ",
    "PC_Code": "1905062",
    "District": "HAZRAT-E-IMAM SAHIB",
    "د_مرکز_نوم__نام_مرکز": "مکتب جان چشمه",
    "Polling_Center_Name": "Jan Chashma School",
    "د_مرکز_ځای__موقعیت_مرکز": "قریه جان چشمه",
    "Polling_Center_Location": "Jan Chashma Village",
    "Map_Accuracy": "Village",
    "Map_Accuracy_Dari": "قریه",
    "Status": "Open",
    "Status_Dari": null,
    "PS_Male": 1,
    "PS_Female": 1,
    "PS_Total": 2,
    "ولسوالي": "حضرت امام صاحب",
    "Region": "North Eastern Region"
   },
   "geometry": {
    "x": 7681342.8269377202,
    "y": 4445410.3377709147
   }
  },
  {
   "attributes": {
    "OBJECTID": 3309,
    "ولایت": "کابل",
    "Province": "KABUL",
    "PC_Code": "0101111",
    "District": "KABUL-D06",
    "د_مرکز_نوم__نام_مرکز": " مسجد جعفريه",
    "Polling_Center_Name": "Jafaria Mosque",
    "د_مرکز_ځای__موقعیت_مرکز": "علاوالدين",
    "Polling_Center_Location": "Allawoudin",
    "Map_Accuracy": "Building",
    "Map_Accuracy_Dari": "تعمیر",
    "Status": "Open",
    "Status_Dari": null,
    "PS_Male": 3,
    "PS_Female": 2,
    "PS_Total": 5,
    "ولسوالي": "کابل - ناحیه 06",
    "Region": "Central Region"
   },
   "geometry": {
    "x": 7695392.709226395,
    "y": 4094642.0491103418
   }
  },
  {
   "attributes": {
    "OBJECTID": 3310,
    "ولایت": "کابل",
    "Province": "KABUL",
    "PC_Code": "0101128",
    "District": "KABUL-D07",
    "د_مرکز_نوم__نام_مرکز": " مکتب متوسطه عطاالله فیضانی",
    "Polling_Center_Name": "Ataullah Faizani Secondary School",
    "د_مرکز_ځای__موقعیت_مرکز": "سه راهي علاوالدين",
    "Polling_Center_Location": "Se Rahi Allawoudin",
    "Map_Accuracy": "Building",
    "Map_Accuracy_Dari": "تعمیر",
    "Status": "Open",
    "Status_Dari": null,
    "PS_Male": 5,
    "PS_Female": 5,
    "PS_Total": 10,
    "ولسوالي": "کابل - ناحیه 07",
    "Region": "Central Region"
   },
   "geometry": {
    "x": 7696375.9659021031,
    "y": 4093015.393775126
   }
  },
  {
   "attributes": {
    "OBJECTID": 3311,
    "ولایت": "کابل",
    "Province": "KABUL",
    "PC_Code": "0101132",
    "District": "KABUL-D07",
    "د_مرکز_نوم__نام_مرکز": " ليسه حبيبيه",
    "Polling_Center_Name": "Habibia High School",
    "د_مرکز_ځای__موقعیت_مرکز": "سرک دارالامان",
    "Polling_Center_Location": "Darul Aman Road",
    "Map_Accuracy": "Building",
    "Map_Accuracy_Dari": "تعمیر",
    "Status": "Open",
    "Status_Dari": null,
    "PS_Male": 4,
    "PS_Female": 3,
    "PS_Total": 7,
    "ولسوالي": "کابل - ناحیه 07",
    "Region": "Central Region"
   },
   "geometry": {
    "x": 7697564.1762318956,
    "y": 4096436.0179291237
   }
  },
  {
   "attributes": {
    "OBJECTID": 3312,
    "ولایت": "کابل",
    "Province": "KABUL",
    "PC_Code": "0101490",
    "District": "KABUL-D07",
    "د_مرکز_نوم__نام_مرکز": " لیسه نسوان سردار کابلی",
    "Polling_Center_Name": "Sardar Kabuli Girls High School",
    "د_مرکز_ځای__موقعیت_مرکز": "سه راهی علاوالدین",
    "Polling_Center_Location": "Se Rahi Allawoudin",
    "Map_Accuracy": "Building",
    "Map_Accuracy_Dari": "تعمیر",
    "Status": "Open",
    "Status_Dari": null,
    "PS_Male": 2,
    "PS_Female": 4,
    "PS_Total": 6,
    "ولسوالي": "کابل - ناحیه 07",
    "Region": "Central Region"
   },
   "geometry": {
    "x": 7696340.5103103314,
    "y": 4094057.6759240013
   }
  },
  {
   "attributes": {
    "OBJECTID": 3313,
    "ولایت": "کابل",
    "Province": "KABUL",
    "PC_Code": "0101180",
    "District": "KABUL-D09",
    "د_مرکز_نوم__نام_مرکز": " لیسه ذکور بی بی مهرو",
    "Polling_Center_Name": "Bi Bi Mahru Boys High School",
    "د_مرکز_ځای__موقعیت_مرکز": "مکروريان سوم",
    "Polling_Center_Location": "3rd Makrorian",
    "Map_Accuracy": "Building",
    "Map_Accuracy_Dari": "تعمیر",
    "Status": "Open",
    "Status_Dari": null,
    "PS_Male": 3,
    "PS_Female": 2,
    "PS_Total": 5,
    "ولسوالي": "کابل - ناحیه 09",
    "Region": "Central Region"
   },
   "geometry": {
    "x": 7703014.3751615491,
    "y": 4101757.9932036903
   }
  },
  {
   "attributes": {
    "OBJECTID": 3314,
    "ولایت": "کابل",
    "Province": "KABUL",
    "PC_Code": "0101201",
    "District": "KABUL-D10",
    "د_مرکز_نوم__نام_مرکز": " مسجد حضرت يوسف",
    "Polling_Center_Name": "Hazrat Yousuf Mosque",
    "د_مرکز_ځای__موقعیت_مرکز": "چهار قلعه",
    "Polling_Center_Location": "Chahar Qala",
    "Map_Accuracy": "Building",
    "Map_Accuracy_Dari": "تعمیر",
    "Status": "Open",
    "Status_Dari": null,
    "PS_Male": 1,
    "PS_Female": 2,
    "PS_Total": 3,
    "ولسوالي": "کابل - ناحیه 10",
    "Region": "Central Region"
   },
   "geometry": {
    "x": 7700471.5775042204,
    "y": 4103736.4898668933
   }
  },
  {
   "attributes": {
    "OBJECTID": 3315,
    "ولایت": "کابل",
    "Province": "KABUL",
    "PC_Code": "0101215",
    "District": "KABUL-D10",
    "د_مرکز_نوم__نام_مرکز": " لیسه استاد مصباح ",
    "Polling_Center_Name": "Ustad Misbah Secondary School",
    "د_مرکز_ځای__موقعیت_مرکز": "سرک دوم تایمنی",
    "Polling_Center_Location": "2nd Road, Taimani",
    "Map_Accuracy": "Building",
    "Map_Accuracy_Dari": "تعمیر",
    "Status": "Open",
    "Status_Dari": null,
    "PS_Male": 3,
    "PS_Female": 2,
    "PS_Total": 5,
    "ولسوالي": "کابل - ناحیه 10",
    "Region": "Central Region"
   },
   "geometry": {
    "x": 7698175.7031754004,
    "y": 4103388.0536282649
   }
  },
  {
   "attributes": {
    "OBJECTID": 3316,
    "ولایت": "کابل",
    "Province": "KABUL",
    "PC_Code": "0101216",
    "District": "KABUL-D10",
    "د_مرکز_نوم__نام_مرکز": " مسجد حسينيه",
    "Polling_Center_Name": "Husainia Mosque",
    "د_مرکز_ځای__موقعیت_مرکز": "قلعه فتح الله",
    "Polling_Center_Location": "Qala-e-Fathullah",
    "Map_Accuracy": "Building",
    "Map_Accuracy_Dari": "تعمیر",
    "Status": "Open",
    "Status_Dari": null,
    "PS_Male": 4,
    "PS_Female": 3,
    "PS_Total": 7,
    "ولسوالي": "کابل - ناحیه 10",
    "Region": "Central Region"
   },
   "geometry": {
    "x": 7699780.1387510607,
    "y": 4102771.2266080701
   }
  },
  {
   "attributes": {
    "OBJECTID": 3317,
    "ولایت": "کابل",
    "Province": "KABUL",
    "PC_Code": "0101235",
    "District": "KABUL-D11",
    "د_مرکز_نوم__نام_مرکز": " فاتحه خانه زنانه",
    "Polling_Center_Name": "Fatiha Khana Zanana",
    "د_مرکز_ځای__موقعیت_مرکز": "حصه اول خير خانه",
    "Polling_Center_Location": "Hesa-e-Awal, Khair Khana",
    "Map_Accuracy": "Building",
    "Map_Accuracy_Dari": "تعمیر",
    "Status": "Open",
    "Status_Dari": null,
    "PS_Male": 3,
    "PS_Female": 2,
    "PS_Total": 5,
    "ولسوالي": "کابل - ناحیه 11",
    "Region": "Central Region"
   },
   "geometry": {
    "x": 7694525.4057152886,
    "y": 4106196.7392003955
   }
  },
  {
   "attributes": {
    "OBJECTID": 3318,
    "ولایت": "کابل",
    "Province": "KABUL",
    "PC_Code": "0101239",
    "District": "KABUL-D11",
    "د_مرکز_نوم__نام_مرکز": "ليسه غلام حيدر خان",
    "Polling_Center_Name": "Ghulam Haider Khan High School",
    "د_مرکز_ځای__موقعیت_مرکز": "ليسه مريم",
    "Polling_Center_Location": "Lesay Mariam",
    "Map_Accuracy": "Building",
    "Map_Accuracy_Dari": "تعمیر",
    "Status": "Open",
    "Status_Dari": null,
    "PS_Male": 4,
    "PS_Female": 3,
    "PS_Total": 7,
    "ولسوالي": "کابل - ناحیه 11",
    "Region": "Central Region"
   },
   "geometry": {
    "x": 7696366.7547708387,
    "y": 4106908.9814968864
   }
  },
  {
   "attributes": {
    "OBJECTID": 3319,
    "ولایت": "کابل",
    "Province": "KABUL",
    "PC_Code": "0101251",
    "District": "KABUL-D12",
    "د_مرکز_نوم__نام_مرکز": " لیسه بی بی عایشه صدیقه",
    "Polling_Center_Name": "Bi Bi Aisha Sediqa High School",
    "د_مرکز_ځای__موقعیت_مرکز": "احمد شاه بابا مينه",
    "Polling_Center_Location": "Ahmad Shah Baba Mina",
    "Map_Accuracy": "Building",
    "Map_Accuracy_Dari": "تعمیر",
    "Status": "Open",
    "Status_Dari": null,
    "PS_Male": 3,
    "PS_Female": 4,
    "PS_Total": 7,
    "ولسوالي": "کابل - ناحیه 12",
    "Region": "Central Region"
   },
   "geometry": {
    "x": 7716483.3578382246,
    "y": 4097779.1446995097
   }
  },
  {
   "attributes": {
    "OBJECTID": 3320,
    "ولایت": "کابل",
    "Province": "KABUL",
    "PC_Code": "0101255",
    "District": "KABUL-D12",
    "د_مرکز_نوم__نام_مرکز": " مسجد زن آباد ",
    "Polling_Center_Name": "Zan Abad Mosque",
    "د_مرکز_ځای__موقعیت_مرکز": "زن آباد",
    "Polling_Center_Location": "Zan Abad",
    "Map_Accuracy": "Building",
    "Map_Accuracy_Dari": "تعمیر",
    "Status": "Open",
    "Status_Dari": null,
    "PS_Male": 3,
    "PS_Female": 2,
    "PS_Total": 5,
    "ولسوالي": "کابل - ناحیه 12",
    "Region": "Central Region"
   },
   "geometry": {
    "x": 7715218.3687858442,
    "y": 4096427.0540672755
   }
  },
  {
   "attributes": {
    "OBJECTID": 3321,
    "ولایت": "کابل",
    "Province": "KABUL",
    "PC_Code": "0101497",
    "District": "KABUL-D12",
    "د_مرکز_نوم__نام_مرکز": " لیسه عالی محمد موسی شفیق",
    "Polling_Center_Name": "Mohammad Musa Shafiq High School",
    "د_مرکز_ځای__موقعیت_مرکز": "بلاک ۱۲",
    "Polling_Center_Location": "Block 12",
    "Map_Accuracy": "Building",
    "Map_Accuracy_Dari": "تعمیر",
    "Status": "Open",
    "Status_Dari": null,
    "PS_Male": 3,
    "PS_Female": 3,
    "PS_Total": 6,
    "ولسوالي": "کابل - ناحیه 12",
    "Region": "Central Region"
   },
   "geometry": {
    "x": 7716899.4200010374,
    "y": 4096588.395216607
   }
  },
  {
   "attributes": {
    "OBJECTID": 3322,
    "ولایت": "کابل",
    "Province": "KABUL",
    "PC_Code": "0101269",
    "District": "KABUL-D13",
    "د_مرکز_نوم__نام_مرکز": "مسجد مهدويه",
    "Polling_Center_Name": "Mahdawia Mosque",
    "د_مرکز_ځای__موقعیت_مرکز": "مهتاب قلعه",
    "Polling_Center_Location": "Mahtab Qala",
    "Map_Accuracy": "Building",
    "Map_Accuracy_Dari": "تعمیر",
    "Status": "Open",
    "Status_Dari": null,
    "PS_Male": 2,
    "PS_Female": 3,
    "PS_Total": 5,
    "ولسوالي": "کابل - ناحیه 13",
    "Region": "Central Region"
   },
   "geometry": {
    "x": 7691776.5734916236,
    "y": 4096758.5933791702
   }
  },
  {
   "attributes": {
    "OBJECTID": 3323,
    "ولایت": "کابل",
    "Province": "KABUL",
    "PC_Code": "0101270",
    "District": "KABUL-D13",
    "د_مرکز_نوم__نام_مرکز": "مسجد حسينيه",
    "Polling_Center_Name": "Husainia Mosque",
    "د_مرکز_ځای__موقعیت_مرکز": "ميدان طلوع",
    "Polling_Center_Location": "Maidan Tolo",
    "Map_Accuracy": "Building",
    "Map_Accuracy_Dari": "تعمیر",
    "Status": "Open",
    "Status_Dari": null,
    "PS_Male": 3,
    "PS_Female": 2,
    "PS_Total": 5,
    "ولسوالي": "کابل - ناحیه 13",
    "Region": "Central Region"
   },
   "geometry": {
    "x": 7691171.380627146,
    "y": 4095421.5461448804
   }
  },
  {
   "attributes": {
    "OBJECTID": 3324,
    "ولایت": "کابل",
    "Province": "KABUL",
    "PC_Code": "0101274",
    "District": "KABUL-D13",
    "د_مرکز_نوم__نام_مرکز": "مسجد بابل حوایج",
    "Polling_Center_Name": "Babul Hawaiej Mosque",
    "د_مرکز_ځای__موقعیت_مرکز": "پل خشک",
    "Polling_Center_Location": "Pul-e-Khushk",
    "Map_Accuracy": "Building",
    "Map_Accuracy_Dari": "تعمیر",
    "Status": "Open",
    "Status_Dari": null,
    "PS_Male": 1,
    "PS_Female": 2,
    "PS_Total": 3,
    "ولسوالي": "کابل - ناحیه 13",
    "Region": "Central Region"
   },
   "geometry": {
    "x": 7688002.7347738259,
    "y": 4096504.7505626152
   }
  },
  {
   "attributes": {
    "OBJECTID": 3325,
    "ولایت": "کابل",
    "Province": "KABUL",
    "PC_Code": "0101275",
    "District": "KABUL-D13",
    "د_مرکز_نوم__نام_مرکز": " مسجد امام باقر",
    "Polling_Center_Name": "Imam Baqer Mosque",
    "د_مرکز_ځای__موقعیت_مرکز": "پل خشک",
    "Polling_Center_Location": "Pul-e-Khushk",
    "Map_Accuracy": "Building",
    "Map_Accuracy_Dari": "تعمیر",
    "Status": "Open",
    "Status_Dari": null,
    "PS_Male": 2,
    "PS_Female": 3,
    "PS_Total": 5,
    "ولسوالي": "کابل - ناحیه 13",
    "Region": "Central Region"
   },
   "geometry": {
    "x": 7687885.4997652909,
    "y": 4095489.2123029875
   }
  },
  {
   "attributes": {
    "OBJECTID": 3326,
    "ولایت": "کابل",
    "Province": "KABUL",
    "PC_Code": "0101290",
    "District": "KABUL-D15",
    "د_مرکز_نوم__نام_مرکز": "مسجد قطيبيه",
    "Polling_Center_Name": "Qatebia Mosque",
    "د_مرکز_ځای__موقعیت_مرکز": "دو جمپه خواجه بغرا",
    "Polling_Center_Location": "Du Jampa-e-Khwaja Bughra",
    "Map_Accuracy": "Building",
    "Map_Accuracy_Dari": "تعمیر",
    "Status": "Open",
    "Status_Dari": null,
    "PS_Male": 3,
    "PS_Female": 3,
    "PS_Total": 6,
    "ولسوالي": "کابل - ناحیه 15",
    "Region": "Central Region"
   },
   "geometry": {
    "x": 7699579.1402784837,
    "y": 4107474.2628208492
   }
  },
  {
   "attributes": {
    "OBJECTID": 3327,
    "ولایت": "کابل",
    "Province": "KABUL",
    "PC_Code": "0101305",
    "District": "KABUL-D15",
    "د_مرکز_نوم__نام_مرکز": " مسجد شاه  اوليا",
    "Polling_Center_Name": "Shah-e-Awlia Mosque",
    "د_مرکز_ځای__موقعیت_مرکز": "پسته کچالو",
    "Polling_Center_Location": "Posta-e-Kachalu",
    "Map_Accuracy": "Building",
    "Map_Accuracy_Dari": "تعمیر",
    "Status": "Open",
    "Status_Dari": null,
    "PS_Male": 2,
    "PS_Female": 2,
    "PS_Total": 4,
    "ولسوالي": "کابل - ناحیه 15",
    "Region": "Central Region"
   },
   "geometry": {
    "x": 7698905.5760959536,
    "y": 4108773.2029822408
   }
  },
  {
   "attributes": {
    "OBJECTID": 3328,
    "ولایت": "کابل",
    "Province": "KABUL",
    "PC_Code": "0101322",
    "District": "KABUL-D16",
    "د_مرکز_نوم__نام_مرکز": "مسجد عثمان غني",
    "Polling_Center_Name": "Usman Ghani Mosque",
    "د_مرکز_ځای__موقعیت_مرکز": "ده خدايداد",
    "Polling_Center_Location": "Deh Khudaidad",
    "Map_Accuracy": "Village",
    "Map_Accuracy_Dari": "قریه",
    "Status": "Open",
    "Status_Dari": null,
    "PS_Male": 1,
    "PS_Female": 1,
    "PS_Total": 2,
    "ولسوالي": "کابل - ناحیه 16",
    "Region": "Central Region"
   },
   "geometry": {
    "x": 7706680.6703456854,
    "y": 4099196.3082955368
   }
  },
  {
   "attributes": {
    "OBJECTID": 3329,
    "ولایت": "کابل",
    "Province": "KABUL",
    "PC_Code": "0101323",
    "District": "KABUL-D16",
    "د_مرکز_نوم__نام_مرکز": "تعمیر ناحیه شانزدهم",
    "Polling_Center_Name": "Building of 16th District",
    "د_مرکز_ځای__موقعیت_مرکز": "مکروريان اول",
    "Polling_Center_Location": "First Makroryan",
    "Map_Accuracy": "Village",
    "Map_Accuracy_Dari": "قریه",
    "Status": "Open",
    "Status_Dari": null,
    "PS_Male": 2,
    "PS_Female": 2,
    "PS_Total": 4,
    "ولسوالي": "کابل - ناحیه 16",
    "Region": "Central Region"
   },
   "geometry": {
    "x": 7703701.4090024633,
    "y": 4099106.8209587843
   }
  },
  {
   "attributes": {
    "OBJECTID": 3330,
    "ولایت": "کابل",
    "Province": "KABUL",
    "PC_Code": "0101506",
    "District": "KABUL-D16",
    "د_مرکز_نوم__نام_مرکز": " لیسه نسوان ده خدایداد",
    "Polling_Center_Name": "Deh Khudaidad Girls High School",
    "د_مرکز_ځای__موقعیت_مرکز": "ده خدایداد",
    "Polling_Center_Location": "Deh Khudaidad",
    "Map_Accuracy": "Building",
    "Map_Accuracy_Dari": "تعمیر",
    "Status": "Open",
    "Status_Dari": null,
    "PS_Male": 1,
    "PS_Female": 1,
    "PS_Total": 2,
    "ولسوالي": "کابل - ناحیه 16",
    "Region": "Central Region"
   },
   "geometry": {
    "x": 7706344.6880849591,
    "y": 4100165.3591024461
   }
  },
  {
   "attributes": {
    "OBJECTID": 3331,
    "ولایت": "کابل",
    "Province": "KABUL",
    "PC_Code": "0102398",
    "District": "PAGHMAN",
    "د_مرکز_نوم__نام_مرکز": " ليسه عبدالله بن عباس",
    "Polling_Center_Name": "Abdullah Ibne Abbas High School",
    "د_مرکز_ځای__موقعیت_مرکز": "الا بالا",
    "Polling_Center_Location": "Ala Bala",
    "Map_Accuracy": "Village",
    "Map_Accuracy_Dari": "قریه",
    "Status": "Open",
    "Status_Dari": null,
    "PS_Male": 4,
    "PS_Female": 2,
    "PS_Total": 6,
    "ولسوالي": "پغمان",
    "Region": "Central Region"
   },
   "geometry": {
    "x": 7681051.0385148423,
    "y": 4109048.7785737524
   }
  },
  {
   "attributes": {
    "OBJECTID": 3332,
    "ولایت": "کابل",
    "Province": "KABUL",
    "PC_Code": "0102403",
    "District": "PAGHMAN",
    "د_مرکز_نوم__نام_مرکز": " مکتب متوسطه عبدالله بن عمر",
    "Polling_Center_Name": "Abdullah Ibne Omer Secondary School ",
    "د_مرکز_ځای__موقعیت_مرکز": "پراچي",
    "Polling_Center_Location": "Parachi",
    "Map_Accuracy": "Building",
    "Map_Accuracy_Dari": "تعمیر",
    "Status": "Open",
    "Status_Dari": null,
    "PS_Male": 2,
    "PS_Female": 2,
    "PS_Total": 4,
    "ولسوالي": "پغمان",
    "Region": "Central Region"
   },
   "geometry": {
    "x": 7675477.1858948162,
    "y": 4108914.1448320141
   }
  },
  {
   "attributes": {
    "OBJECTID": 3333,
    "ولایت": "کابل",
    "Province": "KABUL",
    "PC_Code": "0102404",
    "District": "PAGHMAN",
    "د_مرکز_نوم__نام_مرکز": " لیسه چهلتن",
    "Polling_Center_Name": "Cheheltan High School ",
    "د_مرکز_ځای__موقعیت_مرکز": "چهلتن",
    "Polling_Center_Location": "Cheheltan",
    "Map_Accuracy": "Village",
    "Map_Accuracy_Dari": "قریه",
    "Status": "Open",
    "Status_Dari": null,
    "PS_Male": 3,
    "PS_Female": 1,
    "PS_Total": 4,
    "ولسوالي": "پغمان",
    "Region": "Central Region"
   },
   "geometry": {
    "x": 7679850.4667121973,
    "y": 4100137.2992652557
   }
  },
  {
   "attributes": {
    "OBJECTID": 3334,
    "ولایت": "کابل",
    "Province": "KABUL",
    "PC_Code": "0103419",
    "District": "CHAHAR ASYAB",
    "د_مرکز_نوم__نام_مرکز": " مسجد چهل دختران",
    "Polling_Center_Name": "Chehel Dukhtaran Mosque ",
    "د_مرکز_ځای__موقعیت_مرکز": "چل دختران",
    "Polling_Center_Location": "Chel Dukhtaran",
    "Map_Accuracy": "Village",
    "Map_Accuracy_Dari": "قریه",
    "Status": "Open",
    "Status_Dari": null,
    "PS_Male": 4,
    "PS_Female": 1,
    "PS_Total": 5,
    "ولسوالي": "چهار آسیاب",
    "Region": "Central Region"
   },
   "geometry": {
    "x": 7694873.9570597187,
    "y": 4079700.3758678315
   }
  },
  {
   "attributes": {
    "OBJECTID": 3335,
    "ولایت": "کابل",
    "Province": "KABUL",
    "PC_Code": "0103424",
    "District": "CHAHAR ASYAB",
    "د_مرکز_نوم__نام_مرکز": " مسجد الیاس خیل ",
    "Polling_Center_Name": "Elyas Khel Mosque",
    "د_مرکز_ځای__موقعیت_مرکز": "قلعه غفار",
    "Polling_Center_Location": "Qala-e-Ghafar",
    "Map_Accuracy": "Building",
    "Map_Accuracy_Dari": "تعمیر",
    "Status": "Open",
    "Status_Dari": null,
    "PS_Male": 1,
    "PS_Female": 1,
    "PS_Total": 2,
    "ولسوالي": "چهار آسیاب",
    "Region": "Central Region"
   },
   "geometry": {
    "x": 7696985.284823508,
    "y": 4081994.5966022131
   }
  },
  {
   "attributes": {
    "OBJECTID": 3336,
    "ولایت": "کابل",
    "Province": "KABUL",
    "PC_Code": "0103425",
    "District": "CHAHAR ASYAB",
    "د_مرکز_نوم__نام_مرکز": " ليسه ملالي شهېد",
    "Polling_Center_Name": "Malalai Shaheed High School",
    "د_مرکز_ځای__موقعیت_مرکز": "قلعه نعيم",
    "Polling_Center_Location": "Qala-e-Naim",
    "Map_Accuracy": "Building",
    "Map_Accuracy_Dari": "تعمیر",
    "Status": "Open",
    "Status_Dari": null,
    "PS_Male": 2,
    "PS_Female": 3,
    "PS_Total": 5,
    "ولسوالي": "چهار آسیاب",
    "Region": "Central Region"
   },
   "geometry": {
    "x": 7699290.0235233838,
    "y": 4082174.7291765534
   }
  },
  {
   "attributes": {
    "OBJECTID": 3337,
    "ولایت": "کابل",
    "Province": "KABUL",
    "PC_Code": "0105463",
    "District": "DEHSABZ",
    "د_مرکز_نوم__نام_مرکز": "مکتب ذکور پاچا صاحب",
    "Polling_Center_Name": "Pacha Sahib Boys School",
    "د_مرکز_ځای__موقعیت_مرکز": "پاچا صاحب",
    "Polling_Center_Location": "Pacha Sahib",
    "Map_Accuracy": "Building",
    "Map_Accuracy_Dari": "تعمیر",
    "Status": "Open",
    "Status_Dari": null,
    "PS_Male": 5,
    "PS_Female": 3,
    "PS_Total": 8,
    "ولسوالي": "ده سبز",
    "Region": "Central Region"
   },
   "geometry": {
    "x": 7705192.78683348,
    "y": 4110217.4599200482
   }
  },
  {
   "attributes": {
    "OBJECTID": 3338,
    "ولایت": "کابل",
    "Province": "KABUL",
    "PC_Code": "0106391",
    "District": "SHAKAR DARA",
    "د_مرکز_نوم__نام_مرکز": " ليسه غازه",
    "Polling_Center_Name": "Ghaza High School",
    "د_مرکز_ځای__موقعیت_مرکز": "قریه غازه",
    "Polling_Center_Location": "Ghaza Village",
    "Map_Accuracy": "Building",
    "Map_Accuracy_Dari": "تعمیر",
    "Status": "Open",
    "Status_Dari": null,
    "PS_Male": 2,
    "PS_Female": 2,
    "PS_Total": 4,
    "ولسوالي": "شکردره",
    "Region": "Central Region"
   },
   "geometry": {
    "x": 7682770.7387440521,
    "y": 4115552.1542006815
   }
  },
  {
   "attributes": {
    "OBJECTID": 3339,
    "ولایت": "کابل",
    "Province": "KABUL",
    "PC_Code": "0106392",
    "District": "SHAKAR DARA",
    "د_مرکز_نوم__نام_مرکز": " مکتب ابتدائيه حاجي پيک",
    "Polling_Center_Name": "Haji Paik Primary School",
    "د_مرکز_ځای__موقعیت_مرکز": "حاجي پيک",
    "Polling_Center_Location": "Haji Paik ",
    "Map_Accuracy": "Building",
    "Map_Accuracy_Dari": "تعمیر",
    "Status": "Open",
    "Status_Dari": null,
    "PS_Male": 3,
    "PS_Female": 2,
    "PS_Total": 5,
    "ولسوالي": "شکردره",
    "Region": "Central Region"
   },
   "geometry": {
    "x": 7690632.8091383232,
    "y": 4120776.4481302188
   }
  },
  {
   "attributes": {
    "OBJECTID": 3340,
    "ولایت": "کابل",
    "Province": "KABUL",
    "PC_Code": "0106396",
    "District": "SHAKAR DARA",
    "د_مرکز_نوم__نام_مرکز": "ليسه حضرت عثمان",
    "Polling_Center_Name": "Hazrat-e-Usman High School",
    "د_مرکز_ځای__موقعیت_مرکز": "کاريز مير پايان",
    "Polling_Center_Location": "Karez Mir-e-Payan",
    "Map_Accuracy": "Building",
    "Map_Accuracy_Dari": "تعمیر",
    "Status": "Open",
    "Status_Dari": null,
    "PS_Male": 4,
    "PS_Female": 1,
    "PS_Total": 5,
    "ولسوالي": "شکردره",
    "Region": "Central Region"
   },
   "geometry": {
    "x": 7687551.6815554686,
    "y": 4114657.0568001801
   }
  },
  {
   "attributes": {
    "OBJECTID": 3341,
    "ولایت": "کابل",
    "Province": "KABUL",
    "PC_Code": "0106397",
    "District": "SHAKAR DARA",
    "د_مرکز_نوم__نام_مرکز": " ليسه شکردره",
    "Polling_Center_Name": "Shakar Dara High School",
    "د_مرکز_ځای__موقعیت_مرکز": "شاه مردان",
    "Polling_Center_Location": "Shah-e-Mardan ",
    "Map_Accuracy": "Building",
    "Map_Accuracy_Dari": "تعمیر",
    "Status": "Open",
    "Status_Dari": null,
    "PS_Male": 4,
    "PS_Female": 3,
    "PS_Total": 7,
    "ولسوالي": "شکردره",
    "Region": "Central Region"
   },
   "geometry": {
    "x": 7684992.1625974271,
    "y": 4120680.5480775242
   }
  },
  {
   "attributes": {
    "OBJECTID": 3342,
    "ولایت": "کابل",
    "Province": "KABUL",
    "PC_Code": "0108339",
    "District": "MIR BACHA KOT",
    "د_مرکز_نوم__نام_مرکز": "مکتب متوسطه دکو",
    "Polling_Center_Name": "Dako Secondary School",
    "د_مرکز_ځای__موقعیت_مرکز": "مرکز دکو",
    "Polling_Center_Location": "Markaz-e-Dako",
    "Map_Accuracy": "Building",
    "Map_Accuracy_Dari": "تعمیر",
    "Status": "Open",
    "Status_Dari": null,
    "PS_Male": 3,
    "PS_Female": 1,
    "PS_Total": 4,
    "ولسوالي": "میر بچه کوت",
    "Region": "Central Region"
   },
   "geometry": {
    "x": 7691825.9136295244,
    "y": 4126934.3860184597
   }
  },
  {
   "attributes": {
    "OBJECTID": 3343,
    "ولایت": "کابل",
    "Province": "KABUL",
    "PC_Code": "0108344",
    "District": "MIR BACHA KOT",
    "د_مرکز_نوم__نام_مرکز": "مکتب دشت",
    "Polling_Center_Name": "Dasht School",
    "د_مرکز_ځای__موقعیت_مرکز": "قريه مرزا خيل",
    "Polling_Center_Location": "Mirza Khel Village",
    "Map_Accuracy": "Village",
    "Map_Accuracy_Dari": "قریه",
    "Status": "Open",
    "Status_Dari": null,
    "PS_Male": 2,
    "PS_Female": 1,
    "PS_Total": 3,
    "ولسوالي": "میر بچه کوت",
    "Region": "Central Region"
   },
   "geometry": {
    "x": 7694556.8835277027,
    "y": 4131820.7312915702
   }
  },
  {
   "attributes": {
    "OBJECTID": 3344,
    "ولایت": "کابل",
    "Province": "KABUL",
    "PC_Code": "0111382",
    "District": "GULDARA",
    "د_مرکز_نوم__نام_مرکز": " مسجد گدره",
    "Polling_Center_Name": "Gudara Mosque",
    "د_مرکز_ځای__موقعیت_مرکز": "قريه گدره",
    "Polling_Center_Location": "Gudra Village",
    "Map_Accuracy": "Building",
    "Map_Accuracy_Dari": "تعمیر",
    "Status": "Open",
    "Status_Dari": null,
    "PS_Male": 3,
    "PS_Female": 1,
    "PS_Total": 4,
    "ولسوالي": "گلدره",
    "Region": "Central Region"
   },
   "geometry": {
    "x": 7683710.5290547851,
    "y": 4129394.4331179257
   }
  },
  {
   "attributes": {
    "OBJECTID": 3345,
    "ولایت": "کابل",
    "Province": "KABUL",
    "PC_Code": "0112346",
    "District": "FARZA",
    "د_مرکز_نوم__نام_مرکز": " مسجد حسن خيل",
    "Polling_Center_Name": "Hasan Khel Mosque",
    "د_مرکز_ځای__موقعیت_مرکز": "حسن خيل",
    "Polling_Center_Location": "Hasan Khel",
    "Map_Accuracy": "Building",
    "Map_Accuracy_Dari": "تعمیر",
    "Status": "Open",
    "Status_Dari": null,
    "PS_Male": 3,
    "PS_Female": 1,
    "PS_Total": 4,
    "ولسوالي": "فرزه",
    "Region": "Central Region"
   },
   "geometry": {
    "x": 7688850.8868797384,
    "y": 4134502.1469499795
   }
  },
  {
   "attributes": {
    "OBJECTID": 3346,
    "ولایت": "کابل",
    "Province": "KABUL",
    "PC_Code": "0114363",
    "District": "QARA BAGH",
    "د_مرکز_نوم__نام_مرکز": " لیسه باغ علم",
    "Polling_Center_Name": "Bagh-e-Alam High School",
    "د_مرکز_ځای__موقعیت_مرکز": "باغ علم",
    "Polling_Center_Location": "Bagh-e-Alam",
    "Map_Accuracy": "Building",
    "Map_Accuracy_Dari": "تعمیر",
    "Status": "Open",
    "Status_Dari": null,
    "PS_Male": 2,
    "PS_Female": 1,
    "PS_Total": 3,
    "ولسوالي": "قره باغ",
    "Region": "Central Region"
   },
   "geometry": {
    "x": 7705771.5574602224,
    "y": 4147324.938846257
   }
  },
  {
   "attributes": {
    "OBJECTID": 3347,
    "ولایت": "کابل",
    "Province": "KABUL",
    "PC_Code": "0114364",
    "District": "QARA BAGH",
    "د_مرکز_نوم__نام_مرکز": "مسجد جامع چاونی",
    "Polling_Center_Name": "Chawni Mosque",
    "د_مرکز_ځای__موقعیت_مرکز": "چاوني",
    "Polling_Center_Location": "Chawni",
    "Map_Accuracy": "Village",
    "Map_Accuracy_Dari": "قریه",
    "Status": "Open",
    "Status_Dari": null,
    "PS_Male": 3,
    "PS_Female": 2,
    "PS_Total": 5,
    "ولسوالي": "قره باغ",
    "Region": "Central Region"
   },
   "geometry": {
    "x": 7707895.0535575496,
    "y": 4147896.8784906748
   }
  },
  {
   "attributes": {
    "OBJECTID": 3348,
    "ولایت": "کابل",
    "Province": "KABUL",
    "PC_Code": "0115487",
    "District": "SURUBI",
    "د_مرکز_نوم__نام_مرکز": "مسجد گاز عليا",
    "Polling_Center_Name": "Gaz-e-Ulya Mosque",
    "د_مرکز_ځای__موقعیت_مرکز": "وزبين، گاز علیا",
    "Polling_Center_Location": "Gaz-e-Ulya, Wazbin",
    "Map_Accuracy": "Building",
    "Map_Accuracy_Dari": "تعمیر",
    "Status": "Open",
    "Status_Dari": null,
    "PS_Male": 2,
    "PS_Female": 3,
    "PS_Total": 5,
    "ولسوالي": "سروبی",
    "Region": "Central Region"
   },
   "geometry": {
    "x": 7774903.155350008,
    "y": 4133378.8325952222
   }
  },
  {
   "attributes": {
    "OBJECTID": 3349,
    "ولایت": "کابل",
    "Province": "KABUL",
    "PC_Code": "0115515",
    "District": "SURUBI",
    "د_مرکز_نوم__نام_مرکز": "مسجد شیر خان کچ",
    "Polling_Center_Name": "Sher Khan Kach Mosque",
    "د_مرکز_ځای__موقعیت_مرکز": "شیرخان کچ",
    "Polling_Center_Location": "Sher Khan Kech",
    "Map_Accuracy": "Building",
    "Map_Accuracy_Dari": "تعمیر",
    "Status": "Open",
    "Status_Dari": null,
    "PS_Male": 1,
    "PS_Female": 1,
    "PS_Total": 2,
    "ولسوالي": "سروبی",
    "Region": "Central Region"
   },
   "geometry": {
    "x": 7754070.6722220564,
    "y": 4109332.9388365317
   }
  },
  {
   "attributes": {
    "OBJECTID": 3350,
    "ولایت": "کاپيسا",
    "Province": "KAPISA",
    "PC_Code": "0201017",
    "District": "MAHMUDI RAQI",
    "د_مرکز_نوم__نام_مرکز": "منزل رئیس دادا ",
    "Polling_Center_Name": "Raees Dada House",
    "د_مرکز_ځای__موقعیت_مرکز": "زراعت ",
    "Polling_Center_Location": "Zaraut",
    "Map_Accuracy": "Building",
    "Map_Accuracy_Dari": "تعمیر",
    "Status": "Open",
    "Status_Dari": null,
    "PS_Male": 1,
    "PS_Female": 2,
    "PS_Total": 3,
    "ولسوالي": "محمود راقی ",
    "Region": "Central Region"
   },
   "geometry": {
    "x": 7723502.9044400435,
    "y": 4165991.6503274818
   }
  },
  {
   "attributes": {
    "OBJECTID": 3351,
    "ولایت": "کاپيسا",
    "Province": "KAPISA",
    "PC_Code": "0201018",
    "District": "MAHMUDI RAQI",
    "د_مرکز_نوم__نام_مرکز": "منزل عزیزالرحمن ",
    "Polling_Center_Name": "Azizurahman House ",
    "د_مرکز_ځای__موقعیت_مرکز": "قروتک ",
    "Polling_Center_Location": "Qorotak",
    "Map_Accuracy": "Building",
    "Map_Accuracy_Dari": "تعمیر",
    "Status": "Open",
    "Status_Dari": null,
    "PS_Male": 1,
    "PS_Female": 2,
    "PS_Total": 3,
    "ولسوالي": "محمود راقی ",
    "Region": "Central Region"
   },
   "geometry": {
    "x": 7719807.4556831466,
    "y": 4168908.3857006165
   }
  },
  {
   "attributes": {
    "OBJECTID": 3352,
    "ولایت": "کاپيسا",
    "Province": "KAPISA",
    "PC_Code": "0202021",
    "District": "HISSA-E-DUWUMI KOHISTAN",
    "د_مرکز_نوم__نام_مرکز": "منزل ضابط ستار",
    "Polling_Center_Name": "Zabit Sattar House ",
    "د_مرکز_ځای__موقعیت_مرکز": "جمال آغه پایین ",
    "Polling_Center_Location": "Jamal Agha Payen",
    "Map_Accuracy": "Building",
    "Map_Accuracy_Dari": "تعمیر",
    "Status": "Open",
    "Status_Dari": null,
    "PS_Male": 2,
    "PS_Female": 2,
    "PS_Total": 4,
    "ولسوالي": "حصه دوم کوهستان",
    "Region": "Central Region"
   },
   "geometry": {
    "x": 7713758.9246205511,
    "y": 4171625.0252567097
   }
  },
  {
   "attributes": {
    "OBJECTID": 3353,
    "ولایت": "کاپيسا",
    "Province": "KAPISA",
    "PC_Code": "0202022",
    "District": "HISSA-E-DUWUMI KOHISTAN",
    "د_مرکز_نوم__نام_مرکز": "مکتب ابتدائیه عنایت الله ",
    "Polling_Center_Name": "Enayatullah Shaheed Primary School",
    "د_مرکز_ځای__موقعیت_مرکز": "قزاق ",
    "Polling_Center_Location": "Qazaq",
    "Map_Accuracy": "Building",
    "Map_Accuracy_Dari": "تعمیر",
    "Status": "Open",
    "Status_Dari": null,
    "PS_Male": 2,
    "PS_Female": 1,
    "PS_Total": 3,
    "ولسوالي": "حصه دوم کوهستان",
    "Region": "Central Region"
   },
   "geometry": {
    "x": 7718916.6070978614,
    "y": 4174635.6973288865
   }
  },
  {
   "attributes": {
    "OBJECTID": 3354,
    "ولایت": "کاپيسا",
    "Province": "KAPISA",
    "PC_Code": "0204027",
    "District": "HISSA-E-AWALI KOHISTAN",
    "د_مرکز_نوم__نام_مرکز": "لیسه میرمسجدی خان ",
    "Polling_Center_Name": "Mer Masjidi Khan High School",
    "د_مرکز_ځای__موقعیت_مرکز": "اشترگرام ",
    "Polling_Center_Location": "Ashtar Geram",
    "Map_Accuracy": "Building",
    "Map_Accuracy_Dari": "تعمیر",
    "Status": "Open",
    "Status_Dari": null,
    "PS_Male": 3,
    "PS_Female": 2,
    "PS_Total": 5,
    "ولسوالي": "حصه اول کوهستان ",
    "Region": "Central Region"
   },
   "geometry": {
    "x": 7714342.643955254,
    "y": 4177378.7668885221
   }
  },
  {
   "attributes": {
    "OBJECTID": 3355,
    "ولایت": "کاپيسا",
    "Province": "KAPISA",
    "PC_Code": "0204031",
    "District": "HISSA-E-AWALI KOHISTAN",
    "د_مرکز_نوم__نام_مرکز": "مکتب متوسطه جلدک",
    "Polling_Center_Name": "Jaldak Secondary School",
    "د_مرکز_ځای__موقعیت_مرکز": "قریه جلدک ",
    "Polling_Center_Location": "Jaldak Village",
    "Map_Accuracy": "Building",
    "Map_Accuracy_Dari": "تعمیر",
    "Status": "Open",
    "Status_Dari": null,
    "PS_Male": 3,
    "PS_Female": 2,
    "PS_Total": 5,
    "ولسوالي": "حصه اول کوهستان ",
    "Region": "Central Region"
   },
   "geometry": {
    "x": 7715921.0452416064,
    "y": 4177630.4123285478
   }
  },
  {
   "attributes": {
    "OBJECTID": 3356,
    "ولایت": "کاپيسا",
    "Province": "KAPISA",
    "PC_Code": "0204032",
    "District": "HISSA-E-AWALI KOHISTAN",
    "د_مرکز_نوم__نام_مرکز": "لیسه ایزدیار شهید",
    "Polling_Center_Name": "Ezed Yar Shaheed High School",
    "د_مرکز_ځای__موقعیت_مرکز": "توغک ",
    "Polling_Center_Location": "Tughak ",
    "Map_Accuracy": "Building",
    "Map_Accuracy_Dari": "تعمیر",
    "Status": "Open",
    "Status_Dari": null,
    "PS_Male": 3,
    "PS_Female": 2,
    "PS_Total": 5,
    "ولسوالي": "حصه اول کوهستان ",
    "Region": "Central Region"
   },
   "geometry": {
    "x": 7714067.1159704002,
    "y": 4174858.1877101143
   }
  },
  {
   "attributes": {
    "OBJECTID": 3357,
    "ولایت": "کاپيسا",
    "Province": "KAPISA",
    "PC_Code": "0205056",
    "District": "NIJRAB",
    "د_مرکز_نوم__نام_مرکز": "لیسه عبدالغفار شهید ",
    "Polling_Center_Name": "Abdul Ghafar Shaheed High School ",
    "د_مرکز_ځای__موقعیت_مرکز": "اسکینی دره پته ",
    "Polling_Center_Location": "Eskini Dara-e-Pata",
    "Map_Accuracy": "Building",
    "Map_Accuracy_Dari": "تعمیر",
    "Status": "Open",
    "Status_Dari": null,
    "PS_Male": 2,
    "PS_Female": 1,
    "PS_Total": 3,
    "ولسوالي": "نجراب ",
    "Region": "Central Region"
   },
   "geometry": {
    "x": 7758078.9664853914,
    "y": 4172229.9149590363
   }
  },
  {
   "attributes": {
    "OBJECTID": 3358,
    "ولایت": "کاپيسا",
    "Province": "KAPISA",
    "PC_Code": "0205057",
    "District": "NIJRAB",
    "د_مرکز_نوم__نام_مرکز": "لیسه ذکور تاجکان ",
    "Polling_Center_Name": "Tajikan Boys High School ",
    "د_مرکز_ځای__موقعیت_مرکز": "تاجکان دره پته ",
    "Polling_Center_Location": "Tajikan Dara-e-Pata",
    "Map_Accuracy": "Building",
    "Map_Accuracy_Dari": "تعمیر",
    "Status": "Open",
    "Status_Dari": null,
    "PS_Male": 1,
    "PS_Female": 1,
    "PS_Total": 2,
    "ولسوالي": "نجراب ",
    "Region": "Central Region"
   },
   "geometry": {
    "x": 7755009.5875615943,
    "y": 4170731.0064230985
   }
  },
  {
   "attributes": {
    "OBJECTID": 3359,
    "ولایت": "کاپيسا",
    "Province": "KAPISA",
    "PC_Code": "0206080",
    "District": "TAGAB",
    "د_مرکز_نوم__نام_مرکز": "مسجد تتر خیل",
    "Polling_Center_Name": "Tater Khel Mosque",
    "د_مرکز_ځای__موقعیت_مرکز": " تتر خیل",
    "Polling_Center_Location": "Tater Khel",
    "Map_Accuracy": "Village",
    "Map_Accuracy_Dari": "قریه",
    "Status": "Open",
    "Status_Dari": null,
    "PS_Male": 2,
    "PS_Female": 1,
    "PS_Total": 3,
    "ولسوالي": "تگاب ",
    "Region": "Central Region"
   },
   "geometry": {
    "x": 7755875.5518992273,
    "y": 4147568.9792690217
   }
  },
  {
   "attributes": {
    "OBJECTID": 3360,
    "ولایت": "کاپيسا",
    "Province": "KAPISA",
    "PC_Code": "0206081",
    "District": "TAGAB",
    "د_مرکز_نوم__نام_مرکز": "مسجد کلان",
    "Polling_Center_Name": "Masjid Kalan ",
    "د_مرکز_ځای__موقعیت_مرکز": "قلعه صالح",
    "Polling_Center_Location": "Qala-e-Saleh",
    "Map_Accuracy": "Village",
    "Map_Accuracy_Dari": "قریه",
    "Status": "Open",
    "Status_Dari": null,
    "PS_Male": 2,
    "PS_Female": 1,
    "PS_Total": 3,
    "ولسوالي": "تگاب ",
    "Region": "Central Region"
   },
   "geometry": {
    "x": 7752132.363890023,
    "y": 4149901.02577321
   }
  },
  {
   "attributes": {
    "OBJECTID": 3361,
    "ولایت": "کاپيسا",
    "Province": "KAPISA",
    "PC_Code": "0206085",
    "District": "TAGAB",
    "د_مرکز_نوم__نام_مرکز": "متوسطه شهید سلیم",
    "Polling_Center_Name": "Shaheed Salam Secondary School",
    "د_مرکز_ځای__موقعیت_مرکز": " لندا خیل",
    "Polling_Center_Location": "Landa Khel",
    "Map_Accuracy": "Building",
    "Map_Accuracy_Dari": "تعمیر",
    "Status": "Open",
    "Status_Dari": null,
    "PS_Male": 3,
    "PS_Female": 1,
    "PS_Total": 4,
    "ولسوالي": "تگاب ",
    "Region": "Central Region"
   },
   "geometry": {
    "x": 7750255.9603268243,
    "y": 4154803.5228968821
   }
  },
  {
   "attributes": {
    "OBJECTID": 3362,
    "ولایت": "کاپيسا",
    "Province": "KAPISA",
    "PC_Code": "0207109",
    "District": "ALASAY",
    "د_مرکز_نوم__نام_مرکز": "لیسه حیات الله شهید ( کوچی)",
    "Polling_Center_Name": "Hayatullah Shaheed High School (Kuchi)",
    "د_مرکز_ځای__موقعیت_مرکز": "مرکز اله سای ",
    "Polling_Center_Location": "Alasay Center",
    "Map_Accuracy": "Village",
    "Map_Accuracy_Dari": "قریه",
    "Status": "Open",
    "Status_Dari": null,
    "PS_Male": 3,
    "PS_Female": 1,
    "PS_Total": 4,
    "ولسوالي": "اله سای ",
    "Region": "Central Region"
   },
   "geometry": {
    "x": 7761096.8512391327,
    "y": 4149295.3143314035
   }
  },
  {
   "attributes": {
    "OBJECTID": 3363,
    "ولایت": "پروان",
    "Province": "PARWAN",
    "PC_Code": "0301001",
    "District": "CHARIKAR",
    "د_مرکز_نوم__نام_مرکز": "لیسه نعمان",
    "Polling_Center_Name": "Noman High School ",
    "د_مرکز_ځای__موقعیت_مرکز": "چاریکار",
    "Polling_Center_Location": "Charikar",
    "Map_Accuracy": "Building",
    "Map_Accuracy_Dari": "تعمیر",
    "Status": "Open",
    "Status_Dari": null,
    "PS_Male": 4,
    "PS_Female": 2,
    "PS_Total": 6,
    "ولسوالي": "چاریکار",
    "Region": "Central Region"
   },
   "geometry": {
    "x": 7700586.0128275631,
    "y": 4166103.2902629622
   }
  },
  {
   "attributes": {
    "OBJECTID": 3364,
    "ولایت": "پروان",
    "Province": "PARWAN",
    "PC_Code": "0301016",
    "District": "CHARIKAR",
    "د_مرکز_نوم__نام_مرکز": "لیسه دادو ",
    "Polling_Center_Name": "Dado High School",
    "د_مرکز_ځای__موقعیت_مرکز": "سعدالله",
    "Polling_Center_Location": "Saudullah",
    "Map_Accuracy": "Building",
    "Map_Accuracy_Dari": "تعمیر",
    "Status": "Open",
    "Status_Dari": null,
    "PS_Male": 2,
    "PS_Female": 1,
    "PS_Total": 3,
    "ولسوالي": "چاریکار",
    "Region": "Central Region"
   },
   "geometry": {
    "x": 7705889.4937815443,
    "y": 4171449.8841597601
   }
  },
  {
   "attributes": {
    "OBJECTID": 3365,
    "ولایت": "پروان",
    "Province": "PARWAN",
    "PC_Code": "0301017",
    "District": "CHARIKAR",
    "د_مرکز_نوم__نام_مرکز": "مکتب متوسطه خواجه سیاران علیا",
    "Polling_Center_Name": "Khwaja Sayaran Ulya School",
    "د_مرکز_ځای__موقعیت_مرکز": "خواجه سیاران علیا",
    "Polling_Center_Location": "Khwaja Sayaran Ulya",
    "Map_Accuracy": "Building",
    "Map_Accuracy_Dari": "تعمیر",
    "Status": "Open",
    "Status_Dari": null,
    "PS_Male": 1,
    "PS_Female": 1,
    "PS_Total": 2,
    "ولسوالي": "چاریکار",
    "Region": "Central Region"
   },
   "geometry": {
    "x": 7697311.9963970389,
    "y": 4165135.2794364942
   }
  },
  {
   "attributes": {
    "OBJECTID": 3366,
    "ولایت": "پروان",
    "Province": "PARWAN",
    "PC_Code": "0302100",
    "District": "BAGRAM",
    "د_مرکز_نوم__نام_مرکز": "لیسه شفق شهید ",
    "Polling_Center_Name": "Shafaq Shaheed High School",
    "د_مرکز_ځای__موقعیت_مرکز": "مرکز والسوالی ",
    "Polling_Center_Location": "District Compound",
    "Map_Accuracy": "Building",
    "Map_Accuracy_Dari": "تعمیر",
    "Status": "Open",
    "Status_Dari": null,
    "PS_Male": 4,
    "PS_Female": 1,
    "PS_Total": 5,
    "ولسوالي": "بگرام ",
    "Region": "Central Region"
   },
   "geometry": {
    "x": 7706322.642373004,
    "y": 4158682.3446900276
   }
  },
  {
   "attributes": {
    "OBJECTID": 3367,
    "ولایت": "پروان",
    "Province": "PARWAN",
    "PC_Code": "0302101",
    "District": "BAGRAM",
    "د_مرکز_نوم__نام_مرکز": "لیسه ابوذر غفاری ",
    "Polling_Center_Name": "Abu Zar Ghafari High School",
    "د_مرکز_ځای__موقعیت_مرکز": "رباط",
    "Polling_Center_Location": "Rabat",
    "Map_Accuracy": "Building",
    "Map_Accuracy_Dari": "تعمیر",
    "Status": "Open",
    "Status_Dari": null,
    "PS_Male": 3,
    "PS_Female": 2,
    "PS_Total": 5,
    "ولسوالي": "بگرام ",
    "Region": "Central Region"
   },
   "geometry": {
    "x": 7700723.0582526764,
    "y": 4152244.3173380257
   }
  },
  {
   "attributes": {
    "OBJECTID": 3368,
    "ولایت": "پروان",
    "Province": "PARWAN",
    "PC_Code": "0303076",
    "District": "SHINWARI",
    "د_مرکز_نوم__نام_مرکز": "مدرسه دراز گرد",
    "Polling_Center_Name": "Daraz Gird Madrassa",
    "د_مرکز_ځای__موقعیت_مرکز": "دراز گرد",
    "Polling_Center_Location": "Daraz Gird",
    "Map_Accuracy": "Building",
    "Map_Accuracy_Dari": "تعمیر",
    "Status": "Open",
    "Status_Dari": null,
    "PS_Male": 2,
    "PS_Female": 1,
    "PS_Total": 3,
    "ولسوالي": "شینواری ",
    "Region": "Central Region"
   },
   "geometry": {
    "x": 7670590.1166468477,
    "y": 4165268.2232627445
   }
  },
  {
   "attributes": {
    "OBJECTID": 3369,
    "ولایت": "پروان",
    "Province": "PARWAN",
    "PC_Code": "0303077",
    "District": "SHINWARI",
    "د_مرکز_نوم__نام_مرکز": "لیسه عبدالستار شهید",
    "Polling_Center_Name": "Abdul Sattar Shaheed High School",
    "د_مرکز_ځای__موقعیت_مرکز": "باغ افغان ",
    "Polling_Center_Location": "Bagh-e-Afghan",
    "Map_Accuracy": "Building",
    "Map_Accuracy_Dari": "تعمیر",
    "Status": "Open",
    "Status_Dari": null,
    "PS_Male": 1,
    "PS_Female": 1,
    "PS_Total": 2,
    "ولسوالي": "شینواری ",
    "Region": "Central Region"
   },
   "geometry": {
    "x": 7692696.2750870464,
    "y": 4173956.655933491
   }
  },
  {
   "attributes": {
    "OBJECTID": 3370,
    "ولایت": "پروان",
    "Province": "PARWAN",
    "PC_Code": "0304047",
    "District": "SAYID KHIAL",
    "د_مرکز_نوم__نام_مرکز": "مسجد انچو",
    "Polling_Center_Name": "Ancho Mosque",
    "د_مرکز_ځای__موقعیت_مرکز": "قلعه پستک ",
    "Polling_Center_Location": "Qala-e-Pastak ",
    "Map_Accuracy": "Building",
    "Map_Accuracy_Dari": "تعمیر",
    "Status": "Open",
    "Status_Dari": null,
    "PS_Male": 3,
    "PS_Female": 2,
    "PS_Total": 5,
    "ولسوالي": "سیدخیل ",
    "Region": "Central Region"
   },
   "geometry": {
    "x": 7713784.5448013563,
    "y": 4164682.5815877714
   }
  },
  {
   "attributes": {
    "OBJECTID": 3371,
    "ولایت": "پروان",
    "Province": "PARWAN",
    "PC_Code": "0307082",
    "District": "SYAHGIRDI GHORBAND",
    "د_مرکز_نوم__نام_مرکز": "لیسه حضرت علی",
    "Polling_Center_Name": "Hazrat Ali High School",
    "د_مرکز_ځای__موقعیت_مرکز": "سیاه گرد",
    "Polling_Center_Location": "Seya Gird Bazar",
    "Map_Accuracy": "Building",
    "Map_Accuracy_Dari": "تعمیر",
    "Status": "Open",
    "Status_Dari": null,
    "PS_Male": 3,
    "PS_Female": 1,
    "PS_Total": 4,
    "ولسوالي": "سیاه گرد غوربند",
    "Region": "Central Region"
   },
   "geometry": {
    "x": 7665158.7663333742,
    "y": 4163567.7682141638
   }
  },
  {
   "attributes": {
    "OBJECTID": 3372,
    "ولایت": "پروان",
    "Province": "PARWAN",
    "PC_Code": "0308145",
    "District": "KOHI SAFI",
    "د_مرکز_نوم__نام_مرکز": "مسجد سیاه سنگ",
    "Polling_Center_Name": "Seya Sang Mosque",
    "د_مرکز_ځای__موقعیت_مرکز": "سیاه سنگ ",
    "Polling_Center_Location": "Seya Sang ",
    "Map_Accuracy": "Building",
    "Map_Accuracy_Dari": "تعمیر",
    "Status": "Open",
    "Status_Dari": null,
    "PS_Male": 2,
    "PS_Female": 1,
    "PS_Total": 3,
    "ولسوالي": "کوه صافی",
    "Region": "Central Region"
   },
   "geometry": {
    "x": 7733879.7611681772,
    "y": 4135531.1422560317
   }
  },
  {
   "attributes": {
    "OBJECTID": 3373,
    "ولایت": "پروان",
    "Province": "PARWAN",
    "PC_Code": "0310126",
    "District": "SHAYKH ALI",
    "د_مرکز_نوم__نام_مرکز": "لیسه نوی",
    "Polling_Center_Name": "Navi High School",
    "د_مرکز_ځای__موقعیت_مرکز": "نوی",
    "Polling_Center_Location": "Nevy",
    "Map_Accuracy": "Building",
    "Map_Accuracy_Dari": "تعمیر",
    "Status": "Open",
    "Status_Dari": null,
    "PS_Male": 1,
    "PS_Female": 1,
    "PS_Total": 2,
    "ولسوالي": "شیخ علی ",
    "Region": "Central Region"
   },
   "geometry": {
    "x": 7626757.1721382868,
    "y": 4156578.6662252126
   }
  },
  {
   "attributes": {
    "OBJECTID": 3374,
    "ولایت": "پروان",
    "Province": "PARWAN",
    "PC_Code": "0310127",
    "District": "SHAYKH ALI",
    "د_مرکز_نوم__نام_مرکز": "ممبر پاواز ",
    "Polling_Center_Name": "Membar-e-Pawaz",
    "د_مرکز_ځای__موقعیت_مرکز": "پاواز بالا",
    "Polling_Center_Location": "Pawaz Bala ",
    "Map_Accuracy": "Building",
    "Map_Accuracy_Dari": "تعمیر",
    "Status": "Open",
    "Status_Dari": null,
    "PS_Male": 1,
    "PS_Female": 1,
    "PS_Total": 2,
    "ولسوالي": "شیخ علی ",
    "Region": "Central Region"
   },
   "geometry": {
    "x": 7634608.3232037136,
    "y": 4150110.9570671176
   }
  },
  {
   "attributes": {
    "OBJECTID": 3375,
    "ولایت": "وردک",
    "Province": "WARDAK",
    "PC_Code": "0401011",
    "District": "MAYDAN SHAHR",
    "د_مرکز_نوم__نام_مرکز": "فامیلی کورونه",
    "Polling_Center_Name": "Family Houses",
    "د_مرکز_ځای__موقعیت_مرکز": "فامیلی کوچیانو کلی",
    "Polling_Center_Location": "Family Kuchian Kalai",
    "Map_Accuracy": "Village",
    "Map_Accuracy_Dari": "قریه",
    "Status": "Open",
    "Status_Dari": null,
    "PS_Male": 3,
    "PS_Female": 3,
    "PS_Total": 6,
    "ولسوالي": "میدان شهر",
    "Region": "Central Region"
   },
   "geometry": {
    "x": 7664685.7586850468,
    "y": 4080754.9836591226
   }
  },
  {
   "attributes": {
    "OBJECTID": 3376,
    "ولایت": "وردک",
    "Province": "WARDAK",
    "PC_Code": "0403015",
    "District": "JALREZ",
    "د_مرکز_نوم__نام_مرکز": "متوسطه اسماعیل خیل",
    "Polling_Center_Name": "Ismaiel Khel Secondary School",
    "د_مرکز_ځای__موقعیت_مرکز": "اسماعیل خیل",
    "Polling_Center_Location": "Ismaiel Khel",
    "Map_Accuracy": "Building",
    "Map_Accuracy_Dari": "تعمیر",
    "Status": "Open",
    "Status_Dari": null,
    "PS_Male": 2,
    "PS_Female": 1,
    "PS_Total": 3,
    "ولسوالي": "جلریز",
    "Region": "Central Region"
   },
   "geometry": {
    "x": 7649179.2975947652,
    "y": 4091440.8851390425
   }
  },
  {
   "attributes": {
    "OBJECTID": 3377,
    "ولایت": "وردک",
    "Province": "WARDAK",
    "PC_Code": "0403016",
    "District": "JALREZ",
    "د_مرکز_نوم__نام_مرکز": "مکتب میراحمدشاه",
    "Polling_Center_Name": "Mir Ahmad Shah School",
    "د_مرکز_ځای__موقعیت_مرکز": "قلعه شاه",
    "Polling_Center_Location": "Qala-e-Shah ",
    "Map_Accuracy": "Building",
    "Map_Accuracy_Dari": "تعمیر",
    "Status": "Open",
    "Status_Dari": null,
    "PS_Male": 2,
    "PS_Female": 1,
    "PS_Total": 3,
    "ولسوالي": "جلریز",
    "Region": "Central Region"
   },
   "geometry": {
    "x": 7642038.2836173801,
    "y": 4099676.1299351864
   }
  },
  {
   "attributes": {
    "OBJECTID": 3378,
    "ولایت": "وردک",
    "Province": "WARDAK",
    "PC_Code": "0403020",
    "District": "JALREZ",
    "د_مرکز_نوم__نام_مرکز": "لیسه عالی امام محمد باقر (ع)",
    "Polling_Center_Name": "Imam-e-Mohammad Baqir High School",
    "د_مرکز_ځای__موقعیت_مرکز": "قلعه اسلم",
    "Polling_Center_Location": "Qala-e-Aslam",
    "Map_Accuracy": "Building",
    "Map_Accuracy_Dari": "تعمیر",
    "Status": "Open",
    "Status_Dari": null,
    "PS_Male": 2,
    "PS_Female": 1,
    "PS_Total": 3,
    "ولسوالي": "جلریز",
    "Region": "Central Region"
   },
   "geometry": {
    "x": 7627293.6207644194,
    "y": 4087261.9445654647
   }
  },
  {
   "attributes": {
    "OBJECTID": 3379,
    "ولایت": "وردک",
    "Province": "WARDAK",
    "PC_Code": "0403021",
    "District": "JALREZ",
    "د_مرکز_نوم__نام_مرکز": "لیسه شهید یعقوبی",
    "Polling_Center_Name": "Shaheed Yaqubi High School",
    "د_مرکز_ځای__موقعیت_مرکز": "سیاه خاک",
    "Polling_Center_Location": "Sia Khak",
    "Map_Accuracy": "Building",
    "Map_Accuracy_Dari": "تعمیر",
    "Status": "Open",
    "Status_Dari": null,
    "PS_Male": 2,
    "PS_Female": 1,
    "PS_Total": 3,
    "ولسوالي": "جلریز",
    "Region": "Central Region"
   },
   "geometry": {
    "x": 7623207.906021636,
    "y": 4086486.7594288564
   }
  },
  {
   "attributes": {
    "OBJECTID": 3380,
    "ولایت": "وردک",
    "Province": "WARDAK",
    "PC_Code": "0405115",
    "District": "SAYYD ABAD",
    "د_مرکز_نوم__نام_مرکز": "مکتب زهین خان خیل",
    "Polling_Center_Name": "Zahen Khan Khel School",
    "د_مرکز_ځای__موقعیت_مرکز": "زهین خان خیل",
    "Polling_Center_Location": "Zahen Khan Khel",
    "Map_Accuracy": "Village",
    "Map_Accuracy_Dari": "قریه",
    "Status": "Open",
    "Status_Dari": null,
    "PS_Male": 1,
    "PS_Female": 1,
    "PS_Total": 2,
    "ولسوالي": "سید آباد",
    "Region": "Central Region"
   },
   "geometry": {
    "x": 7651827.5159230707,
    "y": 4043027.2100754571
   }
  },
  {
   "attributes": {
    "OBJECTID": 3381,
    "ولایت": "وردک",
    "Province": "WARDAK",
    "PC_Code": "0405116",
    "District": "SAYYD ABAD",
    "د_مرکز_نوم__نام_مرکز": "مکتب اوتړی",
    "Polling_Center_Name": "Otary School",
    "د_مرکز_ځای__موقعیت_مرکز": "اوتړی",
    "Polling_Center_Location": "Otarri",
    "Map_Accuracy": "Village",
    "Map_Accuracy_Dari": "قریه",
    "Status": "Open",
    "Status_Dari": null,
    "PS_Male": 1,
    "PS_Female": 1,
    "PS_Total": 2,
    "ولسوالي": "سید آباد",
    "Region": "Central Region"
   },
   "geometry": {
    "x": 7638955.3994129617,
    "y": 4010505.8474088591
   }
  },
  {
   "attributes": {
    "OBJECTID": 3382,
    "ولایت": "وردک",
    "Province": "WARDAK",
    "PC_Code": "0405138",
    "District": "SAYYD ABAD",
    "د_مرکز_نوم__نام_مرکز": "خیمه و خانه شخصی در قریه سنداور ",
    "Polling_Center_Name": "Tent and Private House",
    "د_مرکز_ځای__موقعیت_مرکز": "سنداور",
    "Polling_Center_Location": "Sandawar",
    "Map_Accuracy": "Village",
    "Map_Accuracy_Dari": "قریه",
    "Status": "Open",
    "Status_Dari": null,
    "PS_Male": 2,
    "PS_Female": 1,
    "PS_Total": 3,
    "ولسوالي": "سید آباد",
    "Region": "Central Region"
   },
   "geometry": {
    "x": 7629764.6340481089,
    "y": 4003423.226120709
   }
  },
  {
   "attributes": {
    "OBJECTID": 3383,
    "ولایت": "وردک",
    "Province": "WARDAK",
    "PC_Code": "0406064",
    "District": "DAYMIRDAD",
    "د_مرکز_نوم__نام_مرکز": "مکتب للندر",
    "Polling_Center_Name": "Lalanar School",
    "د_مرکز_ځای__موقعیت_مرکز": "للندر",
    "Polling_Center_Location": "Lalandar",
    "Map_Accuracy": "Building",
    "Map_Accuracy_Dari": "تعمیر",
    "Status": "Open",
    "Status_Dari": null,
    "PS_Male": 3,
    "PS_Female": 2,
    "PS_Total": 5,
    "ولسوالي": "دایمیرداد",
    "Region": "Central Region"
   },
   "geometry": {
    "x": 7598874.6130381711,
    "y": 4052201.0883139279
   }
  },
  {
   "attributes": {
    "OBJECTID": 3384,
    "ولایت": "وردک",
    "Province": "WARDAK",
    "PC_Code": "0406065",
    "District": "DAYMIRDAD",
    "د_مرکز_نوم__نام_مرکز": "خانه شخصی",
    "Polling_Center_Name": "Private House",
    "د_مرکز_ځای__موقعیت_مرکز": "پره قلعه",
    "Polling_Center_Location": "Para Qala",
    "Map_Accuracy": "Village",
    "Map_Accuracy_Dari": "قریه",
    "Status": "Open",
    "Status_Dari": null,
    "PS_Male": 2,
    "PS_Female": 1,
    "PS_Total": 3,
    "ولسوالي": "دایمیرداد",
    "Region": "Central Region"
   },
   "geometry": {
    "x": 7595145.3911722871,
    "y": 4044256.1372328396
   }
  },
  {
   "attributes": {
    "OBJECTID": 3385,
    "ولایت": "وردک",
    "Province": "WARDAK",
    "PC_Code": "0407033",
    "District": "HISSA-E-AWALI BIHSUD",
    "د_مرکز_نوم__نام_مرکز": "مسجد قریه پائین نقط",
    "Polling_Center_Name": "Payen Nuqat Mosque",
    "د_مرکز_ځای__موقعیت_مرکز": "قریه پائین نقط",
    "Polling_Center_Location": "Paien Nuqat Village",
    "Map_Accuracy": "Building",
    "Map_Accuracy_Dari": "تعمیر",
    "Status": "Open",
    "Status_Dari": null,
    "PS_Male": 1,
    "PS_Female": 1,
    "PS_Total": 2,
    "ولسوالي": "حصه اول بهسود",
    "Region": "Central Region"
   },
   "geometry": {
    "x": 7596370.3742260691,
    "y": 4086021.6409851871
   }
  },
  {
   "attributes": {
    "OBJECTID": 3386,
    "ولایت": "وردک",
    "Province": "WARDAK",
    "PC_Code": "0408076",
    "District": "JAGHATU",
    "د_مرکز_نوم__نام_مرکز": "کلینیک کلانده",
    "Polling_Center_Name": "Kalandeh Clinic",
    "د_مرکز_ځای__موقعیت_مرکز": "کلانده",
    "Polling_Center_Location": "Kalandeh",
    "Map_Accuracy": "Building",
    "Map_Accuracy_Dari": "تعمیر",
    "Status": "Open",
    "Status_Dari": null,
    "PS_Male": 2,
    "PS_Female": 1,
    "PS_Total": 3,
    "ولسوالي": "جغتو",
    "Region": "Central Region"
   },
   "geometry": {
    "x": 7614022.6131229503,
    "y": 4004842.3043082026
   }
  },
  {
   "attributes": {
    "OBJECTID": 3387,
    "ولایت": "وردک",
    "Province": "WARDAK",
    "PC_Code": "0409049",
    "District": "MARKAZ-E-BEHSUD",
    "د_مرکز_نوم__نام_مرکز": "دشت قلعه جریخانه ",
    "Polling_Center_Name": "Dasht-e-Qala Jarikhana",
    "د_مرکز_ځای__موقعیت_مرکز": "دشت قلعه",
    "Polling_Center_Location": "Dasht Qala",
    "Map_Accuracy": "Building",
    "Map_Accuracy_Dari": "تعمیر",
    "Status": "Open",
    "Status_Dari": null,
    "PS_Male": 1,
    "PS_Female": 1,
    "PS_Total": 2,
    "ولسوالي": "مرکز بهسود",
    "Region": "Central Region"
   },
   "geometry": {
    "x": 7516502.6092349384,
    "y": 4109626.4620400113
   }
  },
  {
   "attributes": {
    "OBJECTID": 3388,
    "ولایت": "لوگر",
    "Province": "LOGAR",
    "PC_Code": "0501002",
    "District": "PULI ALAM",
    "د_مرکز_نوم__نام_مرکز": "ليسه جهادى کلنگار",
    "Polling_Center_Name": "Kolangar Jehadi High School",
    "د_مرکز_ځای__موقعیت_مرکز": "کلنگار",
    "Polling_Center_Location": "Kalangar",
    "Map_Accuracy": "Building",
    "Map_Accuracy_Dari": "تعمیر",
    "Status": "Open",
    "Status_Dari": null,
    "PS_Male": 7,
    "PS_Female": 3,
    "PS_Total": 10,
    "ولسوالي": "پل علم",
    "Region": "Central Region"
   },
   "geometry": {
    "x": 7683026.8080819128,
    "y": 4034951.1673094556
   }
  },
  {
   "attributes": {
    "OBJECTID": 3389,
    "ولایت": "لوگر",
    "Province": "LOGAR",
    "PC_Code": "0501007",
    "District": "PULI ALAM",
    "د_مرکز_نوم__نام_مرکز": "مکتب متوسطه حصارک",
    "Polling_Center_Name": "Hesarak Secondary School",
    "د_مرکز_ځای__موقعیت_مرکز": "حصارک",
    "Polling_Center_Location": "Hesarak",
    "Map_Accuracy": "Building",
    "Map_Accuracy_Dari": "تعمیر",
    "Status": "Open",
    "Status_Dari": null,
    "PS_Male": 5,
    "PS_Female": 4,
    "PS_Total": 9,
    "ولسوالي": "پل علم",
    "Region": "Central Region"
   },
   "geometry": {
    "x": 7685111.7664847253,
    "y": 4028837.7864596909
   }
  },
  {
   "attributes": {
    "OBJECTID": 3390,
    "ولایت": "لوگر",
    "Province": "LOGAR",
    "PC_Code": "0502024",
    "District": "BARAKI BARAK",
    "د_مرکز_نوم__نام_مرکز": "زیارت شاه صامت پیر یخ پوش",
    "Polling_Center_Name": "Ziarat-e-Shah Samit Per Yakh Posh",
    "د_مرکز_ځای__موقعیت_مرکز": "قلعه بابى",
    "Polling_Center_Location": "Qala Babi",
    "Map_Accuracy": "Building",
    "Map_Accuracy_Dari": "تعمیر",
    "Status": "Open",
    "Status_Dari": null,
    "PS_Male": 1,
    "PS_Female": 1,
    "PS_Total": 2,
    "ولسوالي": "برکی برک",
    "Region": "Central Region"
   },
   "geometry": {
    "x": 7677268.504631618,
    "y": 4020857.5637085997
   }
  },
  {
   "attributes": {
    "OBJECTID": 3391,
    "ولایت": "لوگر",
    "Province": "LOGAR",
    "PC_Code": "0504046",
    "District": "KHUSHI",
    "د_مرکز_نوم__نام_مرکز": "ليسه خوشى و مکتب ميانه ده اناث",
    "Polling_Center_Name": "Khoshi High School & Mian Deh Girls School",
    "د_مرکز_ځای__موقعیت_مرکز": "ميان ده",
    "Polling_Center_Location": "Mian Deh",
    "Map_Accuracy": "Building",
    "Map_Accuracy_Dari": "تعمیر",
    "Status": "Open",
    "Status_Dari": null,
    "PS_Male": 6,
    "PS_Female": 4,
    "PS_Total": 10,
    "ولسوالي": "خوشی",
    "Region": "Central Region"
   },
   "geometry": {
    "x": 7702578.892200375,
    "y": 4030153.3601673725
   }
  },
  {
   "attributes": {
    "OBJECTID": 3392,
    "ولایت": "لوگر",
    "Province": "LOGAR",
    "PC_Code": "0504047",
    "District": "KHUSHI",
    "د_مرکز_نوم__نام_مرکز": "مکتب کاريزونه",
    "Polling_Center_Name": "Karezona School",
    "د_مرکز_ځای__موقعیت_مرکز": "کاريزونه",
    "Polling_Center_Location": "Karizona",
    "Map_Accuracy": "Building",
    "Map_Accuracy_Dari": "تعمیر",
    "Status": "Open",
    "Status_Dari": null,
    "PS_Male": 3,
    "PS_Female": 2,
    "PS_Total": 5,
    "ولسوالي": "خوشی",
    "Region": "Central Region"
   },
   "geometry": {
    "x": 7708244.8160580369,
    "y": 4033884.7223324468
   }
  },
  {
   "attributes": {
    "OBJECTID": 3393,
    "ولایت": "لوگر",
    "Province": "LOGAR",
    "PC_Code": "0505051",
    "District": "MOHAMMAD AGHA",
    "د_مرکز_نوم__نام_مرکز": "مکتب ده نو",
    "Polling_Center_Name": "Deh Naw School ",
    "د_مرکز_ځای__موقعیت_مرکز": "ده نو",
    "Polling_Center_Location": "Deh Naw",
    "Map_Accuracy": "Building",
    "Map_Accuracy_Dari": "تعمیر",
    "Status": "Open",
    "Status_Dari": null,
    "PS_Male": 3,
    "PS_Female": 2,
    "PS_Total": 5,
    "ولسوالي": "محمد آغه",
    "Region": "Central Region"
   },
   "geometry": {
    "x": 7691494.6724659149,
    "y": 4049548.0946029448
   }
  },
  {
   "attributes": {
    "OBJECTID": 3394,
    "ولایت": "لوگر",
    "Province": "LOGAR",
    "PC_Code": "0506068",
    "District": "KHAR WAR",
    "د_مرکز_نوم__نام_مرکز": "مکتب خواجه انگور",
    "Polling_Center_Name": "Khwaja Angor School",
    "د_مرکز_ځای__موقعیت_مرکز": "قریه خواجه انگور",
    "Polling_Center_Location": "Khwaja Angor Village",
    "Map_Accuracy": "Village",
    "Map_Accuracy_Dari": "قریه",
    "Status": "Open",
    "Status_Dari": null,
    "PS_Male": 4,
    "PS_Female": 4,
    "PS_Total": 8,
    "ولسوالي": "خروار",
    "Region": "Central Region"
   },
   "geometry": {
    "x": 7684904.7567596482,
    "y": 3988613.4692553808
   }
  },
  {
   "attributes": {
    "OBJECTID": 3395,
    "ولایت": "لوگر",
    "Province": "LOGAR",
    "PC_Code": "0506069",
    "District": "KHAR WAR",
    "د_مرکز_نوم__نام_مرکز": "مکتب اپه خان",
    "Polling_Center_Name": "Apa Khan School",
    "د_مرکز_ځای__موقعیت_مرکز": "قریه منی بازار",
    "Polling_Center_Location": "Mani Bazar Village",
    "Map_Accuracy": "Village",
    "Map_Accuracy_Dari": "قریه",
    "Status": "Open",
    "Status_Dari": null,
    "PS_Male": 1,
    "PS_Female": 1,
    "PS_Total": 2,
    "ولسوالي": "خروار",
    "Region": "Central Region"
   },
   "geometry": {
    "x": 7666167.6003318802,
    "y": 3987945.68605662
   }
  },
  {
   "attributes": {
    "OBJECTID": 3396,
    "ولایت": "لوگر",
    "Province": "LOGAR",
    "PC_Code": "0506073",
    "District": "KHAR WAR",
    "د_مرکز_نوم__نام_مرکز": "منگو",
    "Polling_Center_Name": "Mango",
    "د_مرکز_ځای__موقعیت_مرکز": "منگو",
    "Polling_Center_Location": "Mango",
    "Map_Accuracy": "Village",
    "Map_Accuracy_Dari": "قریه",
    "Status": "Open",
    "Status_Dari": null,
    "PS_Male": 4,
    "PS_Female": 2,
    "PS_Total": 6,
    "ولسوالي": "خروار",
    "Region": "Central Region"
   },
   "geometry": {
    "x": 7669604.3101982055,
    "y": 3985654.309762768
   }
  },
  {
   "attributes": {
    "OBJECTID": 3397,
    "ولایت": "ننگرهار",
    "Province": "NANGARHAR",
    "PC_Code": "0601014",
    "District": "JALALABAD",
    "د_مرکز_نوم__نام_مرکز": "بي بي زينب مکتب",
    "Polling_Center_Name": "Bibi Zainab School",
    "د_مرکز_ځای__موقعیت_مرکز": "دریمه ناحیه",
    "Polling_Center_Location": "D03-Nahia 3",
    "Map_Accuracy": "Building",
    "Map_Accuracy_Dari": "تعمیر",
    "Status": "Open",
    "Status_Dari": null,
    "PS_Male": 0,
    "PS_Female": 6,
    "PS_Total": 6,
    "ولسوالي": "جلال آباد",
    "Region": "Eastern Region"
   },
   "geometry": {
    "x": 7840482.1954057952,
    "y": 4087786.2468552492
   }
  },
  {
   "attributes": {
    "OBJECTID": 3398,
    "ولایت": "ننگرهار",
    "Province": "NANGARHAR",
    "PC_Code": "0601015",
    "District": "JALALABAD",
    "د_مرکز_نوم__نام_مرکز": "استقلال مکتب",
    "Polling_Center_Name": "Estiqlal School",
    "د_مرکز_ځای__موقعیت_مرکز": "پنځمه ناحیه",
    "Polling_Center_Location": "D05-Nahia 5",
    "Map_Accuracy": "Building",
    "Map_Accuracy_Dari": "تعمیر",
    "Status": "Open",
    "Status_Dari": null,
    "PS_Male": 0,
    "PS_Female": 6,
    "PS_Total": 6,
    "ولسوالي": "جلال آباد",
    "Region": "Eastern Region"
   },
   "geometry": {
    "x": 7840721.9965132745,
    "y": 4085707.0149349868
   }
  },
  {
   "attributes": {
    "OBJECTID": 3399,
    "ولایت": "ننگرهار",
    "Province": "NANGARHAR",
    "PC_Code": "0601035",
    "District": "JALALABAD",
    "د_مرکز_نوم__نام_مرکز": "اتفاق جومات",
    "Polling_Center_Name": "Etifaq Mosque",
    "د_مرکز_ځای__موقعیت_مرکز": "دویمه ناحیه",
    "Polling_Center_Location": "D02-Nahia 2",
    "Map_Accuracy": "Building",
    "Map_Accuracy_Dari": "تعمیر",
    "Status": "Open",
    "Status_Dari": null,
    "PS_Male": 6,
    "PS_Female": 0,
    "PS_Total": 6,
    "ولسوالي": "جلال آباد",
    "Region": "Eastern Region"
   },
   "geometry": {
    "x": 7842239.2444373546,
    "y": 4085186.7806869647
   }
  },
  {
   "attributes": {
    "OBJECTID": 3400,
    "ولایت": "ننگرهار",
    "Province": "NANGARHAR",
    "PC_Code": "0601036",
    "District": "JALALABAD",
    "د_مرکز_نوم__نام_مرکز": "ګونبزي جومات",
    "Polling_Center_Name": "Gonbazi Mosque",
    "د_مرکز_ځای__موقعیت_مرکز": "دویمه ناحیه",
    "Polling_Center_Location": "D02-Nahia 2",
    "Map_Accuracy": "Building",
    "Map_Accuracy_Dari": "تعمیر",
    "Status": "Open",
    "Status_Dari": null,
    "PS_Male": 6,
    "PS_Female": 0,
    "PS_Total": 6,
    "ولسوالي": "جلال آباد",
    "Region": "Eastern Region"
   },
   "geometry": {
    "x": 7843269.2591953771,
    "y": 4085010.1368801752
   }
  }
 ]
}