{
 "displayFieldName": "Polling_Center_Name",
 "fieldAliases": {
  "OBJECTID": "OBJECTID",
  "ولایت": "ولایت",
  "Province": "Province",
  "PC_Code": "PC_Code",
  "District": "District",
  "د_مرکز_نوم__نام_مرکز": "د_مرکز_نوم__نام_مرکز",
  "Polling_Center_Name": "Polling_Center_Name",
  "د_مرکز_ځای__موقعیت_مرکز": "د_مرکز_ځای__موقعیت_مرکز",
  "Polling_Center_Location": "Polling_Center_Location",
  "Map_Accuracy": "Map_Accuracy",
  "Map_Accuracy_Dari": "Map_Accuracy_Dari",
  "Status": "Status",
  "Status_Dari": "Status_Dari",
  "PS_Male": "PS_Male",
  "PS_Female": "PS_Female",
  "PS_Total": "PS_Total",
  "ولسوالي": "ولسوالي",
  "Region": "Region"
 },
 "geometryType": "esriGeometryPoint",
 "spatialReference": {
  "wkid": 102100,
  "latestWkid": 3857
 },
 "fields": [
  {
   "name": "OBJECTID",
   "type": "esriFieldTypeOID",
   "alias": "OBJECTID"
  },
  {
   "name": "ولایت",
   "type": "esriFieldTypeString",
   "alias": "ولایت",
   "length": 255
  },
  {
   "name": "Province",
   "type": "esriFieldTypeString",
   "alias": "Province",
   "length": 255
  },
  {
   "name": "PC_Code",
   "type": "esriFieldTypeString",
   "alias": "PC_Code",
   "length": 255
  },
  {
   "name": "District",
   "type": "esriFieldTypeString",
   "alias": "District",
   "length": 255
  },
  {
   "name": "د_مرکز_نوم__نام_مرکز",
   "type": "esriFieldTypeString",
   "alias": "د_مرکز_نوم__نام_مرکز",
   "length": 255
  },
  {
   "name": "Polling_Center_Name",
   "type": "esriFieldTypeString",
   "alias": "Polling_Center_Name",
   "length": 255
  },
  {
   "name": "د_مرکز_ځای__موقعیت_مرکز",
   "type": "esriFieldTypeString",
   "alias": "د_مرکز_ځای__موقعیت_مرکز",
   "length": 255
  },
  {
   "name": "Polling_Center_Location",
   "type": "esriFieldTypeString",
   "alias": "Polling_Center_Location",
   "length": 255
  },
  {
   "name": "Map_Accuracy",
   "type": "esriFieldTypeString",
   "alias": "Map_Accuracy",
   "length": 10
  },
  {
   "name": "Map_Accuracy_Dari",
   "type": "esriFieldTypeString",
   "alias": "Map_Accuracy_Dari",
   "length": 50
  },
  {
   "name": "Status",
   "type": "esriFieldTypeString",
   "alias": "Status",
   "length": 6
  },
  {
   "name": "Status_Dari",
   "type": "esriFieldTypeString",
   "alias": "Status_Dari",
   "length": 8
  },
  {
   "name": "PS_Male",
   "type": "esriFieldTypeSmallInteger",
   "alias": "PS_Male"
  },
  {
   "name": "PS_Female",
   "type": "esriFieldTypeSmallInteger",
   "alias": "PS_Female"
  },
  {
   "name": "PS_Total",
   "type": "esriFieldTypeSmallInteger",
   "alias": "PS_Total"
  },
  {
   "name": "ولسوالي",
   "type": "esriFieldTypeString",
   "alias": "ولسوالي",
   "length": 255
  },
  {
   "name": "Region",
   "type": "esriFieldTypeString",
   "alias": "Region",
   "length": 50
  }
 ],
 "features": [
  {
   "attributes": {
    "OBJECTID": 3001,
    "ولایت": "لغمان",
    "Province": "LAGHMAN",
    "PC_Code": "0705110",
    "District": "DAWLAT SHAH",
    "د_مرکز_نوم__نام_مرکز": "د کېل جومات ",
    "Polling_Center_Name": "Kel Mosque",
    "د_مرکز_ځای__موقعیت_مرکز": "کیل",
    "Polling_Center_Location": "Kel",
    "Map_Accuracy": "Village",
    "Map_Accuracy_Dari": "قریه",
    "Status": "Open",
    "Status_Dari": null,
    "PS_Male": 4,
    "PS_Female": 0,
    "PS_Total": 4,
    "ولسوالي": "دولت شاه",
    "Region": "Eastern Region"
   },
   "geometry": {
    "x": 7792553.2513466934,
    "y": 4163133.5930337929
   }
  },
  {
   "attributes": {
    "OBJECTID": 3002,
    "ولایت": "لغمان",
    "Province": "LAGHMAN",
    "PC_Code": "0705111",
    "District": "DAWLAT SHAH",
    "د_مرکز_نوم__نام_مرکز": "د نيل خان جومات ",
    "Polling_Center_Name": "Nil Khan Mosque",
    "د_مرکز_ځای__موقعیت_مرکز": "نیل خان",
    "Polling_Center_Location": "Nil Khan",
    "Map_Accuracy": "Building",
    "Map_Accuracy_Dari": "تعمیر",
    "Status": "Open",
    "Status_Dari": null,
    "PS_Male": 2,
    "PS_Female": 2,
    "PS_Total": 4,
    "ولسوالي": "دولت شاه",
    "Region": "Eastern Region"
   },
   "geometry": {
    "x": 7788167.4292754782,
    "y": 4166766.5553181106
   }
  },
  {
   "attributes": {
    "OBJECTID": 3003,
    "ولایت": "پنجشیر",
    "Province": "PANJSHIR",
    "PC_Code": "0801004",
    "District": "BAZARAK",
    "د_مرکز_نوم__نام_مرکز": "مکتب متوسط ملسیه",
    "Polling_Center_Name": "Malsapa Secondar School",
    "د_مرکز_ځای__موقعیت_مرکز": "ملسپه",
    "Polling_Center_Location": "Malsapa",
    "Map_Accuracy": "Building",
    "Map_Accuracy_Dari": "تعمیر",
    "Status": "Open",
    "Status_Dari": null,
    "PS_Male": 3,
    "PS_Female": 1,
    "PS_Total": 4,
    "ولسوالي": " بازارک",
    "Region": "Central Region"
   },
   "geometry": {
    "x": 7742446.375959266,
    "y": 4209265.1870652372
   }
  },
  {
   "attributes": {
    "OBJECTID": 3004,
    "ولایت": "پنجشیر",
    "Province": "PANJSHIR",
    "PC_Code": "0801005",
    "District": "BAZARAK",
    "د_مرکز_نوم__نام_مرکز": "مدرسه جامع خانیز",
    "Polling_Center_Name": "Khan Khez Madrassa",
    "د_مرکز_ځای__موقعیت_مرکز": "خانیز",
    "Polling_Center_Location": "Khan khez",
    "Map_Accuracy": "Building",
    "Map_Accuracy_Dari": "تعمیر",
    "Status": "Open",
    "Status_Dari": null,
    "PS_Male": 2,
    "PS_Female": 2,
    "PS_Total": 4,
    "ولسوالي": " بازارک",
    "Region": "Central Region"
   },
   "geometry": {
    "x": 7736545.6703899512,
    "y": 4203805.4656482935
   }
  },
  {
   "attributes": {
    "OBJECTID": 3005,
    "ولایت": "پنجشیر",
    "Province": "PANJSHIR",
    "PC_Code": "0803060",
    "District": "DARAH",
    "د_مرکز_نوم__نام_مرکز": "مکتب تند خو",
    "Polling_Center_Name": "Tund Kho School",
    "د_مرکز_ځای__موقعیت_مرکز": "تند خو ",
    "Polling_Center_Location": "Tund kho",
    "Map_Accuracy": "Village",
    "Map_Accuracy_Dari": "قریه",
    "Status": "Open",
    "Status_Dari": null,
    "PS_Male": 1,
    "PS_Female": 1,
    "PS_Total": 2,
    "ولسوالي": "دره",
    "Region": "Central Region"
   },
   "geometry": {
    "x": 7751922.3396331351,
    "y": 4200192.9183081016
   }
  },
  {
   "attributes": {
    "OBJECTID": 3006,
    "ولایت": "پنجشیر",
    "Province": "PANJSHIR",
    "PC_Code": "0803061",
    "District": "DARAH",
    "د_مرکز_نوم__نام_مرکز": "مسجد جامع پوجاوه ",
    "Polling_Center_Name": "Pojawa Mosque",
    "د_مرکز_ځای__موقعیت_مرکز": "پوجاوه ",
    "Polling_Center_Location": "Pojawa",
    "Map_Accuracy": "Building",
    "Map_Accuracy_Dari": "تعمیر",
    "Status": "Open",
    "Status_Dari": null,
    "PS_Male": 1,
    "PS_Female": 1,
    "PS_Total": 2,
    "ولسوالي": "دره",
    "Region": "Central Region"
   },
   "geometry": {
    "x": 7754094.8563814303,
    "y": 4208636.7984247236
   }
  },
  {
   "attributes": {
    "OBJECTID": 3007,
    "ولایت": "پنجشیر",
    "Province": "PANJSHIR",
    "PC_Code": "0805037",
    "District": "UNABA",
    "د_مرکز_نوم__نام_مرکز": "کلینیک زنانه ",
    "Polling_Center_Name": "ladies Clinic ",
    "د_مرکز_ځای__موقعیت_مرکز": "کرگیم ",
    "Polling_Center_Location": "Kargeem",
    "Map_Accuracy": "Building",
    "Map_Accuracy_Dari": "تعمیر",
    "Status": "Open",
    "Status_Dari": null,
    "PS_Male": 1,
    "PS_Female": 1,
    "PS_Total": 2,
    "ولسوالي": "عنابه",
    "Region": "Central Region"
   },
   "geometry": {
    "x": 7727631.4081687005,
    "y": 4193811.4086092748
   }
  },
  {
   "attributes": {
    "OBJECTID": 3008,
    "ولایت": "پنجشیر",
    "Province": "PANJSHIR",
    "PC_Code": "0807074",
    "District": "PARYAN",
    "د_مرکز_نوم__نام_مرکز": "مکتب متوسط تل ",
    "Polling_Center_Name": "Tal Secondary School ",
    "د_مرکز_ځای__موقعیت_مرکز": "تل",
    "Polling_Center_Location": "Tal ",
    "Map_Accuracy": "Village",
    "Map_Accuracy_Dari": "قریه",
    "Status": "Open",
    "Status_Dari": null,
    "PS_Male": 2,
    "PS_Female": 0,
    "PS_Total": 2,
    "ولسوالي": "پریان",
    "Region": "Central Region"
   },
   "geometry": {
    "x": 7777395.0666417014,
    "y": 4240636.2744995048
   }
  },
  {
   "attributes": {
    "OBJECTID": 3009,
    "ولایت": "پنجشیر",
    "Province": "PANJSHIR",
    "PC_Code": "0807075",
    "District": "PARYAN",
    "د_مرکز_نوم__نام_مرکز": "مکتب خواجه عارف",
    "Polling_Center_Name": "Khwaja Arif School",
    "د_مرکز_ځای__موقعیت_مرکز": "آریوب",
    "Polling_Center_Location": "Aryob ",
    "Map_Accuracy": "Village",
    "Map_Accuracy_Dari": "قریه",
    "Status": "Open",
    "Status_Dari": null,
    "PS_Male": 1,
    "PS_Female": 1,
    "PS_Total": 2,
    "ولسوالي": "پریان",
    "Region": "Central Region"
   },
   "geometry": {
    "x": 7786179.9388792189,
    "y": 4236153.1093973527
   }
  },
  {
   "attributes": {
    "OBJECTID": 3010,
    "ولایت": "پنجشیر",
    "Province": "PANJSHIR",
    "PC_Code": "0808065",
    "District": "ABSHAR",
    "د_مرکز_نوم__نام_مرکز": "مکتب ذکور پرنګان ",
    "Polling_Center_Name": "Parngan Boys School",
    "د_مرکز_ځای__موقعیت_مرکز": "پرنگال",
    "Polling_Center_Location": "Parngan",
    "Map_Accuracy": "Village",
    "Map_Accuracy_Dari": "قریه",
    "Status": "Open",
    "Status_Dari": null,
    "PS_Male": 3,
    "PS_Female": 0,
    "PS_Total": 3,
    "ولسوالي": "آبشار",
    "Region": "Central Region"
   },
   "geometry": {
    "x": 7763942.5225142296,
    "y": 4195685.154728882
   }
  },
  {
   "attributes": {
    "OBJECTID": 3011,
    "ولایت": "بغلان",
    "Province": "BAGHLAN",
    "PC_Code": "0901020",
    "District": "PUL-E-KHUMRI",
    "د_مرکز_نوم__نام_مرکز": "کمپ خواجه الوان سرک پلخمری مزار شریف",
    "Polling_Center_Name": "Khawaja Alvan Camp",
    "د_مرکز_ځای__موقعیت_مرکز": "خواجه الوان کمپ کهنه",
    "Polling_Center_Location": "Khwaja Alvan Old Camp",
    "Map_Accuracy": "Building",
    "Map_Accuracy_Dari": "تعمیر",
    "Status": "Open",
    "Status_Dari": null,
    "PS_Male": 2,
    "PS_Female": 2,
    "PS_Total": 4,
    "ولسوالي": "پلخمری",
    "Region": "North Eastern Region"
   },
   "geometry": {
    "x": 7631928.6304025836,
    "y": 4314663.0004242137
   }
  },
  {
   "attributes": {
    "OBJECTID": 3012,
    "ولایت": "بغلان",
    "Province": "BAGHLAN",
    "PC_Code": "0901039",
    "District": "PUL-E-KHUMRI",
    "د_مرکز_نوم__نام_مرکز": " نزدیک رباطک مکتب قره سای",
    "Polling_Center_Name": "Qura Sai School",
    "د_مرکز_ځای__موقعیت_مرکز": "قره سایی پائین",
    "Polling_Center_Location": "Qura Saiee Payin, near to Rubatak",
    "Map_Accuracy": "Building",
    "Map_Accuracy_Dari": "تعمیر",
    "Status": "Open",
    "Status_Dari": null,
    "PS_Male": 2,
    "PS_Female": 1,
    "PS_Total": 3,
    "ولسوالي": "پلخمری",
    "Region": "North Eastern Region"
   },
   "geometry": {
    "x": 7624915.9466473758,
    "y": 4315560.9335142206
   }
  },
  {
   "attributes": {
    "OBJECTID": 3013,
    "ولایت": "بغلان",
    "Province": "BAGHLAN",
    "PC_Code": "0902086",
    "District": "DAHANA-E-GHURI",
    "د_مرکز_نوم__نام_مرکز": "مکتب متوسطه دره تران ",
    "Polling_Center_Name": "Dara Turan Secondary School",
    "د_مرکز_ځای__موقعیت_مرکز": "دره تران خواجه پاک",
    "Polling_Center_Location": "Toran Khawaja Pak Village",
    "Map_Accuracy": "Building",
    "Map_Accuracy_Dari": "تعمیر",
    "Status": "Open",
    "Status_Dari": null,
    "PS_Male": 2,
    "PS_Female": 1,
    "PS_Total": 3,
    "ولسوالي": "دهنه غوری",
    "Region": "North Eastern Region"
   },
   "geometry": {
    "x": 7608767.6140335994,
    "y": 4282171.0120087666
   }
  },
  {
   "attributes": {
    "OBJECTID": 3014,
    "ولایت": "بغلان",
    "Province": "BAGHLAN",
    "PC_Code": "0903105",
    "District": "DUSHI",
    "د_مرکز_نوم__نام_مرکز": " کلینیک چار در",
    "Polling_Center_Name": "Char Dar Clinic",
    "د_مرکز_ځای__موقعیت_مرکز": "قریه چار در",
    "Polling_Center_Location": "Char Dar Village ",
    "Map_Accuracy": "Village",
    "Map_Accuracy_Dari": "قریه",
    "Status": "Open",
    "Status_Dari": null,
    "PS_Male": 2,
    "PS_Female": 2,
    "PS_Total": 4,
    "ولسوالي": "دوشی",
    "Region": "North Eastern Region"
   },
   "geometry": {
    "x": 7637607.4906982761,
    "y": 4217867.7130280491
   }
  },
  {
   "attributes": {
    "OBJECTID": 3015,
    "ولایت": "بغلان",
    "Province": "BAGHLAN",
    "PC_Code": "0904142",
    "District": "NAHREEN",
    "د_مرکز_نوم__نام_مرکز": "مکتب  شیندره ",
    "Polling_Center_Name": "Shindara School",
    "د_مرکز_ځای__موقعیت_مرکز": "قریه شین دره",
    "Polling_Center_Location": "Shindara Village",
    "Map_Accuracy": "Building",
    "Map_Accuracy_Dari": "تعمیر",
    "Status": "Open",
    "Status_Dari": null,
    "PS_Male": 2,
    "PS_Female": 1,
    "PS_Total": 3,
    "ولسوالي": "نهرین",
    "Region": "North Eastern Region"
   },
   "geometry": {
    "x": 7698244.962822984,
    "y": 4308207.6134628747
   }
  },
  {
   "attributes": {
    "OBJECTID": 3016,
    "ولایت": "بغلان",
    "Province": "BAGHLAN",
    "PC_Code": "0905053",
    "District": "BAGLAN-E-JADEED",
    "د_مرکز_نوم__نام_مرکز": "کلینیک شهرقدیم بغلان",
    "Polling_Center_Name": "Shair Qadem Baghlan  Clinic",
    "د_مرکز_ځای__موقعیت_مرکز": "قریه علاوالدین",
    "Polling_Center_Location": "Allawuddin  Village ",
    "Map_Accuracy": "Building",
    "Map_Accuracy_Dari": "تعمیر",
    "Status": "Open",
    "Status_Dari": null,
    "PS_Male": 2,
    "PS_Female": 1,
    "PS_Total": 3,
    "ولسوالي": "بغلان جدید",
    "Region": "North Eastern Region"
   },
   "geometry": {
    "x": 7655710.2195368884,
    "y": 4330729.9057560805
   }
  },
  {
   "attributes": {
    "OBJECTID": 3017,
    "ولایت": "بغلان",
    "Province": "BAGHLAN",
    "PC_Code": "0905072",
    "District": "BAGLAN-E-JADEED",
    "د_مرکز_نوم__نام_مرکز": "عظیم شور",
    "Polling_Center_Name": "Azim Shor",
    "د_مرکز_ځای__موقعیت_مرکز": "قریه ملا قدیر",
    "Polling_Center_Location": "Molla Qadir Village",
    "Map_Accuracy": "Village",
    "Map_Accuracy_Dari": "قریه",
    "Status": "Open",
    "Status_Dari": null,
    "PS_Male": 2,
    "PS_Female": 1,
    "PS_Total": 3,
    "ولسوالي": "بغلان جدید",
    "Region": "North Eastern Region"
   },
   "geometry": {
    "x": 7630620.2614804702,
    "y": 4360485.9943600465
   }
  },
  {
   "attributes": {
    "OBJECTID": 3018,
    "ولایت": "بغلان",
    "Province": "BAGHLAN",
    "PC_Code": "0905073",
    "District": "BAGLAN-E-JADEED",
    "د_مرکز_نوم__نام_مرکز": " تعمیر استیشن برق ",
    "Polling_Center_Name": "Cham Qala",
    "د_مرکز_ځای__موقعیت_مرکز": "پتن خیل",
    "Polling_Center_Location": "Patan Khil",
    "Map_Accuracy": "Building",
    "Map_Accuracy_Dari": "تعمیر",
    "Status": "Open",
    "Status_Dari": null,
    "PS_Male": 4,
    "PS_Female": 3,
    "PS_Total": 7,
    "ولسوالي": "بغلان جدید",
    "Region": "North Eastern Region"
   },
   "geometry": {
    "x": 7651504.708324085,
    "y": 4318160.1805867758
   }
  },
  {
   "attributes": {
    "OBJECTID": 3019,
    "ولایت": "بغلان",
    "Province": "BAGHLAN",
    "PC_Code": "0907124",
    "District": "ANDARAB",
    "د_مرکز_نوم__نام_مرکز": "مکتب متوسطه خوش دره ",
    "Polling_Center_Name": "Khoshdara Secondary School",
    "د_مرکز_ځای__موقعیت_مرکز": "مرکز خوشدره",
    "Polling_Center_Location": "Khoshdara Center",
    "Map_Accuracy": "Building",
    "Map_Accuracy_Dari": "تعمیر",
    "Status": "Open",
    "Status_Dari": null,
    "PS_Male": 2,
    "PS_Female": 1,
    "PS_Total": 3,
    "ولسوالي": "اندراب",
    "Region": "North Eastern Region"
   },
   "geometry": {
    "x": 7693147.1557601951,
    "y": 4248186.0030265879
   }
  },
  {
   "attributes": {
    "OBJECTID": 3020,
    "ولایت": "بغلان",
    "Province": "BAGHLAN",
    "PC_Code": "0909197",
    "District": "JALGA",
    "د_مرکز_نوم__نام_مرکز": "مسجد جامع چهادر ",
    "Polling_Center_Name": "Chardeh Mosque",
    "د_مرکز_ځای__موقعیت_مرکز": "چارده",
    "Polling_Center_Location": "Chardeh",
    "Map_Accuracy": "Building",
    "Map_Accuracy_Dari": "تعمیر",
    "Status": "Open",
    "Status_Dari": null,
    "PS_Male": 2,
    "PS_Female": 1,
    "PS_Total": 3,
    "ولسوالي": "جلگه",
    "Region": "North Eastern Region"
   },
   "geometry": {
    "x": 7707470.5133023206,
    "y": 4282263.1637575813
   }
  },
  {
   "attributes": {
    "OBJECTID": 3021,
    "ولایت": "بغلان",
    "Province": "BAGHLAN",
    "PC_Code": "0909198",
    "District": "JALGA",
    "د_مرکز_نوم__نام_مرکز": "مدرسه و مسجد جامع وریچی ",
    "Polling_Center_Name": "Warichi Mosque and Madrassa",
    "د_مرکز_ځای__موقعیت_مرکز": "وریچی",
    "Polling_Center_Location": "Warichi",
    "Map_Accuracy": "Building",
    "Map_Accuracy_Dari": "تعمیر",
    "Status": "Open",
    "Status_Dari": null,
    "PS_Male": 2,
    "PS_Female": 2,
    "PS_Total": 4,
    "ولسوالي": "جلگه",
    "Region": "North Eastern Region"
   },
   "geometry": {
    "x": 7709822.3223356819,
    "y": 4297083.14216932
   }
  },
  {
   "attributes": {
    "OBJECTID": 3022,
    "ولایت": "بغلان",
    "Province": "BAGHLAN",
    "PC_Code": "0911163",
    "District": "TALA WA BARFAK",
    "د_مرکز_نوم__نام_مرکز": "مکتب ذکور تاله ",
    "Polling_Center_Name": "Tala Boys High School",
    "د_مرکز_ځای__موقعیت_مرکز": "مرکز ولسوالی تاله ",
    "Polling_Center_Location": "Tala District ",
    "Map_Accuracy": "Building",
    "Map_Accuracy_Dari": "تعمیر",
    "Status": "Open",
    "Status_Dari": null,
    "PS_Male": 3,
    "PS_Female": 1,
    "PS_Total": 4,
    "ولسوالي": "تاله و برفک",
    "Region": "North Eastern Region"
   },
   "geometry": {
    "x": 7593567.8058578046,
    "y": 4215813.8671801407
   }
  },
  {
   "attributes": {
    "OBJECTID": 3023,
    "ولایت": "بغلان",
    "Province": "BAGHLAN",
    "PC_Code": "0913203",
    "District": "KHOST WA FIRING",
    "د_مرکز_نوم__نام_مرکز": "مکتب محمد افضل شهید",
    "Polling_Center_Name": "Mohammad Afzal Shaheed School",
    "د_مرکز_ځای__موقعیت_مرکز": "چار قشلاق",
    "Polling_Center_Location": "Char Qeshlaq",
    "Map_Accuracy": "Building",
    "Map_Accuracy_Dari": "تعمیر",
    "Status": "Open",
    "Status_Dari": null,
    "PS_Male": 1,
    "PS_Female": 1,
    "PS_Total": 2,
    "ولسوالي": "خوست و فرنگ",
    "Region": "North Eastern Region"
   },
   "geometry": {
    "x": 7762128.5012804735,
    "y": 4305020.7720602527
   }
  },
  {
   "attributes": {
    "OBJECTID": 3024,
    "ولایت": "بغلان",
    "Province": "BAGHLAN",
    "PC_Code": "0914226",
    "District": "GOZARGAH-E-NOOR",
    "د_مرکز_نوم__نام_مرکز": "مسجد  یاهور",
    "Polling_Center_Name": "Yahoor Mosque",
    "د_مرکز_ځای__موقعیت_مرکز": "یاهور",
    "Polling_Center_Location": "Yahoor",
    "Map_Accuracy": "Building",
    "Map_Accuracy_Dari": "تعمیر",
    "Status": "Open",
    "Status_Dari": null,
    "PS_Male": 1,
    "PS_Female": 2,
    "PS_Total": 3,
    "ولسوالي": "گذرگاه نور",
    "Region": "North Eastern Region"
   },
   "geometry": {
    "x": 7741775.9788162494,
    "y": 4333011.0478050504
   }
  },
  {
   "attributes": {
    "OBJECTID": 3025,
    "ولایت": "باميان",
    "Province": "BAMYAN",
    "PC_Code": "1001015",
    "District": "BAMYAN",
    "د_مرکز_نوم__نام_مرکز": "مکتب  توپ علی",
    "Polling_Center_Name": "Toop Ali School",
    "د_مرکز_ځای__موقعیت_مرکز": "توپ علی، چارچشمه قرغنتو",
    "Polling_Center_Location": "Toop Ali, Char Cheshma Qarghantu",
    "Map_Accuracy": "Building",
    "Map_Accuracy_Dari": "تعمیر",
    "Status": "Open",
    "Status_Dari": null,
    "PS_Male": 1,
    "PS_Female": 2,
    "PS_Total": 3,
    "ولسوالي": "بامیان",
    "Region": "Central Highlands Region"
   },
   "geometry": {
    "x": 7504615.939611515,
    "y": 4132846.5011731838
   }
  },
  {
   "attributes": {
    "OBJECTID": 3026,
    "ولایت": "باميان",
    "Province": "BAMYAN",
    "PC_Code": "1001016",
    "District": "BAMYAN",
    "د_مرکز_نوم__نام_مرکز": "مکتب پیرداد",
    "Polling_Center_Name": "Peerdad School",
    "د_مرکز_ځای__موقعیت_مرکز": "پیرداد شیبرتو",
    "Polling_Center_Location": "Peerdad Shebarto",
    "Map_Accuracy": "Building",
    "Map_Accuracy_Dari": "تعمیر",
    "Status": "Open",
    "Status_Dari": null,
    "PS_Male": 1,
    "PS_Female": 2,
    "PS_Total": 3,
    "ولسوالي": "بامیان",
    "Region": "Central Highlands Region"
   },
   "geometry": {
    "x": 7514393.8518381845,
    "y": 4136917.6196386591
   }
  },
  {
   "attributes": {
    "OBJECTID": 3027,
    "ولایت": "باميان",
    "Province": "BAMYAN",
    "PC_Code": "1003037",
    "District": "SAIGHAN",
    "د_مرکز_نوم__نام_مرکز": "دفتر شورای کلانتر ها",
    "Polling_Center_Name": "Kalantarha Council Office",
    "د_مرکز_ځای__موقعیت_مرکز": "کلانتر ها",
    "Polling_Center_Location": "Kalantarha",
    "Map_Accuracy": "Building",
    "Map_Accuracy_Dari": "تعمیر",
    "Status": "Open",
    "Status_Dari": null,
    "PS_Male": 3,
    "PS_Female": 0,
    "PS_Total": 3,
    "ولسوالي": "سیغان",
    "Region": "Central Highlands Region"
   },
   "geometry": {
    "x": 7541799.6551627181,
    "y": 4191853.7224646667
   }
  },
  {
   "attributes": {
    "OBJECTID": 3028,
    "ولایت": "باميان",
    "Province": "BAMYAN",
    "PC_Code": "1004060",
    "District": "KAHMARD",
    "د_مرکز_نوم__نام_مرکز": "مدرسه دو آب",
    "Polling_Center_Name": "Do Aab Madrassa",
    "د_مرکز_ځای__موقعیت_مرکز": "دو آب",
    "Polling_Center_Location": "Do Aab",
    "Map_Accuracy": "Building",
    "Map_Accuracy_Dari": "تعمیر",
    "Status": "Open",
    "Status_Dari": null,
    "PS_Male": 2,
    "PS_Female": 1,
    "PS_Total": 3,
    "ولسوالي": "کهمرد",
    "Region": "Central Highlands Region"
   },
   "geometry": {
    "x": 7568790.02973234,
    "y": 4199295.1333477804
   }
  },
  {
   "attributes": {
    "OBJECTID": 3029,
    "ولایت": "باميان",
    "Province": "BAMYAN",
    "PC_Code": "1004061",
    "District": "KAHMARD",
    "د_مرکز_نوم__نام_مرکز": "مدرسه انداب",
    "Polling_Center_Name": "Andaab Madrassa",
    "د_مرکز_ځای__موقعیت_مرکز": "انداب",
    "Polling_Center_Location": "Andaab",
    "Map_Accuracy": "Building",
    "Map_Accuracy_Dari": "تعمیر",
    "Status": "Open",
    "Status_Dari": null,
    "PS_Male": 2,
    "PS_Female": 1,
    "PS_Total": 3,
    "ولسوالي": "کهمرد",
    "Region": "Central Highlands Region"
   },
   "geometry": {
    "x": 7555278.400558738,
    "y": 4209911.1605218556
   }
  },
  {
   "attributes": {
    "OBJECTID": 3030,
    "ولایت": "باميان",
    "Province": "BAMYAN",
    "PC_Code": "1005083",
    "District": "YAKAWLANG",
    "د_مرکز_نوم__نام_مرکز": "لیسه نسوان انده",
    "Polling_Center_Name": "Anda Girls High School",
    "د_مرکز_ځای__موقعیت_مرکز": "انده",
    "Polling_Center_Location": "Anda",
    "Map_Accuracy": "Building",
    "Map_Accuracy_Dari": "تعمیر",
    "Status": "Open",
    "Status_Dari": null,
    "PS_Male": 1,
    "PS_Female": 1,
    "PS_Total": 2,
    "ولسوالي": "یکاولنگ",
    "Region": "Central Highlands Region"
   },
   "geometry": {
    "x": 7454793.4042598326,
    "y": 4111770.6102656601
   }
  },
  {
   "attributes": {
    "OBJECTID": 3031,
    "ولایت": "باميان",
    "Province": "BAMYAN",
    "PC_Code": "1007122",
    "District": "WARAS",
    "د_مرکز_نوم__نام_مرکز": "مسجد جو قول",
    "Polling_Center_Name": "Jawqol Mosque",
    "د_مرکز_ځای__موقعیت_مرکز": "جو قول",
    "Polling_Center_Location": "Jawqol",
    "Map_Accuracy": "Building",
    "Map_Accuracy_Dari": "تعمیر",
    "Status": "Open",
    "Status_Dari": null,
    "PS_Male": 2,
    "PS_Female": 1,
    "PS_Total": 3,
    "ولسوالي": "ورس",
    "Region": "Central Highlands Region"
   },
   "geometry": {
    "x": 7474225.7520207977,
    "y": 4057653.5163326673
   }
  },
  {
   "attributes": {
    "OBJECTID": 3032,
    "ولایت": "باميان",
    "Province": "BAMYAN",
    "PC_Code": "1007123",
    "District": "WARAS",
    "د_مرکز_نوم__نام_مرکز": "مسجد خرابه قول",
    "Polling_Center_Name": "Kharaba Qol Mosque",
    "د_مرکز_ځای__موقعیت_مرکز": "خرابه قول",
    "Polling_Center_Location": "Kharaba Qol",
    "Map_Accuracy": "Building",
    "Map_Accuracy_Dari": "تعمیر",
    "Status": "Open",
    "Status_Dari": null,
    "PS_Male": 1,
    "PS_Female": 1,
    "PS_Total": 2,
    "ولسوالي": "ورس",
    "Region": "Central Highlands Region"
   },
   "geometry": {
    "x": 7439820.6577889919,
    "y": 4064587.7824870371
   }
  },
  {
   "attributes": {
    "OBJECTID": 3033,
    "ولایت": "باميان",
    "Province": "BAMYAN",
    "PC_Code": "1007144",
    "District": "WARAS",
    "د_مرکز_نوم__نام_مرکز": "مسجد دیرندر",
    "Polling_Center_Name": "Derandar Mosque",
    "د_مرکز_ځای__موقعیت_مرکز": "دیرندر",
    "Polling_Center_Location": "Derandar",
    "Map_Accuracy": "Building",
    "Map_Accuracy_Dari": "تعمیر",
    "Status": "Open",
    "Status_Dari": null,
    "PS_Male": 1,
    "PS_Female": 1,
    "PS_Total": 2,
    "ولسوالي": "ورس",
    "Region": "Central Highlands Region"
   },
   "geometry": {
    "x": 7474405.7901464496,
    "y": 4049746.3230647095
   }
  },
  {
   "attributes": {
    "OBJECTID": 3034,
    "ولایت": "باميان",
    "Province": "BAMYAN",
    "PC_Code": "1007145",
    "District": "WARAS",
    "د_مرکز_نوم__نام_مرکز": "مسجد غورزیلو",
    "Polling_Center_Name": "Ghorzelaw Mosque",
    "د_مرکز_ځای__موقعیت_مرکز": "غور زلاب",
    "Polling_Center_Location": "Ghor Zalaab",
    "Map_Accuracy": "Building",
    "Map_Accuracy_Dari": "تعمیر",
    "Status": "Open",
    "Status_Dari": null,
    "PS_Male": 1,
    "PS_Female": 1,
    "PS_Total": 2,
    "ولسوالي": "ورس",
    "Region": "Central Highlands Region"
   },
   "geometry": {
    "x": 7486624.3443601439,
    "y": 4043954.1743587707
   }
  },
  {
   "attributes": {
    "OBJECTID": 3035,
    "ولایت": "غزنى",
    "Province": "GHAZNI",
    "PC_Code": "1101005",
    "District": "GHAZNI",
    "د_مرکز_نوم__نام_مرکز": "لیسه نسوان حیدر آباد بالا",
    "Polling_Center_Name": "Haider Abad Bala Girls School",
    "د_مرکز_ځای__موقعیت_مرکز": "نزدیک سرک اول قلعه قدم خان",
    "Polling_Center_Location": "Near to First Road of Qala e Qadam Khan",
    "Map_Accuracy": "Building",
    "Map_Accuracy_Dari": "تعمیر",
    "Status": "Open",
    "Status_Dari": null,
    "PS_Male": 0,
    "PS_Female": 5,
    "PS_Total": 5,
    "ولسوالي": "غزنی",
    "Region": "South Eastern Region"
   },
   "geometry": {
    "x": 7613947.4323916482,
    "y": 3966851.0404366809
   }
  },
  {
   "attributes": {
    "OBJECTID": 3036,
    "ولایت": "غزنى",
    "Province": "GHAZNI",
    "PC_Code": "1101026",
    "District": "GHAZNI",
    "د_مرکز_نوم__نام_مرکز": "مسجد امام زمان",
    "Polling_Center_Name": "Aman Zaman Mosque",
    "د_مرکز_ځای__موقعیت_مرکز": "قریه نوآباد",
    "Polling_Center_Location": "Nawabad Village",
    "Map_Accuracy": "Building",
    "Map_Accuracy_Dari": "تعمیر",
    "Status": "Open",
    "Status_Dari": null,
    "PS_Male": 0,
    "PS_Female": 5,
    "PS_Total": 5,
    "ولسوالي": "غزنی",
    "Region": "South Eastern Region"
   },
   "geometry": {
    "x": 7615079.7564408788,
    "y": 3972514.2738475841
   }
  },
  {
   "attributes": {
    "OBJECTID": 3037,
    "ولایت": "غزنى",
    "Province": "GHAZNI",
    "PC_Code": "1101027",
    "District": "GHAZNI",
    "د_مرکز_نوم__نام_مرکز": "لیسه سنائی",
    "Polling_Center_Name": "Sanayee High School",
    "د_مرکز_ځای__موقعیت_مرکز": "قریه قلعه ریس",
    "Polling_Center_Location": "Qala-e-Raees",
    "Map_Accuracy": "Building",
    "Map_Accuracy_Dari": "تعمیر",
    "Status": "Open",
    "Status_Dari": null,
    "PS_Male": 4,
    "PS_Female": 0,
    "PS_Total": 4,
    "ولسوالي": "غزنی",
    "Region": "South Eastern Region"
   },
   "geometry": {
    "x": 7616240.0161163248,
    "y": 3970591.9802588546
   }
  },
  {
   "attributes": {
    "OBJECTID": 3038,
    "ولایت": "غزنى",
    "Province": "GHAZNI",
    "PC_Code": "1101048",
    "District": "GHAZNI",
    "د_مرکز_نوم__نام_مرکز": "مسجد زرگر",
    "Polling_Center_Name": "Zargar Mosque",
    "د_مرکز_ځای__موقعیت_مرکز": "قریه زرگر ",
    "Polling_Center_Location": "Zargar Village",
    "Map_Accuracy": "Building",
    "Map_Accuracy_Dari": "تعمیر",
    "Status": "Open",
    "Status_Dari": null,
    "PS_Male": 2,
    "PS_Female": 1,
    "PS_Total": 3,
    "ولسوالي": "غزنی",
    "Region": "South Eastern Region"
   },
   "geometry": {
    "x": 7611358.2623740435,
    "y": 3960689.299694641
   }
  },
  {
   "attributes": {
    "OBJECTID": 3039,
    "ولایت": "غزنى",
    "Province": "GHAZNI",
    "PC_Code": "1106106",
    "District": "JAGHATU",
    "د_مرکز_نوم__نام_مرکز": "مکتب نو قول اصیل",
    "Polling_Center_Name": "Qoul Asil New School",
    "د_مرکز_ځای__موقعیت_مرکز": "قریه قباق",
    "Polling_Center_Location": "Qabaq Village",
    "Map_Accuracy": "Building",
    "Map_Accuracy_Dari": "تعمیر",
    "Status": "Open",
    "Status_Dari": null,
    "PS_Male": 3,
    "PS_Female": 0,
    "PS_Total": 3,
    "ولسوالي": "جغتو",
    "Region": "South Eastern Region"
   },
   "geometry": {
    "x": 7571528.945727082,
    "y": 3964835.0372704566
   }
  },
  {
   "attributes": {
    "OBJECTID": 3040,
    "ولایت": "غزنى",
    "Province": "GHAZNI",
    "PC_Code": "1104127",
    "District": "WAGHAZ",
    "د_مرکز_نوم__نام_مرکز": "مسجد قلعه محمد خان",
    "Polling_Center_Name": "Qala-e-Mohammad Khan Mosque",
    "د_مرکز_ځای__موقعیت_مرکز": "قلعه محمد خان",
    "Polling_Center_Location": "Qala-e-Mohammad Khan",
    "Map_Accuracy": "Village",
    "Map_Accuracy_Dari": "قریه",
    "Status": "Open",
    "Status_Dari": null,
    "PS_Male": 3,
    "PS_Female": 1,
    "PS_Total": 4,
    "ولسوالي": "واغظ",
    "Region": "South Eastern Region"
   },
   "geometry": {
    "x": 7597311.9667993598,
    "y": 3956714.5904280948
   }
  },
  {
   "attributes": {
    "OBJECTID": 3041,
    "ولایت": "غزنى",
    "Province": "GHAZNI",
    "PC_Code": "1107238",
    "District": "ANDAR",
    "د_مرکز_نوم__نام_مرکز": "مسجد قریه سرفراز پایین",
    "Polling_Center_Name": "Sarferaz Payen Village Mosque",
    "د_مرکز_ځای__موقعیت_مرکز": "قریه سرفراز پایین",
    "Polling_Center_Location": "Qala-e-Sarferaz Payen",
    "Map_Accuracy": "Village",
    "Map_Accuracy_Dari": "قریه",
    "Status": "Open",
    "Status_Dari": null,
    "PS_Male": 0,
    "PS_Female": 2,
    "PS_Total": 2,
    "ولسوالي": "اندر",
    "Region": "South Eastern Region"
   },
   "geometry": {
    "x": 7625086.465843373,
    "y": 3945767.9849930857
   }
  },
  {
   "attributes": {
    "OBJECTID": 3042,
    "ولایت": "غزنى",
    "Province": "GHAZNI",
    "PC_Code": "1111176",
    "District": "QARA BAGH",
    "د_مرکز_نوم__نام_مرکز": "مدرسه محمدیه",
    "Polling_Center_Name": "Mohammadia Madrassa",
    "د_مرکز_ځای__موقعیت_مرکز": "قریه قلیاقل",
    "Polling_Center_Location": "Qalia Qul Village",
    "Map_Accuracy": "Building",
    "Map_Accuracy_Dari": "تعمیر",
    "Status": "Open",
    "Status_Dari": null,
    "PS_Male": 3,
    "PS_Female": 0,
    "PS_Total": 3,
    "ولسوالي": "قره باغ",
    "Region": "South Eastern Region"
   },
   "geometry": {
    "x": 7568366.5470122695,
    "y": 3946139.9042153358
   }
  },
  {
   "attributes": {
    "OBJECTID": 3043,
    "ولایت": "غزنى",
    "Province": "GHAZNI",
    "PC_Code": "1110272",
    "District": "NAWUR",
    "د_مرکز_نوم__نام_مرکز": "مدرسه اهل بیت",
    "Polling_Center_Name": "Ahl-e-Bayt Madrassa",
    "د_مرکز_ځای__موقعیت_مرکز": "قریه سرټوپ ",
    "Polling_Center_Location": "Sartoop Village",
    "Map_Accuracy": "Building",
    "Map_Accuracy_Dari": "تعمیر",
    "Status": "Open",
    "Status_Dari": null,
    "PS_Male": 2,
    "PS_Female": 1,
    "PS_Total": 3,
    "ولسوالي": "ناور",
    "Region": "South Eastern Region"
   },
   "geometry": {
    "x": 7518147.6241045743,
    "y": 4040537.3305959543
   }
  },
  {
   "attributes": {
    "OBJECTID": 3044,
    "ولایت": "پکتيکا",
    "Province": "PAKTIKA",
    "PC_Code": "1201011",
    "District": "SHARAN",
    "د_مرکز_نوم__نام_مرکز": "جومات دلاو",
    "Polling_Center_Name": "Dulow Mosque",
    "د_مرکز_ځای__موقعیت_مرکز": "دلاو",
    "Polling_Center_Location": "Dulow",
    "Map_Accuracy": "Village",
    "Map_Accuracy_Dari": "قریه",
    "Status": "Open",
    "Status_Dari": null,
    "PS_Male": 4,
    "PS_Female": 0,
    "PS_Total": 4,
    "ولسوالي": "شرن",
    "Region": "South Eastern Region"
   },
   "geometry": {
    "x": 7658378.6122965096,
    "y": 3920950.9392036903
   }
  },
  {
   "attributes": {
    "OBJECTID": 3045,
    "ولایت": "غزنى",
    "Province": "GHAZNI",
    "PC_Code": "1114324",
    "District": "JAGHURI",
    "د_مرکز_نوم__نام_مرکز": "لیسه عالی بابه",
    "Polling_Center_Name": "Baba High School",
    "د_مرکز_ځای__موقعیت_مرکز": "قریه بابه ",
    "Polling_Center_Location": "Baba Village ",
    "Map_Accuracy": "Building",
    "Map_Accuracy_Dari": "تعمیر",
    "Status": "Open",
    "Status_Dari": null,
    "PS_Male": 4,
    "PS_Female": 2,
    "PS_Total": 6,
    "ولسوالي": "جاغوری",
    "Region": "South Eastern Region"
   },
   "geometry": {
    "x": 7489939.9965066109,
    "y": 3900227.7479980346
   }
  },
  {
   "attributes": {
    "OBJECTID": 3046,
    "ولایت": "غزنى",
    "Province": "GHAZNI",
    "PC_Code": "1114344",
    "District": "JAGHURI",
    "د_مرکز_نوم__نام_مرکز": "مکتب قریه سه پای خدایداد",
    "Polling_Center_Name": "3 Pay-e-Khudaydad Village  High School",
    "د_مرکز_ځای__موقعیت_مرکز": "قریه سه پای خدایداد",
    "Polling_Center_Location": "3 Pay-e-Khudaydad Village ",
    "Map_Accuracy": "Building",
    "Map_Accuracy_Dari": "تعمیر",
    "Status": "Open",
    "Status_Dari": null,
    "PS_Male": 1,
    "PS_Female": 1,
    "PS_Total": 2,
    "ولسوالي": "جاغوری",
    "Region": "South Eastern Region"
   },
   "geometry": {
    "x": 7521928.9056435255,
    "y": 3920984.4402776849
   }
  },
  {
   "attributes": {
    "OBJECTID": 3047,
    "ولایت": "غزنى",
    "Province": "GHAZNI",
    "PC_Code": "1115366",
    "District": "MUQUR",
    "د_مرکز_نوم__نام_مرکز": "مسجد قریه لړم",
    "Polling_Center_Name": "Laram Village Mosque",
    "د_مرکز_ځای__موقعیت_مرکز": "قریه لړم",
    "Polling_Center_Location": "Laram Village ",
    "Map_Accuracy": "Building",
    "Map_Accuracy_Dari": "تعمیر",
    "Status": "Open",
    "Status_Dari": null,
    "PS_Male": 3,
    "PS_Female": 1,
    "PS_Total": 4,
    "ولسوالي": "مقر",
    "Region": "South Eastern Region"
   },
   "geometry": {
    "x": 7556501.3230887447,
    "y": 3884384.3921882967
   }
  },
  {
   "attributes": {
    "OBJECTID": 3048,
    "ولایت": "غزنى",
    "Province": "GHAZNI",
    "PC_Code": "1116309",
    "District": "MALISTAN",
    "د_مرکز_نوم__نام_مرکز": "مسجد میراحمد محبت",
    "Polling_Center_Name": "Mir Ahmad Mohabat Mosque",
    "د_مرکز_ځای__موقعیت_مرکز": "قریه محبت لعلچک ",
    "Polling_Center_Location": "Mohabat Lalchak Village",
    "Map_Accuracy": "Building",
    "Map_Accuracy_Dari": "تعمیر",
    "Status": "Open",
    "Status_Dari": null,
    "PS_Male": 2,
    "PS_Female": 1,
    "PS_Total": 3,
    "ولسوالي": "مالستان",
    "Region": "South Eastern Region"
   },
   "geometry": {
    "x": 7484339.8802791247,
    "y": 3938833.7897369177
   }
  },
  {
   "attributes": {
    "OBJECTID": 3049,
    "ولایت": "پکتيکا",
    "Province": "PAKTIKA",
    "PC_Code": "1201001",
    "District": "SHARAN",
    "د_مرکز_نوم__نام_مرکز": "علی بابا  لیسه",
    "Polling_Center_Name": "Ali Baba High School",
    "د_مرکز_ځای__موقعیت_مرکز": "شرنه",
    "Polling_Center_Location": "Sharana",
    "Map_Accuracy": "Building",
    "Map_Accuracy_Dari": "تعمیر",
    "Status": "Open",
    "Status_Dari": null,
    "PS_Male": 7,
    "PS_Female": 0,
    "PS_Total": 7,
    "ولسوالي": "شرن",
    "Region": "South Eastern Region"
   },
   "geometry": {
    "x": 7657372.3920796448,
    "y": 3918633.7497276817
   }
  },
  {
   "attributes": {
    "OBJECTID": 3050,
    "ولایت": "پکتيکا",
    "Province": "PAKTIKA",
    "PC_Code": "1203043",
    "District": "YOSUF KHEL",
    "د_مرکز_نوم__نام_مرکز": "جومات میست",
    "Polling_Center_Name": "Mest Mosque",
    "د_مرکز_ځای__موقعیت_مرکز": "میست سګی",
    "Polling_Center_Location": "Mest Sagi",
    "Map_Accuracy": "Village",
    "Map_Accuracy_Dari": "قریه",
    "Status": "Open",
    "Status_Dari": null,
    "PS_Male": 4,
    "PS_Female": 0,
    "PS_Total": 4,
    "ولسوالي": "یوسف خیل",
    "Region": "South Eastern Region"
   },
   "geometry": {
    "x": 7631884.0369277634,
    "y": 3890599.7431085664
   }
  },
  {
   "attributes": {
    "OBJECTID": 3051,
    "ولایت": "پکتيکا",
    "Province": "PAKTIKA",
    "PC_Code": "1203044",
    "District": "YOSUF KHEL",
    "د_مرکز_نوم__نام_مرکز": "میلمستون رمضان",
    "Polling_Center_Name": "Ramazan Guest House",
    "د_مرکز_ځای__موقعیت_مرکز": "میست",
    "Polling_Center_Location": "Mest",
    "Map_Accuracy": "Village",
    "Map_Accuracy_Dari": "قریه",
    "Status": "Open",
    "Status_Dari": null,
    "PS_Male": 0,
    "PS_Female": 3,
    "PS_Total": 3,
    "ولسوالي": "یوسف خیل",
    "Region": "South Eastern Region"
   },
   "geometry": {
    "x": 7631888.1969371373,
    "y": 3890600.1623773482
   }
  },
  {
   "attributes": {
    "OBJECTID": 3052,
    "ولایت": "پکتيکا",
    "Province": "PAKTIKA",
    "PC_Code": "1211169",
    "District": "URGOON",
    "د_مرکز_نوم__نام_مرکز": "باباصاحب شیخان ښوونځی",
    "Polling_Center_Name": "Baba Sahib Shaikhan School",
    "د_مرکز_ځای__موقعیت_مرکز": "شیخیا ارگون",
    "Polling_Center_Location": "Shaikhia Argon",
    "Map_Accuracy": "Building",
    "Map_Accuracy_Dari": "تعمیر",
    "Status": "Open",
    "Status_Dari": null,
    "PS_Male": 2,
    "PS_Female": 0,
    "PS_Total": 2,
    "ولسوالي": "اورگون",
    "Region": "South Eastern Region"
   },
   "geometry": {
    "x": 7697245.9817126095,
    "y": 3880492.3750419361
   }
  },
  {
   "attributes": {
    "OBJECTID": 3053,
    "ولایت": "پکتيکا",
    "Province": "PAKTIKA",
    "PC_Code": "1215268",
    "District": "GIYAN",
    "د_مرکز_نوم__نام_مرکز": "شازار میلمستون",
    "Polling_Center_Name": "Shazar Guest House",
    "د_مرکز_ځای__موقعیت_مرکز": "کمال کلی",
    "Polling_Center_Location": "Kamal Village ",
    "Map_Accuracy": "Village",
    "Map_Accuracy_Dari": "قریه",
    "Status": "Open",
    "Status_Dari": null,
    "PS_Male": 0,
    "PS_Female": 3,
    "PS_Total": 3,
    "ولسوالي": "گیان",
    "Region": "South Eastern Region"
   },
   "geometry": {
    "x": 7723792.5878113527,
    "y": 3885766.6154567641
   }
  },
  {
   "attributes": {
    "OBJECTID": 3054,
    "ولایت": "پکتيا",
    "Province": "PAKTYA",
    "PC_Code": "1301203",
    "District": "GARDEZ",
    "د_مرکز_نوم__نام_مرکز": "دټنډانو مكتب",
    "Polling_Center_Name": "Tandano School",
    "د_مرکز_ځای__موقعیت_مرکز": "ټنډان",
    "Polling_Center_Location": "Tandan",
    "Map_Accuracy": "Building",
    "Map_Accuracy_Dari": "تعمیر",
    "Status": "Open",
    "Status_Dari": null,
    "PS_Male": 2,
    "PS_Female": 1,
    "PS_Total": 3,
    "ولسوالي": "گردیز",
    "Region": "South Eastern Region"
   },
   "geometry": {
    "x": 7698157.1874044938,
    "y": 3995123.9419934922
   }
  },
  {
   "attributes": {
    "OBJECTID": 3055,
    "ولایت": "پکتيا",
    "Province": "PAKTYA",
    "PC_Code": "1305119",
    "District": "WUZA ZADRAN",
    "د_مرکز_نوم__نام_مرکز": "موتی میر خاجان دکان",
    "Polling_Center_Name": "Moti Mir Khan Jan Shop",
    "د_مرکز_ځای__موقعیت_مرکز": "موتی",
    "Polling_Center_Location": "Moti",
    "Map_Accuracy": "Village",
    "Map_Accuracy_Dari": "قریه",
    "Status": "Open",
    "Status_Dari": null,
    "PS_Male": 3,
    "PS_Female": 0,
    "PS_Total": 3,
    "ولسوالي": "وزه ځدراڼ",
    "Region": "South Eastern Region"
   },
   "geometry": {
    "x": 7728675.7731222818,
    "y": 3937889.7501225336
   }
  },
  {
   "attributes": {
    "OBJECTID": 3056,
    "ولایت": "پکتيا",
    "Province": "PAKTYA",
    "PC_Code": "1305206",
    "District": "WUZA ZADRAN",
    "د_مرکز_نوم__نام_مرکز": "غورکی خوله مدرسه",
    "Polling_Center_Name": "Ghorkai Khola Madrassa",
    "د_مرکز_ځای__موقعیت_مرکز": "غورکی خوله، ګرده څیړی",
    "Polling_Center_Location": "Ghorkai Khola, Garda Seri",
    "Map_Accuracy": "Village",
    "Map_Accuracy_Dari": "قریه",
    "Status": "Open",
    "Status_Dari": null,
    "PS_Male": 1,
    "PS_Female": 1,
    "PS_Total": 2,
    "ولسوالي": "وزه ځدراڼ",
    "Region": "South Eastern Region"
   },
   "geometry": {
    "x": 7733533.406157298,
    "y": 3944277.7215688964
   }
  },
  {
   "attributes": {
    "OBJECTID": 3057,
    "ولایت": "پکتيا",
    "Province": "PAKTYA",
    "PC_Code": "1308136",
    "District": "LAJA AHMAD KHEL",
    "د_مرکز_نوم__نام_مرکز": "د موشکی مسجد",
    "Polling_Center_Name": "Moshaki Mosque",
    "د_مرکز_ځای__موقعیت_مرکز": "موشکه، احمدخیل",
    "Polling_Center_Location": "Moshaka, Ahmad Khel",
    "Map_Accuracy": "Village",
    "Map_Accuracy_Dari": "قریه",
    "Status": "Open",
    "Status_Dari": null,
    "PS_Male": 2,
    "PS_Female": 0,
    "PS_Total": 2,
    "ولسوالي": " لجه احمد خیل",
    "Region": "South Eastern Region"
   },
   "geometry": {
    "x": 7752384.1719177812,
    "y": 4004959.4709953498
   }
  },
  {
   "attributes": {
    "OBJECTID": 3058,
    "ولایت": "پکتيا",
    "Province": "PAKTYA",
    "PC_Code": "1307074",
    "District": "JAJI ARYOB",
    "د_مرکز_نوم__نام_مرکز": "د احمد خیلو مکتب",
    "Polling_Center_Name": "Ahmad Khel School",
    "د_مرکز_ځای__موقعیت_مرکز": "غونزی احمد خیل",
    "Polling_Center_Location": "Ghonzai Ahmad Khel",
    "Map_Accuracy": "Building",
    "Map_Accuracy_Dari": "تعمیر",
    "Status": "Open",
    "Status_Dari": null,
    "PS_Male": 4,
    "PS_Female": 1,
    "PS_Total": 5,
    "ولسوالي": "ځاځی اریوب",
    "Region": "South Eastern Region"
   },
   "geometry": {
    "x": 7765403.5340579515,
    "y": 4023339.3469497086
   }
  },
  {
   "attributes": {
    "OBJECTID": 3059,
    "ولایت": "پکتيا",
    "Province": "PAKTYA",
    "PC_Code": "1310156",
    "District": "SAMKANI",
    "د_مرکز_نوم__نام_مرکز": "د ولسوالی کلینیک",
    "Polling_Center_Name": "District Clinic",
    "د_مرکز_ځای__موقعیت_مرکز": "د ولسوالی مرکز، شهرنو",
    "Polling_Center_Location": "Chamkani District Center, Shahr-e-Naw",
    "Map_Accuracy": "Building",
    "Map_Accuracy_Dari": "تعمیر",
    "Status": "Open",
    "Status_Dari": null,
    "PS_Male": 5,
    "PS_Female": 0,
    "PS_Total": 5,
    "ولسوالي": "څمکنی",
    "Region": "South Eastern Region"
   },
   "geometry": {
    "x": 7771736.5410773931,
    "y": 4002542.0849183314
   }
  },
  {
   "attributes": {
    "OBJECTID": 3060,
    "ولایت": "خوست",
    "Province": "KHOST",
    "PC_Code": "1401009",
    "District": "KHOST",
    "د_مرکز_نوم__نام_مرکز": " د بوده خان جومات شمل مرديخېل",
    "Polling_Center_Name": "Boda Khan Mosque",
    "د_مرکز_ځای__موقعیت_مرکز": "شمل مرديخيل",
    "Polling_Center_Location": "Shamal Mardi Khel",
    "Map_Accuracy": "Building",
    "Map_Accuracy_Dari": "تعمیر",
    "Status": "Open",
    "Status_Dari": null,
    "PS_Male": 2,
    "PS_Female": 2,
    "PS_Total": 4,
    "ولسوالي": "خوست",
    "Region": "South Eastern Region"
   },
   "geometry": {
    "x": 7781114.806313362,
    "y": 3936765.2783806319
   }
  },
  {
   "attributes": {
    "OBJECTID": 3061,
    "ولایت": "خوست",
    "Province": "KHOST",
    "PC_Code": "1401030",
    "District": "KHOST",
    "د_مرکز_نوم__نام_مرکز": "جومات او د حنيف هجره لکڼ ټانک ټانک کلى",
    "Polling_Center_Name": "Mosque and Hanif Hojra",
    "د_مرکز_ځای__موقعیت_مرکز": " لکڼ ټانګ ټانګ کلى",
    "Polling_Center_Location": "Lakan Tang  Tang Village",
    "Map_Accuracy": "Village",
    "Map_Accuracy_Dari": "قریه",
    "Status": "Open",
    "Status_Dari": null,
    "PS_Male": 3,
    "PS_Female": 2,
    "PS_Total": 5,
    "ولسوالي": "خوست",
    "Region": "South Eastern Region"
   },
   "geometry": {
    "x": 7801928.5488050431,
    "y": 3946854.2182909674
   }
  },
  {
   "attributes": {
    "OBJECTID": 3062,
    "ولایت": "خوست",
    "Province": "KHOST",
    "PC_Code": "1402082",
    "District": "MANDUZAY",
    "د_مرکز_نوم__نام_مرکز": "د حيدرخيلو محمد صديق روهي ليسه",
    "Polling_Center_Name": "Mohammad Sedeq HighSchool",
    "د_مرکز_ځای__موقعیت_مرکز": "حيدرخيل",
    "Polling_Center_Location": "Haider Khel",
    "Map_Accuracy": "Building",
    "Map_Accuracy_Dari": "تعمیر",
    "Status": "Open",
    "Status_Dari": null,
    "PS_Male": 4,
    "PS_Female": 1,
    "PS_Total": 5,
    "ولسوالي": "مندوزی",
    "Region": "South Eastern Region"
   },
   "geometry": {
    "x": 7774912.5796580948,
    "y": 3938459.7825494744
   }
  },
  {
   "attributes": {
    "OBJECTID": 3063,
    "ولایت": "خوست",
    "Province": "KHOST",
    "PC_Code": "1403153",
    "District": "GURBUZ",
    "د_مرکز_نوم__نام_مرکز": "د بوري خيلو جومات",
    "Polling_Center_Name": "Bori Khelo Mosque",
    "د_مرکز_ځای__موقعیت_مرکز": " بورو خيل",
    "Polling_Center_Location": "Boro Khel",
    "Map_Accuracy": "Building",
    "Map_Accuracy_Dari": "تعمیر",
    "Status": "Open",
    "Status_Dari": null,
    "PS_Male": 1,
    "PS_Female": 2,
    "PS_Total": 3,
    "ولسوالي": "گربز",
    "Region": "South Eastern Region"
   },
   "geometry": {
    "x": 7784043.842528726,
    "y": 3926643.6483090348
   }
  },
  {
   "attributes": {
    "OBJECTID": 3064,
    "ولایت": "خوست",
    "Province": "KHOST",
    "PC_Code": "1405072",
    "District": "MUSA KHEL",
    "د_مرکز_نوم__نام_مرکز": "د موسى خيل ولسوالۍ مرکزي جومات",
    "Polling_Center_Name": "Musa Khel District Central Mosque",
    "د_مرکز_ځای__موقعیت_مرکز": "دوه منده",
    "Polling_Center_Location": "Dwa Manda",
    "Map_Accuracy": "Village",
    "Map_Accuracy_Dari": "قریه",
    "Status": "Open",
    "Status_Dari": null,
    "PS_Male": 2,
    "PS_Female": 1,
    "PS_Total": 3,
    "ولسوالي": "موسی خیل",
    "Region": "South Eastern Region"
   },
   "geometry": {
    "x": 7762809.3446445055,
    "y": 3967377.8572823214
   }
  },
  {
   "attributes": {
    "OBJECTID": 3065,
    "ولایت": "خوست",
    "Province": "KHOST",
    "PC_Code": "1407065",
    "District": "SABARI",
    "د_مرکز_نوم__نام_مرکز": " زمبرجوات",
    "Polling_Center_Name": "Zambar Mosque",
    "د_مرکز_ځای__موقعیت_مرکز": " زمبر",
    "Polling_Center_Location": "Zambar",
    "Map_Accuracy": "Village",
    "Map_Accuracy_Dari": "قریه",
    "Status": "Open",
    "Status_Dari": null,
    "PS_Male": 5,
    "PS_Female": 3,
    "PS_Total": 8,
    "ولسوالي": "صبری",
    "Region": "South Eastern Region"
   },
   "geometry": {
    "x": 7778853.8373240745,
    "y": 3970819.7421053243
   }
  },
  {
   "attributes": {
    "OBJECTID": 3066,
    "ولایت": "خوست",
    "Province": "KHOST",
    "PC_Code": "1407066",
    "District": "SABARI",
    "د_مرکز_نوم__نام_مرکز": "جومات کاريز کلى",
    "Polling_Center_Name": "Kariz Village Mosque",
    "د_مرکز_ځای__موقعیت_مرکز": "کاريز کلى",
    "Polling_Center_Location": "Kariz Village",
    "Map_Accuracy": "Village",
    "Map_Accuracy_Dari": "قریه",
    "Status": "Open",
    "Status_Dari": null,
    "PS_Male": 4,
    "PS_Female": 3,
    "PS_Total": 7,
    "ولسوالي": "صبری",
    "Region": "South Eastern Region"
   },
   "geometry": {
    "x": 7787369.5379196601,
    "y": 3963166.4773068107
   }
  },
  {
   "attributes": {
    "OBJECTID": 3067,
    "ولایت": "خوست",
    "Province": "KHOST",
    "PC_Code": "1411127",
    "District": "SPERA",
    "د_مرکز_نوم__نام_مرکز": " سپيره کلى ښوونځى",
    "Polling_Center_Name": "Spera Village School ",
    "د_مرکز_ځای__موقعیت_مرکز": " سپيره کلى",
    "Polling_Center_Location": "Spera Village",
    "Map_Accuracy": "Village",
    "Map_Accuracy_Dari": "قریه",
    "Status": "Open",
    "Status_Dari": null,
    "PS_Male": 7,
    "PS_Female": 0,
    "PS_Total": 7,
    "ولسوالي": "سپیره",
    "Region": "South Eastern Region"
   },
   "geometry": {
    "x": 7738247.5984624559,
    "y": 3922045.4887170056
   }
  },
  {
   "attributes": {
    "OBJECTID": 3068,
    "ولایت": "کنړ ",
    "Province": "KUNAR",
    "PC_Code": "1515106",
    "District": "NARI",
    "د_مرکز_نوم__نام_مرکز": "لیسه ناری",
    "Polling_Center_Name": "Naray High School",
    "د_مرکز_ځای__موقعیت_مرکز": "ناری",
    "Polling_Center_Location": "Naray",
    "Map_Accuracy": "Village",
    "Map_Accuracy_Dari": "قریه",
    "Status": "Open",
    "Status_Dari": null,
    "PS_Male": 3,
    "PS_Female": 1,
    "PS_Total": 4,
    "ولسوالي": "نری",
    "Region": "Eastern Region"
   },
   "geometry": {
    "x": 7962244.3138219491,
    "y": 4194170.3373606545
   }
  },
  {
   "attributes": {
    "OBJECTID": 3069,
    "ولایت": "کنړ ",
    "Province": "KUNAR",
    "PC_Code": "1515107",
    "District": "NARI",
    "د_مرکز_نوم__نام_مرکز": "کلینیک",
    "Polling_Center_Name": "Naray Clinic",
    "د_مرکز_ځای__موقعیت_مرکز": "ناری",
    "Polling_Center_Location": "Naray",
    "Map_Accuracy": "Village",
    "Map_Accuracy_Dari": "قریه",
    "Status": "Open",
    "Status_Dari": null,
    "PS_Male": 3,
    "PS_Female": 1,
    "PS_Total": 4,
    "ولسوالي": "نری",
    "Region": "Eastern Region"
   },
   "geometry": {
    "x": 7962247.621124018,
    "y": 4194415.0768605145
   }
  },
  {
   "attributes": {
    "OBJECTID": 3070,
    "ولایت": "خوست",
    "Province": "KHOST",
    "PC_Code": "1413101",
    "District": "JAJI MAIDAN",
    "د_مرکز_نوم__نام_مرکز": "د الګاډې ليسه ",
    "Polling_Center_Name": "Algada High School ",
    "د_مرکز_ځای__موقعیت_مرکز": "الګاډه ",
    "Polling_Center_Location": "Algada",
    "Map_Accuracy": "Building",
    "Map_Accuracy_Dari": "تعمیر",
    "Status": "Open",
    "Status_Dari": null,
    "PS_Male": 3,
    "PS_Female": 2,
    "PS_Total": 5,
    "ولسوالي": "ځاځي میدان",
    "Region": "South Eastern Region"
   },
   "geometry": {
    "x": 7793101.3094825232,
    "y": 3981321.3809792763
   }
  },
  {
   "attributes": {
    "OBJECTID": 3071,
    "ولایت": "خوست",
    "Province": "KHOST",
    "PC_Code": "1413102",
    "District": "JAJI MAIDAN",
    "د_مرکز_نوم__نام_مرکز": "د داڼي ښوونځی",
    "Polling_Center_Name": "Dani School ",
    "د_مرکز_ځای__موقعیت_مرکز": "داني خيل",
    "Polling_Center_Location": "Dani Khel",
    "Map_Accuracy": "Village",
    "Map_Accuracy_Dari": "قریه",
    "Status": "Open",
    "Status_Dari": null,
    "PS_Male": 2,
    "PS_Female": 2,
    "PS_Total": 4,
    "ولسوالي": "ځاځي میدان",
    "Region": "South Eastern Region"
   },
   "geometry": {
    "x": 7802261.7736819778,
    "y": 3975247.7169457944
   }
  },
  {
   "attributes": {
    "OBJECTID": 3072,
    "ولایت": "کنړ ",
    "Province": "KUNAR",
    "PC_Code": "1503013",
    "District": "WATAPOOR",
    "د_مرکز_نوم__نام_مرکز": "لیسه قمچی",
    "Polling_Center_Name": "Qamchi High School",
    "د_مرکز_ځای__موقعیت_مرکز": "قمچی",
    "Polling_Center_Location": "Qamchi",
    "Map_Accuracy": "Building",
    "Map_Accuracy_Dari": "تعمیر",
    "Status": "Open",
    "Status_Dari": null,
    "PS_Male": 3,
    "PS_Female": 1,
    "PS_Total": 4,
    "ولسوالي": "واټه پور",
    "Region": "Eastern Region"
   },
   "geometry": {
    "x": 7916008.9299492221,
    "y": 4153327.6531300847
   }
  },
  {
   "attributes": {
    "OBJECTID": 3073,
    "ولایت": "کنړ ",
    "Province": "KUNAR",
    "PC_Code": "1509091",
    "District": "SAWKAI",
    "د_مرکز_نوم__نام_مرکز": "مسجد قریه",
    "Polling_Center_Name": "Kalmani Village Mosque",
    "د_مرکز_ځای__موقعیت_مرکز": "کلمانی",
    "Polling_Center_Location": "Kalmani",
    "Map_Accuracy": "Village",
    "Map_Accuracy_Dari": "قریه",
    "Status": "Open",
    "Status_Dari": null,
    "PS_Male": 3,
    "PS_Female": 2,
    "PS_Total": 5,
    "ولسوالي": "څوکی",
    "Region": "Eastern Region"
   },
   "geometry": {
    "x": 7894654.5977463573,
    "y": 4121193.4757521627
   }
  },
  {
   "attributes": {
    "OBJECTID": 3074,
    "ولایت": "کنړ ",
    "Province": "KUNAR",
    "PC_Code": "1509092",
    "District": "SAWKAI",
    "د_مرکز_نوم__نام_مرکز": "مکتب فیض الله",
    "Polling_Center_Name": "Faizullah School",
    "د_مرکز_ځای__موقعیت_مرکز": "قندهارو کلی",
    "Polling_Center_Location": "Kandaharo Village",
    "Map_Accuracy": "Building",
    "Map_Accuracy_Dari": "تعمیر",
    "Status": "Open",
    "Status_Dari": null,
    "PS_Male": 3,
    "PS_Female": 2,
    "PS_Total": 5,
    "ولسوالي": "څوکی",
    "Region": "Eastern Region"
   },
   "geometry": {
    "x": 7892984.805384459,
    "y": 4121193.4757521627
   }
  },
  {
   "attributes": {
    "OBJECTID": 3075,
    "ولایت": "بلخ",
    "Province": "BALKH",
    "PC_Code": "2107248",
    "District": "SHOLGARA",
    "د_مرکز_نوم__نام_مرکز": "مکتب پل برق",
    "Polling_Center_Name": "Pul Barq School",
    "د_مرکز_ځای__موقعیت_مرکز": "قریه پل برق",
    "Polling_Center_Location": "Pul Barq Village",
    "Map_Accuracy": "Village",
    "Map_Accuracy_Dari": "قریه",
    "Status": "Open",
    "Status_Dari": null,
    "PS_Male": 2,
    "PS_Female": 1,
    "PS_Total": 3,
    "ولسوالي": "شولگره",
    "Region": "Northern Region"
   },
   "geometry": {
    "x": 7448047.6345872814,
    "y": 4331182.3506134478
   }
  },
  {
   "attributes": {
    "OBJECTID": 3076,
    "ولایت": "بدخشان",
    "Province": "BADAKHSHAN",
    "PC_Code": "1701010",
    "District": "FAIZ ABAD",
    "د_مرکز_نوم__نام_مرکز": "لیسه نسوان الجهاد ",
    "Polling_Center_Name": "Aljehad Girls High School",
    "د_مرکز_ځای__موقعیت_مرکز": "دشت قرغ",
    "Polling_Center_Location": "Dasht Qorogh",
    "Map_Accuracy": "Building",
    "Map_Accuracy_Dari": "تعمیر",
    "Status": "Open",
    "Status_Dari": null,
    "PS_Male": 4,
    "PS_Female": 1,
    "PS_Total": 5,
    "ولسوالي": "فیض آباد",
    "Region": "North Eastern Region"
   },
   "geometry": {
    "x": 7852897.714986911,
    "y": 4453144.3116651056
   }
  },
  {
   "attributes": {
    "OBJECTID": 3077,
    "ولایت": "بدخشان",
    "Province": "BADAKHSHAN",
    "PC_Code": "1702045",
    "District": "ARGO",
    "د_مرکز_نوم__نام_مرکز": "مکتب یرنشه ",
    "Polling_Center_Name": "Yarnasha School",
    "د_مرکز_ځای__موقعیت_مرکز": "یرنشه",
    "Polling_Center_Location": "Yarnasha",
    "Map_Accuracy": "Building",
    "Map_Accuracy_Dari": "تعمیر",
    "Status": "Open",
    "Status_Dari": null,
    "PS_Male": 2,
    "PS_Female": 1,
    "PS_Total": 3,
    "ولسوالي": "ارگو",
    "Region": "North Eastern Region"
   },
   "geometry": {
    "x": 7848530.1648969119,
    "y": 4446820.3834881755
   }
  },
  {
   "attributes": {
    "OBJECTID": 3078,
    "ولایت": "بدخشان",
    "Province": "BADAKHSHAN",
    "PC_Code": "1702046",
    "District": "ARGO",
    "د_مرکز_نوم__نام_مرکز": "مکتب برلاس وخیان ",
    "Polling_Center_Name": "Barlaas-o-Khyan School",
    "د_مرکز_ځای__موقعیت_مرکز": "برلاس وخیان ",
    "Polling_Center_Location": "Barlaas-o-khyan",
    "Map_Accuracy": "Building",
    "Map_Accuracy_Dari": "تعمیر",
    "Status": "Open",
    "Status_Dari": null,
    "PS_Male": 2,
    "PS_Female": 1,
    "PS_Total": 3,
    "ولسوالي": "ارگو",
    "Region": "North Eastern Region"
   },
   "geometry": {
    "x": 7850597.7607987486,
    "y": 4436618.1219707299
   }
  },
  {
   "attributes": {
    "OBJECTID": 3079,
    "ولایت": "بدخشان",
    "Province": "BADAKHSHAN",
    "PC_Code": "1706102",
    "District": "BAHARAK",
    "د_مرکز_نوم__نام_مرکز": "لیسه بهارستان ",
    "Polling_Center_Name": "Baharestan High School",
    "د_مرکز_ځای__موقعیت_مرکز": "بهارستان",
    "Polling_Center_Location": "Baharestan",
    "Map_Accuracy": "Building",
    "Map_Accuracy_Dari": "تعمیر",
    "Status": "Open",
    "Status_Dari": null,
    "PS_Male": 3,
    "PS_Female": 1,
    "PS_Total": 4,
    "ولسوالي": "بهارک",
    "Region": "North Eastern Region"
   },
   "geometry": {
    "x": 7892803.4748395141,
    "y": 4439373.1161424899
   }
  },
  {
   "attributes": {
    "OBJECTID": 3080,
    "ولایت": "بدخشان",
    "Province": "BADAKHSHAN",
    "PC_Code": "1706103",
    "District": "BAHARAK",
    "د_مرکز_نوم__نام_مرکز": "مکتب ملنگ اب ",
    "Polling_Center_Name": "Malang Aab School",
    "د_مرکز_ځای__موقعیت_مرکز": "ملنگ اب ",
    "Polling_Center_Location": "Malang Aab",
    "Map_Accuracy": "Building",
    "Map_Accuracy_Dari": "تعمیر",
    "Status": "Open",
    "Status_Dari": null,
    "PS_Male": 2,
    "PS_Female": 1,
    "PS_Total": 3,
    "ولسوالي": "بهارک",
    "Region": "North Eastern Region"
   },
   "geometry": {
    "x": 7897147.6689871484,
    "y": 4439915.8390034046
   }
  },
  {
   "attributes": {
    "OBJECTID": 3081,
    "ولایت": "بدخشان",
    "Province": "BADAKHSHAN",
    "PC_Code": "1708120",
    "District": "KOHISTAN",
    "د_مرکز_نوم__نام_مرکز": "لیسه پس پل",
    "Polling_Center_Name": "Pas Pul High School",
    "د_مرکز_ځای__موقعیت_مرکز": "پس پل",
    "Polling_Center_Location": "Pas Pul",
    "Map_Accuracy": "Building",
    "Map_Accuracy_Dari": "تعمیر",
    "Status": "Open",
    "Status_Dari": null,
    "PS_Male": 2,
    "PS_Female": 1,
    "PS_Total": 3,
    "ولسوالي": "کوهستان",
    "Region": "North Eastern Region"
   },
   "geometry": {
    "x": 7861352.0774298701,
    "y": 4505222.1742325462
   }
  },
  {
   "attributes": {
    "OBJECTID": 3082,
    "ولایت": "بدخشان",
    "Province": "BADAKHSHAN",
    "PC_Code": "1708121",
    "District": "KOHISTAN",
    "د_مرکز_نوم__نام_مرکز": "مکتب لخش ",
    "Polling_Center_Name": "Lakhsh School",
    "د_مرکز_ځای__موقعیت_مرکز": "لخش",
    "Polling_Center_Location": "Lakhsh",
    "Map_Accuracy": "Building",
    "Map_Accuracy_Dari": "تعمیر",
    "Status": "Open",
    "Status_Dari": null,
    "PS_Male": 1,
    "PS_Female": 1,
    "PS_Total": 2,
    "ولسوالي": "کوهستان",
    "Region": "North Eastern Region"
   },
   "geometry": {
    "x": 7866616.0722472779,
    "y": 4500132.8331873929
   }
  },
  {
   "attributes": {
    "OBJECTID": 3083,
    "ولایت": "بدخشان",
    "Province": "BADAKHSHAN",
    "PC_Code": "1712118",
    "District": "SHUHADA",
    "د_مرکز_نوم__نام_مرکز": "مکتب ایزرو",
    "Polling_Center_Name": "Ezro School",
    "د_مرکز_ځای__موقعیت_مرکز": "ایزرو",
    "Polling_Center_Location": "Ezro",
    "Map_Accuracy": "Building",
    "Map_Accuracy_Dari": "تعمیر",
    "Status": "Open",
    "Status_Dari": null,
    "PS_Male": 1,
    "PS_Female": 1,
    "PS_Total": 2,
    "ولسوالي": "شهدا",
    "Region": "North Eastern Region"
   },
   "geometry": {
    "x": 7927977.1511184042,
    "y": 4446249.9697674187
   }
  },
  {
   "attributes": {
    "OBJECTID": 3084,
    "ولایت": "بدخشان",
    "Province": "BADAKHSHAN",
    "PC_Code": "1714236",
    "District": "RAGHISTAN",
    "د_مرکز_نوم__نام_مرکز": "مکتب علیا خم ",
    "Polling_Center_Name": "Ulya Khum School",
    "د_مرکز_ځای__موقعیت_مرکز": "علیا خم",
    "Polling_Center_Location": "Ulya Khum",
    "Map_Accuracy": "Building",
    "Map_Accuracy_Dari": "تعمیر",
    "Status": "Open",
    "Status_Dari": null,
    "PS_Male": 2,
    "PS_Female": 2,
    "PS_Total": 4,
    "ولسوالي": "راغستان ",
    "Region": "North Eastern Region"
   },
   "geometry": {
    "x": 7844718.4964765627,
    "y": 4523762.201555199
   }
  },
  {
   "attributes": {
    "OBJECTID": 3085,
    "ولایت": "بدخشان",
    "Province": "BADAKHSHAN",
    "PC_Code": "1718260",
    "District": "YAMGAN",
    "د_مرکز_نوم__نام_مرکز": "مکتب آب اشنام ",
    "Polling_Center_Name": "Aab Ashnam School",
    "د_مرکز_ځای__موقعیت_مرکز": "سناوری ",
    "Polling_Center_Location": "Sanawari",
    "Map_Accuracy": "Building",
    "Map_Accuracy_Dari": "تعمیر",
    "Status": "Open",
    "Status_Dari": null,
    "PS_Male": 2,
    "PS_Female": 1,
    "PS_Total": 3,
    "ولسوالي": "یمگان",
    "Region": "North Eastern Region"
   },
   "geometry": {
    "x": 7873450.720514467,
    "y": 4374305.6360463463
   }
  },
  {
   "attributes": {
    "OBJECTID": 3086,
    "ولایت": "بدخشان",
    "Province": "BADAKHSHAN",
    "PC_Code": "1719213",
    "District": "SHIGHNAN",
    "د_مرکز_نوم__نام_مرکز": "لیسه رحمت ",
    "Polling_Center_Name": "Rahmat High School",
    "د_مرکز_ځای__موقعیت_مرکز": "بهشار",
    "Polling_Center_Location": "Bahshaar",
    "Map_Accuracy": "Building",
    "Map_Accuracy_Dari": "تعمیر",
    "Status": "Open",
    "Status_Dari": null,
    "PS_Male": 3,
    "PS_Female": 1,
    "PS_Total": 4,
    "ولسوالي": "شغنان",
    "Region": "North Eastern Region"
   },
   "geometry": {
    "x": 7954944.2020283146,
    "y": 4516992.4071687683
   }
  },
  {
   "attributes": {
    "OBJECTID": 3087,
    "ولایت": "بدخشان",
    "Province": "BADAKHSHAN",
    "PC_Code": "1721251",
    "District": "KUFAB",
    "د_مرکز_نوم__نام_مرکز": "مکتب پای مزار ",
    "Polling_Center_Name": "Pay Mazar School",
    "د_مرکز_ځای__موقعیت_مرکز": "پای مزار ",
    "Polling_Center_Location": "Pay Mazar",
    "Map_Accuracy": "Building",
    "Map_Accuracy_Dari": "تعمیر",
    "Status": "Open",
    "Status_Dari": null,
    "PS_Male": 2,
    "PS_Female": 1,
    "PS_Total": 3,
    "ولسوالي": "کوف آب",
    "Region": "North Eastern Region"
   },
   "geometry": {
    "x": 7874280.3479439206,
    "y": 4571375.0160907097
   }
  },
  {
   "attributes": {
    "OBJECTID": 3088,
    "ولایت": "بدخشان",
    "Province": "BADAKHSHAN",
    "PC_Code": "1724282",
    "District": "SHIKI",
    "د_مرکز_نوم__نام_مرکز": "مکتب ابتدائیه سنگ لیچ",
    "Polling_Center_Name": "Sang Lech Primary School",
    "د_مرکز_ځای__موقعیت_مرکز": "سنگ لیچ",
    "Polling_Center_Location": "Sang Lech",
    "Map_Accuracy": "Village",
    "Map_Accuracy_Dari": "قریه",
    "Status": "Open",
    "Status_Dari": null,
    "PS_Male": 1,
    "PS_Female": 1,
    "PS_Total": 2,
    "ولسوالي": "شکی",
    "Region": "North Eastern Region"
   },
   "geometry": {
    "x": 7863676.4172656853,
    "y": 4613142.6832463276
   }
  },
  {
   "attributes": {
    "OBJECTID": 3089,
    "ولایت": "بدخشان",
    "Province": "BADAKHSHAN",
    "PC_Code": "1728208",
    "District": "WAKHAN",
    "د_مرکز_نوم__نام_مرکز": "بوزای گمباد",
    "Polling_Center_Name": "Bozay Gombaad",
    "د_مرکز_ځای__موقعیت_مرکز": "پامیر",
    "Polling_Center_Location": "Pamir",
    "Map_Accuracy": "Village",
    "Map_Accuracy_Dari": "قریه",
    "Status": "Open",
    "Status_Dari": null,
    "PS_Male": 1,
    "PS_Female": 1,
    "PS_Total": 2,
    "ولسوالي": "واخان",
    "Region": "North Eastern Region"
   },
   "geometry": {
    "x": 8238213.8040249171,
    "y": 4458325.0821622554
   }
  },
  {
   "attributes": {
    "OBJECTID": 3090,
    "ولایت": "بدخشان",
    "Province": "BADAKHSHAN",
    "PC_Code": "1728209",
    "District": "WAKHAN",
    "د_مرکز_نوم__نام_مرکز": "لنگر",
    "Polling_Center_Name": "Langar",
    "د_مرکز_ځای__موقعیت_مرکز": " پامیر",
    "Polling_Center_Location": "Pamir",
    "Map_Accuracy": "Village",
    "Map_Accuracy_Dari": "قریه",
    "Status": "Open",
    "Status_Dari": null,
    "PS_Male": 1,
    "PS_Female": 1,
    "PS_Total": 2,
    "ولسوالي": "واخان",
    "Region": "North Eastern Region"
   },
   "geometry": {
    "x": 8008536.6788024241,
    "y": 4403353.0027181171
   }
  },
  {
   "attributes": {
    "OBJECTID": 3091,
    "ولایت": "تخار",
    "Province": "TAKHAR",
    "PC_Code": "1802036",
    "District": "HAZAR SUMUCH",
    "د_مرکز_نوم__نام_مرکز": "مکتب ابتدائیه اچه",
    "Polling_Center_Name": "Aacha Primary School",
    "د_مرکز_ځای__موقعیت_مرکز": "اچه",
    "Polling_Center_Location": "Aacha",
    "Map_Accuracy": "Building",
    "Map_Accuracy_Dari": "تعمیر",
    "Status": "Open",
    "Status_Dari": null,
    "PS_Male": 2,
    "PS_Female": 1,
    "PS_Total": 3,
    "ولسوالي": "هزارسموچ",
    "Region": "North Eastern Region"
   },
   "geometry": {
    "x": 7742360.4506707126,
    "y": 4432188.6187247373
   }
  },
  {
   "attributes": {
    "OBJECTID": 3092,
    "ولایت": "تخار",
    "Province": "TAKHAR",
    "PC_Code": "1805080",
    "District": "CHAL",
    "د_مرکز_نوم__نام_مرکز": "مسجد خواجه بنا",
    "Polling_Center_Name": "Khwaja Bana Mosque",
    "د_مرکز_ځای__موقعیت_مرکز": "خواجه بنا",
    "Polling_Center_Location": "Khwaja Bana",
    "Map_Accuracy": "Building",
    "Map_Accuracy_Dari": "تعمیر",
    "Status": "Open",
    "Status_Dari": null,
    "PS_Male": 1,
    "PS_Female": 1,
    "PS_Total": 2,
    "ولسوالي": "چال",
    "Region": "North Eastern Region"
   },
   "geometry": {
    "x": 7749285.6061367001,
    "y": 4362474.4850965366
   }
  },
  {
   "attributes": {
    "OBJECTID": 3093,
    "ولایت": "تخار",
    "Province": "TAKHAR",
    "PC_Code": "1805193",
    "District": "CHAL",
    "د_مرکز_نوم__نام_مرکز": "مسجد جامع صیاد ",
    "Polling_Center_Name": "Sayaad Mosque",
    "د_مرکز_ځای__موقعیت_مرکز": "صیاد",
    "Polling_Center_Location": "Sayaad",
    "Map_Accuracy": "Building",
    "Map_Accuracy_Dari": "تعمیر",
    "Status": "Open",
    "Status_Dari": null,
    "PS_Male": 1,
    "PS_Female": 1,
    "PS_Total": 2,
    "ولسوالي": "چال",
    "Region": "North Eastern Region"
   },
   "geometry": {
    "x": 7756373.0887973523,
    "y": 4367441.5464929668
   }
  },
  {
   "attributes": {
    "OBJECTID": 3094,
    "ولایت": "تخار",
    "Province": "TAKHAR",
    "PC_Code": "1808092",
    "District": "FARKHAR",
    "د_مرکز_نوم__نام_مرکز": "لیسه محمد نبی شهید",
    "Polling_Center_Name": "Mohammad Nabi Shaheed High School",
    "د_مرکز_ځای__موقعیت_مرکز": "خفدره",
    "Polling_Center_Location": "Khufdara",
    "Map_Accuracy": "Building",
    "Map_Accuracy_Dari": "تعمیر",
    "Status": "Open",
    "Status_Dari": null,
    "PS_Male": 2,
    "PS_Female": 1,
    "PS_Total": 3,
    "ولسوالي": "فرخار",
    "Region": "North Eastern Region"
   },
   "geometry": {
    "x": 7778175.573232647,
    "y": 4374208.6113537923
   }
  },
  {
   "attributes": {
    "OBJECTID": 3095,
    "ولایت": "تخار",
    "Province": "TAKHAR",
    "PC_Code": "1810106",
    "District": "RUSTAQ",
    "د_مرکز_نوم__نام_مرکز": "مکتب حضرت ابی ابن کعب",
    "Polling_Center_Name": "Hazrat Obai Ibn Kaab School",
    "د_مرکز_ځای__موقعیت_مرکز": "یکه توت نوآباد",
    "Polling_Center_Location": "Yaka Toot Nawabad",
    "Map_Accuracy": "Building",
    "Map_Accuracy_Dari": "تعمیر",
    "Status": "Open",
    "Status_Dari": null,
    "PS_Male": 3,
    "PS_Female": 2,
    "PS_Total": 5,
    "ولسوالي": "رستاق",
    "Region": "North Eastern Region"
   },
   "geometry": {
    "x": 7762561.279178028,
    "y": 4470956.1305711679
   }
  },
  {
   "attributes": {
    "OBJECTID": 3096,
    "ولایت": "تخار",
    "Province": "TAKHAR",
    "PC_Code": "1810128",
    "District": "RUSTAQ",
    "د_مرکز_نوم__نام_مرکز": "مکتب متوسطه دشتک علیا",
    "Polling_Center_Name": "Dashtak Ulya Secondary School",
    "د_مرکز_ځای__موقعیت_مرکز": "دشتک علیا",
    "Polling_Center_Location": "Dashtak Ulya",
    "Map_Accuracy": "Building",
    "Map_Accuracy_Dari": "تعمیر",
    "Status": "Open",
    "Status_Dari": null,
    "PS_Male": 2,
    "PS_Female": 2,
    "PS_Total": 4,
    "ولسوالي": "رستاق",
    "Region": "North Eastern Region"
   },
   "geometry": {
    "x": 7791792.0787249152,
    "y": 4466205.3166352278
   }
  },
  {
   "attributes": {
    "OBJECTID": 3097,
    "ولایت": "تخار",
    "Province": "TAKHAR",
    "PC_Code": "1812171",
    "District": "DASHT-E-QALA",
    "د_مرکز_نوم__نام_مرکز": "لیسه باغ بایان",
    "Polling_Center_Name": "Bagh Bayan High School",
    "د_مرکز_ځای__موقعیت_مرکز": "باغ بایان",
    "Polling_Center_Location": "Bagh Bayan",
    "Map_Accuracy": "Building",
    "Map_Accuracy_Dari": "تعمیر",
    "Status": "Open",
    "Status_Dari": null,
    "PS_Male": 2,
    "PS_Female": 1,
    "PS_Total": 3,
    "ولسوالي": "دشت قلعه",
    "Region": "North Eastern Region"
   },
   "geometry": {
    "x": 7734948.8535202472,
    "y": 4466809.4211933417
   }
  },
  {
   "attributes": {
    "OBJECTID": 3098,
    "ولایت": "تخار",
    "Province": "TAKHAR",
    "PC_Code": "1812172",
    "District": "DASHT-E-QALA",
    "د_مرکز_نوم__نام_مرکز": "مسجد غاز تیپه",
    "Polling_Center_Name": "Ghaz Tipa Mosque",
    "د_مرکز_ځای__موقعیت_مرکز": "غاز تیپه",
    "Polling_Center_Location": "Ghaz Tipa",
    "Map_Accuracy": "Building",
    "Map_Accuracy_Dari": "تعمیر",
    "Status": "Open",
    "Status_Dari": null,
    "PS_Male": 3,
    "PS_Female": 2,
    "PS_Total": 5,
    "ولسوالي": "دشت قلعه",
    "Region": "North Eastern Region"
   },
   "geometry": {
    "x": 7733928.1161285881,
    "y": 4467340.8822015403
   }
  },
  {
   "attributes": {
    "OBJECTID": 3099,
    "ولایت": "تخار",
    "Province": "TAKHAR",
    "PC_Code": "1814199",
    "District": "KHWAJA BAHAWUDIN",
    "د_مرکز_نوم__نام_مرکز": "مکتب ابتدائیه عروق قشلاق ",
    "Polling_Center_Name": "Aroq Qashlaq Primary School",
    "د_مرکز_ځای__موقعیت_مرکز": "عرق قشلاق",
    "Polling_Center_Location": "Aroq Qashlaq",
    "Map_Accuracy": "Building",
    "Map_Accuracy_Dari": "تعمیر",
    "Status": "Open",
    "Status_Dari": null,
    "PS_Male": 1,
    "PS_Female": 1,
    "PS_Total": 2,
    "ولسوالي": "خواجه بهاوالدین",
    "Region": "North Eastern Region"
   },
   "geometry": {
    "x": 7747128.5739295697,
    "y": 4492656.5371265793
   }
  },
  {
   "attributes": {
    "OBJECTID": 3100,
    "ولایت": "تخار",
    "Province": "TAKHAR",
    "PC_Code": "1816145",
    "District": "CHAH AB",
    "د_مرکز_نوم__نام_مرکز": "مسجد مرکزی انجیز",
    "Polling_Center_Name": "Enjeez Central Mosque",
    "د_مرکز_ځای__موقعیت_مرکز": "مرکزی انجیز",
    "Polling_Center_Location": "Markazi Enjeez",
    "Map_Accuracy": "Building",
    "Map_Accuracy_Dari": "تعمیر",
    "Status": "Open",
    "Status_Dari": null,
    "PS_Male": 1,
    "PS_Female": 1,
    "PS_Total": 2,
    "ولسوالي": "چا آب",
    "Region": "North Eastern Region"
   },
   "geometry": {
    "x": 7787116.9161464227,
    "y": 4518112.0998232206
   }
  },
  {
   "attributes": {
    "OBJECTID": 3101,
    "ولایت": "کندز",
    "Province": "KUNDUZ",
    "PC_Code": "1901012",
    "District": "KUNDUZ",
    "د_مرکز_نوم__نام_مرکز": "ریاست امور زنان",
    "Polling_Center_Name": "Women Affairs Department",
    "د_مرکز_ځای__موقعیت_مرکز": "ناحیه دوم",
    "Polling_Center_Location": "D02 - Nahia 2",
    "Map_Accuracy": "Building",
    "Map_Accuracy_Dari": "تعمیر",
    "Status": "Open",
    "Status_Dari": null,
    "PS_Male": 3,
    "PS_Female": 4,
    "PS_Total": 7,
    "ولسوالي": "کندز",
    "Region": "North Eastern Region"
   },
   "geometry": {
    "x": 7665786.1496251458,
    "y": 4399678.4863487883
   }
  },
  {
   "attributes": {
    "OBJECTID": 3102,
    "ولایت": "کندز",
    "Province": "KUNDUZ",
    "PC_Code": "1901034",
    "District": "KUNDUZ",
    "د_مرکز_نوم__نام_مرکز": "لیسه باغ میری",
    "Polling_Center_Name": "Bagh Meri High School",
    "د_مرکز_ځای__موقعیت_مرکز": "باغ میری  پایین",
    "Polling_Center_Location": "Bagh Meri Payeen",
    "Map_Accuracy": "Building",
    "Map_Accuracy_Dari": "تعمیر",
    "Status": "Open",
    "Status_Dari": null,
    "PS_Male": 3,
    "PS_Female": 1,
    "PS_Total": 4,
    "ولسوالي": "کندز",
    "Region": "North Eastern Region"
   },
   "geometry": {
    "x": 7675065.2937601274,
    "y": 4395745.3317525601
   }
  },
  {
   "attributes": {
    "OBJECTID": 3103,
    "ولایت": "کندز",
    "Province": "KUNDUZ",
    "PC_Code": "1901035",
    "District": "KUNDUZ",
    "د_مرکز_نوم__نام_مرکز": "لیسه وکیل قره",
    "Polling_Center_Name": "Wakil Qara High School",
    "د_مرکز_ځای__موقعیت_مرکز": "وکیل قره",
    "Polling_Center_Location": "Wakil Qara",
    "Map_Accuracy": "Building",
    "Map_Accuracy_Dari": "تعمیر",
    "Status": "Open",
    "Status_Dari": null,
    "PS_Male": 2,
    "PS_Female": 1,
    "PS_Total": 3,
    "ولسوالي": "کندز",
    "Region": "North Eastern Region"
   },
   "geometry": {
    "x": 7645604.4769758042,
    "y": 4415274.1178703699
   }
  },
  {
   "attributes": {
    "OBJECTID": 3104,
    "ولایت": "کندز",
    "Province": "KUNDUZ",
    "PC_Code": "1901056",
    "District": "KUNDUZ",
    "د_مرکز_نوم__نام_مرکز": "مکتب متوسطه دمشاخ",
    "Polling_Center_Name": "Damshaakh Secondary School",
    "د_مرکز_ځای__موقعیت_مرکز": "دمشاخ آلچین",
    "Polling_Center_Location": "Damshaakh Aalchin",
    "Map_Accuracy": "Building",
    "Map_Accuracy_Dari": "تعمیر",
    "Status": "Open",
    "Status_Dari": null,
    "PS_Male": 2,
    "PS_Female": 2,
    "PS_Total": 4,
    "ولسوالي": "کندز",
    "Region": "North Eastern Region"
   },
   "geometry": {
    "x": 7662443.0238283426,
    "y": 4410580.218909339
   }
  },
  {
   "attributes": {
    "OBJECTID": 3105,
    "ولایت": "کندز",
    "Province": "KUNDUZ",
    "PC_Code": "1903130",
    "District": "ALI ABAD",
    "د_مرکز_نوم__نام_مرکز": "لیسه میرشیخ",
    "Polling_Center_Name": "Mir Shekh High School",
    "د_مرکز_ځای__موقعیت_مرکز": "قریه میرشیخ",
    "Polling_Center_Location": "Mir Shekh Village",
    "Map_Accuracy": "Building",
    "Map_Accuracy_Dari": "تعمیر",
    "Status": "Open",
    "Status_Dari": null,
    "PS_Male": 3,
    "PS_Female": 2,
    "PS_Total": 5,
    "ولسوالي": "علی آباد",
    "Region": "North Eastern Region"
   },
   "geometry": {
    "x": 7666793.9973329669,
    "y": 4380906.2555169389
   }
  },
  {
   "attributes": {
    "OBJECTID": 3106,
    "ولایت": "کندز",
    "Province": "KUNDUZ",
    "PC_Code": "1904147",
    "District": "KHAN ABAD",
    "د_مرکز_نوم__نام_مرکز": "مکتب ابتدائیه سویدن",
    "Polling_Center_Name": "Swedan Primary School",
    "د_مرکز_ځای__موقعیت_مرکز": "قریه آدم خان",
    "Polling_Center_Location": "Adam Khan Village",
    "Map_Accuracy": "Building",
    "Map_Accuracy_Dari": "تعمیر",
    "Status": "Open",
    "Status_Dari": null,
    "PS_Male": 1,
    "PS_Female": 1,
    "PS_Total": 2,
    "ولسوالي": "خان آباد",
    "Region": "North Eastern Region"
   },
   "geometry": {
    "x": 7685527.3210306624,
    "y": 4391728.2137857107
   }
  },
  {
   "attributes": {
    "OBJECTID": 3107,
    "ولایت": "کندز",
    "Province": "KUNDUZ",
    "PC_Code": "1904148",
    "District": "KHAN ABAD",
    "د_مرکز_نوم__نام_مرکز": "مسجد سویکه",
    "Polling_Center_Name": "Sweka Mosque",
    "د_مرکز_ځای__موقعیت_مرکز": "قریه سویکه",
    "Polling_Center_Location": "Sweka Village",
    "Map_Accuracy": "Building",
    "Map_Accuracy_Dari": "تعمیر",
    "Status": "Open",
    "Status_Dari": null,
    "PS_Male": 1,
    "PS_Female": 1,
    "PS_Total": 2,
    "ولسوالي": "خان آباد",
    "Region": "North Eastern Region"
   },
   "geometry": {
    "x": 7700405.4993676813,
    "y": 4384317.8010201883
   }
  },
  {
   "attributes": {
    "OBJECTID": 3108,
    "ولایت": "کندز",
    "Province": "KUNDUZ",
    "PC_Code": "1904167",
    "District": "KHAN ABAD",
    "د_مرکز_نوم__نام_مرکز": "مسجد باسوس",
    "Polling_Center_Name": "Basoos Mosaque",
    "د_مرکز_ځای__موقعیت_مرکز": "قریه باسوس",
    "Polling_Center_Location": "Basoos Village",
    "Map_Accuracy": "Building",
    "Map_Accuracy_Dari": "تعمیر",
    "Status": "Open",
    "Status_Dari": null,
    "PS_Male": 1,
    "PS_Female": 1,
    "PS_Total": 2,
    "ولسوالي": "خان آباد",
    "Region": "North Eastern Region"
   },
   "geometry": {
    "x": 7690221.4223941239,
    "y": 4399047.10905449
   }
  },
  {
   "attributes": {
    "OBJECTID": 3109,
    "ولایت": "کندز",
    "Province": "KUNDUZ",
    "PC_Code": "1904168",
    "District": "KHAN ABAD",
    "د_مرکز_نوم__نام_مرکز": "مکتب پرچه دشت",
    "Polling_Center_Name": "Parcha Dasht School",
    "د_مرکز_ځای__موقعیت_مرکز": "قریه پرچه دشت",
    "Polling_Center_Location": "Parcha Dasht Village",
    "Map_Accuracy": "Building",
    "Map_Accuracy_Dari": "تعمیر",
    "Status": "Open",
    "Status_Dari": null,
    "PS_Male": 1,
    "PS_Female": 1,
    "PS_Total": 2,
    "ولسوالي": "خان آباد",
    "Region": "North Eastern Region"
   },
   "geometry": {
    "x": 7681095.8045348702,
    "y": 4410461.1143569592
   }
  },
  {
   "attributes": {
    "OBJECTID": 3110,
    "ولایت": "کندز",
    "Province": "KUNDUZ",
    "PC_Code": "1905082",
    "District": "HAZRAT-E-IMAM SAHIB",
    "د_مرکز_نوم__نام_مرکز": "مکتب نمبر ۱ امام صاحب",
    "Polling_Center_Name": "Imam Sahib Number 1 School",
    "د_مرکز_ځای__موقعیت_مرکز": "ناحیه چهارم",
    "Polling_Center_Location": "D04 - Nahia 4",
    "Map_Accuracy": "Building",
    "Map_Accuracy_Dari": "تعمیر",
    "Status": "Open",
    "Status_Dari": null,
    "PS_Male": 2,
    "PS_Female": 2,
    "PS_Total": 4,
    "ولسوالي": "حضرت امام صاحب",
    "Region": "North Eastern Region"
   },
   "geometry": {
    "x": 7672619.4019459216,
    "y": 4464481.6191399032
   }
  },
  {
   "attributes": {
    "OBJECTID": 3111,
    "ولایت": "کندز",
    "Province": "KUNDUZ",
    "PC_Code": "1906214",
    "District": "DASHT-E-ARCHI",
    "د_مرکز_نوم__نام_مرکز": "مسجد آمر صادق",
    "Polling_Center_Name": "Aamer Sadeq Mosque",
    "د_مرکز_ځای__موقعیت_مرکز": "قریه آمر صادق",
    "Polling_Center_Location": "Aamer Sadeq Village",
    "Map_Accuracy": "Building",
    "Map_Accuracy_Dari": "تعمیر",
    "Status": "Open",
    "Status_Dari": null,
    "PS_Male": 1,
    "PS_Female": 1,
    "PS_Total": 2,
    "ولسوالي": "دشت ارچی",
    "Region": "North Eastern Region"
   },
   "geometry": {
    "x": 7696444.0605912227,
    "y": 4446737.1062989365
   }
  },
  {
   "attributes": {
    "OBJECTID": 3112,
    "ولایت": "سمنگان",
    "Province": "SAMANGAN",
    "PC_Code": "2001002",
    "District": "AYBAK",
    "د_مرکز_نوم__نام_مرکز": "مکتب متوسطه قوچ نهال",
    "Polling_Center_Name": "Qoch Nehal Secondary School",
    "د_مرکز_ځای__موقعیت_مرکز": "قریه قوچ نهال",
    "Polling_Center_Location": "Qoch Nehal Village",
    "Map_Accuracy": "Building",
    "Map_Accuracy_Dari": "تعمیر",
    "Status": "Open",
    "Status_Dari": null,
    "PS_Male": 2,
    "PS_Female": 2,
    "PS_Total": 4,
    "ولسوالي": "ایبک",
    "Region": "Northern Region"
   },
   "geometry": {
    "x": 7565387.1487460732,
    "y": 4337134.7557557374
   }
  },
  {
   "attributes": {
    "OBJECTID": 3113,
    "ولایت": "سمنگان",
    "Province": "SAMANGAN",
    "PC_Code": "2002020",
    "District": "HAZRAT-E-SULTAN",
    "د_مرکز_نوم__نام_مرکز": "مکتب متوسطه نسوان کلچه ",
    "Polling_Center_Name": "Kulcha Girls Secondary School",
    "د_مرکز_ځای__موقعیت_مرکز": "قریه کلچه",
    "Polling_Center_Location": "Kulcha Village",
    "Map_Accuracy": "Building",
    "Map_Accuracy_Dari": "تعمیر",
    "Status": "Open",
    "Status_Dari": null,
    "PS_Male": 2,
    "PS_Female": 2,
    "PS_Total": 4,
    "ولسوالي": "حضرت سلطان",
    "Region": "Northern Region"
   },
   "geometry": {
    "x": 7578482.84043469,
    "y": 4369395.2263016496
   }
  },
  {
   "attributes": {
    "OBJECTID": 3114,
    "ولایت": "سمنگان",
    "Province": "SAMANGAN",
    "PC_Code": "2003086",
    "District": "KHURAM WA SARBAGH",
    "د_مرکز_نوم__نام_مرکز": "مکتب متوسطه قینر",
    "Polling_Center_Name": "Qenar Secondary School",
    "د_مرکز_ځای__موقعیت_مرکز": "قریه قینر",
    "Polling_Center_Location": "Qenar Village",
    "Map_Accuracy": "Building",
    "Map_Accuracy_Dari": "تعمیر",
    "Status": "Open",
    "Status_Dari": null,
    "PS_Male": 2,
    "PS_Female": 1,
    "PS_Total": 3,
    "ولسوالي": "خرم و سارباغ",
    "Region": "Northern Region"
   },
   "geometry": {
    "x": 7584211.4627691535,
    "y": 4271785.6606247164
   }
  },
  {
   "attributes": {
    "OBJECTID": 3115,
    "ولایت": "سمنگان",
    "Province": "SAMANGAN",
    "PC_Code": "2006049",
    "District": "DARA-E-SOOF-E-PAYIN",
    "د_مرکز_نوم__نام_مرکز": "مکتب متوسطه بیانان",
    "Polling_Center_Name": "Bayanan Secondary School",
    "د_مرکز_ځای__موقعیت_مرکز": "قریه بیانان",
    "Polling_Center_Location": "Bayanan Village",
    "Map_Accuracy": "Building",
    "Map_Accuracy_Dari": "تعمیر",
    "Status": "Open",
    "Status_Dari": null,
    "PS_Male": 2,
    "PS_Female": 1,
    "PS_Total": 3,
    "ولسوالي": "دره صوف پائین",
    "Region": "Northern Region"
   },
   "geometry": {
    "x": 7501019.4551064437,
    "y": 4291327.2277085818
   }
  },
  {
   "attributes": {
    "OBJECTID": 3116,
    "ولایت": "سمنگان",
    "Province": "SAMANGAN",
    "PC_Code": "2007034",
    "District": "DARA-E-SOOF-E-BALA",
    "د_مرکز_نوم__نام_مرکز": "مکتب دهن شوراب ",
    "Polling_Center_Name": "Dahan Shorab School",
    "د_مرکز_ځای__موقعیت_مرکز": "قریه دهن شوراب",
    "Polling_Center_Location": "Dahan Shorab Village",
    "Map_Accuracy": "Building",
    "Map_Accuracy_Dari": "تعمیر",
    "Status": "Open",
    "Status_Dari": null,
    "PS_Male": 2,
    "PS_Female": 1,
    "PS_Total": 3,
    "ولسوالي": "دره صوف بالا",
    "Region": "Northern Region"
   },
   "geometry": {
    "x": 7489683.9371874994,
    "y": 4280312.7283208966
   }
  },
  {
   "attributes": {
    "OBJECTID": 3117,
    "ولایت": "بلخ",
    "Province": "BALKH",
    "PC_Code": "2101005",
    "District": "MAZAR-E-SHARIF",
    "د_مرکز_نوم__نام_مرکز": "ریاست زراعت ",
    "Polling_Center_Name": "Agriculture Department ",
    "د_مرکز_ځای__موقعیت_مرکز": "ناحیه دوم مزار شاروالی ",
    "Polling_Center_Location": "D02 - Nahia 2",
    "Map_Accuracy": "Building",
    "Map_Accuracy_Dari": "تعمیر",
    "Status": "Open",
    "Status_Dari": null,
    "PS_Male": 6,
    "PS_Female": 4,
    "PS_Total": 10,
    "ولسوالي": "مزار شریف",
    "Region": "Northern Region"
   },
   "geometry": {
    "x": 7467737.8450431097,
    "y": 4399231.9900570717
   }
  },
  {
   "attributes": {
    "OBJECTID": 3118,
    "ولایت": "بلخ",
    "Province": "BALKH",
    "PC_Code": "2101025",
    "District": "MAZAR-E-SHARIF",
    "د_مرکز_نوم__نام_مرکز": "مکتب شیخ شهاب",
    "Polling_Center_Name": "Shaikh Shahab School",
    "د_مرکز_ځای__موقعیت_مرکز": "ناحیه ششم مزار شاروالی ",
    "Polling_Center_Location": "D06 - Nahia 6",
    "Map_Accuracy": "Building",
    "Map_Accuracy_Dari": "تعمیر",
    "Status": "Open",
    "Status_Dari": null,
    "PS_Male": 5,
    "PS_Female": 5,
    "PS_Total": 10,
    "ولسوالي": "مزار شریف",
    "Region": "Northern Region"
   },
   "geometry": {
    "x": 7473358.572074323,
    "y": 4397629.6801336277
   }
  },
  {
   "attributes": {
    "OBJECTID": 3119,
    "ولایت": "بلخ",
    "Province": "BALKH",
    "PC_Code": "2101043",
    "District": "MAZAR-E-SHARIF",
    "د_مرکز_نوم__نام_مرکز": "مکتب ی\u064Fلمرب ازبکیه ",
    "Polling_Center_Name": "Yolmareb Uzbekya School",
    "د_مرکز_ځای__موقعیت_مرکز": "ناحیه پنجم مزار شاروالی ",
    "Polling_Center_Location": "D05 - Nahia 5",
    "Map_Accuracy": "Building",
    "Map_Accuracy_Dari": "تعمیر",
    "Status": "Open",
    "Status_Dari": null,
    "PS_Male": 2,
    "PS_Female": 3,
    "PS_Total": 5,
    "ولسوالي": "مزار شریف",
    "Region": "Northern Region"
   },
   "geometry": {
    "x": 7469337.9369322369,
    "y": 4395826.7652814267
   }
  },
  {
   "attributes": {
    "OBJECTID": 3120,
    "ولایت": "بلخ",
    "Province": "BALKH",
    "PC_Code": "2101044",
    "District": "MAZAR-E-SHARIF",
    "د_مرکز_نوم__نام_مرکز": "سیلو",
    "Polling_Center_Name": "Cilo",
    "د_مرکز_ځای__موقعیت_مرکز": "سیلو ، ناحیه اول مزار شاروالی ",
    "Polling_Center_Location": "D01 - Nahia 1 Cilo",
    "Map_Accuracy": "Building",
    "Map_Accuracy_Dari": "تعمیر",
    "Status": "Open",
    "Status_Dari": null,
    "PS_Male": 4,
    "PS_Female": 2,
    "PS_Total": 6,
    "ولسوالي": "مزار شریف",
    "Region": "Northern Region"
   },
   "geometry": {
    "x": 7471618.8710722048,
    "y": 4394654.763153783
   }
  },
  {
   "attributes": {
    "OBJECTID": 3121,
    "ولایت": "بلخ",
    "Province": "BALKH",
    "PC_Code": "2103054",
    "District": "DEHDADI",
    "د_مرکز_نوم__نام_مرکز": "کلینیک شیرآباد",
    "Polling_Center_Name": "Sher Abad Clinic",
    "د_مرکز_ځای__موقعیت_مرکز": "دهدادی شیرآباد علیا",
    "Polling_Center_Location": "Dehdadi Sher Abad Ulya",
    "Map_Accuracy": "Building",
    "Map_Accuracy_Dari": "تعمیر",
    "Status": "Open",
    "Status_Dari": null,
    "PS_Male": 1,
    "PS_Female": 1,
    "PS_Total": 2,
    "ولسوالي": "دهدادی ",
    "Region": "Northern Region"
   },
   "geometry": {
    "x": 7462507.3473736802,
    "y": 4396914.7338394169
   }
  },
  {
   "attributes": {
    "OBJECTID": 3122,
    "ولایت": "بلخ",
    "Province": "BALKH",
    "PC_Code": "2104286",
    "District": "CHAR KENT",
    "د_مرکز_نوم__نام_مرکز": "مکتب خواجه بندی",
    "Polling_Center_Name": "Khwaja Bandi School",
    "د_مرکز_ځای__موقعیت_مرکز": "قریه خواجه بندی",
    "Polling_Center_Location": "Khwaja Bandi Village",
    "Map_Accuracy": "Building",
    "Map_Accuracy_Dari": "تعمیر",
    "Status": "Open",
    "Status_Dari": null,
    "PS_Male": 1,
    "PS_Female": 1,
    "PS_Total": 2,
    "ولسوالي": "چارکنت",
    "Region": "Northern Region"
   },
   "geometry": {
    "x": 7490804.2865991034,
    "y": 4350437.9772610907
   }
  },
  {
   "attributes": {
    "OBJECTID": 3123,
    "ولایت": "بلخ",
    "Province": "BALKH",
    "PC_Code": "2105071",
    "District": "MARMUL",
    "د_مرکز_نوم__نام_مرکز": "کلینیک پسته قلیچ ",
    "Polling_Center_Name": "Pasta Qaleech Clinic",
    "د_مرکز_ځای__موقعیت_مرکز": "قریه پسته قلیچ",
    "Polling_Center_Location": "Pasta Qaleech Village",
    "Map_Accuracy": "Building",
    "Map_Accuracy_Dari": "تعمیر",
    "Status": "Open",
    "Status_Dari": null,
    "PS_Male": 3,
    "PS_Female": 1,
    "PS_Total": 4,
    "ولسوالي": "مارمل ",
    "Region": "Northern Region"
   },
   "geometry": {
    "x": 7492928.9081364889,
    "y": 4375601.4923720183
   }
  },
  {
   "attributes": {
    "OBJECTID": 3124,
    "ولایت": "بلخ",
    "Province": "BALKH",
    "PC_Code": "2106164",
    "District": "BALKH",
    "د_مرکز_نوم__نام_مرکز": "مکتب دهرازی",
    "Polling_Center_Name": "Dehrazi School",
    "د_مرکز_ځای__موقعیت_مرکز": "قریه دهرازی",
    "Polling_Center_Location": "Dehrazi Village",
    "Map_Accuracy": "Building",
    "Map_Accuracy_Dari": "تعمیر",
    "Status": "Open",
    "Status_Dari": null,
    "PS_Male": 2,
    "PS_Female": 1,
    "PS_Total": 3,
    "ولسوالي": "بلخ",
    "Region": "Northern Region"
   },
   "geometry": {
    "x": 7443836.451646422,
    "y": 4400932.1420271462
   }
  },
  {
   "attributes": {
    "OBJECTID": 3125,
    "ولایت": "بلخ",
    "Province": "BALKH",
    "PC_Code": "2106165",
    "District": "BALKH",
    "د_مرکز_نوم__نام_مرکز": "مکتب دیره گی",
    "Polling_Center_Name": "Deragi School",
    "د_مرکز_ځای__موقعیت_مرکز": "قریه هیواد",
    "Polling_Center_Location": "Hewad Village",
    "Map_Accuracy": "Building",
    "Map_Accuracy_Dari": "تعمیر",
    "Status": "Open",
    "Status_Dari": null,
    "PS_Male": 2,
    "PS_Female": 1,
    "PS_Total": 3,
    "ولسوالي": "بلخ",
    "Region": "Northern Region"
   },
   "geometry": {
    "x": 7452891.2179893693,
    "y": 4404591.7214522548
   }
  },
  {
   "attributes": {
    "OBJECTID": 3126,
    "ولایت": "بلخ",
    "Province": "BALKH",
    "PC_Code": "2107246",
    "District": "SHOLGARA",
    "د_مرکز_نوم__نام_مرکز": "لیسه باغ پهلوان",
    "Polling_Center_Name": "Bagh Pahlawan High School",
    "د_مرکز_ځای__موقعیت_مرکز": "باغ پهلوان",
    "Polling_Center_Location": "Bagh Pahlawan",
    "Map_Accuracy": "Building",
    "Map_Accuracy_Dari": "تعمیر",
    "Status": "Open",
    "Status_Dari": null,
    "PS_Male": 2,
    "PS_Female": 1,
    "PS_Total": 3,
    "ولسوالي": "شولگره",
    "Region": "Northern Region"
   },
   "geometry": {
    "x": 7448088.2072020946,
    "y": 4361826.1855262145
   }
  },
  {
   "attributes": {
    "OBJECTID": 3127,
    "ولایت": "بلخ",
    "Province": "BALKH",
    "PC_Code": "2107247",
    "District": "SHOLGARA",
    "د_مرکز_نوم__نام_مرکز": "مکتب استر کوت",
    "Polling_Center_Name": "Astar Kot School",
    "د_مرکز_ځای__موقعیت_مرکز": "قریه استرکوت",
    "Polling_Center_Location": "Astar Kot Village",
    "Map_Accuracy": "Building",
    "Map_Accuracy_Dari": "تعمیر",
    "Status": "Open",
    "Status_Dari": null,
    "PS_Male": 3,
    "PS_Female": 1,
    "PS_Total": 4,
    "ولسوالي": "شولگره",
    "Region": "Northern Region"
   },
   "geometry": {
    "x": 7448793.6688715154,
    "y": 4368434.8844515681
   }
  },
  {
   "attributes": {
    "OBJECTID": 3128,
    "ولایت": "بلخ",
    "Province": "BALKH",
    "PC_Code": "2107270",
    "District": "SHOLGARA",
    "د_مرکز_نوم__نام_مرکز": "منزل خیر محمد",
    "Polling_Center_Name": "Khair Mohammad Private House",
    "د_مرکز_ځای__موقعیت_مرکز": "قریه خواجه سکندر",
    "Polling_Center_Location": "Khwaja Sikandar Village",
    "Map_Accuracy": "Building",
    "Map_Accuracy_Dari": "تعمیر",
    "Status": "Open",
    "Status_Dari": null,
    "PS_Male": 1,
    "PS_Female": 1,
    "PS_Total": 2,
    "ولسوالي": "شولگره",
    "Region": "Northern Region"
   },
   "geometry": {
    "x": 7448724.8912373213,
    "y": 4347562.3831737768
   }
  },
  {
   "attributes": {
    "OBJECTID": 3129,
    "ولایت": "زابل",
    "Province": "ZABUL",
    "PC_Code": "2607022",
    "District": "DAICHOPAN",
    "د_مرکز_نوم__نام_مرکز": "مسجد دايچوپان",
    "Polling_Center_Name": "Daichopan Mosque",
    "د_مرکز_ځای__موقعیت_مرکز": "دايچوپان",
    "Polling_Center_Location": "Daichopan",
    "Map_Accuracy": "Village",
    "Map_Accuracy_Dari": "قریه",
    "Status": "Open",
    "Status_Dari": null,
    "PS_Male": 5,
    "PS_Female": 0,
    "PS_Total": 5,
    "ولسوالي": "دایچوپان",
    "Region": "Southern Region"
   },
   "geometry": {
    "x": 7432394.4377102219,
    "y": 3846600.8275749199
   }
  },
  {
   "attributes": {
    "OBJECTID": 3130,
    "ولایت": "بلخ",
    "Province": "BALKH",
    "PC_Code": "2108230",
    "District": "CHIMTAL",
    "د_مرکز_نوم__نام_مرکز": "تعمیر جدید ولسوالی",
    "Polling_Center_Name": "District New Building",
    "د_مرکز_ځای__موقعیت_مرکز": "مرکز ولسوالی",
    "Polling_Center_Location": "District Compound",
    "Map_Accuracy": "Building",
    "Map_Accuracy_Dari": "تعمیر",
    "Status": "Open",
    "Status_Dari": null,
    "PS_Male": 1,
    "PS_Female": 1,
    "PS_Total": 2,
    "ولسوالي": "چمتال",
    "Region": "Northern Region"
   },
   "geometry": {
    "x": 7430984.7444517529,
    "y": 4392321.337794764
   }
  },
  {
   "attributes": {
    "OBJECTID": 3131,
    "ولایت": "بلخ",
    "Province": "BALKH",
    "PC_Code": "2109131",
    "District": "DAWLAT ABAD",
    "د_مرکز_نوم__نام_مرکز": "مکتب بیدو",
    "Polling_Center_Name": "Bedo School",
    "د_مرکز_ځای__موقعیت_مرکز": "قریه بیدو",
    "Polling_Center_Location": "Bedo Village",
    "Map_Accuracy": "Building",
    "Map_Accuracy_Dari": "تعمیر",
    "Status": "Open",
    "Status_Dari": null,
    "PS_Male": 3,
    "PS_Female": 2,
    "PS_Total": 5,
    "ولسوالي": "دولت آباد",
    "Region": "Northern Region"
   },
   "geometry": {
    "x": 7430977.621117536,
    "y": 4431216.8089764202
   }
  },
  {
   "attributes": {
    "OBJECTID": 3132,
    "ولایت": "بلخ",
    "Province": "BALKH",
    "PC_Code": "2110081",
    "District": "KHULM",
    "د_مرکز_نوم__نام_مرکز": "لیسه پوهاند عبدالروف خلمی ",
    "Polling_Center_Name": "Pohand Abdul Rawoof Khulmi High School",
    "د_مرکز_ځای__موقعیت_مرکز": "سیرت ",
    "Polling_Center_Location": "Seerat",
    "Map_Accuracy": "Building",
    "Map_Accuracy_Dari": "تعمیر",
    "Status": "Open",
    "Status_Dari": null,
    "PS_Male": 2,
    "PS_Female": 1,
    "PS_Total": 3,
    "ولسوالي": "خلم",
    "Region": "Northern Region"
   },
   "geometry": {
    "x": 7534884.018626391,
    "y": 4395789.2614416908
   }
  },
  {
   "attributes": {
    "OBJECTID": 3133,
    "ولایت": "بلخ",
    "Province": "BALKH",
    "PC_Code": "2111182",
    "District": "CHAR BOLAK",
    "د_مرکز_نوم__نام_مرکز": "مکتب سالار تپه",
    "Polling_Center_Name": "Salar Tapa School",
    "د_مرکز_ځای__موقعیت_مرکز": "قریه سالار تپه",
    "Polling_Center_Location": "Salar Tapa Village",
    "Map_Accuracy": "Building",
    "Map_Accuracy_Dari": "تعمیر",
    "Status": "Open",
    "Status_Dari": null,
    "PS_Male": 1,
    "PS_Female": 1,
    "PS_Total": 2,
    "ولسوالي": "چار بولک",
    "Region": "Northern Region"
   },
   "geometry": {
    "x": 7395310.2061615475,
    "y": 4405509.4751980808
   }
  },
  {
   "attributes": {
    "OBJECTID": 3134,
    "ولایت": "بلخ",
    "Province": "BALKH",
    "PC_Code": "2111203",
    "District": "CHAR BOLAK",
    "د_مرکز_نوم__نام_مرکز": "تعمیر شورای انکشافی",
    "Polling_Center_Name": "Shoray Inkeshafi Building",
    "د_مرکز_ځای__موقعیت_مرکز": "قریه ژنگوره معاون زمان",
    "Polling_Center_Location": "Zhangora Maawen Zaman Village",
    "Map_Accuracy": "Building",
    "Map_Accuracy_Dari": "تعمیر",
    "Status": "Open",
    "Status_Dari": null,
    "PS_Male": 2,
    "PS_Female": 1,
    "PS_Total": 3,
    "ولسوالي": "چار بولک",
    "Region": "Northern Region"
   },
   "geometry": {
    "x": 7427888.0288006021,
    "y": 4407952.0571999997
   }
  },
  {
   "attributes": {
    "OBJECTID": 3135,
    "ولایت": "بلخ",
    "Province": "BALKH",
    "PC_Code": "2113103",
    "District": "KALDAR",
    "د_مرکز_نوم__نام_مرکز": "مکتب متوسطه قریه کهنه کلدار",
    "Polling_Center_Name": "Kuhna Kaldar Village Secondary School",
    "د_مرکز_ځای__موقعیت_مرکز": "قریه کهنه کلدار",
    "Polling_Center_Location": "Kuhna Kaldar Village",
    "Map_Accuracy": "Building",
    "Map_Accuracy_Dari": "تعمیر",
    "Status": "Open",
    "Status_Dari": null,
    "PS_Male": 1,
    "PS_Female": 1,
    "PS_Total": 2,
    "ولسوالي": "کلدار",
    "Region": "Northern Region"
   },
   "geometry": {
    "x": 7544000.9513389682,
    "y": 4462819.0506486567
   }
  },
  {
   "attributes": {
    "OBJECTID": 3136,
    "ولایت": "بلخ",
    "Province": "BALKH",
    "PC_Code": "2115303",
    "District": "ZARI",
    "د_مرکز_نوم__نام_مرکز": "مکتب ابو القاسم",
    "Polling_Center_Name": "Abul Qasim School",
    "د_مرکز_ځای__موقعیت_مرکز": "قریه ناقیچی",
    "Polling_Center_Location": "Naqichi Village",
    "Map_Accuracy": "Building",
    "Map_Accuracy_Dari": "تعمیر",
    "Status": "Open",
    "Status_Dari": null,
    "PS_Male": 3,
    "PS_Female": 1,
    "PS_Total": 4,
    "ولسوالي": "زاری",
    "Region": "Northern Region"
   },
   "geometry": {
    "x": 7424355.305873476,
    "y": 4295058.5348675223
   }
  },
  {
   "attributes": {
    "OBJECTID": 3137,
    "ولایت": "بلخ",
    "Province": "BALKH",
    "PC_Code": "2115304",
    "District": "ZARI",
    "د_مرکز_نوم__نام_مرکز": "مکتب خواجه احمد سیوی ",
    "Polling_Center_Name": "Khwaja Ahmad Siwi School",
    "د_مرکز_ځای__موقعیت_مرکز": "قریه میرزایی",
    "Polling_Center_Location": "Mirzayee Village",
    "Map_Accuracy": "Building",
    "Map_Accuracy_Dari": "تعمیر",
    "Status": "Open",
    "Status_Dari": null,
    "PS_Male": 2,
    "PS_Female": 1,
    "PS_Total": 3,
    "ولسوالي": "زاری",
    "Region": "Northern Region"
   },
   "geometry": {
    "x": 7427442.2075983174,
    "y": 4295972.4480550596
   }
  },
  {
   "attributes": {
    "OBJECTID": 3138,
    "ولایت": "سرپل",
    "Province": "SAR-E-PUL",
    "PC_Code": "2201005",
    "District": "SAR-E-PUL",
    "د_مرکز_نوم__نام_مرکز": "مسجد  جامع القانی",
    "Polling_Center_Name": "Alqani Mosque",
    "د_مرکز_ځای__موقعیت_مرکز": "قریه القانی کلان ",
    "Polling_Center_Location": "Alqani Kalan Village",
    "Map_Accuracy": "Building",
    "Map_Accuracy_Dari": "تعمیر",
    "Status": "Open",
    "Status_Dari": null,
    "PS_Male": 3,
    "PS_Female": 3,
    "PS_Total": 6,
    "ولسوالي": "سرپل",
    "Region": "Northern Region"
   },
   "geometry": {
    "x": 7338127.0913820295,
    "y": 4330841.358358996
   }
  },
  {
   "attributes": {
    "OBJECTID": 3139,
    "ولایت": "سرپل",
    "Province": "SAR-E-PUL",
    "PC_Code": "2201006",
    "District": "SAR-E-PUL",
    "د_مرکز_نوم__نام_مرکز": "لیسه قراغو",
    "Polling_Center_Name": "Qaragho High School",
    "د_مرکز_ځای__موقعیت_مرکز": "قریه قراغو",
    "Polling_Center_Location": "Qaragho Village",
    "Map_Accuracy": "Building",
    "Map_Accuracy_Dari": "تعمیر",
    "Status": "Open",
    "Status_Dari": null,
    "PS_Male": 3,
    "PS_Female": 2,
    "PS_Total": 5,
    "ولسوالي": "سرپل",
    "Region": "Northern Region"
   },
   "geometry": {
    "x": 7335428.0957811959,
    "y": 4336404.2301060529
   }
  },
  {
   "attributes": {
    "OBJECTID": 3140,
    "ولایت": "سرپل",
    "Province": "SAR-E-PUL",
    "PC_Code": "2202059",
    "District": "SAYAD",
    "د_مرکز_نوم__نام_مرکز": "مکتب ابتدائیه",
    "Polling_Center_Name": "Primary School",
    "د_مرکز_ځای__موقعیت_مرکز": "قریه بلندغور",
    "Polling_Center_Location": "Beland Ghor Village",
    "Map_Accuracy": "Village",
    "Map_Accuracy_Dari": "قریه",
    "Status": "Open",
    "Status_Dari": null,
    "PS_Male": 1,
    "PS_Female": 2,
    "PS_Total": 3,
    "ولسوالي": "صیاد",
    "Region": "Northern Region"
   },
   "geometry": {
    "x": 7327434.4758050647,
    "y": 4314331.9883434055
   }
  },
  {
   "attributes": {
    "OBJECTID": 3141,
    "ولایت": "سرپل",
    "Province": "SAR-E-PUL",
    "PC_Code": "2202060",
    "District": "SAYAD",
    "د_مرکز_نوم__نام_مرکز": "مکتب ابتدائیه",
    "Polling_Center_Name": "Primary School",
    "د_مرکز_ځای__موقعیت_مرکز": "قریه هجده بلا",
    "Polling_Center_Location": "Hajda Bala Village",
    "Map_Accuracy": "Village",
    "Map_Accuracy_Dari": "قریه",
    "Status": "Open",
    "Status_Dari": null,
    "PS_Male": 1,
    "PS_Female": 1,
    "PS_Total": 2,
    "ولسوالي": "صیاد",
    "Region": "Northern Region"
   },
   "geometry": {
    "x": 7306698.861784813,
    "y": 4308797.5992158921
   }
  },
  {
   "attributes": {
    "OBJECTID": 3142,
    "ولایت": "سرپل",
    "Province": "SAR-E-PUL",
    "PC_Code": "2205101",
    "District": "SANG CHARAK",
    "د_مرکز_نوم__نام_مرکز": "مدرسه قریه قشلاق کهنه",
    "Polling_Center_Name": "Qashlaq Kuhna Village Madrassa",
    "د_مرکز_ځای__موقعیت_مرکز": "قریه قشلاق کهنه",
    "Polling_Center_Location": "Qashlaq Kuhna Village",
    "Map_Accuracy": "Building",
    "Map_Accuracy_Dari": "تعمیر",
    "Status": "Open",
    "Status_Dari": null,
    "PS_Male": 3,
    "PS_Female": 1,
    "PS_Total": 4,
    "ولسوالي": "سنگ چارک",
    "Region": "Northern Region"
   },
   "geometry": {
    "x": 7392580.1245929105,
    "y": 4261421.4577953098
   }
  },
  {
   "attributes": {
    "OBJECTID": 3143,
    "ولایت": "سرپل",
    "Province": "SAR-E-PUL",
    "PC_Code": "2207092",
    "District": "BALKHAB",
    "د_مرکز_نوم__نام_مرکز": "مکتب قریه اوش",
    "Polling_Center_Name": "Qarya Osh School",
    "د_مرکز_ځای__موقعیت_مرکز": "قریه اوش",
    "Polling_Center_Location": "Osh Village",
    "Map_Accuracy": "Building",
    "Map_Accuracy_Dari": "تعمیر",
    "Status": "Open",
    "Status_Dari": null,
    "PS_Male": 3,
    "PS_Female": 2,
    "PS_Total": 5,
    "ولسوالي": "بلخآب",
    "Region": "Northern Region"
   },
   "geometry": {
    "x": 7413589.1548672849,
    "y": 4232004.5257632155
   }
  },
  {
   "attributes": {
    "OBJECTID": 3144,
    "ولایت": "غور",
    "Province": "GHOR",
    "PC_Code": "2301014",
    "District": "CHIGHCHERAN",
    "د_مرکز_نوم__نام_مرکز": "مکتب آهنگران",
    "Polling_Center_Name": "Ahengaran School",
    "د_مرکز_ځای__موقعیت_مرکز": " آهنگران",
    "Polling_Center_Location": "Ahengaran",
    "Map_Accuracy": "Village",
    "Map_Accuracy_Dari": "قریه",
    "Status": "Open",
    "Status_Dari": null,
    "PS_Male": 4,
    "PS_Female": 3,
    "PS_Total": 7,
    "ولسوالي": "چغچران",
    "Region": "Western Region"
   },
   "geometry": {
    "x": 7242403.7785094427,
    "y": 4092193.9503068747
   }
  },
  {
   "attributes": {
    "OBJECTID": 3145,
    "ولایت": "غور",
    "Province": "GHOR",
    "PC_Code": "2301015",
    "District": "CHIGHCHERAN",
    "د_مرکز_نوم__نام_مرکز": "مسجد امروتک",
    "Polling_Center_Name": "Amrotak Mosque",
    "د_مرکز_ځای__موقعیت_مرکز": " امروتک",
    "Polling_Center_Location": "Amrotak",
    "Map_Accuracy": "Village",
    "Map_Accuracy_Dari": "قریه",
    "Status": "Open",
    "Status_Dari": null,
    "PS_Male": 3,
    "PS_Female": 2,
    "PS_Total": 5,
    "ولسوالي": "چغچران",
    "Region": "Western Region"
   },
   "geometry": {
    "x": 7234159.2110052165,
    "y": 4087196.8732911223
   }
  },
  {
   "attributes": {
    "OBJECTID": 3146,
    "ولایت": "غور",
    "Province": "GHOR",
    "PC_Code": "2305126",
    "District": "PASABAND",
    "د_مرکز_نوم__نام_مرکز": "خیمه بازار خشک آبه",
    "Polling_Center_Name": "Khushka Aab Bazar Tent",
    "د_مرکز_ځای__موقعیت_مرکز": "قریه خشک آبه",
    "Polling_Center_Location": "Khushka Aba",
    "Map_Accuracy": "Building",
    "Map_Accuracy_Dari": "تعمیر",
    "Status": "Open",
    "Status_Dari": null,
    "PS_Male": 1,
    "PS_Female": 1,
    "PS_Total": 2,
    "ولسوالي": "پسابند ",
    "Region": "Western Region"
   },
   "geometry": {
    "x": 7235070.9955584565,
    "y": 3973057.3027637419
   }
  },
  {
   "attributes": {
    "OBJECTID": 3147,
    "ولایت": "غور",
    "Province": "GHOR",
    "PC_Code": "2306084",
    "District": "SHAHRAK",
    "د_مرکز_نوم__نام_مرکز": "مکتب ابتدائیه جلگه مزار",
    "Polling_Center_Name": "Jalga Mazar Primary School",
    "د_مرکز_ځای__موقعیت_مرکز": " جلگه مزار",
    "Polling_Center_Location": "Jalga Mazar",
    "Map_Accuracy": "Village",
    "Map_Accuracy_Dari": "قریه",
    "Status": "Open",
    "Status_Dari": null,
    "PS_Male": 2,
    "PS_Female": 2,
    "PS_Total": 4,
    "ولسوالي": "شهرک ",
    "Region": "Western Region"
   },
   "geometry": {
    "x": 7163374.4507722612,
    "y": 4100526.2543565901
   }
  },
  {
   "attributes": {
    "OBJECTID": 3148,
    "ولایت": "غور",
    "Province": "GHOR",
    "PC_Code": "2307145",
    "District": "LAL WA SARJANGAL",
    "د_مرکز_نوم__نام_مرکز": "مسجد جامع لال",
    "Polling_Center_Name": "Laal Mosque",
    "د_مرکز_ځای__موقعیت_مرکز": "دهن سقاوه",
    "Polling_Center_Location": "Dahan Saqawa",
    "Map_Accuracy": "Building",
    "Map_Accuracy_Dari": "تعمیر",
    "Status": "Open",
    "Status_Dari": null,
    "PS_Male": 3,
    "PS_Female": 2,
    "PS_Total": 5,
    "ولسوالي": "لعل و سرجنگل ",
    "Region": "Western Region"
   },
   "geometry": {
    "x": 7378450.4473800361,
    "y": 4096161.8020905526
   }
  },
  {
   "attributes": {
    "OBJECTID": 3149,
    "ولایت": "غور",
    "Province": "GHOR",
    "PC_Code": "2307165",
    "District": "LAL WA SARJANGAL",
    "د_مرکز_نوم__نام_مرکز": "مکتب قلعه کشک",
    "Polling_Center_Name": "Qala-e-Koshk School",
    "د_مرکز_ځای__موقعیت_مرکز": " قلعه کشک",
    "Polling_Center_Location": "Qala-e-Koshk",
    "Map_Accuracy": "Building",
    "Map_Accuracy_Dari": "تعمیر",
    "Status": "Open",
    "Status_Dari": null,
    "PS_Male": 2,
    "PS_Female": 1,
    "PS_Total": 3,
    "ولسوالي": "لعل و سرجنگل ",
    "Region": "Western Region"
   },
   "geometry": {
    "x": 7377894.7928021532,
    "y": 4107279.8107656064
   }
  },
  {
   "attributes": {
    "OBJECTID": 3150,
    "ولایت": "غور",
    "Province": "GHOR",
    "PC_Code": "2309183",
    "District": "TULAK",
    "د_مرکز_نوم__نام_مرکز": "مکتب ابتدائیه کاه ده رو",
    "Polling_Center_Name": "Kaah Dehro Primary School",
    "د_مرکز_ځای__موقعیت_مرکز": "کاه ده رو",
    "Polling_Center_Location": "Kaah Dehro",
    "Map_Accuracy": "Village",
    "Map_Accuracy_Dari": "قریه",
    "Status": "Open",
    "Status_Dari": null,
    "PS_Male": 2,
    "PS_Female": 1,
    "PS_Total": 3,
    "ولسوالي": "تولک ",
    "Region": "Western Region"
   },
   "geometry": {
    "x": 7092977.2270826036,
    "y": 4018099.5410661413
   }
  },
  {
   "attributes": {
    "OBJECTID": 3151,
    "ولایت": "غور",
    "Province": "GHOR",
    "PC_Code": "2310206",
    "District": "SAGHAR",
    "د_مرکز_نوم__نام_مرکز": "زیرتنگی قریه زال",
    "Polling_Center_Name": "Zer Tangi Qarya Zaal",
    "د_مرکز_ځای__موقعیت_مرکز": " قریه زال",
    "Polling_Center_Location": "Zaal Village",
    "Map_Accuracy": "Village",
    "Map_Accuracy_Dari": "قریه",
    "Status": "Open",
    "Status_Dari": null,
    "PS_Male": 1,
    "PS_Female": 1,
    "PS_Total": 2,
    "ولسوالي": "ساغر ",
    "Region": "Western Region"
   },
   "geometry": {
    "x": 7079942.5963610765,
    "y": 3963031.8119187923
   }
  },
  {
   "attributes": {
    "OBJECTID": 3152,
    "ولایت": "دایکندی",
    "Province": "DAYKUNDI",
    "PC_Code": "2402021",
    "District": "SHAHRISTAN",
    "د_مرکز_نوم__نام_مرکز": "مسجد چپراسک",
    "Polling_Center_Name": "Chaprasak Mosque",
    "د_مرکز_ځای__موقعیت_مرکز": "چپراسک",
    "Polling_Center_Location": "Chaprasak",
    "Map_Accuracy": "Building",
    "Map_Accuracy_Dari": "تعمیر",
    "Status": "Open",
    "Status_Dari": null,
    "PS_Male": 1,
    "PS_Female": 2,
    "PS_Total": 3,
    "ولسوالي": "شهرستان",
    "Region": "Central Highlands Region"
   },
   "geometry": {
    "x": 7427291.2494632425,
    "y": 3999575.4904439887
   }
  },
  {
   "attributes": {
    "OBJECTID": 3153,
    "ولایت": "دایکندی",
    "Province": "DAYKUNDI",
    "PC_Code": "2402022",
    "District": "SHAHRISTAN",
    "د_مرکز_نوم__نام_مرکز": "مسجد غوجگرد",
    "Polling_Center_Name": "Ghojgard Mosque",
    "د_مرکز_ځای__موقعیت_مرکز": "غوجگرد",
    "Polling_Center_Location": "Ghojgard",
    "Map_Accuracy": "Building",
    "Map_Accuracy_Dari": "تعمیر",
    "Status": "Open",
    "Status_Dari": null,
    "PS_Male": 3,
    "PS_Female": 2,
    "PS_Total": 5,
    "ولسوالي": "شهرستان",
    "Region": "Central Highlands Region"
   },
   "geometry": {
    "x": 7399978.8376255101,
    "y": 3994957.8651950029
   }
  },
  {
   "attributes": {
    "OBJECTID": 3154,
    "ولایت": "دایکندی",
    "Province": "DAYKUNDI",
    "PC_Code": "2404044",
    "District": "ISHTERLAI",
    "د_مرکز_نوم__نام_مرکز": "خیمه بازار قریه  ده عروس",
    "Polling_Center_Name": "Deh Aroos Village Bazar Tent",
    "د_مرکز_ځای__موقعیت_مرکز": "ده عروس خوشک",
    "Polling_Center_Location": "Deh Aroos Khushk",
    "Map_Accuracy": "Building",
    "Map_Accuracy_Dari": "تعمیر",
    "Status": "Open",
    "Status_Dari": null,
    "PS_Male": 2,
    "PS_Female": 2,
    "PS_Total": 4,
    "ولسوالي": "اشترلی",
    "Region": "Central Highlands Region"
   },
   "geometry": {
    "x": 7377537.3826526478,
    "y": 4015119.766978465
   }
  },
  {
   "attributes": {
    "OBJECTID": 3155,
    "ولایت": "دایکندی",
    "Province": "DAYKUNDI",
    "PC_Code": "2405097",
    "District": "KHEDIR",
    "د_مرکز_نوم__نام_مرکز": "مکتب وییر",
    "Polling_Center_Name": "Weer School",
    "د_مرکز_ځای__موقعیت_مرکز": "وییر",
    "Polling_Center_Location": "Weer",
    "Map_Accuracy": "Building",
    "Map_Accuracy_Dari": "تعمیر",
    "Status": "Open",
    "Status_Dari": null,
    "PS_Male": 1,
    "PS_Female": 1,
    "PS_Total": 2,
    "ولسوالي": "خدیر",
    "Region": "Central Highlands Region"
   },
   "geometry": {
    "x": 7333256.7445479697,
    "y": 3994059.6804811941
   }
  },
  {
   "attributes": {
    "OBJECTID": 3156,
    "ولایت": "دایکندی",
    "Province": "DAYKUNDI",
    "PC_Code": "2405098",
    "District": "KHEDIR",
    "د_مرکز_نوم__نام_مرکز": "مسجد سراب سنگ چلک",
    "Polling_Center_Name": "Sarab Sang Chelak Mosque",
    "د_مرکز_ځای__موقعیت_مرکز": "سنگ چلک",
    "Polling_Center_Location": "Sang Chelak",
    "Map_Accuracy": "Building",
    "Map_Accuracy_Dari": "تعمیر",
    "Status": "Open",
    "Status_Dari": null,
    "PS_Male": 1,
    "PS_Female": 1,
    "PS_Total": 2,
    "ولسوالي": "خدیر",
    "Region": "Central Highlands Region"
   },
   "geometry": {
    "x": 7346152.186944182,
    "y": 4023189.6553483023
   }
  },
  {
   "attributes": {
    "OBJECTID": 3157,
    "ولایت": "دایکندی",
    "Province": "DAYKUNDI",
    "PC_Code": "2406141",
    "District": "KITI",
    "د_مرکز_نوم__نام_مرکز": "مسجد سویک",
    "Polling_Center_Name": "Soyak Mosque",
    "د_مرکز_ځای__موقعیت_مرکز": "سویک",
    "Polling_Center_Location": "Soyak",
    "Map_Accuracy": "Building",
    "Map_Accuracy_Dari": "تعمیر",
    "Status": "Open",
    "Status_Dari": null,
    "PS_Male": 2,
    "PS_Female": 1,
    "PS_Total": 3,
    "ولسوالي": "کیتی",
    "Region": "Central Highlands Region"
   },
   "geometry": {
    "x": 7313326.0817656368,
    "y": 3952631.6193006895
   }
  },
  {
   "attributes": {
    "OBJECTID": 3158,
    "ولایت": "دایکندی",
    "Province": "DAYKUNDI",
    "PC_Code": "2409056",
    "District": "KEJRAN",
    "د_مرکز_نوم__نام_مرکز": "مسجد جامع بوکا",
    "Polling_Center_Name": "Boka Mosque",
    "د_مرکز_ځای__موقعیت_مرکز": "کندو",
    "Polling_Center_Location": "Kando",
    "Map_Accuracy": "Building",
    "Map_Accuracy_Dari": "تعمیر",
    "Status": "Open",
    "Status_Dari": null,
    "PS_Male": 1,
    "PS_Female": 2,
    "PS_Total": 3,
    "ولسوالي": "کجران",
    "Region": "Central Highlands Region"
   },
   "geometry": {
    "x": 7300563.9088374153,
    "y": 3916975.1571926838
   }
  },
  {
   "attributes": {
    "OBJECTID": 3159,
    "ولایت": "دایکندی",
    "Province": "DAYKUNDI",
    "PC_Code": "2409057",
    "District": "KEJRAN",
    "د_مرکز_نوم__نام_مرکز": "مسجد جامع زرد گلان",
    "Polling_Center_Name": "Zard Gulan Mosque",
    "د_مرکز_ځای__موقعیت_مرکز": "زردگلان",
    "Polling_Center_Location": "Zard Gulan",
    "Map_Accuracy": "Building",
    "Map_Accuracy_Dari": "تعمیر",
    "Status": "Open",
    "Status_Dari": null,
    "PS_Male": 2,
    "PS_Female": 1,
    "PS_Total": 3,
    "ولسوالي": "کجران",
    "Region": "Central Highlands Region"
   },
   "geometry": {
    "x": 7305255.5567192966,
    "y": 3921041.433828685
   }
  },
  {
   "attributes": {
    "OBJECTID": 3160,
    "ولایت": "ارزگان",
    "Province": "UROZGAN",
    "PC_Code": "2501008",
    "District": "TIRINKOT",
    "د_مرکز_نوم__نام_مرکز": "لیسه سلام بابا",
    "Polling_Center_Name": "Salam Baba High School",
    "د_مرکز_ځای__موقعیت_مرکز": "قریه خانقه",
    "Polling_Center_Location": "Khanqa Village",
    "Map_Accuracy": "Building",
    "Map_Accuracy_Dari": "تعمیر",
    "Status": "Open",
    "Status_Dari": null,
    "PS_Male": 4,
    "PS_Female": 2,
    "PS_Total": 6,
    "ولسوالي": "ترینکوټ",
    "Region": "Southern Region"
   },
   "geometry": {
    "x": 7338210.4006625498,
    "y": 3849841.5387305096
   }
  },
  {
   "attributes": {
    "OBJECTID": 3161,
    "ولایت": "ارزگان",
    "Province": "UROZGAN",
    "PC_Code": "2503019",
    "District": "CHORA",
    "د_مرکز_نوم__نام_مرکز": "لیسه دولت زايي",
    "Polling_Center_Name": "Dawlatzai High School",
    "د_مرکز_ځای__موقعیت_مرکز": "دولت زی کلی",
    "Polling_Center_Location": "Dawlatzai Village",
    "Map_Accuracy": "Building",
    "Map_Accuracy_Dari": "تعمیر",
    "Status": "Open",
    "Status_Dari": null,
    "PS_Male": 1,
    "PS_Female": 1,
    "PS_Total": 2,
    "ولسوالي": "چوره",
    "Region": "Southern Region"
   },
   "geometry": {
    "x": 7356434.5879711797,
    "y": 3875720.7701233071
   }
  },
  {
   "attributes": {
    "OBJECTID": 3162,
    "ولایت": "ارزگان",
    "Province": "UROZGAN",
    "PC_Code": "2506049",
    "District": "CHENARTO",
    "د_مرکز_نوم__نام_مرکز": "د سیا غار ابتدائیه مکتب",
    "Polling_Center_Name": "Siyaghar Primary School",
    "د_مرکز_ځای__موقعیت_مرکز": "سیا غار",
    "Polling_Center_Location": "Siyaghar",
    "Map_Accuracy": "Building",
    "Map_Accuracy_Dari": "تعمیر",
    "Status": "Open",
    "Status_Dari": null,
    "PS_Male": 2,
    "PS_Female": 0,
    "PS_Total": 2,
    "ولسوالي": "چنارتو",
    "Region": "Southern Region"
   },
   "geometry": {
    "x": 7379127.530371665,
    "y": 3868834.6631684527
   }
  },
  {
   "attributes": {
    "OBJECTID": 3163,
    "ولایت": "زابل",
    "Province": "ZABUL",
    "PC_Code": "2605018",
    "District": "ARGHANDAB",
    "د_مرکز_نوم__نام_مرکز": "شورواني مسجد",
    "Polling_Center_Name": "Shorwani Mosque",
    "د_مرکز_ځای__موقعیت_مرکز": "قریه باغ",
    "Polling_Center_Location": "Bagh Village",
    "Map_Accuracy": "Building",
    "Map_Accuracy_Dari": "تعمیر",
    "Status": "Open",
    "Status_Dari": null,
    "PS_Male": 6,
    "PS_Female": 5,
    "PS_Total": 11,
    "ولسوالي": "ارغنداب",
    "Region": "Southern Region"
   },
   "geometry": {
    "x": 7441279.6076957462,
    "y": 3825502.8010689616
   }
  },
  {
   "attributes": {
    "OBJECTID": 3164,
    "ولایت": "کندهار",
    "Province": "کندهار",
    "PC_Code": "2703076",
    "District": "DAMAN",
    "د_مرکز_نوم__نام_مرکز": "مكتب مومند قلعه",
    "Polling_Center_Name": "Momand Qala School",
    "د_مرکز_ځای__موقعیت_مرکز": "مومند قلعه",
    "Polling_Center_Location": "Momand Qala",
    "Map_Accuracy": "Village",
    "Map_Accuracy_Dari": "قریه",
    "Status": "Open",
    "Status_Dari": null,
    "PS_Male": 3,
    "PS_Female": 0,
    "PS_Total": 3,
    "ولسوالي": "دامان",
    "Region": "Southern Region"
   },
   "geometry": {
    "x": 7336641.3624585746,
    "y": 3709773.700627848
   }
  },
  {
   "attributes": {
    "OBJECTID": 3165,
    "ولایت": "کندهار",
    "Province": "کندهار",
    "PC_Code": "2701014",
    "District": "KANDAHAR",
    "د_مرکز_نوم__نام_مرکز": "محمديه مدرسه",
    "Polling_Center_Name": "Mohammadia Madrassa",
    "د_مرکز_ځای__موقعیت_مرکز": "اوله ناحيه",
    "Polling_Center_Location": "D01 - Nahia 1",
    "Map_Accuracy": "Building",
    "Map_Accuracy_Dari": "تعمیر",
    "Status": "Open",
    "Status_Dari": null,
    "PS_Male": 6,
    "PS_Female": 0,
    "PS_Total": 6,
    "ولسوالي": "کندهار",
    "Region": "Southern Region"
   },
   "geometry": {
    "x": 7312985.7958934,
    "y": 3715065.4013724243
   }
  },
  {
   "attributes": {
    "OBJECTID": 3166,
    "ولایت": "کندهار",
    "Province": "کندهار",
    "PC_Code": "2701059",
    "District": "KANDAHAR",
    "د_مرکز_نوم__نام_مرکز": "د مينا برج",
    "Polling_Center_Name": "Meena Borj ",
    "د_مرکز_ځای__موقعیت_مرکز": "د مينا برج",
    "Polling_Center_Location": "Meena Borj",
    "Map_Accuracy": "District",
    "Map_Accuracy_Dari": "ولسوالی",
    "Status": "Open",
    "Status_Dari": null,
    "PS_Male": 4,
    "PS_Female": 2,
    "PS_Total": 6,
    "ولسوالي": "کندهار",
    "Region": "Southern Region"
   },
   "geometry": {
    "x": 7309981.1142991837,
    "y": 3711528.2568042073
   }
  },
  {
   "attributes": {
    "OBJECTID": 3167,
    "ولایت": "کندهار",
    "Province": "کندهار",
    "PC_Code": "2702115",
    "District": "ARGHANDAB",
    "د_مرکز_نوم__نام_مرکز": "مسجد كښته چهارغلبه",
    "Polling_Center_Name": "Kakhta Chahar Ghalba Mosque",
    "د_مرکز_ځای__موقعیت_مرکز": "كښته چهارغلبه",
    "Polling_Center_Location": "Kakhta Chahar Ghalba",
    "Map_Accuracy": "Building",
    "Map_Accuracy_Dari": "تعمیر",
    "Status": "Open",
    "Status_Dari": null,
    "PS_Male": 3,
    "PS_Female": 2,
    "PS_Total": 5,
    "ولسوالي": "ارغنداب",
    "Region": "Southern Region"
   },
   "geometry": {
    "x": 7307799.0456706602,
    "y": 3721679.2907746513
   }
  },
  {
   "attributes": {
    "OBJECTID": 3168,
    "ولایت": "کندهار",
    "Province": "کندهار",
    "PC_Code": "2711210",
    "District": "SPIN BOLDAK",
    "د_مرکز_نوم__نام_مرکز": "د عبدالصمد خان مكتب",
    "Polling_Center_Name": "Abdul Samad Khan School",
    "د_مرکز_ځای__موقعیت_مرکز": "رباط",
    "Polling_Center_Location": "Rabat",
    "Map_Accuracy": "Village",
    "Map_Accuracy_Dari": "قریه",
    "Status": "Open",
    "Status_Dari": null,
    "PS_Male": 5,
    "PS_Female": 1,
    "PS_Total": 6,
    "ولسوالي": "سپین بولدک",
    "Region": "Southern Region"
   },
   "geometry": {
    "x": 7392790.9670480518,
    "y": 3638082.4380972614
   }
  },
  {
   "attributes": {
    "OBJECTID": 3169,
    "ولایت": "کندهار",
    "Province": "کندهار",
    "PC_Code": "2705170",
    "District": "ZHIRE",
    "د_مرکز_نوم__نام_مرکز": "د كمپ مكتب",
    "Polling_Center_Name": "Camp School",
    "د_مرکز_ځای__موقعیت_مرکز": "د كوچيانو كمپ",
    "Polling_Center_Location": "Kochiano Camp",
    "Map_Accuracy": "Village",
    "Map_Accuracy_Dari": "قریه",
    "Status": "Open",
    "Status_Dari": null,
    "PS_Male": 3,
    "PS_Female": 3,
    "PS_Total": 6,
    "ولسوالي": "ژیړی",
    "Region": "Southern Region"
   },
   "geometry": {
    "x": 7274775.4196404293,
    "y": 3714770.039241001
   }
  },
  {
   "attributes": {
    "OBJECTID": 3170,
    "ولایت": "کندهار",
    "Province": "کندهار",
    "PC_Code": "2707126",
    "District": "KHAKREZ",
    "د_مرکز_نوم__نام_مرکز": "د حاجي محمد ايوب خان سراچه",
    "Polling_Center_Name": "Haji Mohamamd Ayub Khan Saracha",
    "د_مرکز_ځای__موقعیت_مرکز": "دوخانه",
    "Polling_Center_Location": "Dokhana",
    "Map_Accuracy": "Building",
    "Map_Accuracy_Dari": "تعمیر",
    "Status": "Open",
    "Status_Dari": null,
    "PS_Male": 2,
    "PS_Female": 0,
    "PS_Total": 2,
    "ولسوالي": "خاک ریز",
    "Region": "Southern Region"
   },
   "geometry": {
    "x": 7278504.6014313027,
    "y": 3746805.2567235855
   }
  },
  {
   "attributes": {
    "OBJECTID": 3171,
    "ولایت": "کندهار",
    "Province": "کندهار",
    "PC_Code": "2710139",
    "District": "MAIWAND",
    "د_مرکز_نوم__نام_مرکز": "د حاجي معصوم خان كور",
    "Polling_Center_Name": "Haji Masoom Khan Private House",
    "د_مرکز_ځای__موقعیت_مرکز": "دواب",
    "Polling_Center_Location": "Do Aab",
    "Map_Accuracy": "Village",
    "Map_Accuracy_Dari": "قریه",
    "Status": "Open",
    "Status_Dari": null,
    "PS_Male": 2,
    "PS_Female": 0,
    "PS_Total": 2,
    "ولسوالي": "میوند",
    "Region": "Southern Region"
   },
   "geometry": {
    "x": 7262439.5669660969,
    "y": 3694282.5104173827
   }
  },
  {
   "attributes": {
    "OBJECTID": 3172,
    "ولایت": "کندهار",
    "Province": "کندهار",
    "PC_Code": "2712265",
    "District": "NISH",
    "د_مرکز_نوم__نام_مرکز": "د حاجي نعمت الله كور",
    "Polling_Center_Name": "Haji Naimatullah Private House",
    "د_مرکز_ځای__موقعیت_مرکز": "نوي كاريز",
    "Polling_Center_Location": "Nawai Karez",
    "Map_Accuracy": "Village",
    "Map_Accuracy_Dari": "قریه",
    "Status": "Open",
    "Status_Dari": null,
    "PS_Male": 3,
    "PS_Female": 0,
    "PS_Total": 3,
    "ولسوالي": "نيش",
    "Region": "Southern Region"
   },
   "geometry": {
    "x": 7309009.7241698746,
    "y": 3820798.4473096249
   }
  },
  {
   "attributes": {
    "OBJECTID": 3173,
    "ولایت": "کندهار",
    "Province": "کندهار",
    "PC_Code": "2716198",
    "District": "REG",
    "د_مرکز_نوم__نام_مرکز": "د ولسوالي مركز",
    "Polling_Center_Name": "District Building Office",
    "د_مرکز_ځای__موقعیت_مرکز": "د ريګ منطقه",
    "Polling_Center_Location": "Reg Manteqa",
    "Map_Accuracy": "Village",
    "Map_Accuracy_Dari": "قریه",
    "Status": "Open",
    "Status_Dari": null,
    "PS_Male": 4,
    "PS_Female": 2,
    "PS_Total": 6,
    "ولسوالي": "ریګ",
    "Region": "Southern Region"
   },
   "geometry": {
    "x": 7315878.0321115013,
    "y": 3468850.2494901973
   }
  },
  {
   "attributes": {
    "OBJECTID": 3174,
    "ولایت": "جوزجان",
    "Province": "JAWZJAN",
    "PC_Code": "2801013",
    "District": "SHEBERGHAN",
    "د_مرکز_نوم__نام_مرکز": "لیسه بابا علی",
    "Polling_Center_Name": "Baba Ali High School",
    "د_مرکز_ځای__موقعیت_مرکز": "ناحیه دوم",
    "Polling_Center_Location": "D02 - Nahia 2",
    "Map_Accuracy": "Building",
    "Map_Accuracy_Dari": "تعمیر",
    "Status": "Open",
    "Status_Dari": null,
    "PS_Male": 5,
    "PS_Female": 3,
    "PS_Total": 8,
    "ولسوالي": "شبرغان",
    "Region": "Northern Region"
   },
   "geometry": {
    "x": 7318240.1715936083,
    "y": 4395674.9266296839
   }
  },
  {
   "attributes": {
    "OBJECTID": 3175,
    "ولایت": "جوزجان",
    "Province": "JAWZJAN",
    "PC_Code": "2802110",
    "District": "KHWAJA DUKOH",
    "د_مرکز_نوم__نام_مرکز": "لیسه ذکور خواجه دوکوه",
    "Polling_Center_Name": "Khwaja Do Koh Boys High School",
    "د_مرکز_ځای__موقعیت_مرکز": "مرکز ولسوالی ",
    "Polling_Center_Location": "District Compound",
    "Map_Accuracy": "Building",
    "Map_Accuracy_Dari": "تعمیر",
    "Status": "Open",
    "Status_Dari": null,
    "PS_Male": 5,
    "PS_Female": 5,
    "PS_Total": 10,
    "ولسوالي": "خواجه دوکوه",
    "Region": "Northern Region"
   },
   "geometry": {
    "x": 7304200.8557509901,
    "y": 4414520.0583080752
   }
  },
  {
   "attributes": {
    "OBJECTID": 3176,
    "ولایت": "جوزجان",
    "Province": "JAWZJAN",
    "PC_Code": "2804077",
    "District": "MINGAJIK",
    "د_مرکز_نوم__نام_مرکز": "مکتب قورشنغو",
    "Polling_Center_Name": "Qorshangho School",
    "د_مرکز_ځای__موقعیت_مرکز": "قورشنغو",
    "Polling_Center_Location": "Qorshangho",
    "Map_Accuracy": "Building",
    "Map_Accuracy_Dari": "تعمیر",
    "Status": "Open",
    "Status_Dari": null,
    "PS_Male": 2,
    "PS_Female": 1,
    "PS_Total": 3,
    "ولسوالي": "منگجیک",
    "Region": "Northern Region"
   },
   "geometry": {
    "x": 7347931.4186106725,
    "y": 4444871.2843075907
   }
  },
  {
   "attributes": {
    "OBJECTID": 3177,
    "ولایت": "جوزجان",
    "Province": "JAWZJAN",
    "PC_Code": "2807040",
    "District": "AQCHAH",
    "د_مرکز_نوم__نام_مرکز": "مسجد آقچه نمای",
    "Polling_Center_Name": "Aqcha Namai Mosque",
    "د_مرکز_ځای__موقعیت_مرکز": "بتی کوت اربکیه",
    "Polling_Center_Location": "Bati Kot Arbakia",
    "Map_Accuracy": "Building",
    "Map_Accuracy_Dari": "تعمیر",
    "Status": "Open",
    "Status_Dari": null,
    "PS_Male": 2,
    "PS_Female": 2,
    "PS_Total": 4,
    "ولسوالي": "آقچه",
    "Region": "Northern Region"
   },
   "geometry": {
    "x": 7369070.6225579977,
    "y": 4425612.5729727922
   }
  },
  {
   "attributes": {
    "OBJECTID": 3178,
    "ولایت": "جوزجان",
    "Province": "JAWZJAN",
    "PC_Code": "2809060",
    "District": "MARDYAN",
    "د_مرکز_نوم__نام_مرکز": "لیسه مردیان",
    "Polling_Center_Name": "Mardiyan High School",
    "د_مرکز_ځای__موقعیت_مرکز": "قریه مردیان",
    "Polling_Center_Location": "Mardiyan Village",
    "Map_Accuracy": "Building",
    "Map_Accuracy_Dari": "تعمیر",
    "Status": "Open",
    "Status_Dari": null,
    "PS_Male": 3,
    "PS_Female": 2,
    "PS_Total": 5,
    "ولسوالي": "مردیان",
    "Region": "Northern Region"
   },
   "geometry": {
    "x": 7382058.1228335099,
    "y": 4438237.5324366745
   }
  },
  {
   "attributes": {
    "OBJECTID": 3179,
    "ولایت": "فارياب",
    "Province": "FARYAB",
    "PC_Code": "2901016",
    "District": "MAIMANA",
    "د_مرکز_نوم__نام_مرکز": "لیسه نسوان کوهی خانه میمنه",
    "Polling_Center_Name": "Kohi Khana Maimana Girls High School",
    "د_مرکز_ځای__موقعیت_مرکز": "ناحیه اول ",
    "Polling_Center_Location": "D01 - Nahia 1",
    "Map_Accuracy": "Building",
    "Map_Accuracy_Dari": "تعمیر",
    "Status": "Open",
    "Status_Dari": null,
    "PS_Male": 4,
    "PS_Female": 3,
    "PS_Total": 7,
    "ولسوالي": "میمنه ",
    "Region": "Northern Region"
   },
   "geometry": {
    "x": 7213751.6866937885,
    "y": 4290017.6787313074
   }
  },
  {
   "attributes": {
    "OBJECTID": 3180,
    "ولایت": "فارياب",
    "Province": "FARYAB",
    "PC_Code": "2902036",
    "District": "PASHTUN KOT",
    "د_مرکز_نوم__نام_مرکز": "مسجد چقماق",
    "Polling_Center_Name": "Chaqmaq Mosque",
    "د_مرکز_ځای__موقعیت_مرکز": "چقماق",
    "Polling_Center_Location": "Chaqmaq",
    "Map_Accuracy": "Village",
    "Map_Accuracy_Dari": "قریه",
    "Status": "Open",
    "Status_Dari": null,
    "PS_Male": 1,
    "PS_Female": 1,
    "PS_Total": 2,
    "ولسوالي": "پشتون کوت",
    "Region": "Northern Region"
   },
   "geometry": {
    "x": 7243102.6545177847,
    "y": 4283447.6273503592
   }
  },
  {
   "attributes": {
    "OBJECTID": 3181,
    "ولایت": "فارياب",
    "Province": "FARYAB",
    "PC_Code": "2903054",
    "District": "KHWAJA SABZ POSH-E-WALI",
    "د_مرکز_نوم__نام_مرکز": "لیسه نسوان غذاری ",
    "Polling_Center_Name": "Ghazari Girls High School",
    "د_مرکز_ځای__موقعیت_مرکز": "قریه غذاری",
    "Polling_Center_Location": "Ghazari Village",
    "Map_Accuracy": "Building",
    "Map_Accuracy_Dari": "تعمیر",
    "Status": "Open",
    "Status_Dari": null,
    "PS_Male": 3,
    "PS_Female": 3,
    "PS_Total": 6,
    "ولسوالي": "خواجه سبز پوش ولی",
    "Region": "Northern Region"
   },
   "geometry": {
    "x": 7220187.171096866,
    "y": 4306783.8248279784
   }
  },
  {
   "attributes": {
    "OBJECTID": 3182,
    "ولایت": "فارياب",
    "Province": "FARYAB",
    "PC_Code": "2904074",
    "District": "ALMAR",
    "د_مرکز_نوم__نام_مرکز": "مکتب متوسطه خواجه باغچه",
    "Polling_Center_Name": "Khwaja Baghcha Secondary School",
    "د_مرکز_ځای__موقعیت_مرکز": "خواجه باغچه",
    "Polling_Center_Location": "Khwaja Baghcha",
    "Map_Accuracy": "Building",
    "Map_Accuracy_Dari": "تعمیر",
    "Status": "Open",
    "Status_Dari": null,
    "PS_Male": 2,
    "PS_Female": 1,
    "PS_Total": 3,
    "ولسوالي": "المار",
    "Region": "Northern Region"
   },
   "geometry": {
    "x": 7192509.9897780949,
    "y": 4242043.4784807591
   }
  },
  {
   "attributes": {
    "OBJECTID": 3183,
    "ولایت": "فارياب",
    "Province": "FARYAB",
    "PC_Code": "2906151",
    "District": "SHIRIN TAGAB",
    "د_مرکز_نوم__نام_مرکز": "مکتب متوسطه ذکور سردابه",
    "Polling_Center_Name": "Sardaba Boys Secondary School",
    "د_مرکز_ځای__موقعیت_مرکز": "سردابه",
    "Polling_Center_Location": "Sardaba",
    "Map_Accuracy": "Building",
    "Map_Accuracy_Dari": "تعمیر",
    "Status": "Open",
    "Status_Dari": null,
    "PS_Male": 2,
    "PS_Female": 2,
    "PS_Total": 4,
    "ولسوالي": "شیرین تگاب",
    "Region": "Northern Region"
   },
   "geometry": {
    "x": 7246139.0483632637,
    "y": 4335927.7017909996
   }
  },
  {
   "attributes": {
    "OBJECTID": 3184,
    "ولایت": "فارياب",
    "Province": "FARYAB",
    "PC_Code": "2907093",
    "District": "QAISAR",
    "د_مرکز_نوم__نام_مرکز": "مکتب خواجه تبجاق",
    "Polling_Center_Name": "Khwaja Tabjaq School",
    "د_مرکز_ځای__موقعیت_مرکز": "خواجه تبجاق",
    "Polling_Center_Location": "Khwaja Tabjaq",
    "Map_Accuracy": "Building",
    "Map_Accuracy_Dari": "تعمیر",
    "Status": "Open",
    "Status_Dari": null,
    "PS_Male": 1,
    "PS_Female": 1,
    "PS_Total": 2,
    "ولسوالي": "قیصار ",
    "Region": "Northern Region"
   },
   "geometry": {
    "x": 7167007.610596763,
    "y": 4272566.0351981614
   }
  },
  {
   "attributes": {
    "OBJECTID": 3185,
    "ولایت": "فارياب",
    "Province": "FARYAB",
    "PC_Code": "2908124",
    "District": "GURZIWAN",
    "د_مرکز_نوم__نام_مرکز": "لیسه ذکور ده میران",
    "Polling_Center_Name": "Deh Miran Boys High School",
    "د_مرکز_ځای__موقعیت_مرکز": "قریه ده میران",
    "Polling_Center_Location": "Deh Miran Village",
    "Map_Accuracy": "Building",
    "Map_Accuracy_Dari": "تعمیر",
    "Status": "Open",
    "Status_Dari": null,
    "PS_Male": 3,
    "PS_Female": 2,
    "PS_Total": 5,
    "ولسوالي": "گرزیوان",
    "Region": "Northern Region"
   },
   "geometry": {
    "x": 7268579.0305792633,
    "y": 4266648.6224668892
   }
  },
  {
   "attributes": {
    "OBJECTID": 3186,
    "ولایت": "فارياب",
    "Province": "FARYAB",
    "PC_Code": "2912190",
    "District": "QURGHAN",
    "د_مرکز_نوم__نام_مرکز": "لیسه محمد کاول شهید ",
    "Polling_Center_Name": "Mohmmad Kawal Shaheed High School",
    "د_مرکز_ځای__موقعیت_مرکز": "قرغان",
    "Polling_Center_Location": "Qarghan",
    "Map_Accuracy": "Building",
    "Map_Accuracy_Dari": "تعمیر",
    "Status": "Open",
    "Status_Dari": null,
    "PS_Male": 3,
    "PS_Female": 2,
    "PS_Total": 5,
    "ولسوالي": "قرغان",
    "Region": "Northern Region"
   },
   "geometry": {
    "x": 7245834.1832398055,
    "y": 4427869.6843409566
   }
  },
  {
   "attributes": {
    "OBJECTID": 3187,
    "ولایت": "فارياب",
    "Province": "FARYAB",
    "PC_Code": "2914178",
    "District": "KHANI CHARBAGH",
    "د_مرکز_نوم__نام_مرکز": "آق مسجد",
    "Polling_Center_Name": "Aaq Mosque",
    "د_مرکز_ځای__موقعیت_مرکز": "کهنه قلعه",
    "Polling_Center_Location": "Kuhna Qala",
    "Map_Accuracy": "Building",
    "Map_Accuracy_Dari": "تعمیر",
    "Status": "Open",
    "Status_Dari": null,
    "PS_Male": 3,
    "PS_Female": 1,
    "PS_Total": 4,
    "ولسوالي": "خان چار باغ",
    "Region": "Northern Region"
   },
   "geometry": {
    "x": 7252396.7043325808,
    "y": 4436675.4344029548
   }
  },
  {
   "attributes": {
    "OBJECTID": 3188,
    "ولایت": "هلمند",
    "Province": "HELMAND",
    "PC_Code": "3001020",
    "District": "LASHKARGAH",
    "د_مرکز_نوم__نام_مرکز": "د محمد ابراهیم کور",
    "Polling_Center_Name": "Mohammad Ibrahim Private House",
    "د_مرکز_ځای__موقعیت_مرکز": "قلعه بست",
    "Polling_Center_Location": "Qala-e-Bost",
    "Map_Accuracy": "Building",
    "Map_Accuracy_Dari": "تعمیر",
    "Status": "Open",
    "Status_Dari": null,
    "PS_Male": 3,
    "PS_Female": 3,
    "PS_Total": 6,
    "ولسوالي": "لشکرگاه",
    "Region": "Southern Region"
   },
   "geometry": {
    "x": 7164614.5743899886,
    "y": 3696624.5147970379
   }
  },
  {
   "attributes": {
    "OBJECTID": 3189,
    "ولایت": "هلمند",
    "Province": "HELMAND",
    "PC_Code": "3001021",
    "District": "LASHKARGAH",
    "د_مرکز_نوم__نام_مرکز": "د سید نبی کور",
    "Polling_Center_Name": "Sayed Nabi Private House",
    "د_مرکز_ځای__موقعیت_مرکز": "قلعه بست",
    "Polling_Center_Location": "Qala-e-Bost",
    "Map_Accuracy": "Building",
    "Map_Accuracy_Dari": "تعمیر",
    "Status": "Open",
    "Status_Dari": null,
    "PS_Male": 4,
    "PS_Female": 2,
    "PS_Total": 6,
    "ولسوالي": "لشکرگاه",
    "Region": "Southern Region"
   },
   "geometry": {
    "x": 7166443.9822037611,
    "y": 3694125.0659909854
   }
  },
  {
   "attributes": {
    "OBJECTID": 3190,
    "ولایت": "هلمند",
    "Province": "HELMAND",
    "PC_Code": "3002078",
    "District": "NAD ALI",
    "د_مرکز_نوم__نام_مرکز": "مکتب  زرغون کلی",
    "Polling_Center_Name": "Zarghoon Village School",
    "د_مرکز_ځای__موقعیت_مرکز": " زرغون کلی",
    "Polling_Center_Location": "Zarghoon Village",
    "Map_Accuracy": "Village",
    "Map_Accuracy_Dari": "قریه",
    "Status": "Open",
    "Status_Dari": null,
    "PS_Male": 3,
    "PS_Female": 5,
    "PS_Total": 8,
    "ولسوالي": "نادعلی",
    "Region": "Southern Region"
   },
   "geometry": {
    "x": 7153416.9189812168,
    "y": 3718023.0489868382
   }
  },
  {
   "attributes": {
    "OBJECTID": 3191,
    "ولایت": "هلمند",
    "Province": "HELMAND",
    "PC_Code": "3003105",
    "District": "NAWA-E-BARAKZAYI",
    "د_مرکز_نوم__نام_مرکز": "مسجد خسرآباد غربی",
    "Polling_Center_Name": "Khusr Abad Gharbi Mosque",
    "د_مرکز_ځای__موقعیت_مرکز": "خسرآباد غربی",
    "Polling_Center_Location": "Khusr Abad Gharbi",
    "Map_Accuracy": "Village",
    "Map_Accuracy_Dari": "قریه",
    "Status": "Open",
    "Status_Dari": null,
    "PS_Male": 4,
    "PS_Female": 0,
    "PS_Total": 4,
    "ولسوالي": "ناوه بارکزایی",
    "Region": "Southern Region"
   },
   "geometry": {
    "x": 7156921.8387523293,
    "y": 3685075.5525473766
   }
  },
  {
   "attributes": {
    "OBJECTID": 3192,
    "ولایت": "هلمند",
    "Province": "HELMAND",
    "PC_Code": "3006111",
    "District": "GARM SER",
    "د_مرکز_نوم__نام_مرکز": "مكتب هزار جفت",
    "Polling_Center_Name": "Hazar Joft School",
    "د_مرکز_ځای__موقعیت_مرکز": "د میرا خان نوی کلی",
    "Polling_Center_Location": "Mira Khan New Village",
    "Map_Accuracy": "Building",
    "Map_Accuracy_Dari": "تعمیر",
    "Status": "Open",
    "Status_Dari": null,
    "PS_Male": 3,
    "PS_Female": 0,
    "PS_Total": 3,
    "ولسوالي": "گرم سیر",
    "Region": "Southern Region"
   },
   "geometry": {
    "x": 7145791.7353501599,
    "y": 3649657.1164076719
   }
  },
  {
   "attributes": {
    "OBJECTID": 3193,
    "ولایت": "هلمند",
    "Province": "HELMAND",
    "PC_Code": "3006110",
    "District": "GARM SER",
    "د_مرکز_نوم__نام_مرکز": "مكتب کټوری",
    "Polling_Center_Name": "katorai School",
    "د_مرکز_ځای__موقعیت_مرکز": "مکتب کو چنی در ویشان",
    "Polling_Center_Location": "Maktab Kochnai Darweshan",
    "Map_Accuracy": "Building",
    "Map_Accuracy_Dari": "تعمیر",
    "Status": "Open",
    "Status_Dari": null,
    "PS_Male": 2,
    "PS_Female": 1,
    "PS_Total": 3,
    "ولسوالي": "گرم سیر",
    "Region": "Southern Region"
   },
   "geometry": {
    "x": 7137591.2781941602,
    "y": 3602740.2296279813
   }
  },
  {
   "attributes": {
    "OBJECTID": 3194,
    "ولایت": "هلمند",
    "Province": "HELMAND",
    "PC_Code": "3008131",
    "District": "SANGIN QALA",
    "د_مرکز_نوم__نام_مرکز": "اغا نورخان مسجد",
    "Polling_Center_Name": "Agha Noor Khan Mosque",
    "د_مرکز_ځای__موقعیت_مرکز": "بوستانزاي",
    "Polling_Center_Location": "Bostanzai ",
    "Map_Accuracy": "Village",
    "Map_Accuracy_Dari": "قریه",
    "Status": "Open",
    "Status_Dari": null,
    "PS_Male": 3,
    "PS_Female": 2,
    "PS_Total": 5,
    "ولسوالي": "سنگین قلعه",
    "Region": "Southern Region"
   },
   "geometry": {
    "x": 7235988.2726153759,
    "y": 3793872.9623290407
   }
  },
  {
   "attributes": {
    "OBJECTID": 3195,
    "ولایت": "هلمند",
    "Province": "HELMAND",
    "PC_Code": "3008127",
    "District": "SANGIN QALA",
    "د_مرکز_نوم__نام_مرکز": "مكتب نسوزي عليا",
    "Polling_Center_Name": "Nasozi Ulya School",
    "د_مرکز_ځای__موقعیت_مرکز": "نسوزي عليا",
    "Polling_Center_Location": "Nasozi Ulya",
    "Map_Accuracy": "Village",
    "Map_Accuracy_Dari": "قریه",
    "Status": "Open",
    "Status_Dari": null,
    "PS_Male": 6,
    "PS_Female": 0,
    "PS_Total": 6,
    "ولسوالي": "سنگین قلعه",
    "Region": "Southern Region"
   },
   "geometry": {
    "x": 7231261.0870992532,
    "y": 3783209.1656821501
   }
  },
  {
   "attributes": {
    "OBJECTID": 3196,
    "ولایت": "هرات",
    "Province": "HERAT",
    "PC_Code": "3205271",
    "District": "ZENDAJAN",
    "د_مرکز_نوم__نام_مرکز": "فارم پیله وری قلعه ریگ",
    "Polling_Center_Name": "Farm-e- Pelawari ",
    "د_مرکز_ځای__موقعیت_مرکز": "قلعه ریگ",
    "Polling_Center_Location": "Qala-e- Rig ",
    "Map_Accuracy": "Village",
    "Map_Accuracy_Dari": "قریه",
    "Status": "Open",
    "Status_Dari": null,
    "PS_Male": 2,
    "PS_Female": 0,
    "PS_Total": 2,
    "ولسوالي": "زنده جان ",
    "Region": "Western Region"
   },
   "geometry": {
    "x": 6875074.9376966925,
    "y": 4074187.3355442118
   }
  },
  {
   "attributes": {
    "OBJECTID": 3197,
    "ولایت": "هلمند",
    "Province": "HELMAND",
    "PC_Code": "3011216",
    "District": "REG-E-KHAN NISHIN",
    "د_مرکز_نوم__نام_مرکز": "مکتب مرکز ولسوالی",
    "Polling_Center_Name": "District Center School",
    "د_مرکز_ځای__موقعیت_مرکز": "خانشین",
    "Polling_Center_Location": "Khanesheen",
    "Map_Accuracy": "Building",
    "Map_Accuracy_Dari": "تعمیر",
    "Status": "Open",
    "Status_Dari": null,
    "PS_Male": 2,
    "PS_Female": 1,
    "PS_Total": 3,
    "ولسوالي": "ریگ خانشین",
    "Region": "Southern Region"
   },
   "geometry": {
    "x": 7101886.8895824971,
    "y": 3575049.6597419269
   }
  },
  {
   "attributes": {
    "OBJECTID": 3198,
    "ولایت": "بادغيس",
    "Province": "BADGHIS",
    "PC_Code": "3101004",
    "District": "QALA-E-NOW",
    "د_مرکز_نوم__نام_مرکز": "مکتب خم عباسی ",
    "Polling_Center_Name": "Khum Abasi School",
    "د_مرکز_ځای__موقعیت_مرکز": "خم عباسی ",
    "Polling_Center_Location": "khum Abasi ",
    "Map_Accuracy": "Building",
    "Map_Accuracy_Dari": "تعمیر",
    "Status": "Open",
    "Status_Dari": null,
    "PS_Male": 3,
    "PS_Female": 2,
    "PS_Total": 5,
    "ولسوالي": "قلعه نو",
    "Region": "Western Region"
   },
   "geometry": {
    "x": 7025417.2188395234,
    "y": 4172458.7342072423
   }
  },
  {
   "attributes": {
    "OBJECTID": 3199,
    "ولایت": "بادغيس",
    "Province": "BADGHIS",
    "PC_Code": "3104066",
    "District": "QADIS",
    "د_مرکز_نوم__نام_مرکز": "مکتب ملایان",
    "Polling_Center_Name": "Malayan Village ",
    "د_مرکز_ځای__موقعیت_مرکز": "ملا یان",
    "Polling_Center_Location": "Mullahyan ",
    "Map_Accuracy": "Building",
    "Map_Accuracy_Dari": "تعمیر",
    "Status": "Open",
    "Status_Dari": null,
    "PS_Male": 1,
    "PS_Female": 1,
    "PS_Total": 2,
    "ولسوالي": "قادس",
    "Region": "Western Region"
   },
   "geometry": {
    "x": 7050729.4153500032,
    "y": 4147977.2463935507
   }
  },
  {
   "attributes": {
    "OBJECTID": 3200,
    "ولایت": "بادغيس",
    "Province": "BADGHIS",
    "PC_Code": "3104088",
    "District": "QADIS",
    "د_مرکز_نوم__نام_مرکز": "مسجد قریه دهن خشک خیرخانه",
    "Polling_Center_Name": "Dahan-e- Khushk -e- Khair Khana",
    "د_مرکز_ځای__موقعیت_مرکز": "قریه دهن خشک خیرخانه",
    "Polling_Center_Location": "Dahan- e- khushk- e- Khair Khana Village",
    "Map_Accuracy": "Village",
    "Map_Accuracy_Dari": "قریه",
    "Status": "Open",
    "Status_Dari": null,
    "PS_Male": 2,
    "PS_Female": 1,
    "PS_Total": 3,
    "ولسوالي": "قادس",
    "Region": "Western Region"
   },
   "geometry": {
    "x": 7084217.9449696308,
    "y": 4158817.8520334261
   }
  }
 ]
}