{
 "displayFieldName": "Polling_Center_Name",
 "fieldAliases": {
  "OBJECTID": "OBJECTID",
  "ولایت": "ولایت",
  "Province": "Province",
  "PC_Code": "PC_Code",
  "District": "District",
  "د_مرکز_نوم__نام_مرکز": "د_مرکز_نوم__نام_مرکز",
  "Polling_Center_Name": "Polling_Center_Name",
  "د_مرکز_ځای__موقعیت_مرکز": "د_مرکز_ځای__موقعیت_مرکز",
  "Polling_Center_Location": "Polling_Center_Location",
  "Map_Accuracy": "Map_Accuracy",
  "Map_Accuracy_Dari": "Map_Accuracy_Dari",
  "Status": "Status",
  "Status_Dari": "Status_Dari",
  "PS_Male": "PS_Male",
  "PS_Female": "PS_Female",
  "PS_Total": "PS_Total",
  "ولسوالي": "ولسوالي",
  "Region": "Region"
 },
 "geometryType": "esriGeometryPoint",
 "spatialReference": {
  "wkid": 102100,
  "latestWkid": 3857
 },
 "fields": [
  {
   "name": "OBJECTID",
   "type": "esriFieldTypeOID",
   "alias": "OBJECTID"
  },
  {
   "name": "ولایت",
   "type": "esriFieldTypeString",
   "alias": "ولایت",
   "length": 255
  },
  {
   "name": "Province",
   "type": "esriFieldTypeString",
   "alias": "Province",
   "length": 255
  },
  {
   "name": "PC_Code",
   "type": "esriFieldTypeString",
   "alias": "PC_Code",
   "length": 255
  },
  {
   "name": "District",
   "type": "esriFieldTypeString",
   "alias": "District",
   "length": 255
  },
  {
   "name": "د_مرکز_نوم__نام_مرکز",
   "type": "esriFieldTypeString",
   "alias": "د_مرکز_نوم__نام_مرکز",
   "length": 255
  },
  {
   "name": "Polling_Center_Name",
   "type": "esriFieldTypeString",
   "alias": "Polling_Center_Name",
   "length": 255
  },
  {
   "name": "د_مرکز_ځای__موقعیت_مرکز",
   "type": "esriFieldTypeString",
   "alias": "د_مرکز_ځای__موقعیت_مرکز",
   "length": 255
  },
  {
   "name": "Polling_Center_Location",
   "type": "esriFieldTypeString",
   "alias": "Polling_Center_Location",
   "length": 255
  },
  {
   "name": "Map_Accuracy",
   "type": "esriFieldTypeString",
   "alias": "Map_Accuracy",
   "length": 10
  },
  {
   "name": "Map_Accuracy_Dari",
   "type": "esriFieldTypeString",
   "alias": "Map_Accuracy_Dari",
   "length": 50
  },
  {
   "name": "Status",
   "type": "esriFieldTypeString",
   "alias": "Status",
   "length": 6
  },
  {
   "name": "Status_Dari",
   "type": "esriFieldTypeString",
   "alias": "Status_Dari",
   "length": 8
  },
  {
   "name": "PS_Male",
   "type": "esriFieldTypeSmallInteger",
   "alias": "PS_Male"
  },
  {
   "name": "PS_Female",
   "type": "esriFieldTypeSmallInteger",
   "alias": "PS_Female"
  },
  {
   "name": "PS_Total",
   "type": "esriFieldTypeSmallInteger",
   "alias": "PS_Total"
  },
  {
   "name": "ولسوالي",
   "type": "esriFieldTypeString",
   "alias": "ولسوالي",
   "length": 255
  },
  {
   "name": "Region",
   "type": "esriFieldTypeString",
   "alias": "Region",
   "length": 50
  }
 ],
 "features": [
  {
   "attributes": {
    "OBJECTID": 801,
    "ولایت": "وردک",
    "Province": "WARDAK",
    "PC_Code": "0402153",
    "District": "NERKH",
    "د_مرکز_نوم__نام_مرکز": "مکتب اسماعیل خیل",
    "Polling_Center_Name": "Ismaiel Khel School",
    "د_مرکز_ځای__موقعیت_مرکز": "اسماعیل خیل",
    "Polling_Center_Location": "Ismaiel Khel",
    "Map_Accuracy": "Village",
    "Map_Accuracy_Dari": "قریه",
    "Status": "Open",
    "Status_Dari": null,
    "PS_Male": 2,
    "PS_Female": 1,
    "PS_Total": 3,
    "ولسوالي": "نرخ",
    "Region": "Central Region"
   },
   "geometry": {
    "x": 7644309.4327741051,
    "y": 4072862.5061257533
   }
  },
  {
   "attributes": {
    "OBJECTID": 802,
    "ولایت": "وردک",
    "Province": "WARDAK",
    "PC_Code": "0402154",
    "District": "NERKH",
    "د_مرکز_نوم__نام_مرکز": "مسجد اخچی",
    "Polling_Center_Name": "Akhchi Mosque",
    "د_مرکز_ځای__موقعیت_مرکز": "اخچی",
    "Polling_Center_Location": "Akhchi",
    "Map_Accuracy": "Village",
    "Map_Accuracy_Dari": "قریه",
    "Status": "Open",
    "Status_Dari": null,
    "PS_Male": 1,
    "PS_Female": 1,
    "PS_Total": 2,
    "ولسوالي": "نرخ",
    "Region": "Central Region"
   },
   "geometry": {
    "x": 7650498.7964622071,
    "y": 4072296.3709069714
   }
  },
  {
   "attributes": {
    "OBJECTID": 803,
    "ولایت": "هرات",
    "Province": "HERAT",
    "PC_Code": "3214336",
    "District": "SHINDAND",
    "د_مرکز_نوم__نام_مرکز": "کلینیک چهار قلعه دوم",
    "Polling_Center_Name": "Chahar Qala-e-Dowom Clinic ",
    "د_مرکز_ځای__موقعیت_مرکز": "چهار قلعه دوم ",
    "Polling_Center_Location": "Chahar Qala-e-Duowm ",
    "Map_Accuracy": "Building",
    "Map_Accuracy_Dari": "تعمیر",
    "Status": "Open",
    "Status_Dari": null,
    "PS_Male": 1,
    "PS_Female": 1,
    "PS_Total": 2,
    "ولسوالي": "شیندند",
    "Region": "Western Region"
   },
   "geometry": {
    "x": 6923307.9743219856,
    "y": 3922679.1411330719
   }
  },
  {
   "attributes": {
    "OBJECTID": 804,
    "ولایت": "پروان",
    "Province": "PARWAN",
    "PC_Code": "0302152",
    "District": "BAGRAM",
    "د_مرکز_نوم__نام_مرکز": "مسجد ده ملا",
    "Polling_Center_Name": "Deh mullah mosque",
    "د_مرکز_ځای__موقعیت_مرکز": "ده ملا",
    "Polling_Center_Location": "Deh mulah",
    "Map_Accuracy": "Building",
    "Map_Accuracy_Dari": "تعمیر",
    "Status": "Open",
    "Status_Dari": null,
    "PS_Male": 2,
    "PS_Female": 1,
    "PS_Total": 3,
    "ولسوالي": "بگرام",
    "Region": "Central Region"
   },
   "geometry": {
    "x": 7704435.1064154441,
    "y": 4158124.9351421725
   }
  },
  {
   "attributes": {
    "OBJECTID": 805,
    "ولایت": "پروان",
    "Province": "PARWAN",
    "PC_Code": "0302105",
    "District": "BAGRAM",
    "د_مرکز_نوم__نام_مرکز": "لیسه خواجه خسرو ولی ",
    "Polling_Center_Name": "Khwaja Khesraw Wali High School",
    "د_مرکز_ځای__موقعیت_مرکز": "اوگامتی ",
    "Polling_Center_Location": "Awogamti",
    "Map_Accuracy": "Building",
    "Map_Accuracy_Dari": "تعمیر",
    "Status": "Open",
    "Status_Dari": null,
    "PS_Male": 2,
    "PS_Female": 2,
    "PS_Total": 4,
    "ولسوالي": "بگرام ",
    "Region": "Central Region"
   },
   "geometry": {
    "x": 7725049.3292026594,
    "y": 4159003.2712953552
   }
  },
  {
   "attributes": {
    "OBJECTID": 806,
    "ولایت": "پروان",
    "Province": "PARWAN",
    "PC_Code": "0302106",
    "District": "BAGRAM",
    "د_مرکز_نوم__نام_مرکز": "مکتب متوسط قاضی عبدالجمیل خیل ",
    "Polling_Center_Name": "Qazi Abdul Jamil Khel Secondary School",
    "د_مرکز_ځای__موقعیت_مرکز": "چیکل ",
    "Polling_Center_Location": "Chaikal ",
    "Map_Accuracy": "Building",
    "Map_Accuracy_Dari": "تعمیر",
    "Status": "Open",
    "Status_Dari": null,
    "PS_Male": 3,
    "PS_Female": 1,
    "PS_Total": 4,
    "ولسوالي": "بگرام ",
    "Region": "Central Region"
   },
   "geometry": {
    "x": 7699002.2570737097,
    "y": 4156716.8437637291
   }
  },
  {
   "attributes": {
    "OBJECTID": 807,
    "ولایت": "پروان",
    "Province": "PARWAN",
    "PC_Code": "0304038",
    "District": "SAYID KHIAL",
    "د_مرکز_نوم__نام_مرکز": "لیسه نسوان قاضی خیل ",
    "Polling_Center_Name": "Qazi Khel Girls High School",
    "د_مرکز_ځای__موقعیت_مرکز": "ابراهیم خیل ",
    "Polling_Center_Location": "Ibrahim Khel",
    "Map_Accuracy": "Building",
    "Map_Accuracy_Dari": "تعمیر",
    "Status": "Open",
    "Status_Dari": null,
    "PS_Male": 1,
    "PS_Female": 1,
    "PS_Total": 2,
    "ولسوالي": "سیدخیل ",
    "Region": "Central Region"
   },
   "geometry": {
    "x": 7709796.3281213883,
    "y": 4171461.1888976935
   }
  },
  {
   "attributes": {
    "OBJECTID": 808,
    "ولایت": "ننگرهار",
    "Province": "NANGARHAR",
    "PC_Code": "0603088",
    "District": "SURKH RUD",
    "د_مرکز_نوم__نام_مرکز": "امرخيل کلینيک",
    "Polling_Center_Name": "AmarKhil Clinic",
    "د_مرکز_ځای__موقعیت_مرکز": "امر خيل",
    "Polling_Center_Location": "AmarKhel",
    "Map_Accuracy": "Village",
    "Map_Accuracy_Dari": "قریه",
    "Status": "Open",
    "Status_Dari": null,
    "PS_Male": 0,
    "PS_Female": 3,
    "PS_Total": 3,
    "ولسوالي": "سرخرود",
    "Region": "Eastern Region"
   },
   "geometry": {
    "x": 7833033.6179204872,
    "y": 4090135.1767264446
   }
  },
  {
   "attributes": {
    "OBJECTID": 809,
    "ولایت": "ننگرهار",
    "Province": "NANGARHAR",
    "PC_Code": "0603089",
    "District": "SURKH RUD",
    "د_مرکز_نوم__نام_مرکز": "بالا باغ لیسه ",
    "Polling_Center_Name": "Bala Bagh School",
    "د_مرکز_ځای__موقعیت_مرکز": "بالا باغ",
    "Polling_Center_Location": "Bala Bagh",
    "Map_Accuracy": "Building",
    "Map_Accuracy_Dari": "تعمیر",
    "Status": "Open",
    "Status_Dari": null,
    "PS_Male": 3,
    "PS_Female": 0,
    "PS_Total": 3,
    "ولسوالي": "سرخرود",
    "Region": "Eastern Region"
   },
   "geometry": {
    "x": 7817637.4410497397,
    "y": 4082031.4692929587
   }
  },
  {
   "attributes": {
    "OBJECTID": 810,
    "ولایت": "کابل",
    "Province": "KABUL",
    "PC_Code": "0101283",
    "District": "KABUL-D13",
    "د_مرکز_نوم__نام_مرکز": " مسجد بقيت الله",
    "Polling_Center_Name": "Baqyatullah Mosque",
    "د_مرکز_ځای__موقعیت_مرکز": "شهرک صفا",
    "Polling_Center_Location": "Shahrak-e-Safa ",
    "Map_Accuracy": "Building",
    "Map_Accuracy_Dari": "تعمیر",
    "Status": "Open",
    "Status_Dari": null,
    "PS_Male": 4,
    "PS_Female": 3,
    "PS_Total": 7,
    "ولسوالي": "کابل - ناحیه 13",
    "Region": "Central Region"
   },
   "geometry": {
    "x": 7687531.3713143719,
    "y": 4097707.9806880672
   }
  },
  {
   "attributes": {
    "OBJECTID": 811,
    "ولایت": "کابل",
    "Province": "KABUL",
    "PC_Code": "0101326",
    "District": "KABUL-D17",
    "د_مرکز_نوم__نام_مرکز": "لیسه آزادی",
    "Polling_Center_Name": "Azadi High School",
    "د_مرکز_ځای__موقعیت_مرکز": "چشمه کوتل",
    "Polling_Center_Location": "Chashma-e-Kotal",
    "Map_Accuracy": "Building",
    "Map_Accuracy_Dari": "تعمیر",
    "Status": "Open",
    "Status_Dari": null,
    "PS_Male": 5,
    "PS_Female": 4,
    "PS_Total": 9,
    "ولسوالي": "کابل - ناحیه 17",
    "Region": "Central Region"
   },
   "geometry": {
    "x": 7693137.4620589362,
    "y": 4105480.0551457731
   }
  },
  {
   "attributes": {
    "OBJECTID": 812,
    "ولایت": "کابل",
    "Province": "KABUL",
    "PC_Code": "0101511",
    "District": "KABUL-D21",
    "د_مرکز_نوم__نام_مرکز": " مکتب متوسطه سپین غر",
    "Polling_Center_Name": "Spen Ghar Secondary School",
    "د_مرکز_ځای__موقعیت_مرکز": "قریه سپین غر",
    "Polling_Center_Location": "Speen Ghar Village",
    "Map_Accuracy": "Building",
    "Map_Accuracy_Dari": "تعمیر",
    "Status": "Open",
    "Status_Dari": null,
    "PS_Male": 4,
    "PS_Female": 4,
    "PS_Total": 8,
    "ولسوالي": "کابل - ناحیه 21",
    "Region": "Central Region"
   },
   "geometry": {
    "x": 7724768.1673383741,
    "y": 4103249.9802434957
   }
  },
  {
   "attributes": {
    "OBJECTID": 813,
    "ولایت": "کابل",
    "Province": "KABUL",
    "PC_Code": "0102399",
    "District": "PAGHMAN",
    "د_مرکز_نوم__نام_مرکز": "مکتب متوسطه عمرفاروق",
    "Polling_Center_Name": "Hazrat-e-Omer Farooq Secondary School",
    "د_مرکز_ځای__موقعیت_مرکز": "ارغنده پائین ",
    "Polling_Center_Location": "Arghanda-e-Payen",
    "Map_Accuracy": "Building",
    "Map_Accuracy_Dari": "تعمیر",
    "Status": "Open",
    "Status_Dari": null,
    "PS_Male": 4,
    "PS_Female": 3,
    "PS_Total": 7,
    "ولسوالي": "پغمان",
    "Region": "Central Region"
   },
   "geometry": {
    "x": 7675158.8043587832,
    "y": 4097619.2198278876
   }
  },
  {
   "attributes": {
    "OBJECTID": 814,
    "ولایت": "کابل",
    "Province": "KABUL",
    "PC_Code": "0102407",
    "District": "PAGHMAN",
    "د_مرکز_نوم__نام_مرکز": " مکتب متوسطه پغمان قشنگ",
    "Polling_Center_Name": "Paghman-e-Qashang Secondary School",
    "د_مرکز_ځای__موقعیت_مرکز": "ده دست",
    "Polling_Center_Location": "Deh Dast",
    "Map_Accuracy": "Building",
    "Map_Accuracy_Dari": "تعمیر",
    "Status": "Open",
    "Status_Dari": null,
    "PS_Male": 2,
    "PS_Female": 2,
    "PS_Total": 4,
    "ولسوالي": "پغمان",
    "Region": "Central Region"
   },
   "geometry": {
    "x": 7682007.2101565655,
    "y": 4104943.6899056551
   }
  },
  {
   "attributes": {
    "OBJECTID": 815,
    "ولایت": "کابل",
    "Province": "KABUL",
    "PC_Code": "0102408",
    "District": "PAGHMAN",
    "د_مرکز_نوم__نام_مرکز": " مکتب حضرت ابو بکر صديق",
    "Polling_Center_Name": "Hazrat-e-Abubakr-e-Sedeq School",
    "د_مرکز_ځای__موقعیت_مرکز": "قلعه حيدر خان",
    "Polling_Center_Location": "Qala-e-Haider Khan",
    "Map_Accuracy": "Building",
    "Map_Accuracy_Dari": "تعمیر",
    "Status": "Open",
    "Status_Dari": null,
    "PS_Male": 3,
    "PS_Female": 2,
    "PS_Total": 5,
    "ولسوالي": "پغمان",
    "Region": "Central Region"
   },
   "geometry": {
    "x": 7679843.1719459621,
    "y": 4096765.0989887295
   }
  },
  {
   "attributes": {
    "OBJECTID": 816,
    "ولایت": "کابل",
    "Province": "KABUL",
    "PC_Code": "0102411",
    "District": "PAGHMAN",
    "د_مرکز_نوم__نام_مرکز": " ليسه خواجه مسافر",
    "Polling_Center_Name": "Khwaja Musafer High School",
    "د_مرکز_ځای__موقعیت_مرکز": "خواجه مسافر",
    "Polling_Center_Location": "Khwaja Musafer",
    "Map_Accuracy": "Building",
    "Map_Accuracy_Dari": "تعمیر",
    "Status": "Open",
    "Status_Dari": null,
    "PS_Male": 3,
    "PS_Female": 1,
    "PS_Total": 4,
    "ولسوالي": "پغمان",
    "Region": "Central Region"
   },
   "geometry": {
    "x": 7680578.2356943749,
    "y": 4103110.1041746992
   }
  },
  {
   "attributes": {
    "OBJECTID": 817,
    "ولایت": "کابل",
    "Province": "KABUL",
    "PC_Code": "0102412",
    "District": "PAGHMAN",
    "د_مرکز_نوم__نام_مرکز": " مسجد خالداري",
    "Polling_Center_Name": "Khaldari Mosque ",
    "د_مرکز_ځای__موقعیت_مرکز": "خالداري",
    "Polling_Center_Location": "Khaldari",
    "Map_Accuracy": "Building",
    "Map_Accuracy_Dari": "تعمیر",
    "Status": "Open",
    "Status_Dari": null,
    "PS_Male": 2,
    "PS_Female": 1,
    "PS_Total": 3,
    "ولسوالي": "پغمان",
    "Region": "Central Region"
   },
   "geometry": {
    "x": 7677999.7467819126,
    "y": 4103143.0817856709
   }
  },
  {
   "attributes": {
    "OBJECTID": 818,
    "ولایت": "کابل",
    "Province": "KABUL",
    "PC_Code": "0103426",
    "District": "CHAHAR ASYAB",
    "د_مرکز_نوم__نام_مرکز": "مسجد ملک رضا خان",
    "Polling_Center_Name": "Malik Reza Khan Mosque",
    "د_مرکز_ځای__موقعیت_مرکز": "للندر شترپریده",
    "Polling_Center_Location": "Lalandar Shutor Parida",
    "Map_Accuracy": "Building",
    "Map_Accuracy_Dari": "تعمیر",
    "Status": "Open",
    "Status_Dari": null,
    "PS_Male": 1,
    "PS_Female": 1,
    "PS_Total": 2,
    "ولسوالي": "چهار آسیاب",
    "Region": "Central Region"
   },
   "geometry": {
    "x": 7682354.3092269124,
    "y": 4082013.2258490692
   }
  },
  {
   "attributes": {
    "OBJECTID": 819,
    "ولایت": "کابل",
    "Province": "KABUL",
    "PC_Code": "0103427",
    "District": "CHAHAR ASYAB",
    "د_مرکز_نوم__نام_مرکز": " مسجد چارسوق",
    "Polling_Center_Name": "Charsawq Mosque",
    "د_مرکز_ځای__موقعیت_مرکز": "چارسوق",
    "Polling_Center_Location": "Charsoq",
    "Map_Accuracy": "Building",
    "Map_Accuracy_Dari": "تعمیر",
    "Status": "Open",
    "Status_Dari": null,
    "PS_Male": 1,
    "PS_Female": 1,
    "PS_Total": 2,
    "ولسوالي": "چهار آسیاب",
    "Region": "Central Region"
   },
   "geometry": {
    "x": 7698647.6454962036,
    "y": 4083864.3618914546
   }
  },
  {
   "attributes": {
    "OBJECTID": 820,
    "ولایت": "کابل",
    "Province": "KABUL",
    "PC_Code": "0104451",
    "District": "BAGRAMI",
    "د_مرکز_نوم__نام_مرکز": "لیسه نسوان شینه",
    "Polling_Center_Name": "Sheena Girls High School",
    "د_مرکز_ځای__موقعیت_مرکز": "قريه شينه",
    "Polling_Center_Location": "Sheena Village",
    "Map_Accuracy": "Village",
    "Map_Accuracy_Dari": "قریه",
    "Status": "Open",
    "Status_Dari": null,
    "PS_Male": 1,
    "PS_Female": 3,
    "PS_Total": 4,
    "ولسوالي": "بگرامی",
    "Region": "Central Region"
   },
   "geometry": {
    "x": 7713832.9721194375,
    "y": 4099248.6455844268
   }
  },
  {
   "attributes": {
    "OBJECTID": 821,
    "ولایت": "کابل",
    "Province": "KABUL",
    "PC_Code": "0104452",
    "District": "BAGRAMI",
    "د_مرکز_نوم__نام_مرکز": "لیسه ذکور شیوکی",
    "Polling_Center_Name": "Shewaki Boys High School",
    "د_مرکز_ځای__موقعیت_مرکز": "شيوکي",
    "Polling_Center_Location": "Shewaki",
    "Map_Accuracy": "Building",
    "Map_Accuracy_Dari": "تعمیر",
    "Status": "Open",
    "Status_Dari": null,
    "PS_Male": 3,
    "PS_Female": 1,
    "PS_Total": 4,
    "ولسوالي": "بگرامی",
    "Region": "Central Region"
   },
   "geometry": {
    "x": 7706186.9038387118,
    "y": 4091410.7258816091
   }
  },
  {
   "attributes": {
    "OBJECTID": 822,
    "ولایت": "کابل",
    "Province": "KABUL",
    "PC_Code": "0104453",
    "District": "BAGRAMI",
    "د_مرکز_نوم__نام_مرکز": " لیسه نسوان قلعه احمد خان",
    "Polling_Center_Name": "Qala-e-Ahmad Khan Girls High School",
    "د_مرکز_ځای__موقعیت_مرکز": "قلعه احمد خان",
    "Polling_Center_Location": "Qala-e-Ahmad Khan",
    "Map_Accuracy": "Building",
    "Map_Accuracy_Dari": "تعمیر",
    "Status": "Open",
    "Status_Dari": null,
    "PS_Male": 1,
    "PS_Female": 2,
    "PS_Total": 3,
    "ولسوالي": "بگرامی",
    "Region": "Central Region"
   },
   "geometry": {
    "x": 7710056.7122027176,
    "y": 4096756.6090069017
   }
  },
  {
   "attributes": {
    "OBJECTID": 823,
    "ولایت": "کابل",
    "Province": "KABUL",
    "PC_Code": "0104454",
    "District": "BAGRAMI",
    "د_مرکز_نوم__نام_مرکز": " لیسه ذکور بت خاک",
    "Polling_Center_Name": "But Khak Boys High School",
    "د_مرکز_ځای__موقعیت_مرکز": "بت خاک",
    "Polling_Center_Location": "Bot Khak",
    "Map_Accuracy": "Building",
    "Map_Accuracy_Dari": "تعمیر",
    "Status": "Open",
    "Status_Dari": null,
    "PS_Male": 2,
    "PS_Female": 2,
    "PS_Total": 4,
    "ولسوالي": "بگرامی",
    "Region": "Central Region"
   },
   "geometry": {
    "x": 7720158.3982815547,
    "y": 4096101.1841717334
   }
  },
  {
   "attributes": {
    "OBJECTID": 824,
    "ولایت": "کابل",
    "Province": "KABUL",
    "PC_Code": "0106389",
    "District": "SHAKAR DARA",
    "د_مرکز_نوم__نام_مرکز": "لیسه دانشمند",
    "Polling_Center_Name": "Danishmand High School",
    "د_مرکز_ځای__موقعیت_مرکز": "دانشمند",
    "Polling_Center_Location": "Danishmand",
    "Map_Accuracy": "Building",
    "Map_Accuracy_Dari": "تعمیر",
    "Status": "Open",
    "Status_Dari": null,
    "PS_Male": 3,
    "PS_Female": 2,
    "PS_Total": 5,
    "ولسوالي": "شکردره",
    "Region": "Central Region"
   },
   "geometry": {
    "x": 7696299.1838399274,
    "y": 4118188.4753814898
   }
  },
  {
   "attributes": {
    "OBJECTID": 825,
    "ولایت": "کابل",
    "Province": "KABUL",
    "PC_Code": "0106390",
    "District": "SHAKAR DARA",
    "د_مرکز_نوم__نام_مرکز": "مکتب متوسطه وزیرگل شهید",
    "Polling_Center_Name": "Wazir Gul Shaheed Secondary School",
    "د_مرکز_ځای__موقعیت_مرکز": "دولانه",
    "Polling_Center_Location": "Dowlana",
    "Map_Accuracy": "Building",
    "Map_Accuracy_Dari": "تعمیر",
    "Status": "Open",
    "Status_Dari": null,
    "PS_Male": 4,
    "PS_Female": 2,
    "PS_Total": 6,
    "ولسوالي": "شکردره",
    "Region": "Central Region"
   },
   "geometry": {
    "x": 7686489.5255208677,
    "y": 4116826.4516119361
   }
  },
  {
   "attributes": {
    "OBJECTID": 826,
    "ولایت": "کابل",
    "Province": "KABUL",
    "PC_Code": "0108340",
    "District": "MIR BACHA KOT",
    "د_مرکز_نوم__نام_مرکز": " لیسه نمبر ۲ میربچه خان",
    "Polling_Center_Name": "Mir Bacha Khan No.2 High School",
    "د_مرکز_ځای__موقعیت_مرکز": "سرای خواجه",
    "Polling_Center_Location": "Sarai-e-Khwaja",
    "Map_Accuracy": "Building",
    "Map_Accuracy_Dari": "تعمیر",
    "Status": "Open",
    "Status_Dari": null,
    "PS_Male": 2,
    "PS_Female": 2,
    "PS_Total": 4,
    "ولسوالي": "میر بچه کوت",
    "Region": "Central Region"
   },
   "geometry": {
    "x": 7694777.2883271091,
    "y": 4129827.4990009377
   }
  },
  {
   "attributes": {
    "OBJECTID": 827,
    "ولایت": "کابل",
    "Province": "KABUL",
    "PC_Code": "0109443",
    "District": "KHAK-E-JABAR",
    "د_مرکز_نوم__نام_مرکز": " منزل محمد نذیر",
    "Polling_Center_Name": "Mohammad Nazir House",
    "د_مرکز_ځای__موقعیت_مرکز": "ملنگ",
    "Polling_Center_Location": "Malang",
    "Map_Accuracy": "Village",
    "Map_Accuracy_Dari": "قریه",
    "Status": "Open",
    "Status_Dari": null,
    "PS_Male": 1,
    "PS_Female": 1,
    "PS_Total": 2,
    "ولسوالي": "خاک جبار",
    "Region": "Central Region"
   },
   "geometry": {
    "x": 7726646.721594139,
    "y": 4076121.2206175933
   }
  },
  {
   "attributes": {
    "OBJECTID": 828,
    "ولایت": "کابل",
    "Province": "KABUL",
    "PC_Code": "0109444",
    "District": "KHAK-E-JABAR",
    "د_مرکز_نوم__نام_مرکز": "لیسه ذکور چکری",
    "Polling_Center_Name": "Chakari Boys High School",
    "د_مرکز_ځای__موقعیت_مرکز": "چکري",
    "Polling_Center_Location": "Chakari",
    "Map_Accuracy": "Building",
    "Map_Accuracy_Dari": "تعمیر",
    "Status": "Open",
    "Status_Dari": null,
    "PS_Male": 2,
    "PS_Female": 1,
    "PS_Total": 3,
    "ولسوالي": "خاک جبار",
    "Region": "Central Region"
   },
   "geometry": {
    "x": 7729437.7928853929,
    "y": 4075397.8212440731
   }
  },
  {
   "attributes": {
    "OBJECTID": 829,
    "ولایت": "کابل",
    "Province": "KABUL",
    "PC_Code": "0109446",
    "District": "KHAK-E-JABAR",
    "د_مرکز_نوم__نام_مرکز": "مکتب ابتدائیه چنار",
    "Polling_Center_Name": "Chenar Primary School",
    "د_مرکز_ځای__موقعیت_مرکز": "شينوار",
    "Polling_Center_Location": "Shenwar",
    "Map_Accuracy": "Building",
    "Map_Accuracy_Dari": "تعمیر",
    "Status": "Open",
    "Status_Dari": null,
    "PS_Male": 1,
    "PS_Female": 1,
    "PS_Total": 2,
    "ولسوالي": "خاک جبار",
    "Region": "Central Region"
   },
   "geometry": {
    "x": 7734464.184042058,
    "y": 4097837.4236816047
   }
  },
  {
   "attributes": {
    "OBJECTID": 830,
    "ولایت": "کابل",
    "Province": "KABUL",
    "PC_Code": "0110358",
    "District": "KALAKAN",
    "د_مرکز_نوم__نام_مرکز": " مسجد کارنده",
    "Polling_Center_Name": "Karenda Mosque",
    "د_مرکز_ځای__موقعیت_مرکز": "کارنده",
    "Polling_Center_Location": "Karenda",
    "Map_Accuracy": "Building",
    "Map_Accuracy_Dari": "تعمیر",
    "Status": "Open",
    "Status_Dari": null,
    "PS_Male": 1,
    "PS_Female": 1,
    "PS_Total": 2,
    "ولسوالي": "کلکان",
    "Region": "Central Region"
   },
   "geometry": {
    "x": 7697260.8317326801,
    "y": 4130821.5431200592
   }
  },
  {
   "attributes": {
    "OBJECTID": 831,
    "ولایت": "کابل",
    "Province": "KABUL",
    "PC_Code": "0111381",
    "District": "GULDARA",
    "د_مرکز_نوم__نام_مرکز": "مسجد دشت ناصری",
    "Polling_Center_Name": "Dasht-e-Naseri Mosque",
    "د_مرکز_ځای__موقعیت_مرکز": "دشت ناصري",
    "Polling_Center_Location": "Dasht-e-Naseri",
    "Map_Accuracy": "Building",
    "Map_Accuracy_Dari": "تعمیر",
    "Status": "Open",
    "Status_Dari": null,
    "PS_Male": 3,
    "PS_Female": 2,
    "PS_Total": 5,
    "ولسوالي": "گلدره",
    "Region": "Central Region"
   },
   "geometry": {
    "x": 7687918.1709226435,
    "y": 4128098.4109675135
   }
  },
  {
   "attributes": {
    "OBJECTID": 832,
    "ولایت": "کابل",
    "Province": "KABUL",
    "PC_Code": "0111383",
    "District": "GULDARA",
    "د_مرکز_نوم__نام_مرکز": " لیسه پیام آزادی",
    "Polling_Center_Name": "Payam-e-Azadi High School",
    "د_مرکز_ځای__موقعیت_مرکز": "ده نو",
    "Polling_Center_Location": "Deh Naw",
    "Map_Accuracy": "Building",
    "Map_Accuracy_Dari": "تعمیر",
    "Status": "Open",
    "Status_Dari": null,
    "PS_Male": 3,
    "PS_Female": 2,
    "PS_Total": 5,
    "ولسوالي": "گلدره",
    "Region": "Central Region"
   },
   "geometry": {
    "x": 7686026.2114624809,
    "y": 4128986.7794695208
   }
  },
  {
   "attributes": {
    "OBJECTID": 833,
    "ولایت": "کابل",
    "Province": "KABUL",
    "PC_Code": "0112351",
    "District": "FARZA",
    "د_مرکز_نوم__نام_مرکز": " مسجد سرجوي",
    "Polling_Center_Name": "Sar-e-Joy Mosque",
    "د_مرکز_ځای__موقعیت_مرکز": "قلعه سلیم خان",
    "Polling_Center_Location": "Qala-e-Saleem Khan",
    "Map_Accuracy": "Building",
    "Map_Accuracy_Dari": "تعمیر",
    "Status": "Open",
    "Status_Dari": null,
    "PS_Male": 2,
    "PS_Female": 1,
    "PS_Total": 3,
    "ولسوالي": "فرزه",
    "Region": "Central Region"
   },
   "geometry": {
    "x": 7683438.389635222,
    "y": 4135408.8489178149
   }
  },
  {
   "attributes": {
    "OBJECTID": 834,
    "ولایت": "کابل",
    "Province": "KABUL",
    "PC_Code": "0113374",
    "District": "ESTALEF",
    "د_مرکز_نوم__نام_مرکز": " مکتب ابتدائيه خواجه حسن",
    "Polling_Center_Name": "Khwaja Hassan Primary School",
    "د_مرکز_ځای__موقعیت_مرکز": "قريه خواجه حسن",
    "Polling_Center_Location": "Khwaja Hassan Village",
    "Map_Accuracy": "Building",
    "Map_Accuracy_Dari": "تعمیر",
    "Status": "Open",
    "Status_Dari": null,
    "PS_Male": 2,
    "PS_Female": 1,
    "PS_Total": 3,
    "ولسوالي": "استالف",
    "Region": "Central Region"
   },
   "geometry": {
    "x": 7692472.9648489347,
    "y": 4139235.4494980564
   }
  },
  {
   "attributes": {
    "OBJECTID": 835,
    "ولایت": "کابل",
    "Province": "KABUL",
    "PC_Code": "0113377",
    "District": "ESTALEF",
    "د_مرکز_نوم__نام_مرکز": " ليسه بدل شاه خيل",
    "Polling_Center_Name": "Badal Shah Khel High School",
    "د_مرکز_ځای__موقعیت_مرکز": "دره بدل شاه خيل",
    "Polling_Center_Location": "Dara-e-Badal Shah Khel ",
    "Map_Accuracy": "Village",
    "Map_Accuracy_Dari": "قریه",
    "Status": "Open",
    "Status_Dari": null,
    "PS_Male": 2,
    "PS_Female": 2,
    "PS_Total": 4,
    "ولسوالي": "استالف",
    "Region": "Central Region"
   },
   "geometry": {
    "x": 7686596.0950089889,
    "y": 4142500.9278954002
   }
  },
  {
   "attributes": {
    "OBJECTID": 836,
    "ولایت": "کابل",
    "Province": "KABUL",
    "PC_Code": "0113378",
    "District": "ESTALEF",
    "د_مرکز_نوم__نام_مرکز": " مسجد نور علم",
    "Polling_Center_Name": "Noor Alam Mosque",
    "د_مرکز_ځای__موقعیت_مرکز": "قريه نور علم",
    "Polling_Center_Location": "Noor Alam Village",
    "Map_Accuracy": "Building",
    "Map_Accuracy_Dari": "تعمیر",
    "Status": "Open",
    "Status_Dari": null,
    "PS_Male": 1,
    "PS_Female": 1,
    "PS_Total": 2,
    "ولسوالي": "استالف",
    "Region": "Central Region"
   },
   "geometry": {
    "x": 7691595.8073364999,
    "y": 4140123.0123245362
   }
  },
  {
   "attributes": {
    "OBJECTID": 837,
    "ولایت": "کابل",
    "Province": "KABUL",
    "PC_Code": "0114368",
    "District": "QARA BAGH",
    "د_مرکز_نوم__نام_مرکز": "دارالمعلمین قره باغ",
    "Polling_Center_Name": "Qara Bagh Teacher Training Institute",
    "د_مرکز_ځای__موقعیت_مرکز": "مرکز ولسوالي",
    "Polling_Center_Location": "District Capital",
    "Map_Accuracy": "Building",
    "Map_Accuracy_Dari": "تعمیر",
    "Status": "Open",
    "Status_Dari": null,
    "PS_Male": 2,
    "PS_Female": 1,
    "PS_Total": 3,
    "ولسوالي": "قره باغ",
    "Region": "Central Region"
   },
   "geometry": {
    "x": 7698536.0454802951,
    "y": 4142537.327092838
   }
  },
  {
   "attributes": {
    "OBJECTID": 838,
    "ولایت": "کابل",
    "Province": "KABUL",
    "PC_Code": "0114369",
    "District": "QARA BAGH",
    "د_مرکز_نوم__نام_مرکز": "لیسه استرغچ ",
    "Polling_Center_Name": "Isterghuch High School",
    "د_مرکز_ځای__موقعیت_مرکز": "استر غچ",
    "Polling_Center_Location": "Isterghuch",
    "Map_Accuracy": "Building",
    "Map_Accuracy_Dari": "تعمیر",
    "Status": "Open",
    "Status_Dari": null,
    "PS_Male": 3,
    "PS_Female": 2,
    "PS_Total": 5,
    "ولسوالي": "قره باغ",
    "Region": "Central Region"
   },
   "geometry": {
    "x": 7691650.0510979695,
    "y": 4145941.6907955804
   }
  },
  {
   "attributes": {
    "OBJECTID": 839,
    "ولایت": "کابل",
    "Province": "KABUL",
    "PC_Code": "0115477",
    "District": "SURUBI",
    "د_مرکز_نوم__نام_مرکز": "ليسه هوتخیل بالا",
    "Polling_Center_Name": "Hud Khel-e-Bala High School",
    "د_مرکز_ځای__موقعیت_مرکز": "هوتخيل بالا",
    "Polling_Center_Location": "HudKhel Bala",
    "Map_Accuracy": "Building",
    "Map_Accuracy_Dari": "تعمیر",
    "Status": "Open",
    "Status_Dari": null,
    "PS_Male": 4,
    "PS_Female": 2,
    "PS_Total": 6,
    "ولسوالي": "سروبی",
    "Region": "Central Region"
   },
   "geometry": {
    "x": 7763737.7202546522,
    "y": 4108107.8690871391
   }
  },
  {
   "attributes": {
    "OBJECTID": 840,
    "ولایت": "کابل",
    "Province": "KABUL",
    "PC_Code": "0101521",
    "District": "Nahia_09",
    "د_مرکز_نوم__نام_مرکز": "مسجد نور محمد،مرکز کوچی",
    "Polling_Center_Name": "Noor muhammad Mosque",
    "د_مرکز_ځای__موقعیت_مرکز": "ناحیه نهم",
    "Polling_Center_Location": "District_09",
    "Map_Accuracy": "District",
    "Map_Accuracy_Dari": "ولسوالی",
    "Status": "Open",
    "Status_Dari": null,
    "PS_Male": 2,
    "PS_Female": 2,
    "PS_Total": 4,
    "ولسوالي": "ناحیه_9",
    "Region": "Central Region"
   },
   "geometry": {
    "x": 7714295.8686184185,
    "y": 4102831.9992680741
   }
  },
  {
   "attributes": {
    "OBJECTID": 841,
    "ولایت": "کابل",
    "Province": "KABUL",
    "PC_Code": "0101522",
    "District": "Nahia_11",
    "د_مرکز_نوم__نام_مرکز": "مسجد ابو هریره",
    "Polling_Center_Name": "Abo horaira ",
    "د_مرکز_ځای__موقعیت_مرکز": "تپه حصه اول",
    "Polling_Center_Location": "Hesa awal Hell",
    "Map_Accuracy": "Building",
    "Map_Accuracy_Dari": "تعمیر",
    "Status": "Open",
    "Status_Dari": null,
    "PS_Male": 2,
    "PS_Female": 1,
    "PS_Total": 3,
    "ولسوالي": "ناحیه_11",
    "Region": "Central Region"
   },
   "geometry": {
    "x": 7694990.1824004669,
    "y": 4107320.6672680443
   }
  },
  {
   "attributes": {
    "OBJECTID": 842,
    "ولایت": "کابل",
    "Province": "KABUL",
    "PC_Code": "0103536",
    "District": "Charasiab",
    "د_مرکز_نوم__نام_مرکز": "مسجد لیوان خیل",
    "Polling_Center_Name": "Liwan khil Mosque",
    "د_مرکز_ځای__موقعیت_مرکز": "میاخیل",
    "Polling_Center_Location": "Mia khil",
    "Map_Accuracy": "Building",
    "Map_Accuracy_Dari": "تعمیر",
    "Status": "Open",
    "Status_Dari": null,
    "PS_Male": 2,
    "PS_Female": 1,
    "PS_Total": 3,
    "ولسوالي": "چهار آسیاب",
    "Region": "Central Region"
   },
   "geometry": {
    "x": 7693380.119067953,
    "y": 4079379.5184177547
   }
  },
  {
   "attributes": {
    "OBJECTID": 843,
    "ولایت": "کابل",
    "Province": "KABUL",
    "PC_Code": "0103537",
    "District": "Charasiab",
    "د_مرکز_نوم__نام_مرکز": "مسجد حاجی مرجان",
    "Polling_Center_Name": "Haji marjan Mosque",
    "د_مرکز_ځای__موقعیت_مرکز": "غازی آباد",
    "Polling_Center_Location": "Ghazi abad",
    "Map_Accuracy": "Building",
    "Map_Accuracy_Dari": "تعمیر",
    "Status": "Open",
    "Status_Dari": null,
    "PS_Male": 2,
    "PS_Female": 1,
    "PS_Total": 3,
    "ولسوالي": "چهار آسیاب",
    "Region": "Central Region"
   },
   "geometry": {
    "x": 7698810.7298860475,
    "y": 4080901.1005775435
   }
  },
  {
   "attributes": {
    "OBJECTID": 844,
    "ولایت": "کابل",
    "Province": "KABUL",
    "PC_Code": "0104538",
    "District": "Bagrami",
    "د_مرکز_نوم__نام_مرکز": "لیسه شهید ملک گلرحمن",
    "Polling_Center_Name": "Shaheed malik gul rahman High school",
    "د_مرکز_ځای__موقعیت_مرکز": "مموزی",
    "Polling_Center_Location": "Mamozai",
    "Map_Accuracy": "Building",
    "Map_Accuracy_Dari": "تعمیر",
    "Status": "Open",
    "Status_Dari": null,
    "PS_Male": 2,
    "PS_Female": 1,
    "PS_Total": 3,
    "ولسوالي": "بگرامی",
    "Region": "Central Region"
   },
   "geometry": {
    "x": 7709749.3571962062,
    "y": 4090066.4448684617
   }
  },
  {
   "attributes": {
    "OBJECTID": 845,
    "ولایت": "کابل",
    "Province": "KABUL",
    "PC_Code": "0101271",
    "District": "KABUL-D13",
    "د_مرکز_نوم__نام_مرکز": "مسجد امام خميني",
    "Polling_Center_Name": "Imam Khumaini Mosque",
    "د_مرکز_ځای__موقعیت_مرکز": "نقاش",
    "Polling_Center_Location": "Naqash",
    "Map_Accuracy": "Building",
    "Map_Accuracy_Dari": "تعمیر",
    "Status": "Open",
    "Status_Dari": null,
    "PS_Male": 4,
    "PS_Female": 2,
    "PS_Total": 6,
    "ولسوالي": "کابل - ناحیه 13",
    "Region": "Central Region"
   },
   "geometry": {
    "x": 7690028.3476428976,
    "y": 4096652.340124419
   }
  },
  {
   "attributes": {
    "OBJECTID": 846,
    "ولایت": "کابل",
    "Province": "KABUL",
    "PC_Code": "0101133",
    "District": "KABUL-D07",
    "د_مرکز_نوم__نام_مرکز": " مسجد ايوب خان",
    "Polling_Center_Name": "Ayub Khan Mosque",
    "د_مرکز_ځای__موقعیت_مرکز": "ايوب خان مينه",
    "Polling_Center_Location": "Ayub Khan Mina",
    "Map_Accuracy": "Building",
    "Map_Accuracy_Dari": "تعمیر",
    "Status": "Open",
    "Status_Dari": null,
    "PS_Male": 2,
    "PS_Female": 1,
    "PS_Total": 3,
    "ولسوالي": "کابل - ناحیه 07",
    "Region": "Central Region"
   },
   "geometry": {
    "x": 7697364.6360446522,
    "y": 4095874.7002411555
   }
  },
  {
   "attributes": {
    "OBJECTID": 847,
    "ولایت": "کابل",
    "Province": "KABUL",
    "PC_Code": "0101138",
    "District": "KABUL-D07",
    "د_مرکز_نوم__نام_مرکز": " ليسه نسوان گذرگاه",
    "Polling_Center_Name": "Guzargah Girls High School",
    "د_مرکز_ځای__موقعیت_مرکز": "گذر گاه",
    "Polling_Center_Location": "Guzargah",
    "Map_Accuracy": "Village",
    "Map_Accuracy_Dari": "قریه",
    "Status": "Open",
    "Status_Dari": null,
    "PS_Male": 3,
    "PS_Female": 4,
    "PS_Total": 7,
    "ولسوالي": "کابل - ناحیه 07",
    "Region": "Central Region"
   },
   "geometry": {
    "x": 7698076.7468272559,
    "y": 4096827.9480175595
   }
  },
  {
   "attributes": {
    "OBJECTID": 848,
    "ولایت": "کابل",
    "Province": "KABUL",
    "PC_Code": "0101166",
    "District": "KABUL-D08",
    "د_مرکز_نوم__نام_مرکز": " مسجد اتفاق",
    "Polling_Center_Name": "Itifaq Mosque",
    "د_مرکز_ځای__موقعیت_مرکز": "مسجد اتفاق",
    "Polling_Center_Location": "Itifaq Mosque ",
    "Map_Accuracy": "Building",
    "Map_Accuracy_Dari": "تعمیر",
    "Status": "Open",
    "Status_Dari": null,
    "PS_Male": 3,
    "PS_Female": 1,
    "PS_Total": 4,
    "ولسوالي": "کابل - ناحیه 08",
    "Region": "Central Region"
   },
   "geometry": {
    "x": 7704299.5063625947,
    "y": 4096976.5414510542
   }
  },
  {
   "attributes": {
    "OBJECTID": 849,
    "ولایت": "کابل",
    "Province": "KABUL",
    "PC_Code": "0101169",
    "District": "KABUL-D08",
    "د_مرکز_نوم__نام_مرکز": " لیسه عبدالرحیم غفورزی",
    "Polling_Center_Name": "Rahman Mina Kindergarten",
    "د_مرکز_ځای__موقعیت_مرکز": "متصل نقلیه سیاه سنگ ",
    "Polling_Center_Location": "Motasel Naqlia Sia Sang",
    "Map_Accuracy": "Building",
    "Map_Accuracy_Dari": "تعمیر",
    "Status": "Open",
    "Status_Dari": null,
    "PS_Male": 3,
    "PS_Female": 3,
    "PS_Total": 6,
    "ولسوالي": "کابل - ناحیه 08",
    "Region": "Central Region"
   },
   "geometry": {
    "x": 7704612.3141317246,
    "y": 4097423.6844306593
   }
  },
  {
   "attributes": {
    "OBJECTID": 850,
    "ولایت": "ننگرهار",
    "Province": "NANGARHAR",
    "PC_Code": "0605165",
    "District": "KAMA",
    "د_مرکز_نوم__نام_مرکز": "توتکی جومات",
    "Polling_Center_Name": "Totakay Mosque",
    "د_مرکز_ځای__موقعیت_مرکز": "توتکی",
    "Polling_Center_Location": "Totakay",
    "Map_Accuracy": "Village",
    "Map_Accuracy_Dari": "قریه",
    "Status": "Open",
    "Status_Dari": null,
    "PS_Male": 1,
    "PS_Female": 1,
    "PS_Total": 2,
    "ولسوالي": "کامه",
    "Region": "Eastern Region"
   },
   "geometry": {
    "x": 7872267.9119629674,
    "y": 4096630.8688703184
   }
  },
  {
   "attributes": {
    "OBJECTID": 851,
    "ولایت": "ننگرهار",
    "Province": "NANGARHAR",
    "PC_Code": "0605166",
    "District": "KAMA",
    "د_مرکز_نوم__نام_مرکز": "وټه پور چارديوالي",
    "Polling_Center_Name": "WataPoor Chardewali",
    "د_مرکز_ځای__موقعیت_مرکز": "وټه پور",
    "Polling_Center_Location": "WataPoor",
    "Map_Accuracy": "Village",
    "Map_Accuracy_Dari": "قریه",
    "Status": "Open",
    "Status_Dari": null,
    "PS_Male": 3,
    "PS_Female": 0,
    "PS_Total": 3,
    "ولسوالي": "کامه",
    "Region": "Eastern Region"
   },
   "geometry": {
    "x": 7860292.4361025672,
    "y": 4083495.5373575408
   }
  },
  {
   "attributes": {
    "OBJECTID": 852,
    "ولایت": "ننگرهار",
    "Province": "NANGARHAR",
    "PC_Code": "0605174",
    "District": "KAMA",
    "د_مرکز_نوم__نام_مرکز": "درمان ښوونځی ",
    "Polling_Center_Name": "Darman School",
    "د_مرکز_ځای__موقعیت_مرکز": "زرشوي",
    "Polling_Center_Location": "Zershwee",
    "Map_Accuracy": "Village",
    "Map_Accuracy_Dari": "قریه",
    "Status": "Open",
    "Status_Dari": null,
    "PS_Male": 1,
    "PS_Female": 1,
    "PS_Total": 2,
    "ولسوالي": "کامه",
    "Region": "Eastern Region"
   },
   "geometry": {
    "x": 7858034.3157790489,
    "y": 4086293.6371471952
   }
  },
  {
   "attributes": {
    "OBJECTID": 853,
    "ولایت": "ننگرهار",
    "Province": "NANGARHAR",
    "PC_Code": "0605175",
    "District": "KAMA",
    "د_مرکز_نوم__نام_مرکز": "نادر خان مومند ښوونځی",
    "Polling_Center_Name": "Nadar Khan Momand School",
    "د_مرکز_ځای__موقعیت_مرکز": "ګرداو",
    "Polling_Center_Location": "Gerdaw",
    "Map_Accuracy": "Building",
    "Map_Accuracy_Dari": "تعمیر",
    "Status": "Open",
    "Status_Dari": null,
    "PS_Male": 4,
    "PS_Female": 0,
    "PS_Total": 4,
    "ولسوالي": "کامه",
    "Region": "Eastern Region"
   },
   "geometry": {
    "x": 7871125.4055199167,
    "y": 4082171.9810886802
   }
  },
  {
   "attributes": {
    "OBJECTID": 854,
    "ولایت": "ننگرهار",
    "Province": "NANGARHAR",
    "PC_Code": "0605177",
    "District": "KAMA",
    "د_مرکز_نوم__نام_مرکز": "چارديوالي",
    "Polling_Center_Name": "Chaardewali ",
    "د_مرکز_ځای__موقعیت_مرکز": "کنډۍ کلی",
    "Polling_Center_Location": "Kandi  Village ",
    "Map_Accuracy": "Village",
    "Map_Accuracy_Dari": "قریه",
    "Status": "Open",
    "Status_Dari": null,
    "PS_Male": 2,
    "PS_Female": 0,
    "PS_Total": 2,
    "ولسوالي": "کامه",
    "Region": "Eastern Region"
   },
   "geometry": {
    "x": 7859777.5166659551,
    "y": 4082801.5548717682
   }
  },
  {
   "attributes": {
    "OBJECTID": 855,
    "ولایت": "ننگرهار",
    "Province": "NANGARHAR",
    "PC_Code": "0605178",
    "District": "KAMA",
    "د_مرکز_نوم__نام_مرکز": "شهيد خدايدوست مکتب",
    "Polling_Center_Name": "Shaheed Khudai Dost School",
    "د_مرکز_ځای__موقعیت_مرکز": "کنډۍ",
    "Polling_Center_Location": "Kandi  Village ",
    "Map_Accuracy": "Village",
    "Map_Accuracy_Dari": "قریه",
    "Status": "Open",
    "Status_Dari": null,
    "PS_Male": 0,
    "PS_Female": 2,
    "PS_Total": 2,
    "ولسوالي": "کامه",
    "Region": "Eastern Region"
   },
   "geometry": {
    "x": 7859409.186074404,
    "y": 4083738.3121149247
   }
  },
  {
   "attributes": {
    "OBJECTID": 856,
    "ولایت": "ننگرهار",
    "Province": "NANGARHAR",
    "PC_Code": "0606187",
    "District": "KUZ KUNAR",
    "د_مرکز_نوم__نام_مرکز": "جينکو مکتب",
    "Polling_Center_Name": "Girls School",
    "د_مرکز_ځای__موقعیت_مرکز": "بوډيالۍ کلي",
    "Polling_Center_Location": "Bodyalai Kalay",
    "Map_Accuracy": "Building",
    "Map_Accuracy_Dari": "تعمیر",
    "Status": "Open",
    "Status_Dari": null,
    "PS_Male": 0,
    "PS_Female": 2,
    "PS_Total": 2,
    "ولسوالي": "کوز کنړ",
    "Region": "Eastern Region"
   },
   "geometry": {
    "x": 7861186.0265982337,
    "y": 4110633.6439140779
   }
  },
  {
   "attributes": {
    "OBJECTID": 857,
    "ولایت": "ننگرهار",
    "Province": "NANGARHAR",
    "PC_Code": "0606201",
    "District": "KUZ KUNAR",
    "د_مرکز_نوم__نام_مرکز": "برکاشکوټ مکتب",
    "Polling_Center_Name": "Bar Kashkot School",
    "د_مرکز_ځای__موقعیت_مرکز": "بارکاشکوټ کلی",
    "Polling_Center_Location": "Bar Kashkot Village",
    "Map_Accuracy": "Building",
    "Map_Accuracy_Dari": "تعمیر",
    "Status": "Open",
    "Status_Dari": null,
    "PS_Male": 2,
    "PS_Female": 1,
    "PS_Total": 3,
    "ولسوالي": "کوز کنړ",
    "Region": "Eastern Region"
   },
   "geometry": {
    "x": 7871924.686142982,
    "y": 4107151.8896657182
   }
  },
  {
   "attributes": {
    "OBJECTID": 858,
    "ولایت": "ننگرهار",
    "Province": "NANGARHAR",
    "PC_Code": "0606202",
    "District": "KUZ KUNAR",
    "د_مرکز_نوم__نام_مرکز": "سرکنډ جومات",
    "Polling_Center_Name": "Sarkand Mosque",
    "د_مرکز_ځای__موقعیت_مرکز": "سرکنډ",
    "Polling_Center_Location": "Sarkand",
    "Map_Accuracy": "Village",
    "Map_Accuracy_Dari": "قریه",
    "Status": "Open",
    "Status_Dari": null,
    "PS_Male": 0,
    "PS_Female": 2,
    "PS_Total": 2,
    "ولسوالي": "کوز کنړ",
    "Region": "Eastern Region"
   },
   "geometry": {
    "x": 7873645.7255456587,
    "y": 4109008.2823963785
   }
  },
  {
   "attributes": {
    "OBJECTID": 859,
    "ولایت": "ننگرهار",
    "Province": "NANGARHAR",
    "PC_Code": "0606210",
    "District": "KUZ KUNAR",
    "د_مرکز_نوم__نام_مرکز": "هلکانو مکتب",
    "Polling_Center_Name": "Boys' School",
    "د_مرکز_ځای__موقعیت_مرکز": "قله ټک",
    "Polling_Center_Location": "Qala Tak",
    "Map_Accuracy": "Building",
    "Map_Accuracy_Dari": "تعمیر",
    "Status": "Open",
    "Status_Dari": null,
    "PS_Male": 0,
    "PS_Female": 2,
    "PS_Total": 2,
    "ولسوالي": "کوز کنړ",
    "Region": "Eastern Region"
   },
   "geometry": {
    "x": 7855372.4585867329,
    "y": 4106881.0860018362
   }
  },
  {
   "attributes": {
    "OBJECTID": 860,
    "ولایت": "ننگرهار",
    "Province": "NANGARHAR",
    "PC_Code": "0606211",
    "District": "KUZ KUNAR",
    "د_مرکز_نوم__نام_مرکز": "بازارک کلینيک",
    "Polling_Center_Name": "Bazarak Clinic",
    "د_مرکز_ځای__موقعیت_مرکز": "بازارک",
    "Polling_Center_Location": "Bazarak",
    "Map_Accuracy": "Building",
    "Map_Accuracy_Dari": "تعمیر",
    "Status": "Open",
    "Status_Dari": null,
    "PS_Male": 0,
    "PS_Female": 2,
    "PS_Total": 2,
    "ولسوالي": "کوز کنړ",
    "Region": "Eastern Region"
   },
   "geometry": {
    "x": 7855744.2155922139,
    "y": 4103715.2565008183
   }
  },
  {
   "attributes": {
    "OBJECTID": 861,
    "ولایت": "ننگرهار",
    "Province": "NANGARHAR",
    "PC_Code": "0607129",
    "District": "RODAT",
    "د_مرکز_نوم__نام_مرکز": "باغچه جومات",
    "Polling_Center_Name": "Baaghcha Mosque",
    "د_مرکز_ځای__موقعیت_مرکز": "کنکرک",
    "Polling_Center_Location": "Kankarak",
    "Map_Accuracy": "Village",
    "Map_Accuracy_Dari": "قریه",
    "Status": "Open",
    "Status_Dari": null,
    "PS_Male": 0,
    "PS_Female": 4,
    "PS_Total": 4,
    "ولسوالي": "رودات",
    "Region": "Eastern Region"
   },
   "geometry": {
    "x": 7856912.1192431338,
    "y": 4062588.3733585109
   }
  },
  {
   "attributes": {
    "OBJECTID": 862,
    "ولایت": "ننگرهار",
    "Province": "NANGARHAR",
    "PC_Code": "0607130",
    "District": "RODAT",
    "د_مرکز_نوم__نام_مرکز": "قلعه میرجی جومات",
    "Polling_Center_Name": "Meerjay Qala Mosque",
    "د_مرکز_ځای__موقعیت_مرکز": "قلعه ميرجی",
    "Polling_Center_Location": "Meerjay Village",
    "Map_Accuracy": "Building",
    "Map_Accuracy_Dari": "تعمیر",
    "Status": "Open",
    "Status_Dari": null,
    "PS_Male": 2,
    "PS_Female": 0,
    "PS_Total": 2,
    "ولسوالي": "رودات",
    "Region": "Eastern Region"
   },
   "geometry": {
    "x": 7849625.16574727,
    "y": 4058784.6415467067
   }
  },
  {
   "attributes": {
    "OBJECTID": 863,
    "ولایت": "ننگرهار",
    "Province": "NANGARHAR",
    "PC_Code": "0607134",
    "District": "RODAT",
    "د_مرکز_نوم__نام_مرکز": "زاخيل ابتدائيه مکتب",
    "Polling_Center_Name": "Zakhel Primary School",
    "د_مرکز_ځای__موقعیت_مرکز": "زاخيل",
    "Polling_Center_Location": "Zakhel",
    "Map_Accuracy": "Village",
    "Map_Accuracy_Dari": "قریه",
    "Status": "Open",
    "Status_Dari": null,
    "PS_Male": 2,
    "PS_Female": 1,
    "PS_Total": 3,
    "ولسوالي": "رودات",
    "Region": "Eastern Region"
   },
   "geometry": {
    "x": 7845183.3644437212,
    "y": 4063130.2717787847
   }
  },
  {
   "attributes": {
    "OBJECTID": 864,
    "ولایت": "ننگرهار",
    "Province": "NANGARHAR",
    "PC_Code": "0607135",
    "District": "RODAT",
    "د_مرکز_نوم__نام_مرکز": "حصارک مزینی لیسه ",
    "Polling_Center_Name": "Hisarak High School",
    "د_مرکز_ځای__موقعیت_مرکز": "حصارک کلي",
    "Polling_Center_Location": "Hisarak Village",
    "Map_Accuracy": "Village",
    "Map_Accuracy_Dari": "قریه",
    "Status": "Open",
    "Status_Dari": null,
    "PS_Male": 2,
    "PS_Female": 1,
    "PS_Total": 3,
    "ولسوالي": "رودات",
    "Region": "Eastern Region"
   },
   "geometry": {
    "x": 7848185.0132497335,
    "y": 4057537.8260757024
   }
  },
  {
   "attributes": {
    "OBJECTID": 865,
    "ولایت": "ننگرهار",
    "Province": "NANGARHAR",
    "PC_Code": "0607137",
    "District": "RODAT",
    "د_مرکز_نوم__نام_مرکز": "کان کلینیک",
    "Polling_Center_Name": "Kaan Clinic",
    "د_مرکز_ځای__موقعیت_مرکز": "خان کلي",
    "Polling_Center_Location": "Khan Village",
    "Map_Accuracy": "Village",
    "Map_Accuracy_Dari": "قریه",
    "Status": "Open",
    "Status_Dari": null,
    "PS_Male": 0,
    "PS_Female": 2,
    "PS_Total": 2,
    "ولسوالي": "رودات",
    "Region": "Eastern Region"
   },
   "geometry": {
    "x": 7846933.3725174898,
    "y": 4064478.1461399295
   }
  },
  {
   "attributes": {
    "OBJECTID": 866,
    "ولایت": "ننگرهار",
    "Province": "NANGARHAR",
    "PC_Code": "0607138",
    "District": "RODAT",
    "د_مرکز_نوم__نام_مرکز": "د روغانو جينکواو هلکانو مکتب",
    "Polling_Center_Name": "Roghano Girls' & Boys' School",
    "د_مرکز_ځای__موقعیت_مرکز": "روغانو",
    "Polling_Center_Location": "Roghano",
    "Map_Accuracy": "Building",
    "Map_Accuracy_Dari": "تعمیر",
    "Status": "Open",
    "Status_Dari": null,
    "PS_Male": 2,
    "PS_Female": 1,
    "PS_Total": 3,
    "ولسوالي": "رودات",
    "Region": "Eastern Region"
   },
   "geometry": {
    "x": 7851516.0775797088,
    "y": 4061875.4558461793
   }
  },
  {
   "attributes": {
    "OBJECTID": 867,
    "ولایت": "ننگرهار",
    "Province": "NANGARHAR",
    "PC_Code": "0607141",
    "District": "RODAT",
    "د_مرکز_نوم__نام_مرکز": "بړو ليسه",
    "Polling_Center_Name": "Baroo High School",
    "د_مرکز_ځای__موقعیت_مرکز": "بړو",
    "Polling_Center_Location": "Baroo",
    "Map_Accuracy": "Building",
    "Map_Accuracy_Dari": "تعمیر",
    "Status": "Open",
    "Status_Dari": null,
    "PS_Male": 3,
    "PS_Female": 0,
    "PS_Total": 3,
    "ولسوالي": "رودات",
    "Region": "Eastern Region"
   },
   "geometry": {
    "x": 7862815.7250191355,
    "y": 4063538.1436116998
   }
  },
  {
   "attributes": {
    "OBJECTID": 868,
    "ولایت": "ننگرهار",
    "Province": "NANGARHAR",
    "PC_Code": "0607142",
    "District": "RODAT",
    "د_مرکز_نوم__نام_مرکز": "دجينکو مکتب",
    "Polling_Center_Name": "Girls School",
    "د_مرکز_ځای__موقعیت_مرکز": "بړو",
    "Polling_Center_Location": "Baroo",
    "Map_Accuracy": "Building",
    "Map_Accuracy_Dari": "تعمیر",
    "Status": "Open",
    "Status_Dari": null,
    "PS_Male": 0,
    "PS_Female": 2,
    "PS_Total": 2,
    "ولسوالي": "رودات",
    "Region": "Eastern Region"
   },
   "geometry": {
    "x": 7862826.7974122884,
    "y": 4063461.5498196012
   }
  },
  {
   "attributes": {
    "OBJECTID": 869,
    "ولایت": "ننگرهار",
    "Province": "NANGARHAR",
    "PC_Code": "0607146",
    "District": "RODAT",
    "د_مرکز_نوم__نام_مرکز": "چنار کډی جومات",
    "Polling_Center_Name": "Chenar Kadi Mosque",
    "د_مرکز_ځای__موقعیت_مرکز": "ګدي",
    "Polling_Center_Location": "Kadee",
    "Map_Accuracy": "Village",
    "Map_Accuracy_Dari": "قریه",
    "Status": "Open",
    "Status_Dari": null,
    "PS_Male": 0,
    "PS_Female": 2,
    "PS_Total": 2,
    "ولسوالي": "رودات",
    "Region": "Eastern Region"
   },
   "geometry": {
    "x": 7849180.6536621982,
    "y": 4060890.6929620197
   }
  },
  {
   "attributes": {
    "OBJECTID": 870,
    "ولایت": "ننگرهار",
    "Province": "NANGARHAR",
    "PC_Code": "0607148",
    "District": "RODAT",
    "د_مرکز_نوم__نام_مرکز": "احداد ابتدائيه مکتب",
    "Polling_Center_Name": "Ahdad Primary School",
    "د_مرکز_ځای__موقعیت_مرکز": "حصارشاهي",
    "Polling_Center_Location": "HesarShahee",
    "Map_Accuracy": "Building",
    "Map_Accuracy_Dari": "تعمیر",
    "Status": "Open",
    "Status_Dari": null,
    "PS_Male": 3,
    "PS_Female": 2,
    "PS_Total": 5,
    "ولسوالي": "رودات ",
    "Region": "Eastern Region"
   },
   "geometry": {
    "x": 7855615.9844443761,
    "y": 4063293.1744341026
   }
  },
  {
   "attributes": {
    "OBJECTID": 871,
    "ولایت": "ننگرهار",
    "Province": "NANGARHAR",
    "PC_Code": "0609438",
    "District": "BATI KOT",
    "د_مرکز_نوم__نام_مرکز": "باريکاب مکتب",
    "Polling_Center_Name": "Barikaab School",
    "د_مرکز_ځای__موقعیت_مرکز": "باريکاب",
    "Polling_Center_Location": "Barikaab",
    "Map_Accuracy": "District",
    "Map_Accuracy_Dari": "ولسوالی",
    "Status": "Open",
    "Status_Dari": null,
    "PS_Male": 4,
    "PS_Female": 2,
    "PS_Total": 6,
    "ولسوالي": "بټي کوټ",
    "Region": "Eastern Region"
   },
   "geometry": {
    "x": 7871446.3234705478,
    "y": 4071341.3991060448
   }
  },
  {
   "attributes": {
    "OBJECTID": 872,
    "ولایت": "ننگرهار",
    "Province": "NANGARHAR",
    "PC_Code": "0609439",
    "District": "BATI KOT",
    "د_مرکز_نوم__نام_مرکز": "مشواڼې کلينیک",
    "Polling_Center_Name": "Mashwanai Clinic",
    "د_مرکز_ځای__موقعیت_مرکز": "ميشواڼي",
    "Polling_Center_Location": "Mashwanai",
    "Map_Accuracy": "Village",
    "Map_Accuracy_Dari": "قریه",
    "Status": "Open",
    "Status_Dari": null,
    "PS_Male": 2,
    "PS_Female": 1,
    "PS_Total": 3,
    "ولسوالي": "بټي کوټ",
    "Region": "Eastern Region"
   },
   "geometry": {
    "x": 7874716.8261013469,
    "y": 4073989.4745417107
   }
  },
  {
   "attributes": {
    "OBJECTID": 873,
    "ولایت": "ننگرهار",
    "Province": "NANGARHAR",
    "PC_Code": "0609445",
    "District": "BATI KOT",
    "د_مرکز_نوم__نام_مرکز": "انبار خانه کلینيک",
    "Polling_Center_Name": "Anbar Khana Clinic",
    "د_مرکز_ځای__موقعیت_مرکز": "انبار خانه",
    "Polling_Center_Location": "Anbar Khana",
    "Map_Accuracy": "Village",
    "Map_Accuracy_Dari": "قریه",
    "Status": "Open",
    "Status_Dari": null,
    "PS_Male": 2,
    "PS_Female": 1,
    "PS_Total": 3,
    "ولسوالي": "بټي کوټ",
    "Region": "Eastern Region"
   },
   "geometry": {
    "x": 7883884.3724468043,
    "y": 4067165.7372522797
   }
  },
  {
   "attributes": {
    "OBJECTID": 874,
    "ولایت": "بغلان",
    "Province": "BAGHLAN",
    "PC_Code": "0915220",
    "District": "FIRING WA GHARU",
    "د_مرکز_نوم__نام_مرکز": "لیسه مرکزی سوق",
    "Polling_Center_Name": "Sawq Centeral High School",
    "د_مرکز_ځای__موقعیت_مرکز": "سوق",
    "Polling_Center_Location": "Sawq",
    "Map_Accuracy": "Building",
    "Map_Accuracy_Dari": "تعمیر",
    "Status": "Open",
    "Status_Dari": null,
    "PS_Male": 1,
    "PS_Female": 1,
    "PS_Total": 2,
    "ولسوالي": "فرنگ و غارو",
    "Region": "North Eastern Region"
   },
   "geometry": {
    "x": 7752536.392415883,
    "y": 4316649.7609409681
   }
  },
  {
   "attributes": {
    "OBJECTID": 875,
    "ولایت": "بغلان",
    "Province": "BAGHLAN",
    "PC_Code": "0908276",
    "District": "DEH SALAH",
    "د_مرکز_نوم__نام_مرکز": "لیسه شهشان ",
    "Polling_Center_Name": "Shahshan High school",
    "د_مرکز_ځای__موقعیت_مرکز": "ده نو",
    "Polling_Center_Location": "Deh now",
    "Map_Accuracy": "Building",
    "Map_Accuracy_Dari": "تعمیر",
    "Status": "Open",
    "Status_Dari": null,
    "PS_Male": 2,
    "PS_Female": 1,
    "PS_Total": 3,
    "ولسوالي": "ده صلاح",
    "Region": "North Eastern Region"
   },
   "geometry": {
    "x": 7717901.9260430951,
    "y": 4270428.6891855011
   }
  },
  {
   "attributes": {
    "OBJECTID": 876,
    "ولایت": "بغلان",
    "Province": "BAGHLAN",
    "PC_Code": "0909277",
    "District": "JALGA",
    "د_مرکز_نوم__نام_مرکز": "مسجد ماسان",
    "Polling_Center_Name": "Masan Mosque",
    "د_مرکز_ځای__موقعیت_مرکز": "ماسان",
    "Polling_Center_Location": "Masan",
    "Map_Accuracy": "Building",
    "Map_Accuracy_Dari": "تعمیر",
    "Status": "Open",
    "Status_Dari": null,
    "PS_Male": 2,
    "PS_Female": 1,
    "PS_Total": 3,
    "ولسوالي": "بورکه ",
    "Region": "North Eastern Region"
   },
   "geometry": {
    "x": 7709334.4418467823,
    "y": 4277199.1720865313
   }
  },
  {
   "attributes": {
    "OBJECTID": 877,
    "ولایت": "بغلان",
    "Province": "BAGHLAN",
    "PC_Code": "0909278",
    "District": "JALGA",
    "د_مرکز_نوم__نام_مرکز": "مسجد یرم علیا",
    "Polling_Center_Name": "Yarm ulia Mosque",
    "د_مرکز_ځای__موقعیت_مرکز": "یرم علیا",
    "Polling_Center_Location": "Yarm hulya",
    "Map_Accuracy": "Building",
    "Map_Accuracy_Dari": "تعمیر",
    "Status": "Open",
    "Status_Dari": null,
    "PS_Male": 2,
    "PS_Female": 1,
    "PS_Total": 3,
    "ولسوالي": "بورکه ",
    "Region": "North Eastern Region"
   },
   "geometry": {
    "x": 7712430.7787890257,
    "y": 4291909.1984750647
   }
  },
  {
   "attributes": {
    "OBJECTID": 878,
    "ولایت": "بغلان",
    "Province": "BAGHLAN",
    "PC_Code": "0914280",
    "District": "FIRING WA GHARU",
    "د_مرکز_نوم__نام_مرکز": "مکتب نسوان محمد حنیف",
    "Polling_Center_Name": "Muhammad hanif Femal school",
    "د_مرکز_ځای__موقعیت_مرکز": "جریان غارو",
    "Polling_Center_Location": "Jryan gharo",
    "Map_Accuracy": "Village",
    "Map_Accuracy_Dari": "قریه",
    "Status": "Open",
    "Status_Dari": null,
    "PS_Male": 2,
    "PS_Female": 1,
    "PS_Total": 3,
    "ولسوالي": "گذرگاه نور",
    "Region": "North Eastern Region"
   },
   "geometry": {
    "x": 7750216.6673295619,
    "y": 4331371.8167981245
   }
  },
  {
   "attributes": {
    "OBJECTID": 879,
    "ولایت": "بغلان",
    "Province": "BAGHLAN",
    "PC_Code": "0915281",
    "District": "FIRING WA GHARU",
    "د_مرکز_نوم__نام_مرکز": "مسجد",
    "Polling_Center_Name": "Mosque",
    "د_مرکز_ځای__موقعیت_مرکز": "سوق",
    "Polling_Center_Location": "Saoq",
    "Map_Accuracy": "Village",
    "Map_Accuracy_Dari": "قریه",
    "Status": "Open",
    "Status_Dari": null,
    "PS_Male": 2,
    "PS_Female": 1,
    "PS_Total": 3,
    "ولسوالي": "فرنگ وغارو",
    "Region": "North Eastern Region"
   },
   "geometry": {
    "x": 7753535.450893309,
    "y": 4317333.0649257265
   }
  },
  {
   "attributes": {
    "OBJECTID": 880,
    "ولایت": "باميان",
    "Province": "BAMYAN",
    "PC_Code": "1001167",
    "District": "BAMYAN",
    "د_مرکز_نوم__نام_مرکز": "مکتب",
    "Polling_Center_Name": "School",
    "د_مرکز_ځای__موقعیت_مرکز": "تی بوتی",
    "Polling_Center_Location": "Tiboti",
    "Map_Accuracy": "Building",
    "Map_Accuracy_Dari": "تعمیر",
    "Status": "Open",
    "Status_Dari": null,
    "PS_Male": 2,
    "PS_Female": 1,
    "PS_Total": 3,
    "ولسوالي": "بامیان",
    "Region": "Central Highlands Region"
   },
   "geometry": {
    "x": 7548621.4719661633,
    "y": 4140132.9079494383
   }
  },
  {
   "attributes": {
    "OBJECTID": 881,
    "ولایت": "بغلان",
    "Province": "BAGHLAN",
    "PC_Code": "0905273",
    "District": "BAGLAN-E-JADEED",
    "د_مرکز_نوم__نام_مرکز": "مدرسه چیابی",
    "Polling_Center_Name": "Chiabi Mdrasa",
    "د_مرکز_ځای__موقعیت_مرکز": "چیابی ها",
    "Polling_Center_Location": "Chihbi ha",
    "Map_Accuracy": "Building",
    "Map_Accuracy_Dari": "تعمیر",
    "Status": "Open",
    "Status_Dari": null,
    "PS_Male": 2,
    "PS_Female": 1,
    "PS_Total": 3,
    "ولسوالي": "بغلان جدید",
    "Region": "North Eastern Region"
   },
   "geometry": {
    "x": 7654737.4902341105,
    "y": 4327785.1559967352
   }
  },
  {
   "attributes": {
    "OBJECTID": 882,
    "ولایت": "بغلان",
    "Province": "BAGHLAN",
    "PC_Code": "0905274",
    "District": "BAGLAN-E-JADEED",
    "د_مرکز_نوم__نام_مرکز": " مسجدحاجی نبی",
    "Polling_Center_Name": "Haji nabei Mosque",
    "د_مرکز_ځای__موقعیت_مرکز": "حاجی نبی",
    "Polling_Center_Location": "Haji nabi",
    "Map_Accuracy": "Building",
    "Map_Accuracy_Dari": "تعمیر",
    "Status": "Open",
    "Status_Dari": null,
    "PS_Male": 2,
    "PS_Female": 1,
    "PS_Total": 3,
    "ولسوالي": "بغلان جدید",
    "Region": "North Eastern Region"
   },
   "geometry": {
    "x": 7656570.4007156556,
    "y": 4331379.6936836774
   }
  },
  {
   "attributes": {
    "OBJECTID": 883,
    "ولایت": "بغلان",
    "Province": "BAGHLAN",
    "PC_Code": "0901003",
    "District": "PUL-E-KHUMRI",
    "د_مرکز_نوم__نام_مرکز": "ریاست تصدی 5 ",
    "Polling_Center_Name": "Tasady # 5 Department",
    "د_مرکز_ځای__موقعیت_مرکز": " ریاست میکانیزه زراعتی",
    "Polling_Center_Location": "Second Nahia",
    "Map_Accuracy": "Building",
    "Map_Accuracy_Dari": "تعمیر",
    "Status": "Open",
    "Status_Dari": null,
    "PS_Male": 3,
    "PS_Female": 2,
    "PS_Total": 5,
    "ولسوالي": "پلخمری",
    "Region": "North Eastern Region"
   },
   "geometry": {
    "x": 7651393.2853061678,
    "y": 4289833.1043847622
   }
  },
  {
   "attributes": {
    "OBJECTID": 884,
    "ولایت": "بغلان",
    "Province": "BAGHLAN",
    "PC_Code": "0901004",
    "District": "PUL-E-KHUMRI",
    "د_مرکز_نوم__نام_مرکز": "لیسه فاطمه الزهرا",
    "Polling_Center_Name": "Fatema Alzahra High School",
    "د_مرکز_ځای__موقعیت_مرکز": "ناحیه دوم",
    "Polling_Center_Location": "SecondaNahia",
    "Map_Accuracy": "Building",
    "Map_Accuracy_Dari": "تعمیر",
    "Status": "Open",
    "Status_Dari": null,
    "PS_Male": 3,
    "PS_Female": 2,
    "PS_Total": 5,
    "ولسوالي": "پلخمری",
    "Region": "North Eastern Region"
   },
   "geometry": {
    "x": 7649566.1228065202,
    "y": 4291706.5175917046
   }
  },
  {
   "attributes": {
    "OBJECTID": 885,
    "ولایت": "بغلان",
    "Province": "BAGHLAN",
    "PC_Code": "0901013",
    "District": "PUL-E-KHUMRI",
    "د_مرکز_نوم__نام_مرکز": "مسجد حاجی باز گل",
    "Polling_Center_Name": "Haji Baz Gul Mosque",
    "د_مرکز_ځای__موقعیت_مرکز": "تپه قرغان",
    "Polling_Center_Location": "Qarghan Village",
    "Map_Accuracy": "Building",
    "Map_Accuracy_Dari": "تعمیر",
    "Status": "Open",
    "Status_Dari": null,
    "PS_Male": 2,
    "PS_Female": 1,
    "PS_Total": 3,
    "ولسوالي": "پلخمری",
    "Region": "North Eastern Region"
   },
   "geometry": {
    "x": 7639773.7379328497,
    "y": 4297966.5322734807
   }
  },
  {
   "attributes": {
    "OBJECTID": 886,
    "ولایت": "بغلان",
    "Province": "BAGHLAN",
    "PC_Code": "0902077",
    "District": "DAHANA-E-GHURI",
    "د_مرکز_نوم__نام_مرکز": "مکتب نسوان ملکه ثریا قریه بیخ",
    "Polling_Center_Name": "Malaka Soria Girls School",
    "د_مرکز_ځای__موقعیت_مرکز": "قریه بیخ",
    "Polling_Center_Location": "Bekh Village",
    "Map_Accuracy": "Building",
    "Map_Accuracy_Dari": "تعمیر",
    "Status": "Open",
    "Status_Dari": null,
    "PS_Male": 2,
    "PS_Female": 1,
    "PS_Total": 3,
    "ولسوالي": "دهنه غوری",
    "Region": "North Eastern Region"
   },
   "geometry": {
    "x": 7632813.0058707995,
    "y": 4283869.1374699129
   }
  },
  {
   "attributes": {
    "OBJECTID": 887,
    "ولایت": "بغلان",
    "Province": "BAGHLAN",
    "PC_Code": "0902082",
    "District": "DAHANA-E-GHURI",
    "د_مرکز_نوم__نام_مرکز": "مسجد تپه سنگک",
    "Polling_Center_Name": "Tapa-e-Sangak Mosque",
    "د_مرکز_ځای__موقعیت_مرکز": "تپه قل سنگک",
    "Polling_Center_Location": "Tapa-e-Qul Sangak",
    "Map_Accuracy": "Building",
    "Map_Accuracy_Dari": "تعمیر",
    "Status": "Open",
    "Status_Dari": null,
    "PS_Male": 1,
    "PS_Female": 1,
    "PS_Total": 2,
    "ولسوالي": "دهنه غوری",
    "Region": "North Eastern Region"
   },
   "geometry": {
    "x": 7626667.5521558393,
    "y": 4287931.7896839818
   }
  },
  {
   "attributes": {
    "OBJECTID": 888,
    "ولایت": "بغلان",
    "Province": "BAGHLAN",
    "PC_Code": "0902239",
    "District": "DAHANA-E-GHURI",
    "د_مرکز_نوم__نام_مرکز": "خواجه جاروب",
    "Polling_Center_Name": "Khwaja Jaroob",
    "د_مرکز_ځای__موقعیت_مرکز": "خواجه جاروب",
    "Polling_Center_Location": "Khwaja Jaroob",
    "Map_Accuracy": "Building",
    "Map_Accuracy_Dari": "تعمیر",
    "Status": "Open",
    "Status_Dari": null,
    "PS_Male": 2,
    "PS_Female": 1,
    "PS_Total": 3,
    "ولسوالي": "دهنه غوری",
    "Region": "North Eastern Region"
   },
   "geometry": {
    "x": 7613856.2261064509,
    "y": 4273101.2616239768
   }
  },
  {
   "attributes": {
    "OBJECTID": 889,
    "ولایت": "بغلان",
    "Province": "BAGHLAN",
    "PC_Code": "0903093",
    "District": "DUSHI",
    "د_مرکز_نوم__نام_مرکز": "لیسه رونق نادری",
    "Polling_Center_Name": "Rawnaq Naderi High School",
    "د_مرکز_ځای__موقعیت_مرکز": "رباط",
    "Polling_Center_Location": "Rubat",
    "Map_Accuracy": "Building",
    "Map_Accuracy_Dari": "تعمیر",
    "Status": "Open",
    "Status_Dari": null,
    "PS_Male": 3,
    "PS_Female": 1,
    "PS_Total": 4,
    "ولسوالي": "دوشی",
    "Region": "North Eastern Region"
   },
   "geometry": {
    "x": 7628711.0139920684,
    "y": 4244779.461293756
   }
  },
  {
   "attributes": {
    "OBJECTID": 890,
    "ولایت": "بغلان",
    "Province": "BAGHLAN",
    "PC_Code": "0904146",
    "District": "NAHREEN",
    "د_مرکز_نوم__نام_مرکز": "مسجد حاجی عمر لکن خیل",
    "Polling_Center_Name": "Haji Omar Lakan Khel Mosque",
    "د_مرکز_ځای__موقعیت_مرکز": "قریه لکن خیل",
    "Polling_Center_Location": "Lakan Khel Village",
    "Map_Accuracy": "Building",
    "Map_Accuracy_Dari": "تعمیر",
    "Status": "Open",
    "Status_Dari": null,
    "PS_Male": 1,
    "PS_Female": 2,
    "PS_Total": 3,
    "ولسوالي": "نهرین",
    "Region": "North Eastern Region"
   },
   "geometry": {
    "x": 7682645.7959739715,
    "y": 4313804.8128172178
   }
  },
  {
   "attributes": {
    "OBJECTID": 891,
    "ولایت": "بغلان",
    "Province": "BAGHLAN",
    "PC_Code": "0904243",
    "District": "NAHREEN",
    "د_مرکز_نوم__نام_مرکز": "مکتب جوی کلان حاجی فاضل ",
    "Polling_Center_Name": "Joy Kalan Haji Fazel School ",
    "د_مرکز_ځای__موقعیت_مرکز": "جوی کلان",
    "Polling_Center_Location": "Joy Kalan",
    "Map_Accuracy": "Building",
    "Map_Accuracy_Dari": "تعمیر",
    "Status": "Open",
    "Status_Dari": null,
    "PS_Male": 2,
    "PS_Female": 1,
    "PS_Total": 3,
    "ولسوالي": "نهرین",
    "Region": "North Eastern Region"
   },
   "geometry": {
    "x": 7692731.1603890732,
    "y": 4306122.8414120721
   }
  },
  {
   "attributes": {
    "OBJECTID": 892,
    "ولایت": "بغلان",
    "Province": "BAGHLAN",
    "PC_Code": "0905047",
    "District": "BAGLAN-E-JADEED",
    "د_مرکز_نوم__نام_مرکز": " سرک دوم فابریکه کلینیک بغلان صنعتی",
    "Polling_Center_Name": "Baghlan Sanhaty Clinic",
    "د_مرکز_ځای__موقعیت_مرکز": " کوتی های شرکت قند",
    "Polling_Center_Location": "Kotehai Sherkat Qand",
    "Map_Accuracy": "Building",
    "Map_Accuracy_Dari": "تعمیر",
    "Status": "Open",
    "Status_Dari": null,
    "PS_Male": 3,
    "PS_Female": 1,
    "PS_Total": 4,
    "ولسوالي": "بغلان جدید",
    "Region": "North Eastern Region"
   },
   "geometry": {
    "x": 7646042.5191720771,
    "y": 4317591.7581283068
   }
  },
  {
   "attributes": {
    "OBJECTID": 893,
    "ولایت": "بغلان",
    "Province": "BAGHLAN",
    "PC_Code": "0905048",
    "District": "BAGLAN-E-JADEED",
    "د_مرکز_نوم__نام_مرکز": "مکتب لیسه قیصرخیل",
    "Polling_Center_Name": "Qaisir Khel High School",
    "د_مرکز_ځای__موقعیت_مرکز": "قیصرخیل",
    "Polling_Center_Location": "Qaisar Khel",
    "Map_Accuracy": "Building",
    "Map_Accuracy_Dari": "تعمیر",
    "Status": "Open",
    "Status_Dari": null,
    "PS_Male": 2,
    "PS_Female": 1,
    "PS_Total": 3,
    "ولسوالي": "بغلان جدید",
    "Region": "North Eastern Region"
   },
   "geometry": {
    "x": 7646037.4652671972,
    "y": 4323437.1337879291
   }
  },
  {
   "attributes": {
    "OBJECTID": 894,
    "ولایت": "بغلان",
    "Province": "BAGHLAN",
    "PC_Code": "0905066",
    "District": "BAGLAN-E-JADEED",
    "د_مرکز_نوم__نام_مرکز": "مکتب قره برق آبقل",
    "Polling_Center_Name": "Qara Barq Aabqul School",
    "د_مرکز_ځای__موقعیت_مرکز": "قره برق آبقل",
    "Polling_Center_Location": "Qora Barq Aabqul",
    "Map_Accuracy": "Building",
    "Map_Accuracy_Dari": "تعمیر",
    "Status": "Open",
    "Status_Dari": null,
    "PS_Male": 1,
    "PS_Female": 1,
    "PS_Total": 2,
    "ولسوالي": "بغلان جدید",
    "Region": "North Eastern Region"
   },
   "geometry": {
    "x": 7650586.6141821053,
    "y": 4342401.8743200088
   }
  },
  {
   "attributes": {
    "OBJECTID": 895,
    "ولایت": "بغلان",
    "Province": "BAGHLAN",
    "PC_Code": "0905067",
    "District": "BAGLAN-E-JADEED",
    "د_مرکز_نوم__نام_مرکز": "مکتب ناز کمیر شهید",
    "Polling_Center_Name": "Naz Kamir Shaheed School",
    "د_مرکز_ځای__موقعیت_مرکز": "سرک هشتم",
    "Polling_Center_Location": "Eighth Street",
    "Map_Accuracy": "Building",
    "Map_Accuracy_Dari": "تعمیر",
    "Status": "Open",
    "Status_Dari": null,
    "PS_Male": 2,
    "PS_Female": 2,
    "PS_Total": 4,
    "ولسوالي": "بغلان جدید",
    "Region": "North Eastern Region"
   },
   "geometry": {
    "x": 7648452.3445844566,
    "y": 4320684.852952498
   }
  },
  {
   "attributes": {
    "OBJECTID": 896,
    "ولایت": "بغلان",
    "Province": "BAGHLAN",
    "PC_Code": "0905233",
    "District": "BAGLAN-E-JADEED",
    "د_مرکز_نوم__نام_مرکز": "مکتب ریس پاینده جان",
    "Polling_Center_Name": "Raes Payanda Jan School",
    "د_مرکز_ځای__موقعیت_مرکز": "قشلاق غوربندی",
    "Polling_Center_Location": "Ghurbandi",
    "Map_Accuracy": "Building",
    "Map_Accuracy_Dari": "تعمیر",
    "Status": "Open",
    "Status_Dari": null,
    "PS_Male": 2,
    "PS_Female": 1,
    "PS_Total": 3,
    "ولسوالي": "بغلان جدید",
    "Region": "North Eastern Region"
   },
   "geometry": {
    "x": 7643534.6795084001,
    "y": 4314934.4020333979
   }
  },
  {
   "attributes": {
    "OBJECTID": 897,
    "ولایت": "بغلان",
    "Province": "BAGHLAN",
    "PC_Code": "0907127",
    "District": "ANDARAB",
    "د_مرکز_نوم__نام_مرکز": "مسجد سپیچ ",
    "Polling_Center_Name": "Speech Mosque",
    "د_مرکز_ځای__موقعیت_مرکز": "قریه سپیچ",
    "Polling_Center_Location": "Speech Village",
    "Map_Accuracy": "Village",
    "Map_Accuracy_Dari": "قریه",
    "Status": "Open",
    "Status_Dari": null,
    "PS_Male": 2,
    "PS_Female": 1,
    "PS_Total": 3,
    "ولسوالي": "اندراب",
    "Region": "North Eastern Region"
   },
   "geometry": {
    "x": 7681912.2328122938,
    "y": 4260873.9522661455
   }
  },
  {
   "attributes": {
    "OBJECTID": 898,
    "ولایت": "بغلان",
    "Province": "BAGHLAN",
    "PC_Code": "0907242",
    "District": "ANDARAB",
    "د_مرکز_نوم__نام_مرکز": "مسجد لغک",
    "Polling_Center_Name": "Laghak Mosque",
    "د_مرکز_ځای__موقعیت_مرکز": "لغک",
    "Polling_Center_Location": "Laghak",
    "Map_Accuracy": "Building",
    "Map_Accuracy_Dari": "تعمیر",
    "Status": "Open",
    "Status_Dari": null,
    "PS_Male": 1,
    "PS_Female": 2,
    "PS_Total": 3,
    "ولسوالي": "اندراب",
    "Region": "North Eastern Region"
   },
   "geometry": {
    "x": 7711416.9517773967,
    "y": 4240305.0392932501
   }
  },
  {
   "attributes": {
    "OBJECTID": 899,
    "ولایت": "ننگرهار",
    "Province": "NANGARHAR",
    "PC_Code": "0617476",
    "District": "MUHMAND DARA",
    "د_مرکز_نوم__نام_مرکز": "غزګی لیسه ",
    "Polling_Center_Name": "Ghazgai High School",
    "د_مرکز_ځای__موقعیت_مرکز": "غزګۍ",
    "Polling_Center_Location": "Ghazgai ",
    "Map_Accuracy": "Building",
    "Map_Accuracy_Dari": "تعمیر",
    "Status": "Open",
    "Status_Dari": null,
    "PS_Male": 0,
    "PS_Female": 2,
    "PS_Total": 2,
    "ولسوالي": "مهمند دره",
    "Region": "Eastern Region"
   },
   "geometry": {
    "x": 7896450.7087872382,
    "y": 4060624.6769937095
   }
  },
  {
   "attributes": {
    "OBJECTID": 900,
    "ولایت": "ننگرهار",
    "Province": "NANGARHAR",
    "PC_Code": "0617477",
    "District": "MUHMAND DARA",
    "د_مرکز_نوم__نام_مرکز": "جومات کولالي کلې",
    "Polling_Center_Name": "Kolali Village Mosque",
    "د_مرکز_ځای__موقعیت_مرکز": "کولالي کلې",
    "Polling_Center_Location": "Kolali Village",
    "Map_Accuracy": "Village",
    "Map_Accuracy_Dari": "قریه",
    "Status": "Open",
    "Status_Dari": null,
    "PS_Male": 1,
    "PS_Female": 1,
    "PS_Total": 2,
    "ولسوالي": "مهمند دره",
    "Region": "Eastern Region"
   },
   "geometry": {
    "x": 7898628.6289836187,
    "y": 4059952.0462268153
   }
  },
  {
   "attributes": {
    "OBJECTID": 901,
    "ولایت": "ننگرهار",
    "Province": "NANGARHAR",
    "PC_Code": "0618505",
    "District": "LALPOOR",
    "د_مرکز_نوم__نام_مرکز": "چکنور لیسه ",
    "Polling_Center_Name": "Cheknor High School",
    "د_مرکز_ځای__موقعیت_مرکز": "چکنورکلي",
    "Polling_Center_Location": "Cheknor Village",
    "Map_Accuracy": "Building",
    "Map_Accuracy_Dari": "تعمیر",
    "Status": "Open",
    "Status_Dari": null,
    "PS_Male": 3,
    "PS_Female": 2,
    "PS_Total": 5,
    "ولسوالي": "لعل پور",
    "Region": "Eastern Region"
   },
   "geometry": {
    "x": 7895402.9875510121,
    "y": 4066620.4497107598
   }
  },
  {
   "attributes": {
    "OBJECTID": 902,
    "ولایت": "ننگرهار",
    "Province": "NANGARHAR",
    "PC_Code": "0619238",
    "District": "SHER ZAD",
    "د_مرکز_نوم__نام_مرکز": "تو تو ليسه",
    "Polling_Center_Name": "Toto High School",
    "د_مرکز_ځای__موقعیت_مرکز": "لقمان خيل",
    "Polling_Center_Location": "Luqman Khel",
    "Map_Accuracy": "Village",
    "Map_Accuracy_Dari": "قریه",
    "Status": "Open",
    "Status_Dari": null,
    "PS_Male": 3,
    "PS_Female": 2,
    "PS_Total": 5,
    "ولسوالي": "شیرزاد",
    "Region": "Eastern Region"
   },
   "geometry": {
    "x": 7786880.0060061151,
    "y": 4063975.4494478861
   }
  },
  {
   "attributes": {
    "OBJECTID": 903,
    "ولایت": "ننگرهار",
    "Province": "NANGARHAR",
    "PC_Code": "0621254",
    "District": "HESARAK",
    "د_مرکز_نوم__نام_مرکز": "محمدي جومات",
    "Polling_Center_Name": "Mohammadi Mosque",
    "د_مرکز_ځای__موقعیت_مرکز": "محمدی مسجد",
    "Polling_Center_Location": "Mohammadi Mosque",
    "Map_Accuracy": "Village",
    "Map_Accuracy_Dari": "قریه",
    "Status": "Open",
    "Status_Dari": null,
    "PS_Male": 0,
    "PS_Female": 3,
    "PS_Total": 3,
    "ولسوالي": "حصارک",
    "Region": "Eastern Region"
   },
   "geometry": {
    "x": 7766266.5027880901,
    "y": 4073348.9737089104
   }
  },
  {
   "attributes": {
    "OBJECTID": 904,
    "ولایت": "ننگرهار",
    "Province": "NANGARHAR",
    "PC_Code": "0622419",
    "District": "DUR BABA",
    "د_مرکز_نوم__نام_مرکز": "شولګر جومات",
    "Polling_Center_Name": "Sholagr Mosque",
    "د_مرکز_ځای__موقعیت_مرکز": "شولګر جومات",
    "Polling_Center_Location": "Sholgar Mosque",
    "Map_Accuracy": "Village",
    "Map_Accuracy_Dari": "قریه",
    "Status": "Open",
    "Status_Dari": null,
    "PS_Male": 0,
    "PS_Female": 2,
    "PS_Total": 2,
    "ولسوالي": "در بابا",
    "Region": "Eastern Region"
   },
   "geometry": {
    "x": 7893860.3220476015,
    "y": 4038820.579968594
   }
  },
  {
   "attributes": {
    "OBJECTID": 905,
    "ولایت": "ننگرهار",
    "Province": "NANGARHAR",
    "PC_Code": "0622507",
    "District": "DUR BABA",
    "د_مرکز_نوم__نام_مرکز": "کلی  ګړوکو جامع مسجد",
    "Polling_Center_Name": "Guroko Village Mosque",
    "د_مرکز_ځای__موقعیت_مرکز": "کلی  ګړوکو",
    "Polling_Center_Location": "Kaley Garooko ",
    "Map_Accuracy": "Village",
    "Map_Accuracy_Dari": "قریه",
    "Status": "Open",
    "Status_Dari": null,
    "PS_Male": 2,
    "PS_Female": 1,
    "PS_Total": 3,
    "ولسوالي": "در بابا",
    "Region": "Eastern Region"
   },
   "geometry": {
    "x": 7907529.7098639682,
    "y": 4047848.6465434586
   }
  },
  {
   "attributes": {
    "OBJECTID": 906,
    "ولایت": "ننگرهار",
    "Province": "NANGARHAR",
    "PC_Code": "0601007",
    "District": "JALALABAD",
    "د_مرکز_نوم__نام_مرکز": "نصرت ليسه",
    "Polling_Center_Name": "Nasrat High School",
    "د_مرکز_ځای__موقعیت_مرکز": "څلورمه ناحیه",
    "Polling_Center_Location": "D04-Nahia 4",
    "Map_Accuracy": "Building",
    "Map_Accuracy_Dari": "تعمیر",
    "Status": "Open",
    "Status_Dari": null,
    "PS_Male": 0,
    "PS_Female": 5,
    "PS_Total": 5,
    "ولسوالي": "جلال آباد",
    "Region": "Eastern Region"
   },
   "geometry": {
    "x": 7844763.3816084452,
    "y": 4085709.5579486932
   }
  },
  {
   "attributes": {
    "OBJECTID": 907,
    "ولایت": "ننگرهار",
    "Province": "NANGARHAR",
    "PC_Code": "0601008",
    "District": "JALALABAD",
    "د_مرکز_نوم__نام_مرکز": "بيز اکملاتې",
    "Polling_Center_Name": "Procurement Base",
    "د_مرکز_ځای__موقعیت_مرکز": "څلورمه ناحیه",
    "Polling_Center_Location": "D04-Nahia 4",
    "Map_Accuracy": "Building",
    "Map_Accuracy_Dari": "تعمیر",
    "Status": "Open",
    "Status_Dari": null,
    "PS_Male": 4,
    "PS_Female": 1,
    "PS_Total": 5,
    "ولسوالي": "جلال آباد",
    "Region": "Eastern Region"
   },
   "geometry": {
    "x": 7845579.6919985292,
    "y": 4084203.3306479356
   }
  },
  {
   "attributes": {
    "OBJECTID": 908,
    "ولایت": "ننگرهار",
    "Province": "NANGARHAR",
    "PC_Code": "0601019",
    "District": "JALALABAD",
    "د_مرکز_نوم__نام_مرکز": "امام بخاري ليسه",
    "Polling_Center_Name": "Imam-e-Bukhari High School",
    "د_مرکز_ځای__موقعیت_مرکز": "دریمه ناحیه ",
    "Polling_Center_Location": "D03-Nahia 3",
    "Map_Accuracy": "Building",
    "Map_Accuracy_Dari": "تعمیر",
    "Status": "Open",
    "Status_Dari": null,
    "PS_Male": 6,
    "PS_Female": 0,
    "PS_Total": 6,
    "ولسوالي": "جلال آباد",
    "Region": "Eastern Region"
   },
   "geometry": {
    "x": 7841324.9507427942,
    "y": 4087418.329465366
   }
  },
  {
   "attributes": {
    "OBJECTID": 909,
    "ولایت": "ننگرهار",
    "Province": "NANGARHAR",
    "PC_Code": "0601028",
    "District": "JALALABAD",
    "د_مرکز_نوم__نام_مرکز": "انکشاف دهات رياست",
    "Polling_Center_Name": "Rural Development Directorate",
    "د_مرکز_ځای__موقعیت_مرکز": "اوله ناحیه",
    "Polling_Center_Location": "D01-Nahia 1",
    "Map_Accuracy": "Building",
    "Map_Accuracy_Dari": "تعمیر",
    "Status": "Open",
    "Status_Dari": null,
    "PS_Male": 2,
    "PS_Female": 5,
    "PS_Total": 7,
    "ولسوالي": "جلال آباد",
    "Region": "Eastern Region"
   },
   "geometry": {
    "x": 7843875.2869560402,
    "y": 4087764.345718598
   }
  },
  {
   "attributes": {
    "OBJECTID": 910,
    "ولایت": "ننگرهار",
    "Province": "NANGARHAR",
    "PC_Code": "0601029",
    "District": "JALALABAD",
    "د_مرکز_نوم__نام_مرکز": "کمپونو جومات",
    "Polling_Center_Name": "Campono Mosque",
    "د_مرکز_ځای__موقعیت_مرکز": "اوله ناحیه",
    "Polling_Center_Location": "D01-Nahia 1",
    "Map_Accuracy": "Building",
    "Map_Accuracy_Dari": "تعمیر",
    "Status": "Open",
    "Status_Dari": null,
    "PS_Male": 7,
    "PS_Female": 0,
    "PS_Total": 7,
    "ولسوالي": "جلال آباد",
    "Region": "Eastern Region"
   },
   "geometry": {
    "x": 7843889.9421669981,
    "y": 4087864.4493503906
   }
  },
  {
   "attributes": {
    "OBJECTID": 911,
    "ولایت": "ننگرهار",
    "Province": "NANGARHAR",
    "PC_Code": "0603076",
    "District": "SURKH RUD",
    "د_مرکز_نوم__نام_مرکز": "شهید ادم خان لیسه مکتب",
    "Polling_Center_Name": "Shaheed Adam Khan School",
    "د_مرکز_ځای__موقعیت_مرکز": "شمسپور",
    "Polling_Center_Location": "Shamspoor",
    "Map_Accuracy": "Building",
    "Map_Accuracy_Dari": "تعمیر",
    "Status": "Open",
    "Status_Dari": null,
    "PS_Male": 0,
    "PS_Female": 6,
    "PS_Total": 6,
    "ولسوالي": "سرخرود",
    "Region": "Eastern Region"
   },
   "geometry": {
    "x": 7824506.9835245181,
    "y": 4085665.6876688367
   }
  },
  {
   "attributes": {
    "OBJECTID": 912,
    "ولایت": "ننگرهار",
    "Province": "NANGARHAR",
    "PC_Code": "0603077",
    "District": "SURKH RUD",
    "د_مرکز_نوم__نام_مرکز": "لیسه نسوان",
    "Polling_Center_Name": "Girls High School",
    "د_مرکز_ځای__موقعیت_مرکز": "شمسپور",
    "Polling_Center_Location": "Shamspoor",
    "Map_Accuracy": "Village",
    "Map_Accuracy_Dari": "قریه",
    "Status": "Open",
    "Status_Dari": null,
    "PS_Male": 2,
    "PS_Female": 6,
    "PS_Total": 8,
    "ولسوالي": "سرخرود",
    "Region": "Eastern Region"
   },
   "geometry": {
    "x": 7824404.5128200455,
    "y": 4085337.0209158757
   }
  },
  {
   "attributes": {
    "OBJECTID": 913,
    "ولایت": "ننگرهار",
    "Province": "NANGARHAR",
    "PC_Code": "0603081",
    "District": "SURKH RUD",
    "د_مرکز_نوم__نام_مرکز": "چکنوري جومات",
    "Polling_Center_Name": "Cheknowri Mosque",
    "د_مرکز_ځای__موقعیت_مرکز": "چکنوري",
    "Polling_Center_Location": "Cheknowry",
    "Map_Accuracy": "Village",
    "Map_Accuracy_Dari": "قریه",
    "Status": "Open",
    "Status_Dari": null,
    "PS_Male": 0,
    "PS_Female": 2,
    "PS_Total": 2,
    "ولسوالي": "سرخرود",
    "Region": "Eastern Region"
   },
   "geometry": {
    "x": 7839344.3165139714,
    "y": 4087942.6105447407
   }
  },
  {
   "attributes": {
    "OBJECTID": 914,
    "ولایت": "ننگرهار",
    "Province": "NANGARHAR",
    "PC_Code": "0603082",
    "District": "SURKH RUD",
    "د_مرکز_نوم__نام_مرکز": "ریاست کانان",
    "Polling_Center_Name": "Reyasat Kanan",
    "د_مرکز_ځای__موقعیت_مرکز": "دوسرکه",
    "Polling_Center_Location": "Du Saraka",
    "Map_Accuracy": "Village",
    "Map_Accuracy_Dari": "قریه",
    "Status": "Open",
    "Status_Dari": null,
    "PS_Male": 4,
    "PS_Female": 0,
    "PS_Total": 4,
    "ولسوالي": "سرخرود",
    "Region": "Eastern Region"
   },
   "geometry": {
    "x": 7836876.9122081771,
    "y": 4088000.9007617589
   }
  },
  {
   "attributes": {
    "OBJECTID": 915,
    "ولایت": "ننگرهار",
    "Province": "NANGARHAR",
    "PC_Code": "0603101",
    "District": "SURKH RUD",
    "د_مرکز_نوم__نام_مرکز": "سيا سنګ جومات",
    "Polling_Center_Name": "Siya Sang Mosque",
    "د_مرکز_ځای__موقعیت_مرکز": "سيا سنګ",
    "Polling_Center_Location": "Siya Sang",
    "Map_Accuracy": "Building",
    "Map_Accuracy_Dari": "تعمیر",
    "Status": "Open",
    "Status_Dari": null,
    "PS_Male": 1,
    "PS_Female": 2,
    "PS_Total": 3,
    "ولسوالي": "سرخرود",
    "Region": "Eastern Region"
   },
   "geometry": {
    "x": 7834965.5376269436,
    "y": 4082654.0642147833
   }
  },
  {
   "attributes": {
    "OBJECTID": 916,
    "ولایت": "ننگرهار",
    "Province": "NANGARHAR",
    "PC_Code": "0604111",
    "District": "CHAPARHAR",
    "د_مرکز_نوم__نام_مرکز": "جامع جومات",
    "Polling_Center_Name": "Mosque",
    "د_مرکز_ځای__موقعیت_مرکز": "دولت زئې فاميلې",
    "Polling_Center_Location": "Dawlatzai Family",
    "Map_Accuracy": "Building",
    "Map_Accuracy_Dari": "تعمیر",
    "Status": "Open",
    "Status_Dari": null,
    "PS_Male": 1,
    "PS_Female": 1,
    "PS_Total": 2,
    "ولسوالي": "چپرهار",
    "Region": "Eastern Region"
   },
   "geometry": {
    "x": 7836309.4789149743,
    "y": 4069902.8270902382
   }
  },
  {
   "attributes": {
    "OBJECTID": 917,
    "ولایت": "ننگرهار",
    "Province": "NANGARHAR",
    "PC_Code": "0604112",
    "District": "CHAPARHAR",
    "د_مرکز_نوم__نام_مرکز": "تر يلي مکتب",
    "Polling_Center_Name": "Terelay School",
    "د_مرکز_ځای__موقعیت_مرکز": "تريلي کلي",
    "Polling_Center_Location": "Terelay Village",
    "Map_Accuracy": "Building",
    "Map_Accuracy_Dari": "تعمیر",
    "Status": "Open",
    "Status_Dari": null,
    "PS_Male": 2,
    "PS_Female": 1,
    "PS_Total": 3,
    "ولسوالي": "چپرهار",
    "Region": "Eastern Region"
   },
   "geometry": {
    "x": 7838202.4835538371,
    "y": 4071766.4454912627
   }
  },
  {
   "attributes": {
    "OBJECTID": 918,
    "ولایت": "ننگرهار",
    "Province": "NANGARHAR",
    "PC_Code": "0605151",
    "District": "KAMA",
    "د_مرکز_نوم__نام_مرکز": "لنډه بوچ کلنيک",
    "Polling_Center_Name": "Landa Boch Clinic",
    "د_مرکز_ځای__موقعیت_مرکز": "لنډه بوچ",
    "Polling_Center_Location": "Landa Boch ",
    "Map_Accuracy": "Building",
    "Map_Accuracy_Dari": "تعمیر",
    "Status": "Open",
    "Status_Dari": null,
    "PS_Male": 2,
    "PS_Female": 0,
    "PS_Total": 2,
    "ولسوالي": "کامه",
    "Region": "Eastern Region"
   },
   "geometry": {
    "x": 7859870.874756908,
    "y": 4087750.3271778068
   }
  },
  {
   "attributes": {
    "OBJECTID": 919,
    "ولایت": "ننگرهار",
    "Province": "NANGARHAR",
    "PC_Code": "0605152",
    "District": "KAMA",
    "د_مرکز_نوم__نام_مرکز": "محمد موسی شفیق لیسه",
    "Polling_Center_Name": "Mohammad Mussa Shafeq High School",
    "د_مرکز_ځای__موقعیت_مرکز": "برلنده بوچ",
    "Polling_Center_Location": "Bar Landa Boch ",
    "Map_Accuracy": "Building",
    "Map_Accuracy_Dari": "تعمیر",
    "Status": "Open",
    "Status_Dari": null,
    "PS_Male": 0,
    "PS_Female": 2,
    "PS_Total": 2,
    "ولسوالي": "کامه",
    "Region": "Eastern Region"
   },
   "geometry": {
    "x": 7858701.7529368056,
    "y": 4088167.8876702134
   }
  },
  {
   "attributes": {
    "OBJECTID": 920,
    "ولایت": "ننگرهار",
    "Province": "NANGARHAR",
    "PC_Code": "0605162",
    "District": "KAMA",
    "د_مرکز_نوم__نام_مرکز": "زاخيل جومات",
    "Polling_Center_Name": "Zakhel Mosque",
    "د_مرکز_ځای__موقعیت_مرکز": "زاخيل",
    "Polling_Center_Location": "Zakhel",
    "Map_Accuracy": "Building",
    "Map_Accuracy_Dari": "تعمیر",
    "Status": "Open",
    "Status_Dari": null,
    "PS_Male": 2,
    "PS_Female": 1,
    "PS_Total": 3,
    "ولسوالي": "کامه",
    "Region": "Eastern Region"
   },
   "geometry": {
    "x": 7854661.7628974961,
    "y": 4082449.7151078093
   }
  },
  {
   "attributes": {
    "OBJECTID": 921,
    "ولایت": "ننگرهار",
    "Province": "NANGARHAR",
    "PC_Code": "0605163",
    "District": "KAMA",
    "د_مرکز_نوم__نام_مرکز": "چارديوالي",
    "Polling_Center_Name": "Chardewali",
    "د_مرکز_ځای__موقعیت_مرکز": "ماما خيل",
    "Polling_Center_Location": "Mama Khel",
    "Map_Accuracy": "Village",
    "Map_Accuracy_Dari": "قریه",
    "Status": "Open",
    "Status_Dari": null,
    "PS_Male": 2,
    "PS_Female": 0,
    "PS_Total": 2,
    "ولسوالي": "کامه",
    "Region": "Eastern Region"
   },
   "geometry": {
    "x": 7865956.0445148274,
    "y": 4085243.9460661686
   }
  },
  {
   "attributes": {
    "OBJECTID": 922,
    "ولایت": "ننگرهار",
    "Province": "NANGARHAR",
    "PC_Code": "0605169",
    "District": "KAMA",
    "د_مرکز_نوم__نام_مرکز": "چارديوالي",
    "Polling_Center_Name": "Chardewali",
    "د_مرکز_ځای__موقعیت_مرکز": "کوزلنده بوچ کلی",
    "Polling_Center_Location": "Koz landabooch Village",
    "Map_Accuracy": "Village",
    "Map_Accuracy_Dari": "قریه",
    "Status": "Open",
    "Status_Dari": null,
    "PS_Male": 0,
    "PS_Female": 2,
    "PS_Total": 2,
    "ولسوالي": "کامه",
    "Region": "Eastern Region"
   },
   "geometry": {
    "x": 7861037.7245462099,
    "y": 4086125.9087344641
   }
  },
  {
   "attributes": {
    "OBJECTID": 923,
    "ولایت": "ننگرهار",
    "Province": "NANGARHAR",
    "PC_Code": "0605170",
    "District": "KAMA",
    "د_مرکز_نوم__نام_مرکز": "خیمه",
    "Polling_Center_Name": "Tent",
    "د_مرکز_ځای__موقعیت_مرکز": "وارثه فقير کلی",
    "Polling_Center_Location": "Waresa Faqer  Village",
    "Map_Accuracy": "Village",
    "Map_Accuracy_Dari": "قریه",
    "Status": "Open",
    "Status_Dari": null,
    "PS_Male": 2,
    "PS_Female": 1,
    "PS_Total": 3,
    "ولسوالي": "کامه",
    "Region": "Eastern Region"
   },
   "geometry": {
    "x": 7856531.4147109399,
    "y": 4087002.1165568829
   }
  },
  {
   "attributes": {
    "OBJECTID": 924,
    "ولایت": "ننگرهار",
    "Province": "NANGARHAR",
    "PC_Code": "0605181",
    "District": "KAMA",
    "د_مرکز_نوم__نام_مرکز": "ده غازی ښوونځی",
    "Polling_Center_Name": "Deh Ghazi School",
    "د_مرکز_ځای__موقعیت_مرکز": "ده غازي",
    "Polling_Center_Location": "Deh Ghazi",
    "Map_Accuracy": "Building",
    "Map_Accuracy_Dari": "تعمیر",
    "Status": "Open",
    "Status_Dari": null,
    "PS_Male": 2,
    "PS_Female": 0,
    "PS_Total": 2,
    "ولسوالي": "کامه",
    "Region": "Eastern Region"
   },
   "geometry": {
    "x": 7854101.9313896839,
    "y": 4086462.666367501
   }
  },
  {
   "attributes": {
    "OBJECTID": 925,
    "ولایت": "ننگرهار",
    "Province": "NANGARHAR",
    "PC_Code": "0605182",
    "District": "KAMA",
    "د_مرکز_نوم__نام_مرکز": "ده غازی باغ",
    "Polling_Center_Name": "Deh Ghazi Bagh",
    "د_مرکز_ځای__موقعیت_مرکز": "ده غازي",
    "Polling_Center_Location": "Deh Ghazi",
    "Map_Accuracy": "Building",
    "Map_Accuracy_Dari": "تعمیر",
    "Status": "Open",
    "Status_Dari": null,
    "PS_Male": 0,
    "PS_Female": 2,
    "PS_Total": 2,
    "ولسوالي": "کامه",
    "Region": "Eastern Region"
   },
   "geometry": {
    "x": 7854692.4990994576,
    "y": 4085676.6267482652
   }
  },
  {
   "attributes": {
    "OBJECTID": 926,
    "ولایت": "ننگرهار",
    "Province": "NANGARHAR",
    "PC_Code": "0608280",
    "District": "KHUGYANI",
    "د_مرکز_نوم__نام_مرکز": "حکيم آباد جومات",
    "Polling_Center_Name": "Hakeem Abad Mosque",
    "د_مرکز_ځای__موقعیت_مرکز": "حکيم آباد",
    "Polling_Center_Location": "Hakeem Abad",
    "Map_Accuracy": "Village",
    "Map_Accuracy_Dari": "قریه",
    "Status": "Open",
    "Status_Dari": null,
    "PS_Male": 2,
    "PS_Female": 1,
    "PS_Total": 3,
    "ولسوالي": "خوګیاڼي",
    "Region": "Eastern Region"
   },
   "geometry": {
    "x": 7812605.8022922724,
    "y": 4058425.4018377084
   }
  },
  {
   "attributes": {
    "OBJECTID": 927,
    "ولایت": "ننگرهار",
    "Province": "NANGARHAR",
    "PC_Code": "0608291",
    "District": "KHUGYANI",
    "د_مرکز_نوم__نام_مرکز": "کلينیک چمتله کمپ",
    "Polling_Center_Name": "Chamtala Camp Clinic",
    "د_مرکز_ځای__موقعیت_مرکز": "چمتله کمپ",
    "Polling_Center_Location": "Chamtala Clinic",
    "Map_Accuracy": "Village",
    "Map_Accuracy_Dari": "قریه",
    "Status": "Open",
    "Status_Dari": null,
    "PS_Male": 3,
    "PS_Female": 1,
    "PS_Total": 4,
    "ولسوالي": "خوګیاڼي",
    "Region": "Eastern Region"
   },
   "geometry": {
    "x": 7811979.7492684145,
    "y": 4073636.7944881124
   }
  },
  {
   "attributes": {
    "OBJECTID": 928,
    "ولایت": "ننگرهار",
    "Province": "NANGARHAR",
    "PC_Code": "0609452",
    "District": "BATI KOT",
    "د_مرکز_نوم__نام_مرکز": "سیپای کلی جومات ",
    "Polling_Center_Name": "Sepay Village Mosque",
    "د_مرکز_ځای__موقعیت_مرکز": "سيپاي کلي",
    "Polling_Center_Location": "Sepay Village",
    "Map_Accuracy": "Building",
    "Map_Accuracy_Dari": "تعمیر",
    "Status": "Open",
    "Status_Dari": null,
    "PS_Male": 2,
    "PS_Female": 1,
    "PS_Total": 3,
    "ولسوالي": "بټي کوټ",
    "Region": "Eastern Region"
   },
   "geometry": {
    "x": 7874052.5314928144,
    "y": 4064318.6355953552
   }
  },
  {
   "attributes": {
    "OBJECTID": 929,
    "ولایت": "ننگرهار",
    "Province": "NANGARHAR",
    "PC_Code": "0609453",
    "District": "BATI KOT",
    "د_مرکز_نوم__نام_مرکز": "صوفیانو کلی جومات ",
    "Polling_Center_Name": "Sofyano Village Mosque",
    "د_مرکز_ځای__موقعیت_مرکز": "صوفیانو کلی ",
    "Polling_Center_Location": "Sofyano Village",
    "Map_Accuracy": "Building",
    "Map_Accuracy_Dari": "تعمیر",
    "Status": "Open",
    "Status_Dari": null,
    "PS_Male": 0,
    "PS_Female": 3,
    "PS_Total": 3,
    "ولسوالي": "بټي کوټ",
    "Region": "Eastern Region"
   },
   "geometry": {
    "x": 7874189.3598449267,
    "y": 4064042.2163139209
   }
  },
  {
   "attributes": {
    "OBJECTID": 930,
    "ولایت": "ننگرهار",
    "Province": "NANGARHAR",
    "PC_Code": "0609456",
    "District": "BATI KOT",
    "د_مرکز_نوم__نام_مرکز": "هلکانو ليسه",
    "Polling_Center_Name": "Boys High School",
    "د_مرکز_ځای__موقعیت_مرکز": "لاچه پور",
    "Polling_Center_Location": "Lacha Poor",
    "Map_Accuracy": "Village",
    "Map_Accuracy_Dari": "قریه",
    "Status": "Open",
    "Status_Dari": null,
    "PS_Male": 2,
    "PS_Female": 1,
    "PS_Total": 3,
    "ولسوالي": "بټي کوټ",
    "Region": "Eastern Region"
   },
   "geometry": {
    "x": 7872448.8306257939,
    "y": 4076673.8931822954
   }
  },
  {
   "attributes": {
    "OBJECTID": 931,
    "ولایت": "ننگرهار",
    "Province": "NANGARHAR",
    "PC_Code": "0609457",
    "District": "BATI KOT",
    "د_مرکز_نوم__نام_مرکز": "بټې کوټ مکتب",
    "Polling_Center_Name": "Bati Kot School",
    "د_مرکز_ځای__موقعیت_مرکز": "شودياني",
    "Polling_Center_Location": "Shodyanai",
    "Map_Accuracy": "Building",
    "Map_Accuracy_Dari": "تعمیر",
    "Status": "Open",
    "Status_Dari": null,
    "PS_Male": 2,
    "PS_Female": 1,
    "PS_Total": 3,
    "ولسوالي": "بټي کوټ",
    "Region": "Eastern Region"
   },
   "geometry": {
    "x": 7874867.9890642818,
    "y": 4064729.8827071292
   }
  },
  {
   "attributes": {
    "OBJECTID": 932,
    "ولایت": "ننگرهار",
    "Province": "NANGARHAR",
    "PC_Code": "0610332",
    "District": "DEH BALA",
    "د_مرکز_نوم__نام_مرکز": "د غوښت ميدان",
    "Polling_Center_Name": "Ghokht Maidan",
    "د_مرکز_ځای__موقعیت_مرکز": "غوښت دره",
    "Polling_Center_Location": "Ghokht Dara",
    "Map_Accuracy": "Village",
    "Map_Accuracy_Dari": "قریه",
    "Status": "Open",
    "Status_Dari": null,
    "PS_Male": 2,
    "PS_Female": 1,
    "PS_Total": 3,
    "ولسوالي": "ده بالا",
    "Region": "Eastern Region"
   },
   "geometry": {
    "x": 7845124.4708671207,
    "y": 4046042.7550828271
   }
  },
  {
   "attributes": {
    "OBJECTID": 933,
    "ولایت": "ننگرهار",
    "Province": "NANGARHAR",
    "PC_Code": "0615369",
    "District": "ACHIN",
    "د_مرکز_نوم__نام_مرکز": "لوخي باغ",
    "Polling_Center_Name": "Lokhe Bagh",
    "د_مرکز_ځای__موقعیت_مرکز": "لوخۍ",
    "Polling_Center_Location": "Lokhay",
    "Map_Accuracy": "Building",
    "Map_Accuracy_Dari": "تعمیر",
    "Status": "Open",
    "Status_Dari": null,
    "PS_Male": 2,
    "PS_Female": 1,
    "PS_Total": 3,
    "ولسوالي": "اچین",
    "Region": "Eastern Region"
   },
   "geometry": {
    "x": 7868903.460691317,
    "y": 4054716.9634889024
   }
  },
  {
   "attributes": {
    "OBJECTID": 934,
    "ولایت": "ننگرهار",
    "Province": "NANGARHAR",
    "PC_Code": "0615380",
    "District": "ACHIN",
    "د_مرکز_نوم__نام_مرکز": "براکبر خيل جومات",
    "Polling_Center_Name": "Bar Akbar Khel Mosque",
    "د_مرکز_ځای__موقعیت_مرکز": "برعبدلخيل",
    "Polling_Center_Location": "Bar Akbar Khel",
    "Map_Accuracy": "Village",
    "Map_Accuracy_Dari": "قریه",
    "Status": "Open",
    "Status_Dari": null,
    "PS_Male": 2,
    "PS_Female": 0,
    "PS_Total": 2,
    "ولسوالي": "اچین",
    "Region": "Eastern Region"
   },
   "geometry": {
    "x": 7869354.4334256798,
    "y": 4036241.428751586
   }
  },
  {
   "attributes": {
    "OBJECTID": 935,
    "ولایت": "ننگرهار",
    "Province": "NANGARHAR",
    "PC_Code": "0616434",
    "District": "SHINWAR",
    "د_مرکز_نوم__نام_مرکز": "سراي جومات",
    "Polling_Center_Name": "Sray Mosque",
    "د_مرکز_ځای__موقعیت_مرکز": "ګولايي کلي",
    "Polling_Center_Location": "Golayee Village",
    "Map_Accuracy": "Village",
    "Map_Accuracy_Dari": "قریه",
    "Status": "Open",
    "Status_Dari": null,
    "PS_Male": 2,
    "PS_Female": 2,
    "PS_Total": 4,
    "ولسوالي": "شینوار",
    "Region": "Eastern Region"
   },
   "geometry": {
    "x": 7877714.5876307394,
    "y": 4056859.380266211
   }
  },
  {
   "attributes": {
    "OBJECTID": 936,
    "ولایت": "ننگرهار",
    "Province": "NANGARHAR",
    "PC_Code": "0616435",
    "District": "SHINWAR",
    "د_مرکز_نوم__نام_مرکز": "ټولنیزی شورا دفتر",
    "Polling_Center_Name": "Social Council Office",
    "د_مرکز_ځای__موقعیت_مرکز": "شيرګړ",
    "Polling_Center_Location": "Sher Garh",
    "Map_Accuracy": "Building",
    "Map_Accuracy_Dari": "تعمیر",
    "Status": "Open",
    "Status_Dari": null,
    "PS_Male": 3,
    "PS_Female": 0,
    "PS_Total": 3,
    "ولسوالي": "شینوار",
    "Region": "Eastern Region"
   },
   "geometry": {
    "x": 7881047.5154489884,
    "y": 4055771.8508747099
   }
  },
  {
   "attributes": {
    "OBJECTID": 937,
    "ولایت": "ننگرهار",
    "Province": "NANGARHAR",
    "PC_Code": "0617467",
    "District": "MUHMAND DARA",
    "د_مرکز_نوم__نام_مرکز": "اوتمانزيي جومات",
    "Polling_Center_Name": "Otmanzai  Mosque",
    "د_مرکز_ځای__موقعیت_مرکز": "ګردي اوتمانزيي",
    "Polling_Center_Location": "Gardee Otmanzai",
    "Map_Accuracy": "Village",
    "Map_Accuracy_Dari": "قریه",
    "Status": "Open",
    "Status_Dari": null,
    "PS_Male": 2,
    "PS_Female": 2,
    "PS_Total": 4,
    "ولسوالي": "مهمند دره",
    "Region": "Eastern Region"
   },
   "geometry": {
    "x": 7902461.0039424561,
    "y": 4060064.3694015909
   }
  },
  {
   "attributes": {
    "OBJECTID": 938,
    "ولایت": "ننگرهار",
    "Province": "NANGARHAR",
    "PC_Code": "0617468",
    "District": "MUHMAND DARA",
    "د_مرکز_نوم__نام_مرکز": "هزارناو جومات",
    "Polling_Center_Name": "Hazar Naaw Mosque",
    "د_مرکز_ځای__موقعیت_مرکز": "هزارناوکلي",
    "Polling_Center_Location": "Hazar Naaw Village",
    "Map_Accuracy": "Village",
    "Map_Accuracy_Dari": "قریه",
    "Status": "Open",
    "Status_Dari": null,
    "PS_Male": 5,
    "PS_Female": 0,
    "PS_Total": 5,
    "ولسوالي": "مهمند دره",
    "Region": "Eastern Region"
   },
   "geometry": {
    "x": 7899737.7351266555,
    "y": 4060806.5877427734
   }
  },
  {
   "attributes": {
    "OBJECTID": 939,
    "ولایت": "ننگرهار",
    "Province": "NANGARHAR",
    "PC_Code": "0617483",
    "District": "MUHMAND DARA",
    "د_مرکز_نوم__نام_مرکز": "طورخم کلینیک",
    "Polling_Center_Name": "Turkham Clinic",
    "د_مرکز_ځای__موقعیت_مرکز": "طورخم",
    "Polling_Center_Location": "Torkham ",
    "Map_Accuracy": "Village",
    "Map_Accuracy_Dari": "قریه",
    "Status": "Open",
    "Status_Dari": null,
    "PS_Male": 3,
    "PS_Female": 2,
    "PS_Total": 5,
    "ولسوالي": "مهمند دره",
    "Region": "Eastern Region"
   },
   "geometry": {
    "x": 7914141.6701689931,
    "y": 4045148.348765308
   }
  },
  {
   "attributes": {
    "OBJECTID": 940,
    "ولایت": "ننگرهار",
    "Province": "NANGARHAR",
    "PC_Code": "0620409",
    "District": "NAZYAN",
    "د_مرکز_نوم__نام_مرکز": "اخند کاکا جومات",
    "Polling_Center_Name": "Akhond Kaka Mosque",
    "د_مرکز_ځای__موقعیت_مرکز": "سروبي",
    "Polling_Center_Location": "Sarobay ",
    "Map_Accuracy": "Village",
    "Map_Accuracy_Dari": "قریه",
    "Status": "Open",
    "Status_Dari": null,
    "PS_Male": 2,
    "PS_Female": 1,
    "PS_Total": 3,
    "ولسوالي": "نازیان",
    "Region": "Eastern Region"
   },
   "geometry": {
    "x": 7883109.7735812403,
    "y": 4045714.8622985706
   }
  },
  {
   "attributes": {
    "OBJECTID": 941,
    "ولایت": "ننگرهار",
    "Province": "NANGARHAR",
    "PC_Code": "0620410",
    "District": "NAZYAN",
    "د_مرکز_نوم__نام_مرکز": "سروبي لیسه ",
    "Polling_Center_Name": "Sarobay High School",
    "د_مرکز_ځای__موقعیت_مرکز": "سروبي",
    "Polling_Center_Location": "Sarobay",
    "Map_Accuracy": "Building",
    "Map_Accuracy_Dari": "تعمیر",
    "Status": "Open",
    "Status_Dari": null,
    "PS_Male": 3,
    "PS_Female": 0,
    "PS_Total": 3,
    "ولسوالي": "نازیان",
    "Region": "Eastern Region"
   },
   "geometry": {
    "x": 7882515.1048614178,
    "y": 4045762.5351820723
   }
  },
  {
   "attributes": {
    "OBJECTID": 942,
    "ولایت": "ننگرهار",
    "Province": "NANGARHAR",
    "PC_Code": "0621265",
    "District": "HESARAK",
    "د_مرکز_نوم__نام_مرکز": "خالي ميدان",
    "Polling_Center_Name": "Open Space",
    "د_مرکز_ځای__موقعیت_مرکز": "فرزينه کلی",
    "Polling_Center_Location": "Farzeena Village",
    "Map_Accuracy": "Village",
    "Map_Accuracy_Dari": "قریه",
    "Status": "Open",
    "Status_Dari": null,
    "PS_Male": 0,
    "PS_Female": 3,
    "PS_Total": 3,
    "ولسوالي": "حصارک",
    "Region": "Eastern Region"
   },
   "geometry": {
    "x": 7776334.7663030177,
    "y": 4070942.7243703073
   }
  },
  {
   "attributes": {
    "OBJECTID": 943,
    "ولایت": "وردک",
    "Province": "WARDAK",
    "PC_Code": "0401012",
    "District": "MAYDAN SHAHR",
    "د_مرکز_نوم__نام_مرکز": "خیمه قول دوست خیل ",
    "Polling_Center_Name": "Qule Dost Khel Tent",
    "د_مرکز_ځای__موقعیت_مرکز": "قول دوست خیل ",
    "Polling_Center_Location": "Qul-e-Dost Khel",
    "Map_Accuracy": "Village",
    "Map_Accuracy_Dari": "قریه",
    "Status": "Open",
    "Status_Dari": null,
    "PS_Male": 3,
    "PS_Female": 2,
    "PS_Total": 5,
    "ولسوالي": "میدان شهر",
    "Region": "Central Region"
   },
   "geometry": {
    "x": 7665502.7480127076,
    "y": 4080601.0099486471
   }
  },
  {
   "attributes": {
    "OBJECTID": 944,
    "ولایت": "وردک",
    "Province": "WARDAK",
    "PC_Code": "0406071",
    "District": "DAYMIRDAD",
    "د_مرکز_نوم__نام_مرکز": "دوکان محمد عالم",
    "Polling_Center_Name": "Mohammad Aalim Shop",
    "د_مرکز_ځای__موقعیت_مرکز": "قریه چهار دیوال",
    "Polling_Center_Location": "Chahar Dewal",
    "Map_Accuracy": "Village",
    "Map_Accuracy_Dari": "قریه",
    "Status": "Open",
    "Status_Dari": null,
    "PS_Male": 2,
    "PS_Female": 1,
    "PS_Total": 3,
    "ولسوالي": "دایمیرداد",
    "Region": "Central Region"
   },
   "geometry": {
    "x": 7593041.4516831012,
    "y": 4037136.676482168
   }
  },
  {
   "attributes": {
    "OBJECTID": 945,
    "ولایت": "وردک",
    "Province": "WARDAK",
    "PC_Code": "0407028",
    "District": "HISSA-E-AWALI BIHSUD",
    "د_مرکز_نوم__نام_مرکز": "بازار دهن آبدره",
    "Polling_Center_Name": "Bazar-e-Dahan Aabdara ",
    "د_مرکز_ځای__موقعیت_مرکز": "دهن آبدره",
    "Polling_Center_Location": "Dahan-e-Aabdara",
    "Map_Accuracy": "Village",
    "Map_Accuracy_Dari": "قریه",
    "Status": "Open",
    "Status_Dari": null,
    "PS_Male": 2,
    "PS_Female": 1,
    "PS_Total": 3,
    "ولسوالي": "حصه اول بهسود",
    "Region": "Central Region"
   },
   "geometry": {
    "x": 7600497.4786687307,
    "y": 4125941.1448079911
   }
  },
  {
   "attributes": {
    "OBJECTID": 946,
    "ولایت": "وردک",
    "Province": "WARDAK",
    "PC_Code": "0407029",
    "District": "HISSA-E-AWALI BIHSUD",
    "د_مرکز_نوم__نام_مرکز": "مکتب دولت قولی",
    "Polling_Center_Name": "Dawlat Quli School",
    "د_مرکز_ځای__موقعیت_مرکز": "قریه دولت قولی",
    "Polling_Center_Location": "Dawlat Quli Village ",
    "Map_Accuracy": "Building",
    "Map_Accuracy_Dari": "تعمیر",
    "Status": "Open",
    "Status_Dari": null,
    "PS_Male": 2,
    "PS_Female": 1,
    "PS_Total": 3,
    "ولسوالي": "حصه اول بهسود",
    "Region": "Central Region"
   },
   "geometry": {
    "x": 7602755.784895801,
    "y": 4119722.6796092377
   }
  },
  {
   "attributes": {
    "OBJECTID": 947,
    "ولایت": "وردک",
    "Province": "WARDAK",
    "PC_Code": "0409042",
    "District": "MARKAZ-E-BEHSUD",
    "د_مرکز_نوم__نام_مرکز": "مسجد نی بولاق عجم",
    "Polling_Center_Name": "Nai Bolaq-e-Ajam Mosque",
    "د_مرکز_ځای__موقعیت_مرکز": "قریه نی بولاق عجم",
    "Polling_Center_Location": "Nai Bolaq Ajam Village",
    "Map_Accuracy": "Village",
    "Map_Accuracy_Dari": "قریه",
    "Status": "Open",
    "Status_Dari": null,
    "PS_Male": 1,
    "PS_Female": 1,
    "PS_Total": 2,
    "ولسوالي": "مرکز بهسود",
    "Region": "Central Region"
   },
   "geometry": {
    "x": 7516870.0704212673,
    "y": 4069714.1602157927
   }
  },
  {
   "attributes": {
    "OBJECTID": 948,
    "ولایت": "وردک",
    "Province": "WARDAK",
    "PC_Code": "0409043",
    "District": "MARKAZ-E-BEHSUD",
    "د_مرکز_نوم__نام_مرکز": "مکتب آب شیروم",
    "Polling_Center_Name": "Aabsherum School",
    "د_مرکز_ځای__موقعیت_مرکز": "اب شیروم",
    "Polling_Center_Location": "Aabsherum",
    "Map_Accuracy": "Building",
    "Map_Accuracy_Dari": "تعمیر",
    "Status": "Open",
    "Status_Dari": null,
    "PS_Male": 1,
    "PS_Female": 1,
    "PS_Total": 2,
    "ولسوالي": "مرکز بهسود",
    "Region": "Central Region"
   },
   "geometry": {
    "x": 7549316.4714958817,
    "y": 4085806.1286570812
   }
  },
  {
   "attributes": {
    "OBJECTID": 949,
    "ولایت": "وردک",
    "Province": "WARDAK",
    "PC_Code": "0409050",
    "District": "MARKAZ-E-BEHSUD",
    "د_مرکز_نوم__نام_مرکز": "مکتب سربلاق",
    "Polling_Center_Name": "Sarbalaq School",
    "د_مرکز_ځای__موقعیت_مرکز": "قریه سربلاق",
    "Polling_Center_Location": "Sarbalaq Village",
    "Map_Accuracy": "Building",
    "Map_Accuracy_Dari": "تعمیر",
    "Status": "Open",
    "Status_Dari": null,
    "PS_Male": 2,
    "PS_Female": 1,
    "PS_Total": 3,
    "ولسوالي": "مرکز بهسود",
    "Region": "Central Region"
   },
   "geometry": {
    "x": 7502893.4875644939,
    "y": 4106837.7069680388
   }
  },
  {
   "attributes": {
    "OBJECTID": 950,
    "ولایت": "وردک",
    "Province": "WARDAK",
    "PC_Code": "0409063",
    "District": "MARKAZ-E-BEHSUD",
    "د_مرکز_نوم__نام_مرکز": "مدرسه قره قل",
    "Polling_Center_Name": "Qara Qul Madrassa",
    "د_مرکز_ځای__موقعیت_مرکز": "قره قل",
    "Polling_Center_Location": "Qaraqul",
    "Map_Accuracy": "Village",
    "Map_Accuracy_Dari": "قریه",
    "Status": "Open",
    "Status_Dari": null,
    "PS_Male": 2,
    "PS_Female": 1,
    "PS_Total": 3,
    "ولسوالي": "مرکز بهسود",
    "Region": "South Eastern Region"
   },
   "geometry": {
    "x": 7495911.2608219674,
    "y": 4030748.4037800198
   }
  },
  {
   "attributes": {
    "OBJECTID": 951,
    "ولایت": "ننگرهار",
    "Province": "NANGARHAR",
    "PC_Code": "0618503",
    "District": "LALPOOR",
    "د_مرکز_نوم__نام_مرکز": "عید ګاه مسجد",
    "Polling_Center_Name": "Eid Gah Mosque",
    "د_مرکز_ځای__موقعیت_مرکز": "ملک محمدعمر کلي",
    "Polling_Center_Location": "Malak Mohammad Omar Village",
    "Map_Accuracy": "Building",
    "Map_Accuracy_Dari": "تعمیر",
    "Status": "Open",
    "Status_Dari": null,
    "PS_Male": 4,
    "PS_Female": 2,
    "PS_Total": 6,
    "ولسوالي": "لعل پور",
    "Region": "Eastern Region"
   },
   "geometry": {
    "x": 7908432.6244801823,
    "y": 4060973.5491973921
   }
  },
  {
   "attributes": {
    "OBJECTID": 952,
    "ولایت": "لوگر",
    "Province": "LOGAR",
    "PC_Code": "0501003",
    "District": "PULI ALAM",
    "د_مرکز_نوم__نام_مرکز": "مرکز سره میاشت",
    "Polling_Center_Name": "Red Crescent Center",
    "د_مرکز_ځای__موقعیت_مرکز": "امور زنان سره میاشت",
    "Polling_Center_Location": "Women Affairs of Red Crescent",
    "Map_Accuracy": "Building",
    "Map_Accuracy_Dari": "تعمیر",
    "Status": "Open",
    "Status_Dari": null,
    "PS_Male": 5,
    "PS_Female": 1,
    "PS_Total": 6,
    "ولسوالي": "پل علم",
    "Region": "Central Region"
   },
   "geometry": {
    "x": 7682781.0357969487,
    "y": 4029753.1436665738
   }
  },
  {
   "attributes": {
    "OBJECTID": 953,
    "ولایت": "لوگر",
    "Province": "LOGAR",
    "PC_Code": "0501013",
    "District": "PULI ALAM",
    "د_مرکز_نوم__نام_مرکز": "مکتب شهیدان دوشنبه",
    "Polling_Center_Name": "Shaheedan Doshanba School",
    "د_مرکز_ځای__موقعیت_مرکز": "شهیدان",
    "Polling_Center_Location": "Shaheedan",
    "Map_Accuracy": "Building",
    "Map_Accuracy_Dari": "تعمیر",
    "Status": "Open",
    "Status_Dari": null,
    "PS_Male": 2,
    "PS_Female": 1,
    "PS_Total": 3,
    "ولسوالي": "پل علم",
    "Region": "Central Region"
   },
   "geometry": {
    "x": 7682084.4373853849,
    "y": 4022923.4377066107
   }
  },
  {
   "attributes": {
    "OBJECTID": 954,
    "ولایت": "لوگر",
    "Province": "LOGAR",
    "PC_Code": "0501016",
    "District": "PULI ALAM",
    "د_مرکز_نوم__نام_مرکز": "مکتب آپچکان",
    "Polling_Center_Name": "Aabchakan School",
    "د_مرکز_ځای__موقعیت_مرکز": "آپچکان",
    "Polling_Center_Location": "Aabchakan",
    "Map_Accuracy": "Village",
    "Map_Accuracy_Dari": "قریه",
    "Status": "Open",
    "Status_Dari": null,
    "PS_Male": 3,
    "PS_Female": 2,
    "PS_Total": 5,
    "ولسوالي": "پل علم",
    "Region": "Central Region"
   },
   "geometry": {
    "x": 7708106.7553991666,
    "y": 4014424.8668702706
   }
  },
  {
   "attributes": {
    "OBJECTID": 955,
    "ولایت": "لوگر",
    "Province": "LOGAR",
    "PC_Code": "0501017",
    "District": "PULI ALAM",
    "د_مرکز_نوم__نام_مرکز": "مسجد هونی سیدان",
    "Polling_Center_Name": "Honi Saidan Mosque",
    "د_مرکز_ځای__موقعیت_مرکز": "هونی سیدان",
    "Polling_Center_Location": "Honi Sayedan",
    "Map_Accuracy": "Building",
    "Map_Accuracy_Dari": "تعمیر",
    "Status": "Open",
    "Status_Dari": null,
    "PS_Male": 2,
    "PS_Female": 1,
    "PS_Total": 3,
    "ولسوالي": "پل علم",
    "Region": "Central Region"
   },
   "geometry": {
    "x": 7683428.4165220475,
    "y": 4025714.9557577423
   }
  },
  {
   "attributes": {
    "OBJECTID": 956,
    "ولایت": "لوگر",
    "Province": "LOGAR",
    "PC_Code": "0501020",
    "District": "PULI ALAM",
    "د_مرکز_نوم__نام_مرکز": "مسجد پشتون آباد",
    "Polling_Center_Name": "Pashton Abad Mosque",
    "د_مرکز_ځای__موقعیت_مرکز": "پشتون آباد",
    "Polling_Center_Location": "Pashton Abad",
    "Map_Accuracy": "District",
    "Map_Accuracy_Dari": "ولسوالی",
    "Status": "Open",
    "Status_Dari": null,
    "PS_Male": 2,
    "PS_Female": 1,
    "PS_Total": 3,
    "ولسوالي": "پل علم",
    "Region": "Central Region"
   },
   "geometry": {
    "x": 7700357.6798540214,
    "y": 4008658.1597280414
   }
  },
  {
   "attributes": {
    "OBJECTID": 957,
    "ولایت": "لوگر",
    "Province": "LOGAR",
    "PC_Code": "0501021",
    "District": "PULI ALAM",
    "د_مرکز_نوم__نام_مرکز": "مسجد ده دوشنبی",
    "Polling_Center_Name": "Deh Doshanbi Mosque",
    "د_مرکز_ځای__موقعیت_مرکز": "ده دوشنبی",
    "Polling_Center_Location": "Deh Doshanbi",
    "Map_Accuracy": "Village",
    "Map_Accuracy_Dari": "قریه",
    "Status": "Open",
    "Status_Dari": null,
    "PS_Male": 1,
    "PS_Female": 2,
    "PS_Total": 3,
    "ولسوالي": "پل علم",
    "Region": "Central Region"
   },
   "geometry": {
    "x": 7680779.1707148431,
    "y": 4023658.9528375212
   }
  },
  {
   "attributes": {
    "OBJECTID": 958,
    "ولایت": "لوگر",
    "Province": "LOGAR",
    "PC_Code": "0502023",
    "District": "BARAKI BARAK",
    "د_مرکز_نوم__نام_مرکز": "مکتب ذکور و اناث پادخواب روغنى",
    "Polling_Center_Name": "Padkhwab Roghani Boys & Girls School",
    "د_مرکز_ځای__موقعیت_مرکز": "پادخواب روغنى",
    "Polling_Center_Location": "Pad Khwab Roghani",
    "Map_Accuracy": "Building",
    "Map_Accuracy_Dari": "تعمیر",
    "Status": "Open",
    "Status_Dari": null,
    "PS_Male": 5,
    "PS_Female": 2,
    "PS_Total": 7,
    "ولسوالي": "برکی برک",
    "Region": "Central Region"
   },
   "geometry": {
    "x": 7677098.9093873939,
    "y": 4021263.7443131562
   }
  },
  {
   "attributes": {
    "OBJECTID": 959,
    "ولایت": "لوگر",
    "Province": "LOGAR",
    "PC_Code": "0502025",
    "District": "BARAKI BARAK",
    "د_مرکز_نوم__نام_مرکز": "لیسه بره کی راجان",
    "Polling_Center_Name": "Baraki Rajan High School",
    "د_مرکز_ځای__موقعیت_مرکز": "بره کی راجان",
    "Polling_Center_Location": "Baraki Rajan",
    "Map_Accuracy": "Building",
    "Map_Accuracy_Dari": "تعمیر",
    "Status": "Open",
    "Status_Dari": null,
    "PS_Male": 4,
    "PS_Female": 3,
    "PS_Total": 7,
    "ولسوالي": "برکی برک",
    "Region": "Central Region"
   },
   "geometry": {
    "x": 7672445.1936220024,
    "y": 4021132.173455982
   }
  },
  {
   "attributes": {
    "OBJECTID": 960,
    "ولایت": "لوگر",
    "Province": "LOGAR",
    "PC_Code": "0503044",
    "District": "CHARKH",
    "د_مرکز_نوم__نام_مرکز": "مکتب قلعه نو",
    "Polling_Center_Name": "Qala-e-Naw School",
    "د_مرکز_ځای__موقعیت_مرکز": "دشت",
    "Polling_Center_Location": "Dasht",
    "Map_Accuracy": "Building",
    "Map_Accuracy_Dari": "تعمیر",
    "Status": "Open",
    "Status_Dari": null,
    "PS_Male": 3,
    "PS_Female": 2,
    "PS_Total": 5,
    "ولسوالي": "چرخ",
    "Region": "Central Region"
   },
   "geometry": {
    "x": 7672781.4007480936,
    "y": 4003190.1043340839
   }
  },
  {
   "attributes": {
    "OBJECTID": 961,
    "ولایت": "لوگر",
    "Province": "LOGAR",
    "PC_Code": "0503045",
    "District": "CHARKH",
    "د_مرکز_نوم__نام_مرکز": "مکتب ډبر",
    "Polling_Center_Name": "Dabar School",
    "د_مرکز_ځای__موقعیت_مرکز": "ډبر ها",
    "Polling_Center_Location": "Dabar Ha",
    "Map_Accuracy": "Building",
    "Map_Accuracy_Dari": "تعمیر",
    "Status": "Open",
    "Status_Dari": null,
    "PS_Male": 3,
    "PS_Female": 3,
    "PS_Total": 6,
    "ولسوالي": "چرخ",
    "Region": "Central Region"
   },
   "geometry": {
    "x": 7677251.3558640629,
    "y": 4008515.446511569
   }
  },
  {
   "attributes": {
    "OBJECTID": 962,
    "ولایت": "لوگر",
    "Province": "LOGAR",
    "PC_Code": "0505061",
    "District": "MOHAMMAD AGHA",
    "د_مرکز_نوم__نام_مرکز": "مکتب سید صالح پادشاه",
    "Polling_Center_Name": "Sayed Salih Pad Shah School",
    "د_مرکز_ځای__موقعیت_مرکز": "سيد سليم پاد شاه",
    "Polling_Center_Location": "Sayed Saleem Pad Shah",
    "Map_Accuracy": "Building",
    "Map_Accuracy_Dari": "تعمیر",
    "Status": "Open",
    "Status_Dari": null,
    "PS_Male": 2,
    "PS_Female": 1,
    "PS_Total": 3,
    "ولسوالي": "محمد آغه",
    "Region": "Central Region"
   },
   "geometry": {
    "x": 7696158.3524389276,
    "y": 4061957.8587167612
   }
  },
  {
   "attributes": {
    "OBJECTID": 963,
    "ولایت": "ننگرهار",
    "Province": "NANGARHAR",
    "PC_Code": "0601009",
    "District": "JALALABAD",
    "د_مرکز_نوم__نام_مرکز": "ابياري رياست",
    "Polling_Center_Name": "Irrigation Directorate",
    "د_مرکز_ځای__موقعیت_مرکز": "څلورمه ناحیه",
    "Polling_Center_Location": "D04-Nahia 4",
    "Map_Accuracy": "Building",
    "Map_Accuracy_Dari": "تعمیر",
    "Status": "Open",
    "Status_Dari": null,
    "PS_Male": 7,
    "PS_Female": 0,
    "PS_Total": 7,
    "ولسوالي": "جلال آباد",
    "Region": "Eastern Region"
   },
   "geometry": {
    "x": 7845157.3568710899,
    "y": 4084804.066728917
   }
  },
  {
   "attributes": {
    "OBJECTID": 964,
    "ولایت": "ننگرهار",
    "Province": "NANGARHAR",
    "PC_Code": "0601010",
    "District": "JALALABAD",
    "د_مرکز_نوم__نام_مرکز": "ننګرهار ليسه",
    "Polling_Center_Name": "Nangrahar High School",
    "د_مرکز_ځای__موقعیت_مرکز": "څلورمه ناحیه",
    "Polling_Center_Location": "D04-Nahia 4",
    "Map_Accuracy": "Building",
    "Map_Accuracy_Dari": "تعمیر",
    "Status": "Open",
    "Status_Dari": null,
    "PS_Male": 0,
    "PS_Female": 8,
    "PS_Total": 8,
    "ولسوالي": "جلال آباد",
    "Region": "Eastern Region"
   },
   "geometry": {
    "x": 7843955.7609291272,
    "y": 4086389.1161784353
   }
  },
  {
   "attributes": {
    "OBJECTID": 965,
    "ولایت": "ننگرهار",
    "Province": "NANGARHAR",
    "PC_Code": "0601030",
    "District": "JALALABAD",
    "د_مرکز_نوم__نام_مرکز": "شانزده فاميلي جومات",
    "Polling_Center_Name": "Shanzda Family Mosque",
    "د_مرکز_ځای__موقعیت_مرکز": "څلورمه ناحیه",
    "Polling_Center_Location": "D04-Nahia 4",
    "Map_Accuracy": "Building",
    "Map_Accuracy_Dari": "تعمیر",
    "Status": "Open",
    "Status_Dari": null,
    "PS_Male": 5,
    "PS_Female": 0,
    "PS_Total": 5,
    "ولسوالي": "جلال آباد",
    "Region": "Eastern Region"
   },
   "geometry": {
    "x": 7843663.0819503237,
    "y": 4086233.0209935713
   }
  },
  {
   "attributes": {
    "OBJECTID": 966,
    "ولایت": "ننگرهار",
    "Province": "NANGARHAR",
    "PC_Code": "0601031",
    "District": "JALALABAD",
    "د_مرکز_نوم__نام_مرکز": "ګمرک جومات",
    "Polling_Center_Name": "Custom House Mosque",
    "د_مرکز_ځای__موقعیت_مرکز": "دویمه ناحیه",
    "Polling_Center_Location": "D02-Nahia 2",
    "Map_Accuracy": "Building",
    "Map_Accuracy_Dari": "تعمیر",
    "Status": "Open",
    "Status_Dari": null,
    "PS_Male": 5,
    "PS_Female": 0,
    "PS_Total": 5,
    "ولسوالي": "جلال آباد",
    "Region": "Eastern Region"
   },
   "geometry": {
    "x": 7842876.753350012,
    "y": 4086690.9586924487
   }
  },
  {
   "attributes": {
    "OBJECTID": 967,
    "ولایت": "ننگرهار",
    "Province": "NANGARHAR",
    "PC_Code": "0602045",
    "District": "BEHSUD",
    "د_مرکز_نوم__نام_مرکز": "جانان خان لیسه",
    "Polling_Center_Name": "Janan Khan High School",
    "د_مرکز_ځای__موقعیت_مرکز": "قلاي جانان خان",
    "Polling_Center_Location": "Qala-e- Janan khan",
    "Map_Accuracy": "Building",
    "Map_Accuracy_Dari": "تعمیر",
    "Status": "Open",
    "Status_Dari": null,
    "PS_Male": 5,
    "PS_Female": 2,
    "PS_Total": 7,
    "ولسوالي": "بهسود",
    "Region": "Eastern Region"
   },
   "geometry": {
    "x": 7844384.5780791948,
    "y": 4089677.100503149
   }
  },
  {
   "attributes": {
    "OBJECTID": 968,
    "ولایت": "ننگرهار",
    "Province": "NANGARHAR",
    "PC_Code": "0602046",
    "District": "BEHSUD",
    "د_مرکز_نوم__نام_مرکز": "حضرت ابوبکر صدیق لیسه",
    "Polling_Center_Name": "Hazrat Abu Bakr Sediq High School",
    "د_مرکز_ځای__موقعیت_مرکز": "قلعه ريګي",
    "Polling_Center_Location": "Qala-e-Regee",
    "Map_Accuracy": "Village",
    "Map_Accuracy_Dari": "قریه",
    "Status": "Open",
    "Status_Dari": null,
    "PS_Male": 3,
    "PS_Female": 1,
    "PS_Total": 4,
    "ولسوالي": "بهسود",
    "Region": "Eastern Region"
   },
   "geometry": {
    "x": 7848793.7972809849,
    "y": 4090558.3028560658
   }
  },
  {
   "attributes": {
    "OBJECTID": 969,
    "ولایت": "ننگرهار",
    "Province": "NANGARHAR",
    "PC_Code": "0602053",
    "District": "BEHSUD",
    "د_مرکز_نوم__نام_مرکز": "ناهيدشهيد مکتب",
    "Polling_Center_Name": "Nahid-e- Shaheed School",
    "د_مرکز_ځای__موقعیت_مرکز": "تعميرات",
    "Polling_Center_Location": "Tamerat",
    "Map_Accuracy": "Village",
    "Map_Accuracy_Dari": "قریه",
    "Status": "Open",
    "Status_Dari": null,
    "PS_Male": 5,
    "PS_Female": 2,
    "PS_Total": 7,
    "ولسوالي": "بهسود",
    "Region": "Eastern Region"
   },
   "geometry": {
    "x": 7846450.8381471382,
    "y": 4088290.1116196266
   }
  },
  {
   "attributes": {
    "OBJECTID": 970,
    "ولایت": "ننگرهار",
    "Province": "NANGARHAR",
    "PC_Code": "0602054",
    "District": "BEHSUD",
    "د_مرکز_نوم__نام_مرکز": "حاجی حفیظ جومات",
    "Polling_Center_Name": "Haji Hafeez Mosque",
    "د_مرکز_ځای__موقعیت_مرکز": "خوشګنبد بانې چوک",
    "Polling_Center_Location": "Khoshgunbad bany Chauk",
    "Map_Accuracy": "Building",
    "Map_Accuracy_Dari": "تعمیر",
    "Status": "Open",
    "Status_Dari": null,
    "PS_Male": 2,
    "PS_Female": 1,
    "PS_Total": 3,
    "ولسوالي": "بهسود",
    "Region": "Eastern Region"
   },
   "geometry": {
    "x": 7848946.1057214858,
    "y": 4083799.6057005888
   }
  },
  {
   "attributes": {
    "OBJECTID": 971,
    "ولایت": "ننگرهار",
    "Province": "NANGARHAR",
    "PC_Code": "0603078",
    "District": "SURKH RUD",
    "د_مرکز_نوم__نام_مرکز": "جامع مسجد",
    "Polling_Center_Name": "Jami Mosque",
    "د_مرکز_ځای__موقعیت_مرکز": "غوچک",
    "Polling_Center_Location": "Ghawchak",
    "Map_Accuracy": "Building",
    "Map_Accuracy_Dari": "تعمیر",
    "Status": "Open",
    "Status_Dari": null,
    "PS_Male": 3,
    "PS_Female": 1,
    "PS_Total": 4,
    "ولسوالي": "سرخرود",
    "Region": "Eastern Region"
   },
   "geometry": {
    "x": 7837977.5413719853,
    "y": 4086426.3176848311
   }
  },
  {
   "attributes": {
    "OBJECTID": 972,
    "ولایت": "ننگرهار",
    "Province": "NANGARHAR",
    "PC_Code": "0603079",
    "District": "SURKH RUD",
    "د_مرکز_نوم__نام_مرکز": "د کانو صنايعو رياست",
    "Polling_Center_Name": "Mine and Industrial Department",
    "د_مرکز_ځای__موقعیت_مرکز": "چکنوري",
    "Polling_Center_Location": "Cheknowry",
    "Map_Accuracy": "Building",
    "Map_Accuracy_Dari": "تعمیر",
    "Status": "Open",
    "Status_Dari": null,
    "PS_Male": 2,
    "PS_Female": 0,
    "PS_Total": 2,
    "ولسوالي": "سرخرود",
    "Region": "Eastern Region"
   },
   "geometry": {
    "x": 7838684.2965738904,
    "y": 4088192.4257606752
   }
  },
  {
   "attributes": {
    "OBJECTID": 973,
    "ولایت": "ننگرهار",
    "Province": "NANGARHAR",
    "PC_Code": "0617469",
    "District": "MUHMAND DARA",
    "د_مرکز_نوم__نام_مرکز": "هزارناو لیسه ",
    "Polling_Center_Name": "Hazar Naaw  High School",
    "د_مرکز_ځای__موقعیت_مرکز": "هزارناوکلي",
    "Polling_Center_Location": "Hazar Naaw Village",
    "Map_Accuracy": "Building",
    "Map_Accuracy_Dari": "تعمیر",
    "Status": "Open",
    "Status_Dari": null,
    "PS_Male": 1,
    "PS_Female": 3,
    "PS_Total": 4,
    "ولسوالي": "مهمند دره",
    "Region": "Eastern Region"
   },
   "geometry": {
    "x": 7894163.6331509696,
    "y": 4060724.1797758345
   }
  },
  {
   "attributes": {
    "OBJECTID": 974,
    "ولایت": "ننگرهار",
    "Province": "NANGARHAR",
    "PC_Code": "0617470",
    "District": "MUHMAND DARA",
    "د_مرکز_نوم__نام_مرکز": "هديري کلې جومات ",
    "Polling_Center_Name": "Hadeere Village Mosque",
    "د_مرکز_ځای__موقعیت_مرکز": "هديري کلې",
    "Polling_Center_Location": "Hadeere Village",
    "Map_Accuracy": "Village",
    "Map_Accuracy_Dari": "قریه",
    "Status": "Open",
    "Status_Dari": null,
    "PS_Male": 2,
    "PS_Female": 1,
    "PS_Total": 3,
    "ولسوالي": "مهمند دره",
    "Region": "Eastern Region"
   },
   "geometry": {
    "x": 7892493.093835284,
    "y": 4060133.7118993066
   }
  },
  {
   "attributes": {
    "OBJECTID": 975,
    "ولایت": "ننگرهار",
    "Province": "NANGARHAR",
    "PC_Code": "0617478",
    "District": "MUHMAND DARA",
    "د_مرکز_نوم__نام_مرکز": "علي جان قلعه جومات",
    "Polling_Center_Name": "Ali Jan Qala Mosque",
    "د_مرکز_ځای__موقعیت_مرکز": "علي جان قلعه",
    "Polling_Center_Location": "Ali Jan Qala ",
    "Map_Accuracy": "Village",
    "Map_Accuracy_Dari": "قریه",
    "Status": "Open",
    "Status_Dari": null,
    "PS_Male": 1,
    "PS_Female": 1,
    "PS_Total": 2,
    "ولسوالي": "مهمند دره",
    "Region": "Eastern Region"
   },
   "geometry": {
    "x": 7888531.2342711454,
    "y": 4061158.1546690334
   }
  },
  {
   "attributes": {
    "OBJECTID": 976,
    "ولایت": "ننگرهار",
    "Province": "NANGARHAR",
    "PC_Code": "0614518",
    "District": "GOSHTA",
    "د_مرکز_نوم__نام_مرکز": "يعقوب خيل جومات",
    "Polling_Center_Name": "Yahqub khil Mosque",
    "د_مرکز_ځای__موقعیت_مرکز": "یعقوب خیل",
    "Polling_Center_Location": "Yaqob khil",
    "Map_Accuracy": "Building",
    "Map_Accuracy_Dari": "تعمیر",
    "Status": "Open",
    "Status_Dari": null,
    "PS_Male": 2,
    "PS_Female": 1,
    "PS_Total": 3,
    "ولسوالي": "گوشته",
    "Region": "Eastern Region"
   },
   "geometry": {
    "x": 7881305.9767087502,
    "y": 4075082.9267725288
   }
  },
  {
   "attributes": {
    "OBJECTID": 977,
    "ولایت": "ننگرهار",
    "Province": "NANGARHAR",
    "PC_Code": "0615519",
    "District": "ACHIN",
    "د_مرکز_نوم__نام_مرکز": "ملک گل محمد حجره",
    "Polling_Center_Name": "Malik gul muhammad House",
    "د_مرکز_ځای__موقعیت_مرکز": "صندوق کلی",
    "Polling_Center_Location": "Sanduq village",
    "Map_Accuracy": "Village",
    "Map_Accuracy_Dari": "قریه",
    "Status": "Open",
    "Status_Dari": null,
    "PS_Male": 2,
    "PS_Female": 1,
    "PS_Total": 3,
    "ولسوالي": "اچین",
    "Region": "Eastern Region"
   },
   "geometry": {
    "x": 7869898.2384890439,
    "y": 4043137.6278726449
   }
  },
  {
   "attributes": {
    "OBJECTID": 978,
    "ولایت": "لغمان",
    "Province": "LAGHMAN",
    "PC_Code": "0701004",
    "District": "MEHTARLAM",
    "د_مرکز_نوم__نام_مرکز": "د صحت عامې روغتون",
    "Polling_Center_Name": "Public Health Hospital",
    "د_مرکز_ځای__موقعیت_مرکز": "مهترلام",
    "Polling_Center_Location": "Mahtarlam",
    "Map_Accuracy": "Building",
    "Map_Accuracy_Dari": "تعمیر",
    "Status": "Open",
    "Status_Dari": null,
    "PS_Male": 4,
    "PS_Female": 2,
    "PS_Total": 6,
    "ولسوالي": "مهترلام",
    "Region": "Eastern Region"
   },
   "geometry": {
    "x": 7815231.9726822302,
    "y": 4119461.3533485928
   }
  },
  {
   "attributes": {
    "OBJECTID": 979,
    "ولایت": "لغمان",
    "Province": "LAGHMAN",
    "PC_Code": "0701005",
    "District": "MEHTARLAM",
    "د_مرکز_نوم__نام_مرکز": "د ګمین دکلي جومات اوښوونځی",
    "Polling_Center_Name": "Gameen Village Mosque and School",
    "د_مرکز_ځای__موقعیت_مرکز": "ګمین",
    "Polling_Center_Location": "Gameen",
    "Map_Accuracy": "Building",
    "Map_Accuracy_Dari": "تعمیر",
    "Status": "Open",
    "Status_Dari": null,
    "PS_Male": 5,
    "PS_Female": 2,
    "PS_Total": 7,
    "ولسوالي": "مهترلام",
    "Region": "Eastern Region"
   },
   "geometry": {
    "x": 7816570.2188651124,
    "y": 4117924.1086429749
   }
  },
  {
   "attributes": {
    "OBJECTID": 980,
    "ولایت": "لغمان",
    "Province": "LAGHMAN",
    "PC_Code": "0702037",
    "District": "QARGHAYEE",
    "د_مرکز_نوم__نام_مرکز": "د پاچا کلا جومات ",
    "Polling_Center_Name": "Pacha Kala Mosque",
    "د_مرکز_ځای__موقعیت_مرکز": "پاچا کلا",
    "Polling_Center_Location": "Pacha Kala",
    "Map_Accuracy": "Village",
    "Map_Accuracy_Dari": "قریه",
    "Status": "Open",
    "Status_Dari": null,
    "PS_Male": 2,
    "PS_Female": 1,
    "PS_Total": 3,
    "ولسوالي": "قرغه یي",
    "Region": "Eastern Region"
   },
   "geometry": {
    "x": 7825142.4764411924,
    "y": 4098977.4822631055
   }
  },
  {
   "attributes": {
    "OBJECTID": 981,
    "ولایت": "لغمان",
    "Province": "LAGHMAN",
    "PC_Code": "0702038",
    "District": "QARGHAYEE",
    "د_مرکز_نوم__نام_مرکز": "دصواتي ښونځي",
    "Polling_Center_Name": "Swati School",
    "د_مرکز_ځای__موقعیت_مرکز": "صواتی",
    "Polling_Center_Location": "Swati",
    "Map_Accuracy": "Building",
    "Map_Accuracy_Dari": "تعمیر",
    "Status": "Open",
    "Status_Dari": null,
    "PS_Male": 2,
    "PS_Female": 1,
    "PS_Total": 3,
    "ولسوالي": "قرغه یي",
    "Region": "Eastern Region"
   },
   "geometry": {
    "x": 7822114.3191248402,
    "y": 4100489.38462169
   }
  },
  {
   "attributes": {
    "OBJECTID": 982,
    "ولایت": "لغمان",
    "Province": "LAGHMAN",
    "PC_Code": "0702041",
    "District": "QARGHAYEE",
    "د_مرکز_نوم__نام_مرکز": " د مندروړ لېسه اولمړنۍ ښوونځی",
    "Polling_Center_Name": "Mandaror High School and Primary Lomlany School",
    "د_مرکز_ځای__موقعیت_مرکز": "مندروړ",
    "Polling_Center_Location": "Mandaror",
    "Map_Accuracy": "Building",
    "Map_Accuracy_Dari": "تعمیر",
    "Status": "Open",
    "Status_Dari": null,
    "PS_Male": 2,
    "PS_Female": 1,
    "PS_Total": 3,
    "ولسوالي": "قرغه یي",
    "Region": "Eastern Region"
   },
   "geometry": {
    "x": 7815970.0376041112,
    "y": 4102717.9998297063
   }
  },
  {
   "attributes": {
    "OBJECTID": 983,
    "ولایت": "لغمان",
    "Province": "LAGHMAN",
    "PC_Code": "0702042",
    "District": "QARGHAYEE",
    "د_مرکز_نوم__نام_مرکز": " د فرمانخېلو د کلي جومات",
    "Polling_Center_Name": "Farman Khel Village Mosque and Hojra",
    "د_مرکز_ځای__موقعیت_مرکز": "فرمانخیل",
    "Polling_Center_Location": "Farmankhel",
    "Map_Accuracy": "Building",
    "Map_Accuracy_Dari": "تعمیر",
    "Status": "Open",
    "Status_Dari": null,
    "PS_Male": 3,
    "PS_Female": 1,
    "PS_Total": 4,
    "ولسوالي": "قرغه یي",
    "Region": "Eastern Region"
   },
   "geometry": {
    "x": 7816092.9599254318,
    "y": 4101056.1500469251
   }
  },
  {
   "attributes": {
    "OBJECTID": 984,
    "ولایت": "لغمان",
    "Province": "LAGHMAN",
    "PC_Code": "0702047",
    "District": "QARGHAYEE",
    "د_مرکز_نوم__نام_مرکز": "دکمالپورجامع جومات اوښوونځی",
    "Polling_Center_Name": "Kamalpoor Jaame Mosque",
    "د_مرکز_ځای__موقعیت_مرکز": "کمالپور",
    "Polling_Center_Location": "Kamalpoor",
    "Map_Accuracy": "Village",
    "Map_Accuracy_Dari": "قریه",
    "Status": "Open",
    "Status_Dari": null,
    "PS_Male": 2,
    "PS_Female": 1,
    "PS_Total": 3,
    "ولسوالي": "قرغه یي",
    "Region": "Eastern Region"
   },
   "geometry": {
    "x": 7819938.4438675018,
    "y": 4099659.8860329408
   }
  },
  {
   "attributes": {
    "OBJECTID": 985,
    "ولایت": "لغمان",
    "Province": "LAGHMAN",
    "PC_Code": "0702048",
    "District": "QARGHAYEE",
    "د_مرکز_نوم__نام_مرکز": "دبلوچ آباد جومات اودملک بريالي حجره",
    "Polling_Center_Name": "Baloch Abad Mosque",
    "د_مرکز_ځای__موقعیت_مرکز": "بلوچ آباد",
    "Polling_Center_Location": "Baloch Abad",
    "Map_Accuracy": "Village",
    "Map_Accuracy_Dari": "قریه",
    "Status": "Open",
    "Status_Dari": null,
    "PS_Male": 2,
    "PS_Female": 1,
    "PS_Total": 3,
    "ولسوالي": "قرغه یي",
    "Region": "Eastern Region"
   },
   "geometry": {
    "x": 7818360.3197666882,
    "y": 4100576.1452391483
   }
  },
  {
   "attributes": {
    "OBJECTID": 986,
    "ولایت": "لغمان",
    "Province": "LAGHMAN",
    "PC_Code": "0705120",
    "District": "DAWLAT SHAH",
    "د_مرکز_نوم__نام_مرکز": "ویس جومات",
    "Polling_Center_Name": "Wais Mosque",
    "د_مرکز_ځای__موقعیت_مرکز": "ویس سيمه دولت شاه",
    "Polling_Center_Location": "Wais Sema Dawlat Shah",
    "Map_Accuracy": "Building",
    "Map_Accuracy_Dari": "تعمیر",
    "Status": "Open",
    "Status_Dari": null,
    "PS_Male": 1,
    "PS_Female": 2,
    "PS_Total": 3,
    "ولسوالي": "دولت شاه",
    "Region": "Eastern Region"
   },
   "geometry": {
    "x": 7798965.4165428421,
    "y": 4158869.0466916054
   }
  },
  {
   "attributes": {
    "OBJECTID": 987,
    "ولایت": "لغمان",
    "Province": "LAGHMAN",
    "PC_Code": "0705124",
    "District": "DAWLAT SHAH",
    "د_مرکز_نوم__نام_مرکز": "چاشدار مکتب",
    "Polling_Center_Name": "Chashdar School",
    "د_مرکز_ځای__موقعیت_مرکز": "چاشدار",
    "Polling_Center_Location": "Chashdar",
    "Map_Accuracy": "Village",
    "Map_Accuracy_Dari": "قریه",
    "Status": "Open",
    "Status_Dari": null,
    "PS_Male": 2,
    "PS_Female": 1,
    "PS_Total": 3,
    "ولسوالي": "دولت شاه",
    "Region": "Eastern Region"
   },
   "geometry": {
    "x": 7786116.7094084499,
    "y": 4170363.3952088933
   }
  },
  {
   "attributes": {
    "OBJECTID": 988,
    "ولایت": "لغمان",
    "Province": "LAGHMAN",
    "PC_Code": "0701010",
    "District": "MEHTARLAM",
    "د_مرکز_نوم__نام_مرکز": "د شمټيو جومات",
    "Polling_Center_Name": "Shamatyo Mosque",
    "د_مرکز_ځای__موقعیت_مرکز": "شمټی",
    "Polling_Center_Location": "Shamtay",
    "Map_Accuracy": "Building",
    "Map_Accuracy_Dari": "تعمیر",
    "Status": "Open",
    "Status_Dari": null,
    "PS_Male": 3,
    "PS_Female": 2,
    "PS_Total": 5,
    "ولسوالي": "مهترلام",
    "Region": "Eastern Region"
   },
   "geometry": {
    "x": 7819570.3270093724,
    "y": 4118594.450484118
   }
  },
  {
   "attributes": {
    "OBJECTID": 989,
    "ولایت": "لغمان",
    "Province": "LAGHMAN",
    "PC_Code": "0701019",
    "District": "MEHTARLAM",
    "د_مرکز_نوم__نام_مرکز": "دعلي خېلو ښوونځی",
    "Polling_Center_Name": "AliKhel School",
    "د_مرکز_ځای__موقعیت_مرکز": "علی خیل",
    "Polling_Center_Location": "AliKhel",
    "Map_Accuracy": "Building",
    "Map_Accuracy_Dari": "تعمیر",
    "Status": "Open",
    "Status_Dari": null,
    "PS_Male": 3,
    "PS_Female": 1,
    "PS_Total": 4,
    "ولسوالي": "مهترلام",
    "Region": "Eastern Region"
   },
   "geometry": {
    "x": 7814623.1396704018,
    "y": 4120347.7213440984
   }
  },
  {
   "attributes": {
    "OBJECTID": 990,
    "ولایت": "لغمان",
    "Province": "LAGHMAN",
    "PC_Code": "0701020",
    "District": "MEHTARLAM",
    "د_مرکز_نوم__نام_مرکز": "دعليشنګ دکلي ښوونځی",
    "Polling_Center_Name": "Alishang Village School",
    "د_مرکز_ځای__موقعیت_مرکز": "د علیشنګ کلی",
    "Polling_Center_Location": "Alishang Village",
    "Map_Accuracy": "Building",
    "Map_Accuracy_Dari": "تعمیر",
    "Status": "Open",
    "Status_Dari": null,
    "PS_Male": 3,
    "PS_Female": 2,
    "PS_Total": 5,
    "ولسوالي": "مهترلام",
    "Region": "Eastern Region"
   },
   "geometry": {
    "x": 7809920.9687570613,
    "y": 4124003.6177203106
   }
  },
  {
   "attributes": {
    "OBJECTID": 991,
    "ولایت": "لغمان",
    "Province": "LAGHMAN",
    "PC_Code": "0701025",
    "District": "MEHTARLAM",
    "د_مرکز_نوم__نام_مرکز": "د شېرګړ ښوونځی",
    "Polling_Center_Name": "Sher garh School",
    "د_مرکز_ځای__موقعیت_مرکز": "شیرګړ",
    "Polling_Center_Location": "Sher garh",
    "Map_Accuracy": "Building",
    "Map_Accuracy_Dari": "تعمیر",
    "Status": "Open",
    "Status_Dari": null,
    "PS_Male": 3,
    "PS_Female": 1,
    "PS_Total": 4,
    "ولسوالي": "مهترلام",
    "Region": "Eastern Region"
   },
   "geometry": {
    "x": 7810909.9088493688,
    "y": 4118103.306915842
   }
  },
  {
   "attributes": {
    "OBJECTID": 992,
    "ولایت": "لغمان",
    "Province": "LAGHMAN",
    "PC_Code": "0701026",
    "District": "MEHTARLAM",
    "د_مرکز_نوم__نام_مرکز": "د ده زيارت ښوونځی",
    "Polling_Center_Name": "Deh Ziarat School",
    "د_مرکز_ځای__موقعیت_مرکز": "ده زیارت",
    "Polling_Center_Location": "Deh Ziarat",
    "Map_Accuracy": "Village",
    "Map_Accuracy_Dari": "قریه",
    "Status": "Open",
    "Status_Dari": null,
    "PS_Male": 3,
    "PS_Female": 1,
    "PS_Total": 4,
    "ولسوالي": "مهترلام",
    "Region": "Eastern Region"
   },
   "geometry": {
    "x": 7813580.4166793097,
    "y": 4114884.8327546329
   }
  },
  {
   "attributes": {
    "OBJECTID": 993,
    "ولایت": "لغمان",
    "Province": "LAGHMAN",
    "PC_Code": "0701031",
    "District": "MEHTARLAM",
    "د_مرکز_نوم__نام_مرکز": "کتب زی مکتب",
    "Polling_Center_Name": "Kutubzai School",
    "د_مرکز_ځای__موقعیت_مرکز": "کتب زی",
    "Polling_Center_Location": "Kutubzai",
    "Map_Accuracy": "Building",
    "Map_Accuracy_Dari": "تعمیر",
    "Status": "Open",
    "Status_Dari": null,
    "PS_Male": 1,
    "PS_Female": 1,
    "PS_Total": 2,
    "ولسوالي": "مهترلام",
    "Region": "Eastern Region"
   },
   "geometry": {
    "x": 7812068.4419595087,
    "y": 4121351.1928429119
   }
  },
  {
   "attributes": {
    "OBJECTID": 994,
    "ولایت": "لغمان",
    "Province": "LAGHMAN",
    "PC_Code": "0701032",
    "District": "MEHTARLAM",
    "د_مرکز_نوم__نام_مرکز": "د مهاجرينو کمپ ښوونځی",
    "Polling_Center_Name": "Refugees Camp School",
    "د_مرکز_ځای__موقعیت_مرکز": "د مهاجرينو کمپ",
    "Polling_Center_Location": "Refugees Camp",
    "Map_Accuracy": "Village",
    "Map_Accuracy_Dari": "قریه",
    "Status": "Open",
    "Status_Dari": null,
    "PS_Male": 1,
    "PS_Female": 1,
    "PS_Total": 2,
    "ولسوالي": "مهترلام",
    "Region": "Eastern Region"
   },
   "geometry": {
    "x": 7812596.9768830398,
    "y": 4112148.7746994514
   }
  },
  {
   "attributes": {
    "OBJECTID": 995,
    "ولایت": "لغمان",
    "Province": "LAGHMAN",
    "PC_Code": "0702034",
    "District": "QARGHAYEE",
    "د_مرکز_نوم__نام_مرکز": "دسلطان ويس بابا ښونځي",
    "Polling_Center_Name": "Sultan Wais Baba School",
    "د_مرکز_ځای__موقعیت_مرکز": "قلعټک",
    "Polling_Center_Location": "Qalhatak",
    "Map_Accuracy": "Building",
    "Map_Accuracy_Dari": "تعمیر",
    "Status": "Open",
    "Status_Dari": null,
    "PS_Male": 3,
    "PS_Female": 1,
    "PS_Total": 4,
    "ولسوالي": "قرغه یي",
    "Region": "Eastern Region"
   },
   "geometry": {
    "x": 7822672.7856330527,
    "y": 4102510.7121626153
   }
  },
  {
   "attributes": {
    "OBJECTID": 996,
    "ولایت": "لغمان",
    "Province": "LAGHMAN",
    "PC_Code": "0703087",
    "District": "ALISHING",
    "د_مرکز_نوم__نام_مرکز": "دترنګ ښوونځی",
    "Polling_Center_Name": "Tarang School",
    "د_مرکز_ځای__موقعیت_مرکز": "ترنګ",
    "Polling_Center_Location": "Trang",
    "Map_Accuracy": "Building",
    "Map_Accuracy_Dari": "تعمیر",
    "Status": "Open",
    "Status_Dari": null,
    "PS_Male": 2,
    "PS_Female": 1,
    "PS_Total": 3,
    "ولسوالي": "علیشنګ",
    "Region": "Eastern Region"
   },
   "geometry": {
    "x": 7805223.8907104209,
    "y": 4130023.0415530927
   }
  },
  {
   "attributes": {
    "OBJECTID": 997,
    "ولایت": "لغمان",
    "Province": "LAGHMAN",
    "PC_Code": "0703088",
    "District": "ALISHING",
    "د_مرکز_نوم__نام_مرکز": "د مياعبدالکريم لېسۀ ",
    "Polling_Center_Name": "Mia Abdul karim High School",
    "د_مرکز_ځای__موقعیت_مرکز": "د ولسوالی مرکز",
    "Polling_Center_Location": "Distirct Compound",
    "Map_Accuracy": "Building",
    "Map_Accuracy_Dari": "تعمیر",
    "Status": "Open",
    "Status_Dari": null,
    "PS_Male": 3,
    "PS_Female": 2,
    "PS_Total": 5,
    "ولسوالي": "علیشنګ",
    "Region": "Eastern Region"
   },
   "geometry": {
    "x": 7804128.5302981082,
    "y": 4134854.3110972643
   }
  },
  {
   "attributes": {
    "OBJECTID": 998,
    "ولایت": "لغمان",
    "Province": "LAGHMAN",
    "PC_Code": "0704065",
    "District": "ALINGAR",
    "د_مرکز_نوم__نام_مرکز": "د قصبې دکلي جومات ",
    "Polling_Center_Name": "Qasaba Village Mosque",
    "د_مرکز_ځای__موقعیت_مرکز": "قصبه",
    "Polling_Center_Location": "Qasaba",
    "Map_Accuracy": "Building",
    "Map_Accuracy_Dari": "تعمیر",
    "Status": "Open",
    "Status_Dari": null,
    "PS_Male": 2,
    "PS_Female": 2,
    "PS_Total": 4,
    "ولسوالي": "علینګار",
    "Region": "Eastern Region"
   },
   "geometry": {
    "x": 7824556.3069644943,
    "y": 4127054.1513927048
   }
  },
  {
   "attributes": {
    "OBJECTID": 999,
    "ولایت": "لغمان",
    "Province": "LAGHMAN",
    "PC_Code": "0704066",
    "District": "ALINGAR",
    "د_مرکز_نوم__نام_مرکز": "د قلعټک ښوونځی ",
    "Polling_Center_Name": "Qalatak School",
    "د_مرکز_ځای__موقعیت_مرکز": "قلعټک نیازی",
    "Polling_Center_Location": "Qalatak Niazai",
    "Map_Accuracy": "Building",
    "Map_Accuracy_Dari": "تعمیر",
    "Status": "Open",
    "Status_Dari": null,
    "PS_Male": 2,
    "PS_Female": 1,
    "PS_Total": 3,
    "ولسوالي": "علینګار",
    "Region": "Eastern Region"
   },
   "geometry": {
    "x": 7826658.9172989633,
    "y": 4130040.6287632571
   }
  },
  {
   "attributes": {
    "OBJECTID": 1000,
    "ولایت": "لغمان",
    "Province": "LAGHMAN",
    "PC_Code": "0705113",
    "District": "DAWLAT SHAH",
    "د_مرکز_نوم__نام_مرکز": "د کاراک جومات ",
    "Polling_Center_Name": "Kark Mosque",
    "د_مرکز_ځای__موقعیت_مرکز": "کاراک",
    "Polling_Center_Location": "Kark",
    "Map_Accuracy": "Village",
    "Map_Accuracy_Dari": "قریه",
    "Status": "Open",
    "Status_Dari": null,
    "PS_Male": 1,
    "PS_Female": 3,
    "PS_Total": 4,
    "ولسوالي": "دولت شاه",
    "Region": "Eastern Region"
   },
   "geometry": {
    "x": 7787497.1868665554,
    "y": 4167780.4450321118
   }
  }
 ]
}