{
 "displayFieldName": "Polling_Center_Name",
 "fieldAliases": {
  "OBJECTID": "OBJECTID",
  "ولایت": "ولایت",
  "Province": "Province",
  "PC_Code": "PC_Code",
  "District": "District",
  "د_مرکز_نوم__نام_مرکز": "د_مرکز_نوم__نام_مرکز",
  "Polling_Center_Name": "Polling_Center_Name",
  "د_مرکز_ځای__موقعیت_مرکز": "د_مرکز_ځای__موقعیت_مرکز",
  "Polling_Center_Location": "Polling_Center_Location",
  "Map_Accuracy": "Map_Accuracy",
  "Map_Accuracy_Dari": "Map_Accuracy_Dari",
  "Status": "Status",
  "Status_Dari": "Status_Dari",
  "PS_Male": "PS_Male",
  "PS_Female": "PS_Female",
  "PS_Total": "PS_Total",
  "ولسوالي": "ولسوالي",
  "Region": "Region"
 },
 "geometryType": "esriGeometryPoint",
 "spatialReference": {
  "wkid": 102100,
  "latestWkid": 3857
 },
 "fields": [
  {
   "name": "OBJECTID",
   "type": "esriFieldTypeOID",
   "alias": "OBJECTID"
  },
  {
   "name": "ولایت",
   "type": "esriFieldTypeString",
   "alias": "ولایت",
   "length": 255
  },
  {
   "name": "Province",
   "type": "esriFieldTypeString",
   "alias": "Province",
   "length": 255
  },
  {
   "name": "PC_Code",
   "type": "esriFieldTypeString",
   "alias": "PC_Code",
   "length": 255
  },
  {
   "name": "District",
   "type": "esriFieldTypeString",
   "alias": "District",
   "length": 255
  },
  {
   "name": "د_مرکز_نوم__نام_مرکز",
   "type": "esriFieldTypeString",
   "alias": "د_مرکز_نوم__نام_مرکز",
   "length": 255
  },
  {
   "name": "Polling_Center_Name",
   "type": "esriFieldTypeString",
   "alias": "Polling_Center_Name",
   "length": 255
  },
  {
   "name": "د_مرکز_ځای__موقعیت_مرکز",
   "type": "esriFieldTypeString",
   "alias": "د_مرکز_ځای__موقعیت_مرکز",
   "length": 255
  },
  {
   "name": "Polling_Center_Location",
   "type": "esriFieldTypeString",
   "alias": "Polling_Center_Location",
   "length": 255
  },
  {
   "name": "Map_Accuracy",
   "type": "esriFieldTypeString",
   "alias": "Map_Accuracy",
   "length": 10
  },
  {
   "name": "Map_Accuracy_Dari",
   "type": "esriFieldTypeString",
   "alias": "Map_Accuracy_Dari",
   "length": 50
  },
  {
   "name": "Status",
   "type": "esriFieldTypeString",
   "alias": "Status",
   "length": 6
  },
  {
   "name": "Status_Dari",
   "type": "esriFieldTypeString",
   "alias": "Status_Dari",
   "length": 8
  },
  {
   "name": "PS_Male",
   "type": "esriFieldTypeSmallInteger",
   "alias": "PS_Male"
  },
  {
   "name": "PS_Female",
   "type": "esriFieldTypeSmallInteger",
   "alias": "PS_Female"
  },
  {
   "name": "PS_Total",
   "type": "esriFieldTypeSmallInteger",
   "alias": "PS_Total"
  },
  {
   "name": "ولسوالي",
   "type": "esriFieldTypeString",
   "alias": "ولسوالي",
   "length": 255
  },
  {
   "name": "Region",
   "type": "esriFieldTypeString",
   "alias": "Region",
   "length": 50
  }
 ],
 "features": [
  {
   "attributes": {
    "OBJECTID": 1001,
    "ولایت": "لغمان",
    "Province": "LAGHMAN",
    "PC_Code": "0705114",
    "District": "DAWLAT SHAH",
    "د_مرکز_نوم__نام_مرکز": "د پیتک جومات ",
    "Polling_Center_Name": "Petak Mosque",
    "د_مرکز_ځای__موقعیت_مرکز": "پیتک",
    "Polling_Center_Location": "Petak",
    "Map_Accuracy": "Building",
    "Map_Accuracy_Dari": "تعمیر",
    "Status": "Open",
    "Status_Dari": null,
    "PS_Male": 3,
    "PS_Female": 1,
    "PS_Total": 4,
    "ولسوالي": "دولت شاه",
    "Region": "Eastern Region"
   },
   "geometry": {
    "x": 7785309.6564585362,
    "y": 4167159.5708672842
   }
  },
  {
   "attributes": {
    "OBJECTID": 1002,
    "ولایت": "لغمان",
    "Province": "LAGHMAN",
    "PC_Code": "0701022",
    "District": "MEHTARLAM",
    "د_مرکز_نوم__نام_مرکز": "دسلطان خېلو دکلي جومات",
    "Polling_Center_Name": "Sultankhelo Village Mosque",
    "د_مرکز_ځای__موقعیت_مرکز": "سلطان کلی",
    "Polling_Center_Location": "Sultan Village",
    "Map_Accuracy": "Building",
    "Map_Accuracy_Dari": "تعمیر",
    "Status": "Open",
    "Status_Dari": null,
    "PS_Male": 1,
    "PS_Female": 1,
    "PS_Total": 2,
    "ولسوالي": "مهترلام",
    "Region": "Eastern Region"
   },
   "geometry": {
    "x": 7809079.9199478542,
    "y": 4122312.3090738612
   }
  },
  {
   "attributes": {
    "OBJECTID": 1003,
    "ولایت": "لغمان",
    "Province": "LAGHMAN",
    "PC_Code": "0702049",
    "District": "QARGHAYEE",
    "د_مرکز_نوم__نام_مرکز": "دغونډۍعبدالرحيمزیو جامع جومات اودکلي حجره",
    "Polling_Center_Name": "Ghondai Abdul Rahimzayo Mosque",
    "د_مرکز_ځای__موقعیت_مرکز": "عبدالرحیمزی",
    "Polling_Center_Location": "Abdul Rahimzai",
    "Map_Accuracy": "Building",
    "Map_Accuracy_Dari": "تعمیر",
    "Status": "Open",
    "Status_Dari": null,
    "PS_Male": 3,
    "PS_Female": 2,
    "PS_Total": 5,
    "ولسوالي": "قرغه یي",
    "Region": "Eastern Region"
   },
   "geometry": {
    "x": 7817877.3879857548,
    "y": 4097538.0721312175
   }
  },
  {
   "attributes": {
    "OBJECTID": 1004,
    "ولایت": "لغمان",
    "Province": "LAGHMAN",
    "PC_Code": "0702050",
    "District": "QARGHAYEE",
    "د_مرکز_نوم__نام_مرکز": "ددړه غرښوونځی",
    "Polling_Center_Name": "Dara Ghar School",
    "د_مرکز_ځای__موقعیت_مرکز": "دړه غر",
    "Polling_Center_Location": "Dara Ghar",
    "Map_Accuracy": "Building",
    "Map_Accuracy_Dari": "تعمیر",
    "Status": "Open",
    "Status_Dari": null,
    "PS_Male": 2,
    "PS_Female": 1,
    "PS_Total": 3,
    "ولسوالي": "قرغه یي",
    "Region": "Eastern Region"
   },
   "geometry": {
    "x": 7822005.1948544029,
    "y": 4096941.325980857
   }
  },
  {
   "attributes": {
    "OBJECTID": 1005,
    "ولایت": "لغمان",
    "Province": "LAGHMAN",
    "PC_Code": "0702051",
    "District": "QARGHAYEE",
    "د_مرکز_نوم__نام_مرکز": "د ګمبېري د احمدزيو د کوچيانو جومات ",
    "Polling_Center_Name": "Gambiri Ahmadzayo Kuchano Mosque",
    "د_مرکز_ځای__موقعیت_مرکز": "احمدزیو کلی",
    "Polling_Center_Location": "Ahmadzai Village",
    "Map_Accuracy": "Village",
    "Map_Accuracy_Dari": "قریه",
    "Status": "Open",
    "Status_Dari": null,
    "PS_Male": 1,
    "PS_Female": 2,
    "PS_Total": 3,
    "ولسوالي": "قرغه یي",
    "Region": "Eastern Region"
   },
   "geometry": {
    "x": 7829588.8507494247,
    "y": 4099959.196735194
   }
  },
  {
   "attributes": {
    "OBJECTID": 1006,
    "ولایت": "لغمان",
    "Province": "LAGHMAN",
    "PC_Code": "0702052",
    "District": "QARGHAYEE",
    "د_مرکز_نوم__نام_مرکز": "د کندي کلي د NSP تعمير",
    "Polling_Center_Name": "Kandi Village NSP Building",
    "د_مرکز_ځای__موقعیت_مرکز": "کندی",
    "Polling_Center_Location": "Kandi",
    "Map_Accuracy": "Village",
    "Map_Accuracy_Dari": "قریه",
    "Status": "Open",
    "Status_Dari": null,
    "PS_Male": 2,
    "PS_Female": 1,
    "PS_Total": 3,
    "ولسوالي": "قرغه یي",
    "Region": "Eastern Region"
   },
   "geometry": {
    "x": 7816039.5588525059,
    "y": 4106077.7735845023
   }
  },
  {
   "attributes": {
    "OBJECTID": 1007,
    "ولایت": "لغمان",
    "Province": "LAGHMAN",
    "PC_Code": "0703095",
    "District": "ALISHING",
    "د_مرکز_نوم__نام_مرکز": "دبارکزايو دهلکانو او نجونوښوونځي",
    "Polling_Center_Name": "Barakzai Boys & Girls School",
    "د_مرکز_ځای__موقعیت_مرکز": "بارکزی",
    "Polling_Center_Location": "Barakzai",
    "Map_Accuracy": "Building",
    "Map_Accuracy_Dari": "تعمیر",
    "Status": "Open",
    "Status_Dari": null,
    "PS_Male": 3,
    "PS_Female": 1,
    "PS_Total": 4,
    "ولسوالي": "علیشنګ",
    "Region": "Eastern Region"
   },
   "geometry": {
    "x": 7807067.6286822408,
    "y": 4125780.9401938864
   }
  },
  {
   "attributes": {
    "OBJECTID": 1008,
    "ولایت": "لغمان",
    "Province": "LAGHMAN",
    "PC_Code": "0703105",
    "District": "ALISHING",
    "د_مرکز_نوم__نام_مرکز": "د اړیني د کوچيانو جومات ",
    "Polling_Center_Name": "Areenai Kochi Village Mosque",
    "د_مرکز_ځای__موقعیت_مرکز": "اړینه",
    "Polling_Center_Location": "Areenai",
    "Map_Accuracy": "Building",
    "Map_Accuracy_Dari": "تعمیر",
    "Status": "Open",
    "Status_Dari": null,
    "PS_Male": 1,
    "PS_Female": 1,
    "PS_Total": 2,
    "ولسوالي": "علیشنګ",
    "Region": "Eastern Region"
   },
   "geometry": {
    "x": 7806916.7774138795,
    "y": 4132725.1587091731
   }
  },
  {
   "attributes": {
    "OBJECTID": 1009,
    "ولایت": "لغمان",
    "Province": "LAGHMAN",
    "PC_Code": "0704062",
    "District": "ALINGAR",
    "د_مرکز_نوم__نام_مرکز": "دانجنیرشېرمحمد لېسه اودنجونوښوونځی",
    "Polling_Center_Name": "Engineer Sher Mohammad High School and Girls School",
    "د_مرکز_ځای__موقعیت_مرکز": "علينګار مرکز",
    "Polling_Center_Location": "Alingar Center",
    "Map_Accuracy": "Building",
    "Map_Accuracy_Dari": "تعمیر",
    "Status": "Open",
    "Status_Dari": null,
    "PS_Male": 3,
    "PS_Female": 2,
    "PS_Total": 5,
    "ولسوالي": "علینګار",
    "Region": "Eastern Region"
   },
   "geometry": {
    "x": 7832905.206435075,
    "y": 4141104.9069478228
   }
  },
  {
   "attributes": {
    "OBJECTID": 1010,
    "ولایت": "لغمان",
    "Province": "LAGHMAN",
    "PC_Code": "0705121",
    "District": "DAWLAT SHAH",
    "د_مرکز_نوم__نام_مرکز": "د موړانایوا د کلی جومات ",
    "Polling_Center_Name": "Mor Anaywa Village Mosque",
    "د_مرکز_ځای__موقعیت_مرکز": "ویس سيمه دولت شاه",
    "Polling_Center_Location": "Wais Sema Dawlat Shah",
    "Map_Accuracy": "Village",
    "Map_Accuracy_Dari": "قریه",
    "Status": "Open",
    "Status_Dari": null,
    "PS_Male": 1,
    "PS_Female": 1,
    "PS_Total": 2,
    "ولسوالي": "دولت شاه",
    "Region": "Eastern Region"
   },
   "geometry": {
    "x": 7798850.8576548686,
    "y": 4158481.2342411461
   }
  },
  {
   "attributes": {
    "OBJECTID": 1011,
    "ولایت": "لغمان",
    "Province": "LAGHMAN",
    "PC_Code": "0705122",
    "District": "DAWLAT SHAH",
    "د_مرکز_نوم__نام_مرکز": "د بالا ده د کلي جومات ",
    "Polling_Center_Name": "Baladeh Village Mosque",
    "د_مرکز_ځای__موقعیت_مرکز": "بالا ده ",
    "Polling_Center_Location": "Dah Bala ",
    "Map_Accuracy": "Village",
    "Map_Accuracy_Dari": "قریه",
    "Status": "Open",
    "Status_Dari": null,
    "PS_Male": 1,
    "PS_Female": 1,
    "PS_Total": 2,
    "ولسوالي": "دولت شاه",
    "Region": "Eastern Region"
   },
   "geometry": {
    "x": 7785636.4760119757,
    "y": 4167375.5835681809
   }
  },
  {
   "attributes": {
    "OBJECTID": 1012,
    "ولایت": "پنجشیر",
    "Province": "PANJSHIR",
    "PC_Code": "0801007",
    "District": "BAZARAK",
    "د_مرکز_نوم__نام_مرکز": "مسجد جامع منجهور",
    "Polling_Center_Name": "Manjhor Mosque",
    "د_مرکز_ځای__موقعیت_مرکز": "منجهور",
    "Polling_Center_Location": "Manjhor",
    "Map_Accuracy": "Building",
    "Map_Accuracy_Dari": "تعمیر",
    "Status": "Open",
    "Status_Dari": null,
    "PS_Male": 2,
    "PS_Female": 1,
    "PS_Total": 3,
    "ولسوالي": " بازارک",
    "Region": "Central Region"
   },
   "geometry": {
    "x": 7742916.8878246108,
    "y": 4205421.4894483192
   }
  },
  {
   "attributes": {
    "OBJECTID": 1013,
    "ولایت": "پنجشیر",
    "Province": "PANJSHIR",
    "PC_Code": "0801008",
    "District": "BAZARAK",
    "د_مرکز_نوم__نام_مرکز": "مسجد داخل قریه منجهور",
    "Polling_Center_Name": "Manjhor Village  Mosque",
    "د_مرکز_ځای__موقعیت_مرکز": "منجهور",
    "Polling_Center_Location": "Manjhor",
    "Map_Accuracy": "Building",
    "Map_Accuracy_Dari": "تعمیر",
    "Status": "Open",
    "Status_Dari": null,
    "PS_Male": 1,
    "PS_Female": 1,
    "PS_Total": 2,
    "ولسوالي": " بازارک",
    "Region": "Central Region"
   },
   "geometry": {
    "x": 7742916.8878246108,
    "y": 4205421.4894483192
   }
  },
  {
   "attributes": {
    "OBJECTID": 1014,
    "ولایت": "پنجشیر",
    "Province": "PANJSHIR",
    "PC_Code": "0803043",
    "District": "DARAH",
    "د_مرکز_نوم__نام_مرکز": "لیسه ذکورکرامان",
    "Polling_Center_Name": "Kraman Boys School",
    "د_مرکز_ځای__موقعیت_مرکز": "کرامان ",
    "Polling_Center_Location": "Kraman",
    "Map_Accuracy": "Building",
    "Map_Accuracy_Dari": "تعمیر",
    "Status": "Open",
    "Status_Dari": null,
    "PS_Male": 3,
    "PS_Female": 1,
    "PS_Total": 4,
    "ولسوالي": "دره",
    "Region": "Central Region"
   },
   "geometry": {
    "x": 7754054.7479688963,
    "y": 4203771.3867853098
   }
  },
  {
   "attributes": {
    "OBJECTID": 1015,
    "ولایت": "پنجشیر",
    "Province": "PANJSHIR",
    "PC_Code": "0803044",
    "District": "DARAH",
    "د_مرکز_نوم__نام_مرکز": "لیسه نسوان کرامان",
    "Polling_Center_Name": "Kraman Girls School",
    "د_مرکز_ځای__موقعیت_مرکز": "کرامان ",
    "Polling_Center_Location": "Kraman",
    "Map_Accuracy": "Building",
    "Map_Accuracy_Dari": "تعمیر",
    "Status": "Open",
    "Status_Dari": null,
    "PS_Male": 2,
    "PS_Female": 2,
    "PS_Total": 4,
    "ولسوالي": "دره",
    "Region": "Central Region"
   },
   "geometry": {
    "x": 7753845.6476637805,
    "y": 4204166.4663790716
   }
  },
  {
   "attributes": {
    "OBJECTID": 1016,
    "ولایت": "پنجشیر",
    "Province": "PANJSHIR",
    "PC_Code": "0804009",
    "District": "HISSA-E-AWAL KHINJ",
    "د_مرکز_نوم__نام_مرکز": "مدرسه خنج",
    "Polling_Center_Name": "Khanj Madrassa",
    "د_مرکز_ځای__موقعیت_مرکز": "مرکز خنج",
    "Polling_Center_Location": "Markaz Khanj",
    "Map_Accuracy": "Building",
    "Map_Accuracy_Dari": "تعمیر",
    "Status": "Open",
    "Status_Dari": null,
    "PS_Male": 4,
    "PS_Female": 1,
    "PS_Total": 5,
    "ولسوالي": "حصه اول خنج",
    "Region": "Central Region"
   },
   "geometry": {
    "x": 7761647.5431941161,
    "y": 4221816.837504047
   }
  },
  {
   "attributes": {
    "OBJECTID": 1017,
    "ولایت": "پنجشیر",
    "Province": "PANJSHIR",
    "PC_Code": "0804010",
    "District": "HISSA-E-AWAL KHINJ",
    "د_مرکز_نوم__نام_مرکز": "لیسه سفید چهر",
    "Polling_Center_Name": "Safid Cheher High School",
    "د_مرکز_ځای__موقعیت_مرکز": "سفید چهر ",
    "Polling_Center_Location": "Safid Cheher ",
    "Map_Accuracy": "Village",
    "Map_Accuracy_Dari": "قریه",
    "Status": "Open",
    "Status_Dari": null,
    "PS_Male": 2,
    "PS_Female": 1,
    "PS_Total": 3,
    "ولسوالي": "حصه اول خنج",
    "Region": "Central Region"
   },
   "geometry": {
    "x": 7765627.4676852189,
    "y": 4225795.5192360338
   }
  },
  {
   "attributes": {
    "OBJECTID": 1018,
    "ولایت": "پنجشیر",
    "Province": "PANJSHIR",
    "PC_Code": "0804012",
    "District": "HISSA-E-AWAL KHINJ",
    "د_مرکز_نوم__نام_مرکز": "مسجد شابه ",
    "Polling_Center_Name": "Shaba Mosque",
    "د_مرکز_ځای__موقعیت_مرکز": "عمرز",
    "Polling_Center_Location": "Omarzai",
    "Map_Accuracy": "Building",
    "Map_Accuracy_Dari": "تعمیر",
    "Status": "Open",
    "Status_Dari": null,
    "PS_Male": 2,
    "PS_Female": 1,
    "PS_Total": 3,
    "ولسوالي": "حصه اول خنج",
    "Region": "Central Region"
   },
   "geometry": {
    "x": 7753400.2973429421,
    "y": 4216359.3605902456
   }
  },
  {
   "attributes": {
    "OBJECTID": 1019,
    "ولایت": "پنجشیر",
    "Province": "PANJSHIR",
    "PC_Code": "0804013",
    "District": "HISSA-E-AWAL KHINJ",
    "د_مرکز_نوم__نام_مرکز": "مکتب عمرز",
    "Polling_Center_Name": "Omarz School",
    "د_مرکز_ځای__موقعیت_مرکز": "عمرز",
    "Polling_Center_Location": "Omarz",
    "Map_Accuracy": "Building",
    "Map_Accuracy_Dari": "تعمیر",
    "Status": "Open",
    "Status_Dari": null,
    "PS_Male": 6,
    "PS_Female": 2,
    "PS_Total": 8,
    "ولسوالي": "حصه اول خنج",
    "Region": "Central Region"
   },
   "geometry": {
    "x": 7752785.5677376837,
    "y": 4216446.2849009782
   }
  },
  {
   "attributes": {
    "OBJECTID": 1020,
    "ولایت": "پنجشیر",
    "Province": "PANJSHIR",
    "PC_Code": "0804015",
    "District": "HISSA-E-AWAL KHINJ",
    "د_مرکز_نوم__نام_مرکز": "مدرسه خارو",
    "Polling_Center_Name": "Kharo Madrassa",
    "د_مرکز_ځای__موقعیت_مرکز": "خارو",
    "Polling_Center_Location": "Kharo",
    "Map_Accuracy": "Building",
    "Map_Accuracy_Dari": "تعمیر",
    "Status": "Open",
    "Status_Dari": null,
    "PS_Male": 1,
    "PS_Female": 1,
    "PS_Total": 2,
    "ولسوالي": "حصه اول خنج",
    "Region": "Central Region"
   },
   "geometry": {
    "x": 7758759.4269103734,
    "y": 4221751.5792679312
   }
  },
  {
   "attributes": {
    "OBJECTID": 1021,
    "ولایت": "پنجشیر",
    "Province": "PANJSHIR",
    "PC_Code": "0804016",
    "District": "HISSA-E-AWAL KHINJ",
    "د_مرکز_نوم__نام_مرکز": "مسجد درنامه",
    "Polling_Center_Name": "Darnama Mosque",
    "د_مرکز_ځای__موقعیت_مرکز": "درنامه",
    "Polling_Center_Location": "Darnama",
    "Map_Accuracy": "Village",
    "Map_Accuracy_Dari": "قریه",
    "Status": "Open",
    "Status_Dari": null,
    "PS_Male": 2,
    "PS_Female": 1,
    "PS_Total": 3,
    "ولسوالي": "حصه اول خنج",
    "Region": "Central Region"
   },
   "geometry": {
    "x": 7774491.3923459304,
    "y": 4232228.3749451442
   }
  },
  {
   "attributes": {
    "OBJECTID": 1022,
    "ولایت": "پنجشیر",
    "Province": "PANJSHIR",
    "PC_Code": "0804092",
    "District": "HISSA-E-AWAL KHINJ",
    "د_مرکز_نوم__نام_مرکز": "کلینیک دشت ریوت",
    "Polling_Center_Name": "Dasht -e-Rewet Clinic",
    "د_مرکز_ځای__موقعیت_مرکز": "دشت ریوت",
    "Polling_Center_Location": "Dasht-e-Rewet",
    "Map_Accuracy": "Village",
    "Map_Accuracy_Dari": "قریه",
    "Status": "Open",
    "Status_Dari": null,
    "PS_Male": 1,
    "PS_Female": 1,
    "PS_Total": 2,
    "ولسوالي": "حصه اول خنج",
    "Region": "Central Region"
   },
   "geometry": {
    "x": 7773625.5738368239,
    "y": 4231316.8197460407
   }
  },
  {
   "attributes": {
    "OBJECTID": 1023,
    "ولایت": "پنجشیر",
    "Province": "PANJSHIR",
    "PC_Code": "0805029",
    "District": "UNABA",
    "د_مرکز_نوم__نام_مرکز": "مکتب متوسط زمانکور",
    "Polling_Center_Name": "Zamankor Secondary School",
    "د_مرکز_ځای__موقعیت_مرکز": "زمانکور",
    "Polling_Center_Location": "Zamankor",
    "Map_Accuracy": "Building",
    "Map_Accuracy_Dari": "تعمیر",
    "Status": "Open",
    "Status_Dari": null,
    "PS_Male": 2,
    "PS_Female": 1,
    "PS_Total": 3,
    "ولسوالي": "عنابه",
    "Region": "Central Region"
   },
   "geometry": {
    "x": 7719536.7546227314,
    "y": 4195260.6444612853
   }
  },
  {
   "attributes": {
    "OBJECTID": 1024,
    "ولایت": "پنجشیر",
    "Province": "PANJSHIR",
    "PC_Code": "0807068",
    "District": "PARYAN",
    "د_مرکز_نوم__نام_مرکز": "لیسه کوجان",
    "Polling_Center_Name": "Kojan High School",
    "د_مرکز_ځای__موقعیت_مرکز": "کوجان وجشته ",
    "Polling_Center_Location": "Kojan Wajshta ",
    "Map_Accuracy": "Building",
    "Map_Accuracy_Dari": "تعمیر",
    "Status": "Open",
    "Status_Dari": null,
    "PS_Male": 1,
    "PS_Female": 1,
    "PS_Total": 2,
    "ولسوالي": "پریان",
    "Region": "Central Region"
   },
   "geometry": {
    "x": 7797760.3084709495,
    "y": 4252071.1494063325
   }
  },
  {
   "attributes": {
    "OBJECTID": 1025,
    "ولایت": "پنجشیر",
    "Province": "PANJSHIR",
    "PC_Code": "0807069",
    "District": "PARYAN",
    "د_مرکز_نوم__نام_مرکز": "مسجد جامع قلعه ",
    "Polling_Center_Name": "Qala Mosque ",
    "د_مرکز_ځای__موقعیت_مرکز": "قلعه",
    "Polling_Center_Location": "Qala",
    "Map_Accuracy": "Village",
    "Map_Accuracy_Dari": "قریه",
    "Status": "Open",
    "Status_Dari": null,
    "PS_Male": 2,
    "PS_Female": 1,
    "PS_Total": 3,
    "ولسوالي": "پریان",
    "Region": "Central Region"
   },
   "geometry": {
    "x": 7792946.6176917274,
    "y": 4248638.6971753091
   }
  },
  {
   "attributes": {
    "OBJECTID": 1026,
    "ولایت": "پنجشیر",
    "Province": "PANJSHIR",
    "PC_Code": "0807077",
    "District": "PARYAN",
    "د_مرکز_نوم__نام_مرکز": "مسجد شال کچه",
    "Polling_Center_Name": "Shal Kacha Mosque ",
    "د_مرکز_ځای__موقعیت_مرکز": "شال کچه",
    "Polling_Center_Location": "Shal Kacha",
    "Map_Accuracy": "Village",
    "Map_Accuracy_Dari": "قریه",
    "Status": "Open",
    "Status_Dari": null,
    "PS_Male": 1,
    "PS_Female": 1,
    "PS_Total": 2,
    "ولسوالي": "پریان",
    "Region": "Central Region"
   },
   "geometry": {
    "x": 7798152.1737839663,
    "y": 4256936.3796986686
   }
  },
  {
   "attributes": {
    "OBJECTID": 1027,
    "ولایت": "پنجشیر",
    "Province": "PANJSHIR",
    "PC_Code": "0807078",
    "District": "PARYAN",
    "د_مرکز_نوم__نام_مرکز": "مکتب دوآبی خاواک",
    "Polling_Center_Name": "Du Aabi Khawaak School",
    "د_مرکز_ځای__موقعیت_مرکز": "دوی آبی خاواک",
    "Polling_Center_Location": "Du Aabi Khawaak",
    "Map_Accuracy": "Village",
    "Map_Accuracy_Dari": "قریه",
    "Status": "Open",
    "Status_Dari": null,
    "PS_Male": 1,
    "PS_Female": 1,
    "PS_Total": 2,
    "ولسوالي": "پریان",
    "Region": "Central Region"
   },
   "geometry": {
    "x": 7781887.7097830856,
    "y": 4241556.023046772
   }
  },
  {
   "attributes": {
    "OBJECTID": 1028,
    "ولایت": "پنجشیر",
    "Province": "PANJSHIR",
    "PC_Code": "0808052",
    "District": "ABSHAR",
    "د_مرکز_نوم__نام_مرکز": "مکتب نسوان آستانه ",
    "Polling_Center_Name": "Astana Girls School ",
    "د_مرکز_ځای__موقعیت_مرکز": "آستانه ",
    "Polling_Center_Location": "Astana ",
    "Map_Accuracy": "Village",
    "Map_Accuracy_Dari": "قریه",
    "Status": "Open",
    "Status_Dari": null,
    "PS_Male": 1,
    "PS_Female": 1,
    "PS_Total": 2,
    "ولسوالي": "آبشار",
    "Region": "Central Region"
   },
   "geometry": {
    "x": 7780444.2366251368,
    "y": 4202856.045818096
   }
  },
  {
   "attributes": {
    "OBJECTID": 1029,
    "ولایت": "پنجشیر",
    "Province": "PANJSHIR",
    "PC_Code": "0808053",
    "District": "ABSHAR",
    "د_مرکز_نوم__نام_مرکز": "مکتب ذکور آستانه ",
    "Polling_Center_Name": "Astana Boys School ",
    "د_مرکز_ځای__موقعیت_مرکز": "آستانه کلان ",
    "Polling_Center_Location": "Astana Kalan",
    "Map_Accuracy": "Village",
    "Map_Accuracy_Dari": "قریه",
    "Status": "Open",
    "Status_Dari": null,
    "PS_Male": 1,
    "PS_Female": 1,
    "PS_Total": 2,
    "ولسوالي": "آبشار",
    "Region": "Central Region"
   },
   "geometry": {
    "x": 7775443.5803083479,
    "y": 4196930.8223744491
   }
  },
  {
   "attributes": {
    "OBJECTID": 1030,
    "ولایت": "بغلان",
    "Province": "BAGHLAN",
    "PC_Code": "0901001",
    "District": "PUL-E-KHUMRI",
    "د_مرکز_نوم__نام_مرکز": "لیسه نسوان حوا",
    "Polling_Center_Name": "Hawa Girls High School",
    "د_مرکز_ځای__موقعیت_مرکز": "ناحیه سوم",
    "Polling_Center_Location": "Third Nahia",
    "Map_Accuracy": "Building",
    "Map_Accuracy_Dari": "تعمیر",
    "Status": "Open",
    "Status_Dari": null,
    "PS_Male": 5,
    "PS_Female": 4,
    "PS_Total": 9,
    "ولسوالي": "پلخمری",
    "Region": "North Eastern Region"
   },
   "geometry": {
    "x": 7648839.9412402809,
    "y": 4293789.9106749464
   }
  },
  {
   "attributes": {
    "OBJECTID": 1031,
    "ولایت": "بغلان",
    "Province": "BAGHLAN",
    "PC_Code": "0901002",
    "District": "PUL-E-KHUMRI",
    "د_مرکز_نوم__نام_مرکز": "لیسه حضرت حمزه",
    "Polling_Center_Name": "Hazrat Hamza High School",
    "د_مرکز_ځای__موقعیت_مرکز": "ناحیه سوم",
    "Polling_Center_Location": "Third Nahia",
    "Map_Accuracy": "Building",
    "Map_Accuracy_Dari": "تعمیر",
    "Status": "Open",
    "Status_Dari": null,
    "PS_Male": 3,
    "PS_Female": 3,
    "PS_Total": 6,
    "ولسوالي": "پلخمری",
    "Region": "North Eastern Region"
   },
   "geometry": {
    "x": 7647347.5565244695,
    "y": 4296628.1312313527
   }
  },
  {
   "attributes": {
    "OBJECTID": 1032,
    "ولایت": "پنجشیر",
    "Province": "PANJSHIR",
    "PC_Code": "0801002",
    "District": "BAZARAK",
    "د_مرکز_نوم__نام_مرکز": "مسجد جامع سنگانه",
    "Polling_Center_Name": "Sangana Mosque",
    "د_مرکز_ځای__موقعیت_مرکز": "سنگانه",
    "Polling_Center_Location": "Sangana",
    "Map_Accuracy": "Building",
    "Map_Accuracy_Dari": "تعمیر",
    "Status": "Open",
    "Status_Dari": null,
    "PS_Male": 2,
    "PS_Female": 2,
    "PS_Total": 4,
    "ولسوالي": " بازارک",
    "Region": "Central Region"
   },
   "geometry": {
    "x": 7746842.2535200818,
    "y": 4211757.5296758637
   }
  },
  {
   "attributes": {
    "OBJECTID": 1033,
    "ولایت": "پنجشیر",
    "Province": "PANJSHIR",
    "PC_Code": "0801003",
    "District": "BAZARAK",
    "د_مرکز_نوم__نام_مرکز": "مسجد جامع ملسپه ",
    "Polling_Center_Name": "Malsapa Mosque",
    "د_مرکز_ځای__موقعیت_مرکز": "ملسپه",
    "Polling_Center_Location": "Malsapa",
    "Map_Accuracy": "Building",
    "Map_Accuracy_Dari": "تعمیر",
    "Status": "Open",
    "Status_Dari": null,
    "PS_Male": 2,
    "PS_Female": 2,
    "PS_Total": 4,
    "ولسوالي": " بازارک",
    "Region": "Central Region"
   },
   "geometry": {
    "x": 7741340.5259113349,
    "y": 4207783.2042273562
   }
  },
  {
   "attributes": {
    "OBJECTID": 1034,
    "ولایت": "پنجشیر",
    "Province": "PANJSHIR",
    "PC_Code": "0803056",
    "District": "DARAH",
    "د_مرکز_نوم__نام_مرکز": "مکتب نسوان تمبنه",
    "Polling_Center_Name": "Tambina Girls School",
    "د_مرکز_ځای__موقعیت_مرکز": "تمبنه ",
    "Polling_Center_Location": "Tambina",
    "Map_Accuracy": "Building",
    "Map_Accuracy_Dari": "تعمیر",
    "Status": "Open",
    "Status_Dari": null,
    "PS_Male": 1,
    "PS_Female": 1,
    "PS_Total": 2,
    "ولسوالي": "دره",
    "Region": "Central Region"
   },
   "geometry": {
    "x": 7752671.0400191676,
    "y": 4207755.5828437489
   }
  },
  {
   "attributes": {
    "OBJECTID": 1035,
    "ولایت": "پنجشیر",
    "Province": "PANJSHIR",
    "PC_Code": "0803059",
    "District": "DARAH",
    "د_مرکز_نوم__نام_مرکز": "کلینیک تندخو ",
    "Polling_Center_Name": "Tund Kho Clinic",
    "د_مرکز_ځای__موقعیت_مرکز": "تندخو ",
    "Polling_Center_Location": "Tund kho",
    "Map_Accuracy": "Building",
    "Map_Accuracy_Dari": "تعمیر",
    "Status": "Open",
    "Status_Dari": null,
    "PS_Male": 1,
    "PS_Female": 1,
    "PS_Total": 2,
    "ولسوالي": "دره",
    "Region": "Central Region"
   },
   "geometry": {
    "x": 7752083.6215377869,
    "y": 4200551.1408380819
   }
  },
  {
   "attributes": {
    "OBJECTID": 1036,
    "ولایت": "پنجشیر",
    "Province": "PANJSHIR",
    "PC_Code": "0805031",
    "District": "UNABA",
    "د_مرکز_نوم__نام_مرکز": "لیسه نسوان عنابه ",
    "Polling_Center_Name": "Hanaba Girls School",
    "د_مرکز_ځای__موقعیت_مرکز": "عنابه ",
    "Polling_Center_Location": "Unaba",
    "Map_Accuracy": "Building",
    "Map_Accuracy_Dari": "تعمیر",
    "Status": "Open",
    "Status_Dari": null,
    "PS_Male": 3,
    "PS_Female": 1,
    "PS_Total": 4,
    "ولسوالي": "عنابه",
    "Region": "Central Region"
   },
   "geometry": {
    "x": 7722325.1698309351,
    "y": 4195501.5635197656
   }
  },
  {
   "attributes": {
    "OBJECTID": 1037,
    "ولایت": "پنجشیر",
    "Province": "PANJSHIR",
    "PC_Code": "0805032",
    "District": "UNABA",
    "د_مرکز_نوم__نام_مرکز": "لیسه ذکورفراج",
    "Polling_Center_Name": "Faraj Boys School",
    "د_مرکز_ځای__موقعیت_مرکز": "فراج",
    "Polling_Center_Location": "Faraj",
    "Map_Accuracy": "Building",
    "Map_Accuracy_Dari": "تعمیر",
    "Status": "Open",
    "Status_Dari": null,
    "PS_Male": 3,
    "PS_Female": 0,
    "PS_Total": 3,
    "ولسوالي": "عنابه",
    "Region": "Central Region"
   },
   "geometry": {
    "x": 7721983.157393394,
    "y": 4192253.1379460269
   }
  },
  {
   "attributes": {
    "OBJECTID": 1038,
    "ولایت": "پنجشیر",
    "Province": "PANJSHIR",
    "PC_Code": "0805039",
    "District": "UNABA",
    "د_مرکز_نوم__نام_مرکز": "مکتب متوسطه شوفه ",
    "Polling_Center_Name": "Shofa Secondary School ",
    "د_مرکز_ځای__موقعیت_مرکز": "شوفه آبدره",
    "Polling_Center_Location": "Shfa-e- Aabdara ",
    "Map_Accuracy": "Building",
    "Map_Accuracy_Dari": "تعمیر",
    "Status": "Open",
    "Status_Dari": null,
    "PS_Male": 1,
    "PS_Female": 1,
    "PS_Total": 2,
    "ولسوالي": "عنابه",
    "Region": "Central Region"
   },
   "geometry": {
    "x": 7731723.9612678131,
    "y": 4193194.1000417015
   }
  },
  {
   "attributes": {
    "OBJECTID": 1039,
    "ولایت": "پنجشیر",
    "Province": "PANJSHIR",
    "PC_Code": "0805040",
    "District": "UNABA",
    "د_مرکز_نوم__نام_مرکز": "مکتب متوسطه ذکور دربند",
    "Polling_Center_Name": "Dar Band  Boys Secondary School ",
    "د_مرکز_ځای__موقعیت_مرکز": "دربند فراج",
    "Polling_Center_Location": "Dar Band Faraj",
    "Map_Accuracy": "Building",
    "Map_Accuracy_Dari": "تعمیر",
    "Status": "Open",
    "Status_Dari": null,
    "PS_Male": 1,
    "PS_Female": 1,
    "PS_Total": 2,
    "ولسوالي": "عنابه",
    "Region": "Central Region"
   },
   "geometry": {
    "x": 7718628.1983347218,
    "y": 4188791.4993419526
   }
  },
  {
   "attributes": {
    "OBJECTID": 1040,
    "ولایت": "پنجشیر",
    "Province": "PANJSHIR",
    "PC_Code": "0805042",
    "District": "UNABA",
    "د_مرکز_نوم__نام_مرکز": "چمن قلعچه",
    "Polling_Center_Name": "Chaman Qala",
    "د_مرکز_ځای__موقعیت_مرکز": "قلعچه ",
    "Polling_Center_Location": "Qalaja",
    "Map_Accuracy": "Building",
    "Map_Accuracy_Dari": "تعمیر",
    "Status": "Open",
    "Status_Dari": null,
    "PS_Male": 1,
    "PS_Female": 1,
    "PS_Total": 2,
    "ولسوالي": "عنابه",
    "Region": "Central Region"
   },
   "geometry": {
    "x": 7722710.8940929202,
    "y": 4194435.6142393826
   }
  },
  {
   "attributes": {
    "OBJECTID": 1041,
    "ولایت": "پنجشیر",
    "Province": "PANJSHIR",
    "PC_Code": "0806084",
    "District": "SHUTUL",
    "د_مرکز_نوم__نام_مرکز": "مسجد ده کلان ",
    "Polling_Center_Name": "Deh Kalan Mosque",
    "د_مرکز_ځای__موقعیت_مرکز": "ده کلان",
    "Polling_Center_Location": "Deh Kalan",
    "Map_Accuracy": "Village",
    "Map_Accuracy_Dari": "قریه",
    "Status": "Open",
    "Status_Dari": null,
    "PS_Male": 2,
    "PS_Female": 1,
    "PS_Total": 3,
    "ولسوالي": "شتل",
    "Region": "Central Region"
   },
   "geometry": {
    "x": 7711503.1141764643,
    "y": 4190261.184898708
   }
  },
  {
   "attributes": {
    "OBJECTID": 1042,
    "ولایت": "پنجشیر",
    "Province": "PANJSHIR",
    "PC_Code": "0808049",
    "District": "ABSHAR",
    "د_مرکز_نوم__نام_مرکز": "مسجد جامع ",
    "Polling_Center_Name": "Mosque ",
    "د_مرکز_ځای__موقعیت_مرکز": "سنگی خان ",
    "Polling_Center_Location": "Sangee Khan",
    "Map_Accuracy": "Village",
    "Map_Accuracy_Dari": "قریه",
    "Status": "Open",
    "Status_Dari": null,
    "PS_Male": 1,
    "PS_Female": 1,
    "PS_Total": 2,
    "ولسوالي": "آبشار",
    "Region": "Central Region"
   },
   "geometry": {
    "x": 7761808.8618341973,
    "y": 4197847.7771379407
   }
  },
  {
   "attributes": {
    "OBJECTID": 1043,
    "ولایت": "پنجشیر",
    "Province": "PANJSHIR",
    "PC_Code": "0808050",
    "District": "ABSHAR",
    "د_مرکز_نوم__نام_مرکز": "لیسه اناث",
    "Polling_Center_Name": "Girls High  School",
    "د_مرکز_ځای__موقعیت_مرکز": "دوست علی",
    "Polling_Center_Location": "Dost Ali",
    "Map_Accuracy": "Village",
    "Map_Accuracy_Dari": "قریه",
    "Status": "Open",
    "Status_Dari": null,
    "PS_Male": 1,
    "PS_Female": 2,
    "PS_Total": 3,
    "ولسوالي": "آبشار",
    "Region": "Central Region"
   },
   "geometry": {
    "x": 7764200.3262097677,
    "y": 4198057.0359905735
   }
  },
  {
   "attributes": {
    "OBJECTID": 1044,
    "ولایت": "پنجشیر",
    "Province": "PANJSHIR",
    "PC_Code": "0803100",
    "District": "DARAH",
    "د_مرکز_نوم__نام_مرکز": "مسجد اسکنیاز",
    "Polling_Center_Name": "Askan yar Mosque",
    "د_مرکز_ځای__موقعیت_مرکز": "اسکنیاز",
    "Polling_Center_Location": "Askanyar",
    "Map_Accuracy": "Building",
    "Map_Accuracy_Dari": "تعمیر",
    "Status": "Open",
    "Status_Dari": null,
    "PS_Male": 2,
    "PS_Female": 1,
    "PS_Total": 3,
    "ولسوالي": "دره",
    "Region": "Central Region"
   },
   "geometry": {
    "x": 7755968.9974872982,
    "y": 4203865.0254207514
   }
  },
  {
   "attributes": {
    "OBJECTID": 1045,
    "ولایت": "پنجشیر",
    "Province": "PANJSHIR",
    "PC_Code": "0803101",
    "District": "DARAH",
    "د_مرکز_نوم__نام_مرکز": "مکتب نسوان عبدالله خیل",
    "Polling_Center_Name": "Abdullah khil Female mosque",
    "د_مرکز_ځای__موقعیت_مرکز": "مرجان عبدالله خیل",
    "Polling_Center_Location": "Marjan abdullah khil",
    "Map_Accuracy": "Building",
    "Map_Accuracy_Dari": "تعمیر",
    "Status": "Open",
    "Status_Dari": null,
    "PS_Male": 2,
    "PS_Female": 1,
    "PS_Total": 3,
    "ولسوالي": "دره",
    "Region": "Central Region"
   },
   "geometry": {
    "x": 7748594.45225011,
    "y": 4196705.2180541167
   }
  },
  {
   "attributes": {
    "OBJECTID": 1046,
    "ولایت": "بغلان",
    "Province": "BAGHLAN",
    "PC_Code": "0901023",
    "District": "PUL-E-KHUMRI",
    "د_مرکز_نوم__نام_مرکز": " مکتب بالادوری",
    "Polling_Center_Name": "Bala Dori School",
    "د_مرکز_ځای__موقعیت_مرکز": "ناحیه سوم",
    "Polling_Center_Location": "Third Nahia",
    "Map_Accuracy": "Building",
    "Map_Accuracy_Dari": "تعمیر",
    "Status": "Open",
    "Status_Dari": null,
    "PS_Male": 3,
    "PS_Female": 1,
    "PS_Total": 4,
    "ولسوالي": "پلخمری",
    "Region": "North Eastern Region"
   },
   "geometry": {
    "x": 7644504.1684121285,
    "y": 4306969.4283296783
   }
  },
  {
   "attributes": {
    "OBJECTID": 1047,
    "ولایت": "بغلان",
    "Province": "BAGHLAN",
    "PC_Code": "0901232",
    "District": "PUL-E-KHUMRI",
    "د_مرکز_نوم__نام_مرکز": "مسجد غروشاخ نافیل",
    "Polling_Center_Name": "Gheroshakh Nafil Mosque",
    "د_مرکز_ځای__موقعیت_مرکز": "غروشاخ نافیل",
    "Polling_Center_Location": "Gheroshakh Nafil ",
    "Map_Accuracy": "Building",
    "Map_Accuracy_Dari": "تعمیر",
    "Status": "Open",
    "Status_Dari": null,
    "PS_Male": 2,
    "PS_Female": 1,
    "PS_Total": 3,
    "ولسوالي": "پلخمری",
    "Region": "North Eastern Region"
   },
   "geometry": {
    "x": 7636393.2455225764,
    "y": 4299495.379723439
   }
  },
  {
   "attributes": {
    "OBJECTID": 1048,
    "ولایت": "بغلان",
    "Province": "BAGHLAN",
    "PC_Code": "0902075",
    "District": "DAHANA-E-GHURI",
    "د_مرکز_نوم__نام_مرکز": "مکتب جنگآغلی",
    "Polling_Center_Name": "Jangaghli School",
    "د_مرکز_ځای__موقعیت_مرکز": "جنگاغلی",
    "Polling_Center_Location": "Jangaghli",
    "Map_Accuracy": "Building",
    "Map_Accuracy_Dari": "تعمیر",
    "Status": "Open",
    "Status_Dari": null,
    "PS_Male": 1,
    "PS_Female": 3,
    "PS_Total": 4,
    "ولسوالي": "دهنه غوری",
    "Region": "North Eastern Region"
   },
   "geometry": {
    "x": 7618669.6530584786,
    "y": 4299881.0364127643
   }
  },
  {
   "attributes": {
    "OBJECTID": 1049,
    "ولایت": "بغلان",
    "Province": "BAGHLAN",
    "PC_Code": "0902090",
    "District": "DAHANA-E-GHURI",
    "د_مرکز_نوم__نام_مرکز": "پهلوی مکتب مسجد قمبرعلی محمد",
    "Polling_Center_Name": "Qambar Ali Mohammad Mosque",
    "د_مرکز_ځای__موقعیت_مرکز": "قمبرعلی محمد",
    "Polling_Center_Location": "Qambar Ali Mohammad near school",
    "Map_Accuracy": "Building",
    "Map_Accuracy_Dari": "تعمیر",
    "Status": "Open",
    "Status_Dari": null,
    "PS_Male": 2,
    "PS_Female": 1,
    "PS_Total": 3,
    "ولسوالي": "دهنه غوری",
    "Region": "North Eastern Region"
   },
   "geometry": {
    "x": 7640648.3573608939,
    "y": 4271326.0962680532
   }
  },
  {
   "attributes": {
    "OBJECTID": 1050,
    "ولایت": "بغلان",
    "Province": "BAGHLAN",
    "PC_Code": "0902091",
    "District": "DAHANA-E-GHURI",
    "د_مرکز_نوم__نام_مرکز": "پهلوی حدرانه مسجد قنداری قشلاق",
    "Polling_Center_Name": "Qandari Mosque",
    "د_مرکز_ځای__موقعیت_مرکز": "قشلاق",
    "Polling_Center_Location": "Qeshlaq",
    "Map_Accuracy": "Building",
    "Map_Accuracy_Dari": "تعمیر",
    "Status": "Open",
    "Status_Dari": null,
    "PS_Male": 1,
    "PS_Female": 1,
    "PS_Total": 2,
    "ولسوالي": "دهنه غوری",
    "Region": "North Eastern Region"
   },
   "geometry": {
    "x": 7625722.5327233402,
    "y": 4289623.5719262781
   }
  },
  {
   "attributes": {
    "OBJECTID": 1051,
    "ولایت": "بغلان",
    "Province": "BAGHLAN",
    "PC_Code": "0903103",
    "District": "DUSHI",
    "د_مرکز_نوم__نام_مرکز": "لیسه  کیله گی",
    "Polling_Center_Name": "Kela Gai",
    "د_مرکز_ځای__موقعیت_مرکز": "قریه کیله گی",
    "Polling_Center_Location": "Kela Gai Village",
    "Map_Accuracy": "Building",
    "Map_Accuracy_Dari": "تعمیر",
    "Status": "Open",
    "Status_Dari": null,
    "PS_Male": 2,
    "PS_Female": 2,
    "PS_Total": 4,
    "ولسوالي": "دوشی",
    "Region": "North Eastern Region"
   },
   "geometry": {
    "x": 7659112.6786222858,
    "y": 4272398.5960215796
   }
  },
  {
   "attributes": {
    "OBJECTID": 1052,
    "ولایت": "بغلان",
    "Province": "BAGHLAN",
    "PC_Code": "0903104",
    "District": "DUSHI",
    "د_مرکز_نوم__نام_مرکز": "لیسه کنده سنگ",
    "Polling_Center_Name": "Poshta Konda Sang High School",
    "د_مرکز_ځای__موقعیت_مرکز": "پشته کنده سنگ",
    "Polling_Center_Location": "Poshta Konda Sang",
    "Map_Accuracy": "Building",
    "Map_Accuracy_Dari": "تعمیر",
    "Status": "Open",
    "Status_Dari": null,
    "PS_Male": 3,
    "PS_Female": 1,
    "PS_Total": 4,
    "ولسوالي": "دوشی",
    "Region": "North Eastern Region"
   },
   "geometry": {
    "x": 7636393.3791059637,
    "y": 4244998.1172597576
   }
  },
  {
   "attributes": {
    "OBJECTID": 1053,
    "ولایت": "بغلان",
    "Province": "BAGHLAN",
    "PC_Code": "0903107",
    "District": "DUSHI",
    "د_مرکز_نوم__نام_مرکز": "مکتب لرخواب ",
    "Polling_Center_Name": "Lar Khawb School",
    "د_مرکز_ځای__موقعیت_مرکز": "دره لرخواب",
    "Polling_Center_Location": "Dara-e-Lar Khawb",
    "Map_Accuracy": "Building",
    "Map_Accuracy_Dari": "تعمیر",
    "Status": "Open",
    "Status_Dari": null,
    "PS_Male": 3,
    "PS_Female": 1,
    "PS_Total": 4,
    "ولسوالي": "دوشی",
    "Region": "North Eastern Region"
   },
   "geometry": {
    "x": 7663210.78767718,
    "y": 4268270.2304158919
   }
  },
  {
   "attributes": {
    "OBJECTID": 1054,
    "ولایت": "بغلان",
    "Province": "BAGHLAN",
    "PC_Code": "0903108",
    "District": "DUSHI",
    "د_مرکز_نوم__نام_مرکز": "مدرسه جامع خواجه زید ",
    "Polling_Center_Name": "Khwaja Zaid Madrassa",
    "د_مرکز_ځای__موقعیت_مرکز": "خواجه زید",
    "Polling_Center_Location": "Khwaja Zaid",
    "Map_Accuracy": "Building",
    "Map_Accuracy_Dari": "تعمیر",
    "Status": "Open",
    "Status_Dari": null,
    "PS_Male": 3,
    "PS_Female": 1,
    "PS_Total": 4,
    "ولسوالي": "دوشی",
    "Region": "North Eastern Region"
   },
   "geometry": {
    "x": 7647894.2543361187,
    "y": 4241914.4750054162
   }
  },
  {
   "attributes": {
    "OBJECTID": 1055,
    "ولایت": "بغلان",
    "Province": "BAGHLAN",
    "PC_Code": "0904128",
    "District": "NAHREEN",
    "د_مرکز_نوم__نام_مرکز": "مکتب حضرت عثمان ",
    "Polling_Center_Name": "Hazrat Osman High School",
    "د_مرکز_ځای__موقعیت_مرکز": "ترکصیاد",
    "Polling_Center_Location": "Turksayad",
    "Map_Accuracy": "Building",
    "Map_Accuracy_Dari": "تعمیر",
    "Status": "Open",
    "Status_Dari": null,
    "PS_Male": 2,
    "PS_Female": 2,
    "PS_Total": 4,
    "ولسوالي": "نهرین",
    "Region": "North Eastern Region"
   },
   "geometry": {
    "x": 7686023.6823949683,
    "y": 4309973.9446087619
   }
  },
  {
   "attributes": {
    "OBJECTID": 1056,
    "ولایت": "بغلان",
    "Province": "BAGHLAN",
    "PC_Code": "0904129",
    "District": "NAHREEN",
    "د_مرکز_نوم__نام_مرکز": "مسجد سالنگی ",
    "Polling_Center_Name": "Salangi Mosque",
    "د_مرکز_ځای__موقعیت_مرکز": "بادام دره سالنگی",
    "Polling_Center_Location": "Badam Dara Salengi",
    "Map_Accuracy": "Building",
    "Map_Accuracy_Dari": "تعمیر",
    "Status": "Open",
    "Status_Dari": null,
    "PS_Male": 2,
    "PS_Female": 1,
    "PS_Total": 3,
    "ولسوالي": "نهرین",
    "Region": "North Eastern Region"
   },
   "geometry": {
    "x": 7680237.523468486,
    "y": 4292910.5672226232
   }
  },
  {
   "attributes": {
    "OBJECTID": 1057,
    "ولایت": "بغلان",
    "Province": "BAGHLAN",
    "PC_Code": "0904140",
    "District": "NAHREEN",
    "د_مرکز_نوم__نام_مرکز": "مکتب نسوان شهر قدیم ",
    "Polling_Center_Name": "Shahr-e-Qadim Grils School",
    "د_مرکز_ځای__موقعیت_مرکز": "شهر قدیم نهرین ",
    "Polling_Center_Location": "Shahri Qadim Nahreen",
    "Map_Accuracy": "Building",
    "Map_Accuracy_Dari": "تعمیر",
    "Status": "Open",
    "Status_Dari": null,
    "PS_Male": 2,
    "PS_Female": 1,
    "PS_Total": 3,
    "ولسوالي": "نهرین",
    "Region": "North Eastern Region"
   },
   "geometry": {
    "x": 7695823.758332259,
    "y": 4310005.8082845714
   }
  },
  {
   "attributes": {
    "OBJECTID": 1058,
    "ولایت": "بغلان",
    "Province": "BAGHLAN",
    "PC_Code": "0904141",
    "District": "NAHREEN",
    "د_مرکز_نوم__نام_مرکز": "مکتب تلی ها",
    "Polling_Center_Name": "Taliha School",
    "د_مرکز_ځای__موقعیت_مرکز": "تلی ها",
    "Polling_Center_Location": "Tali Ha",
    "Map_Accuracy": "Building",
    "Map_Accuracy_Dari": "تعمیر",
    "Status": "Open",
    "Status_Dari": null,
    "PS_Male": 2,
    "PS_Female": 1,
    "PS_Total": 3,
    "ولسوالي": "نهرین",
    "Region": "North Eastern Region"
   },
   "geometry": {
    "x": 7678867.7471530344,
    "y": 4316408.4004258942
   }
  },
  {
   "attributes": {
    "OBJECTID": 1059,
    "ولایت": "بغلان",
    "Province": "BAGHLAN",
    "PC_Code": "0904144",
    "District": "NAHREEN",
    "د_مرکز_نوم__نام_مرکز": "مکتب الحاقیه خواجه خضر",
    "Polling_Center_Name": "Alhaqia Khawaja Khezr School",
    "د_مرکز_ځای__موقعیت_مرکز": "بزدره",
    "Polling_Center_Location": "Boz Dara",
    "Map_Accuracy": "Building",
    "Map_Accuracy_Dari": "تعمیر",
    "Status": "Open",
    "Status_Dari": null,
    "PS_Male": 2,
    "PS_Female": 1,
    "PS_Total": 3,
    "ولسوالي": "نهرین",
    "Region": "North Eastern Region"
   },
   "geometry": {
    "x": 7690906.6539724767,
    "y": 4296290.6738329837
   }
  },
  {
   "attributes": {
    "OBJECTID": 1060,
    "ولایت": "بغلان",
    "Province": "BAGHLAN",
    "PC_Code": "0904145",
    "District": "NAHREEN",
    "د_مرکز_نوم__نام_مرکز": "مسجد جامع قریه وتر چی",
    "Polling_Center_Name": "Woterchi Village Jamae Mosque",
    "د_مرکز_ځای__موقعیت_مرکز": "وتر چی",
    "Polling_Center_Location": "Wetr Chi",
    "Map_Accuracy": "Building",
    "Map_Accuracy_Dari": "تعمیر",
    "Status": "Open",
    "Status_Dari": null,
    "PS_Male": 2,
    "PS_Female": 1,
    "PS_Total": 3,
    "ولسوالي": "نهرین",
    "Region": "North Eastern Region"
   },
   "geometry": {
    "x": 7676521.3315489963,
    "y": 4289211.1650218703
   }
  },
  {
   "attributes": {
    "OBJECTID": 1061,
    "ولایت": "بغلان",
    "Province": "BAGHLAN",
    "PC_Code": "0904246",
    "District": "NAHREEN",
    "د_مرکز_نوم__نام_مرکز": " مدرسه لوزک",
    "Polling_Center_Name": "Lozok Madressa",
    "د_مرکز_ځای__موقعیت_مرکز": "مدرسه لوزک ",
    "Polling_Center_Location": "Madrassa Lozok",
    "Map_Accuracy": "Building",
    "Map_Accuracy_Dari": "تعمیر",
    "Status": "Open",
    "Status_Dari": null,
    "PS_Male": 2,
    "PS_Female": 1,
    "PS_Total": 3,
    "ولسوالي": "نهرین",
    "Region": "North Eastern Region"
   },
   "geometry": {
    "x": 7681159.629564913,
    "y": 4306500.6221197126
   }
  },
  {
   "attributes": {
    "OBJECTID": 1062,
    "ولایت": "بغلان",
    "Province": "BAGHLAN",
    "PC_Code": "0905042",
    "District": "BAGLAN-E-JADEED",
    "د_مرکز_نوم__نام_مرکز": "کلپ ورزشی بغلان جدید",
    "Polling_Center_Name": "Baghlan-e- Jadeed Sport Club",
    "د_مرکز_ځای__موقعیت_مرکز": "شهربغلان",
    "Polling_Center_Location": "Baghlan City",
    "Map_Accuracy": "Building",
    "Map_Accuracy_Dari": "تعمیر",
    "Status": "Open",
    "Status_Dari": null,
    "PS_Male": 4,
    "PS_Female": 1,
    "PS_Total": 5,
    "ولسوالي": "بغلان جدید",
    "Region": "North Eastern Region"
   },
   "geometry": {
    "x": 7653093.7940551583,
    "y": 4324694.4012171123
   }
  },
  {
   "attributes": {
    "OBJECTID": 1063,
    "ولایت": "بغلان",
    "Province": "BAGHLAN",
    "PC_Code": "0905057",
    "District": "BAGLAN-E-JADEED",
    "د_مرکز_نوم__نام_مرکز": "کلوپ شاروالی بغلان جدید",
    "Polling_Center_Name": "Baghlan Jadeed Municipality Clop",
    "د_مرکز_ځای__موقعیت_مرکز": "شهربغلان جدید",
    "Polling_Center_Location": "Shahr-e-Baghlan Jadeed",
    "Map_Accuracy": "Building",
    "Map_Accuracy_Dari": "تعمیر",
    "Status": "Open",
    "Status_Dari": null,
    "PS_Male": 2,
    "PS_Female": 1,
    "PS_Total": 3,
    "ولسوالي": "بغلان جدید",
    "Region": "North Eastern Region"
   },
   "geometry": {
    "x": 7652461.4080654681,
    "y": 4324760.5212059598
   }
  },
  {
   "attributes": {
    "OBJECTID": 1064,
    "ولایت": "بغلان",
    "Province": "BAGHLAN",
    "PC_Code": "0905058",
    "District": "BAGLAN-E-JADEED",
    "د_مرکز_نوم__نام_مرکز": "مسجد جامع شهر بغلان قدیم",
    "Polling_Center_Name": "Shahr-e-Baghlan Qadim Mosque",
    "د_مرکز_ځای__موقعیت_مرکز": "شهربغلان جدید",
    "Polling_Center_Location": "Shahr-e-Baghlan Jadeed ",
    "Map_Accuracy": "Building",
    "Map_Accuracy_Dari": "تعمیر",
    "Status": "Open",
    "Status_Dari": null,
    "PS_Male": 2,
    "PS_Female": 2,
    "PS_Total": 4,
    "ولسوالي": "بغلان جدید",
    "Region": "North Eastern Region"
   },
   "geometry": {
    "x": 7655383.268626458,
    "y": 4331354.6888040313
   }
  },
  {
   "attributes": {
    "OBJECTID": 1065,
    "ولایت": "بغلان",
    "Province": "BAGHLAN",
    "PC_Code": "0905234",
    "District": "BAGLAN-E-JADEED",
    "د_مرکز_نوم__نام_مرکز": "مسجد سفید مکتب ابتدائی",
    "Polling_Center_Name": "Safid Mosque Primary School",
    "د_مرکز_ځای__موقعیت_مرکز": "مسجدسفید قریه ازبک ها",
    "Polling_Center_Location": "Masjid Safid Uzbek ha Village",
    "Map_Accuracy": "Building",
    "Map_Accuracy_Dari": "تعمیر",
    "Status": "Open",
    "Status_Dari": null,
    "PS_Male": 2,
    "PS_Female": 2,
    "PS_Total": 4,
    "ولسوالي": "بغلان جدید",
    "Region": "North Eastern Region"
   },
   "geometry": {
    "x": 7668913.6428891085,
    "y": 4350830.9252929743
   }
  },
  {
   "attributes": {
    "OBJECTID": 1066,
    "ولایت": "بغلان",
    "Province": "BAGHLAN",
    "PC_Code": "0905235",
    "District": "BAGLAN-E-JADEED",
    "د_مرکز_نوم__نام_مرکز": "مسجد قریه حاجی دلاور",
    "Polling_Center_Name": "Haji Delawar Village Mosque",
    "د_مرکز_ځای__موقعیت_مرکز": "قریه حاجی دلاور",
    "Polling_Center_Location": "Haji Delawar Village",
    "Map_Accuracy": "Building",
    "Map_Accuracy_Dari": "تعمیر",
    "Status": "Open",
    "Status_Dari": null,
    "PS_Male": 2,
    "PS_Female": 1,
    "PS_Total": 3,
    "ولسوالي": "بغلان جدید",
    "Region": "North Eastern Region"
   },
   "geometry": {
    "x": 7666076.5187245179,
    "y": 4350095.8332986692
   }
  },
  {
   "attributes": {
    "OBJECTID": 1067,
    "ولایت": "باميان",
    "Province": "BAMYAN",
    "PC_Code": "1005088",
    "District": "YAKAWLANG",
    "د_مرکز_نوم__نام_مرکز": "مدرسه دره مزار",
    "Polling_Center_Name": "Dara-e-Mazar Madrassa",
    "د_مرکز_ځای__موقعیت_مرکز": "سپی دارک",
    "Polling_Center_Location": "Sapey Daarak",
    "Map_Accuracy": "Building",
    "Map_Accuracy_Dari": "تعمیر",
    "Status": "Open",
    "Status_Dari": null,
    "PS_Male": 1,
    "PS_Female": 1,
    "PS_Total": 2,
    "ولسوالي": "یکاولنگ",
    "Region": "Central Highlands Region"
   },
   "geometry": {
    "x": 7393449.0099539841,
    "y": 4175821.6604542276
   }
  },
  {
   "attributes": {
    "OBJECTID": 1068,
    "ولایت": "باميان",
    "Province": "BAMYAN",
    "PC_Code": "1005091",
    "District": "YAKAWLANG",
    "د_مرکز_نوم__نام_مرکز": "منبر خمیه سیاه خاک",
    "Polling_Center_Name": "Munbar-e-Khamya Syah Khaak ",
    "د_مرکز_ځای__موقعیت_مرکز": "سیاه خاک چهل برج",
    "Polling_Center_Location": "Syah Khaak Chehel Burj",
    "Map_Accuracy": "Building",
    "Map_Accuracy_Dari": "تعمیر",
    "Status": "Open",
    "Status_Dari": null,
    "PS_Male": 1,
    "PS_Female": 1,
    "PS_Total": 2,
    "ولسوالي": "یکاولنگ",
    "Region": "Central Highlands Region"
   },
   "geometry": {
    "x": 7413839.8675112519,
    "y": 4147065.8583369213
   }
  },
  {
   "attributes": {
    "OBJECTID": 1069,
    "ولایت": "باميان",
    "Province": "BAMYAN",
    "PC_Code": "1005092",
    "District": "YAKAWLANG",
    "د_مرکز_نوم__نام_مرکز": "مکتب غرغرک سرذولیج",
    "Polling_Center_Name": "Ghur Ghurake Sare Zulech School",
    "د_مرکز_ځای__موقعیت_مرکز": "غرغرک سر ذولیج",
    "Polling_Center_Location": "Ghur Ghurake Sare Zurich",
    "Map_Accuracy": "Building",
    "Map_Accuracy_Dari": "تعمیر",
    "Status": "Open",
    "Status_Dari": null,
    "PS_Male": 1,
    "PS_Female": 1,
    "PS_Total": 2,
    "ولسوالي": "یکاولنگ",
    "Region": "Central Highlands Region"
   },
   "geometry": {
    "x": 7406329.0223555733,
    "y": 4147572.4341177247
   }
  },
  {
   "attributes": {
    "OBJECTID": 1070,
    "ولایت": "باميان",
    "Province": "BAMYAN",
    "PC_Code": "1005095",
    "District": "YAKAWLANG",
    "د_مرکز_نوم__نام_مرکز": "مکتب دشت سفلی نیطاق (لیسه زکور)",
    "Polling_Center_Name": "Dasht-e-Sufla Naitaaq Boys School",
    "د_مرکز_ځای__موقعیت_مرکز": "دشت سفلی نیطاق",
    "Polling_Center_Location": "Dasht-e-Sufla Naitaaq",
    "Map_Accuracy": "Building",
    "Map_Accuracy_Dari": "تعمیر",
    "Status": "Open",
    "Status_Dari": null,
    "PS_Male": 1,
    "PS_Female": 1,
    "PS_Total": 2,
    "ولسوالي": "یکاولنگ",
    "Region": "Central Highlands Region"
   },
   "geometry": {
    "x": 7428504.2300495245,
    "y": 4131050.2752693212
   }
  },
  {
   "attributes": {
    "OBJECTID": 1071,
    "ولایت": "باميان",
    "Province": "BAMYAN",
    "PC_Code": "1005164",
    "District": "YAKAWLANG",
    "د_مرکز_نوم__نام_مرکز": "منبر نوشوره",
    "Polling_Center_Name": "Munbar-e-Naw Shora ",
    "د_مرکز_ځای__موقعیت_مرکز": "زردگیاه",
    "Polling_Center_Location": "Zard Giyah",
    "Map_Accuracy": "Building",
    "Map_Accuracy_Dari": "تعمیر",
    "Status": "Open",
    "Status_Dari": null,
    "PS_Male": 1,
    "PS_Female": 1,
    "PS_Total": 2,
    "ولسوالي": "یکاولنگ",
    "Region": "Central Highlands Region"
   },
   "geometry": {
    "x": 7476751.5511918804,
    "y": 4163454.4333579689
   }
  },
  {
   "attributes": {
    "OBJECTID": 1072,
    "ولایت": "باميان",
    "Province": "BAMYAN",
    "PC_Code": "1006103",
    "District": "PANJAB",
    "د_مرکز_نوم__نام_مرکز": "مدرسه امام کاظم",
    "Polling_Center_Name": "Imam-e-Kazim Madrassa",
    "د_مرکز_ځای__موقعیت_مرکز": "ترغای",
    "Polling_Center_Location": "Targhaay",
    "Map_Accuracy": "Building",
    "Map_Accuracy_Dari": "تعمیر",
    "Status": "Open",
    "Status_Dari": null,
    "PS_Male": 1,
    "PS_Female": 1,
    "PS_Total": 2,
    "ولسوالي": "پنجاب",
    "Region": "Central Highlands Region"
   },
   "geometry": {
    "x": 7489766.8323595142,
    "y": 4101695.7801864729
   }
  },
  {
   "attributes": {
    "OBJECTID": 1073,
    "ولایت": "باميان",
    "Province": "BAMYAN",
    "PC_Code": "1006104",
    "District": "PANJAB",
    "د_مرکز_نوم__نام_مرکز": "منبر شینیه تراپس",
    "Polling_Center_Name": "Munbar-e-Shenia Turaps",
    "د_مرکز_ځای__موقعیت_مرکز": "شینیه تراپس",
    "Polling_Center_Location": "Shenia Turaps",
    "Map_Accuracy": "Building",
    "Map_Accuracy_Dari": "تعمیر",
    "Status": "Open",
    "Status_Dari": null,
    "PS_Male": 2,
    "PS_Female": 1,
    "PS_Total": 3,
    "ولسوالي": "پنجاب",
    "Region": "Central Highlands Region"
   },
   "geometry": {
    "x": 7473257.8847080972,
    "y": 4091510.7633293099
   }
  },
  {
   "attributes": {
    "OBJECTID": 1074,
    "ولایت": "باميان",
    "Province": "BAMYAN",
    "PC_Code": "1006114",
    "District": "PANJAB",
    "د_مرکز_نوم__نام_مرکز": "مکتب نسوان دهن غوچ نو",
    "Polling_Center_Name": "Dahan-e-Ghawch Naw Girls School",
    "د_مرکز_ځای__موقعیت_مرکز": "دهن غوچ نو",
    "Polling_Center_Location": "Dahan-e-Ghawch Naw",
    "Map_Accuracy": "Building",
    "Map_Accuracy_Dari": "تعمیر",
    "Status": "Open",
    "Status_Dari": null,
    "PS_Male": 1,
    "PS_Female": 1,
    "PS_Total": 2,
    "ولسوالي": "پنجاب",
    "Region": "Central Highlands Region"
   },
   "geometry": {
    "x": 7451046.9568159394,
    "y": 4099767.6526424699
   }
  },
  {
   "attributes": {
    "OBJECTID": 1075,
    "ولایت": "باميان",
    "Province": "BAMYAN",
    "PC_Code": "1006115",
    "District": "PANJAB",
    "د_مرکز_نوم__نام_مرکز": "مسجد شینیه گنداب",
    "Polling_Center_Name": "Shenia Gandab Mosque",
    "د_مرکز_ځای__موقعیت_مرکز": "شینیه",
    "Polling_Center_Location": "Shenia",
    "Map_Accuracy": "Building",
    "Map_Accuracy_Dari": "تعمیر",
    "Status": "Open",
    "Status_Dari": null,
    "PS_Male": 1,
    "PS_Female": 1,
    "PS_Total": 2,
    "ولسوالي": "پنجاب",
    "Region": "Central Highlands Region"
   },
   "geometry": {
    "x": 7439166.6301771039,
    "y": 4088445.9788064687
   }
  },
  {
   "attributes": {
    "OBJECTID": 1076,
    "ولایت": "باميان",
    "Province": "BAMYAN",
    "PC_Code": "1007120",
    "District": "WARAS",
    "د_مرکز_نوم__نام_مرکز": "مکتب شهرنو",
    "Polling_Center_Name": "Shahr-e-Naw School",
    "د_مرکز_ځای__موقعیت_مرکز": "پشته دهن ورس",
    "Polling_Center_Location": "Pusht-e-Dahane Waras",
    "Map_Accuracy": "Building",
    "Map_Accuracy_Dari": "تعمیر",
    "Status": "Open",
    "Status_Dari": null,
    "PS_Male": 1,
    "PS_Female": 1,
    "PS_Total": 2,
    "ولسوالي": "ورس",
    "Region": "Central Highlands Region"
   },
   "geometry": {
    "x": 7448577.578815571,
    "y": 4059333.4148634416
   }
  },
  {
   "attributes": {
    "OBJECTID": 1077,
    "ولایت": "باميان",
    "Province": "BAMYAN",
    "PC_Code": "1007121",
    "District": "WARAS",
    "د_مرکز_نوم__نام_مرکز": "لیسه دهن پدگگ",
    "Polling_Center_Name": "Dahan-e-Padgag High School",
    "د_مرکز_ځای__موقعیت_مرکز": "دهن پدگگ سلطان رباط",
    "Polling_Center_Location": "Dahan-e-Padgag Sultan Rubat",
    "Map_Accuracy": "Building",
    "Map_Accuracy_Dari": "تعمیر",
    "Status": "Open",
    "Status_Dari": null,
    "PS_Male": 1,
    "PS_Female": 1,
    "PS_Total": 2,
    "ولسوالي": "ورس",
    "Region": "Central Highlands Region"
   },
   "geometry": {
    "x": 7458827.1383663937,
    "y": 4053323.1521593737
   }
  },
  {
   "attributes": {
    "OBJECTID": 1078,
    "ولایت": "غزنى",
    "Province": "GHAZNI",
    "PC_Code": "1116316",
    "District": "MALISTAN",
    "د_مرکز_نوم__نام_مرکز": "لیسه قریه سبزک",
    "Polling_Center_Name": "Sabzak Village High School",
    "د_مرکز_ځای__موقعیت_مرکز": "قریه سبزک",
    "Polling_Center_Location": "Sabzak Village",
    "Map_Accuracy": "Building",
    "Map_Accuracy_Dari": "تعمیر",
    "Status": "Open",
    "Status_Dari": null,
    "PS_Male": 2,
    "PS_Female": 1,
    "PS_Total": 3,
    "ولسوالي": "مالستان",
    "Region": "South Eastern Region"
   },
   "geometry": {
    "x": 7504557.0616196385,
    "y": 3949481.6508809011
   }
  },
  {
   "attributes": {
    "OBJECTID": 1079,
    "ولایت": "غزنى",
    "Province": "GHAZNI",
    "PC_Code": "1116317",
    "District": "MALISTAN",
    "د_مرکز_نوم__نام_مرکز": "کلینیک صحی شینه ده",
    "Polling_Center_Name": "Sheena Deh Health Clinic",
    "د_مرکز_ځای__موقعیت_مرکز": "بازار شینه ده ",
    "Polling_Center_Location": "Sheena Deh Bazar",
    "Map_Accuracy": "Building",
    "Map_Accuracy_Dari": "تعمیر",
    "Status": "Open",
    "Status_Dari": null,
    "PS_Male": 2,
    "PS_Female": 1,
    "PS_Total": 3,
    "ولسوالي": "مالستان",
    "Region": "South Eastern Region"
   },
   "geometry": {
    "x": 7497011.6717995778,
    "y": 3941699.670302839
   }
  },
  {
   "attributes": {
    "OBJECTID": 1080,
    "ولایت": "غزنى",
    "Province": "GHAZNI",
    "PC_Code": "1103085",
    "District": "KHWAJA OMARI",
    "د_مرکز_نوم__نام_مرکز": "مسجد قلعه نو چهار برجه",
    "Polling_Center_Name": "Qala-e-Naw Chahar Burja Mosque",
    "د_مرکز_ځای__موقعیت_مرکز": "قلعه نو چهار برجه ",
    "Polling_Center_Location": "Qala-e-Naw Chahar Burja",
    "Map_Accuracy": "Village",
    "Map_Accuracy_Dari": "قریه",
    "Status": "Open",
    "Status_Dari": null,
    "PS_Male": 3,
    "PS_Female": 0,
    "PS_Total": 3,
    "ولسوالي": "خواجه عمری",
    "Region": "South Eastern Region"
   },
   "geometry": {
    "x": 7616522.5293992311,
    "y": 3980281.0504473038
   }
  },
  {
   "attributes": {
    "OBJECTID": 1081,
    "ولایت": "غزنى",
    "Province": "GHAZNI",
    "PC_Code": "1110276",
    "District": "NAWUR",
    "د_مرکز_نوم__نام_مرکز": "مسجد قریه ټوبی ",
    "Polling_Center_Name": "Toobie Village Mosque",
    "د_مرکز_ځای__موقعیت_مرکز": "قریه ټوبی ",
    "Polling_Center_Location": "Toobi Village",
    "Map_Accuracy": "Village",
    "Map_Accuracy_Dari": "قریه",
    "Status": "Open",
    "Status_Dari": null,
    "PS_Male": 1,
    "PS_Female": 1,
    "PS_Total": 2,
    "ولسوالي": "ناور",
    "Region": "South Eastern Region"
   },
   "geometry": {
    "x": 7517971.4955194332,
    "y": 4022821.4828867279
   }
  },
  {
   "attributes": {
    "OBJECTID": 1082,
    "ولایت": "غزنى",
    "Province": "GHAZNI",
    "PC_Code": "1101028",
    "District": "GHAZNI",
    "د_مرکز_نوم__نام_مرکز": "لیسه نسوان مغلان",
    "Polling_Center_Name": "Maghulan Girls School",
    "د_مرکز_ځای__موقعیت_مرکز": "قریه مغلان شهر ",
    "Polling_Center_Location": "Moghlan-e-Shahr Village",
    "Map_Accuracy": "Building",
    "Map_Accuracy_Dari": "تعمیر",
    "Status": "Open",
    "Status_Dari": null,
    "PS_Male": 0,
    "PS_Female": 4,
    "PS_Total": 4,
    "ولسوالي": "غزنی",
    "Region": "South Eastern Region"
   },
   "geometry": {
    "x": 7617694.8138060691,
    "y": 3968271.0013592574
   }
  },
  {
   "attributes": {
    "OBJECTID": 1083,
    "ولایت": "غزنى",
    "Province": "GHAZNI",
    "PC_Code": "1101029",
    "District": "GHAZNI",
    "د_مرکز_نوم__نام_مرکز": "مسجد خلفای  راشدین",
    "Polling_Center_Name": "Khalafay-e-Rashedeen Mosque",
    "د_مرکز_ځای__موقعیت_مرکز": "قریه قلعه اهنگران",
    "Polling_Center_Location": "Qala-e-Ahangaran",
    "Map_Accuracy": "Village",
    "Map_Accuracy_Dari": "قریه",
    "Status": "Open",
    "Status_Dari": null,
    "PS_Male": 4,
    "PS_Female": 1,
    "PS_Total": 5,
    "ولسوالي": "غزنی",
    "Region": "South Eastern Region"
   },
   "geometry": {
    "x": 7615546.7784401905,
    "y": 3971236.8081420437
   }
  },
  {
   "attributes": {
    "OBJECTID": 1084,
    "ولایت": "غزنى",
    "Province": "GHAZNI",
    "PC_Code": "1101030",
    "District": "GHAZNI",
    "د_مرکز_نوم__نام_مرکز": "مسجد حضرت داوود",
    "Polling_Center_Name": "Hazrat-e-Dawood Mosque",
    "د_مرکز_ځای__موقعیت_مرکز": "قریه قلعه اهنگران",
    "Polling_Center_Location": "Qala-e-Ahangaran",
    "Map_Accuracy": "Village",
    "Map_Accuracy_Dari": "قریه",
    "Status": "Open",
    "Status_Dari": null,
    "PS_Male": 0,
    "PS_Female": 4,
    "PS_Total": 4,
    "ولسوالي": "غزنی",
    "Region": "South Eastern Region"
   },
   "geometry": {
    "x": 7615148.684356384,
    "y": 3971638.9705799962
   }
  },
  {
   "attributes": {
    "OBJECTID": 1085,
    "ولایت": "غزنى",
    "Province": "GHAZNI",
    "PC_Code": "1101031",
    "District": "GHAZNI",
    "د_مرکز_نوم__نام_مرکز": "مسجد زمان حیدر آباد بالا",
    "Polling_Center_Name": "Haider Abad Bala Mosque",
    "د_مرکز_ځای__موقعیت_مرکز": "قریه حیدر آباد بالا",
    "Polling_Center_Location": "Haider Abad Bala Village",
    "Map_Accuracy": "Building",
    "Map_Accuracy_Dari": "تعمیر",
    "Status": "Open",
    "Status_Dari": null,
    "PS_Male": 5,
    "PS_Female": 3,
    "PS_Total": 8,
    "ولسوالي": "غزنی",
    "Region": "South Eastern Region"
   },
   "geometry": {
    "x": 7614582.1360531393,
    "y": 3967319.9036480514
   }
  },
  {
   "attributes": {
    "OBJECTID": 1086,
    "ولایت": "غزنى",
    "Province": "GHAZNI",
    "PC_Code": "1101046",
    "District": "GHAZNI",
    "د_مرکز_نوم__نام_مرکز": "کلینیک اسفنده",
    "Polling_Center_Name": "Esfandah Clinic ",
    "د_مرکز_ځای__موقعیت_مرکز": "قریه اسفنده",
    "Polling_Center_Location": "Esfandah Village",
    "Map_Accuracy": "Building",
    "Map_Accuracy_Dari": "تعمیر",
    "Status": "Open",
    "Status_Dari": null,
    "PS_Male": 3,
    "PS_Female": 0,
    "PS_Total": 3,
    "ولسوالي": "غزنی",
    "Region": "South Eastern Region"
   },
   "geometry": {
    "x": 7613768.2970670685,
    "y": 3958564.9948937492
   }
  },
  {
   "attributes": {
    "OBJECTID": 1087,
    "ولایت": "غزنى",
    "Province": "GHAZNI",
    "PC_Code": "1101047",
    "District": "GHAZNI",
    "د_مرکز_نوم__نام_مرکز": "مکتب اسفنده",
    "Polling_Center_Name": "Espandah School",
    "د_مرکز_ځای__موقعیت_مرکز": "قریه ا سفنده",
    "Polling_Center_Location": "Esfandah Village",
    "Map_Accuracy": "Building",
    "Map_Accuracy_Dari": "تعمیر",
    "Status": "Open",
    "Status_Dari": null,
    "PS_Male": 0,
    "PS_Female": 3,
    "PS_Total": 3,
    "ولسوالي": "غزنی",
    "Region": "South Eastern Region"
   },
   "geometry": {
    "x": 7614090.7528964616,
    "y": 3959081.87008675
   }
  },
  {
   "attributes": {
    "OBJECTID": 1088,
    "ولایت": "غزنى",
    "Province": "GHAZNI",
    "PC_Code": "1103081",
    "District": "KHWAJA OMARI",
    "د_مرکز_نوم__نام_مرکز": "لیسه ذکور طورمی",
    "Polling_Center_Name": "Tormi Boys High School",
    "د_مرکز_ځای__موقعیت_مرکز": "قریه تورمی",
    "Polling_Center_Location": "Tormi Village",
    "Map_Accuracy": "Building",
    "Map_Accuracy_Dari": "تعمیر",
    "Status": "Open",
    "Status_Dari": null,
    "PS_Male": 3,
    "PS_Female": 1,
    "PS_Total": 4,
    "ولسوالي": "خواجه عمری",
    "Region": "South Eastern Region"
   },
   "geometry": {
    "x": 7614722.4809879577,
    "y": 3987106.2012658115
   }
  },
  {
   "attributes": {
    "OBJECTID": 1089,
    "ولایت": "غزنى",
    "Province": "GHAZNI",
    "PC_Code": "1103086",
    "District": "KHWAJA OMARI",
    "د_مرکز_نوم__نام_مرکز": "مکتب قلعه نو چهار برجه",
    "Polling_Center_Name": "Qala-e-Naw Chahar Burja School",
    "د_مرکز_ځای__موقعیت_مرکز": "قلعه نو پاین",
    "Polling_Center_Location": "Qala-e-Naw Payen",
    "Map_Accuracy": "Building",
    "Map_Accuracy_Dari": "تعمیر",
    "Status": "Open",
    "Status_Dari": null,
    "PS_Male": 0,
    "PS_Female": 3,
    "PS_Total": 3,
    "ولسوالي": "خواجه عمری",
    "Region": "South Eastern Region"
   },
   "geometry": {
    "x": 7613199.5780337462,
    "y": 3989843.1384674353
   }
  },
  {
   "attributes": {
    "OBJECTID": 1090,
    "ولایت": "غزنى",
    "Province": "GHAZNI",
    "PC_Code": "1104131",
    "District": "WAGHAZ",
    "د_مرکز_نوم__نام_مرکز": "مسجد قریه گدولی",
    "Polling_Center_Name": "Gadoly Village Mosque",
    "د_مرکز_ځای__موقعیت_مرکز": "قر یه گډلی ",
    "Polling_Center_Location": "Gadoly Village",
    "Map_Accuracy": "Building",
    "Map_Accuracy_Dari": "تعمیر",
    "Status": "Open",
    "Status_Dari": null,
    "PS_Male": 2,
    "PS_Female": 1,
    "PS_Total": 3,
    "ولسوالي": "واغظ",
    "Region": "South Eastern Region"
   },
   "geometry": {
    "x": 7582067.728788401,
    "y": 3942701.9806860727
   }
  },
  {
   "attributes": {
    "OBJECTID": 1091,
    "ولایت": "غزنى",
    "Province": "GHAZNI",
    "PC_Code": "1105062",
    "District": "DEH YAK",
    "د_مرکز_نوم__نام_مرکز": "مکتب تسانی",
    "Polling_Center_Name": "Tesani School",
    "د_مرکز_ځای__موقعیت_مرکز": " تسانی",
    "Polling_Center_Location": "Tesani",
    "Map_Accuracy": "Village",
    "Map_Accuracy_Dari": "قریه",
    "Status": "Open",
    "Status_Dari": null,
    "PS_Male": 3,
    "PS_Female": 1,
    "PS_Total": 4,
    "ولسوالي": "ده یک",
    "Region": "South Eastern Region"
   },
   "geometry": {
    "x": 7635228.1000346756,
    "y": 3961099.991758944
   }
  },
  {
   "attributes": {
    "OBJECTID": 1092,
    "ولایت": "غزنى",
    "Province": "GHAZNI",
    "PC_Code": "1106111",
    "District": "JAGHATU",
    "د_مرکز_نوم__نام_مرکز": "لیسه بی بی هاجر جرمتو",
    "Polling_Center_Name": "BiBi Hajera High School ",
    "د_مرکز_ځای__موقعیت_مرکز": "قریه سرخی ",
    "Polling_Center_Location": "Sorkhi Village",
    "Map_Accuracy": "Building",
    "Map_Accuracy_Dari": "تعمیر",
    "Status": "Open",
    "Status_Dari": null,
    "PS_Male": 5,
    "PS_Female": 0,
    "PS_Total": 5,
    "ولسوالي": "جغتو",
    "Region": "South Eastern Region"
   },
   "geometry": {
    "x": 7586619.0005659983,
    "y": 3977991.5084131062
   }
  },
  {
   "attributes": {
    "OBJECTID": 1093,
    "ولایت": "غزنى",
    "Province": "GHAZNI",
    "PC_Code": "1107219",
    "District": "ANDAR",
    "د_مرکز_نوم__نام_مرکز": "د مهتر ګوډلو د کلی مکتب",
    "Polling_Center_Name": "Mehtar Qodali Village School",
    "د_مرکز_ځای__موقعیت_مرکز": "قریه مهتر ګوډلی",
    "Polling_Center_Location": "Mehtar Qoodali Village",
    "Map_Accuracy": "Building",
    "Map_Accuracy_Dari": "تعمیر",
    "Status": "Open",
    "Status_Dari": null,
    "PS_Male": 3,
    "PS_Female": 1,
    "PS_Total": 4,
    "ولسوالي": "اندر",
    "Region": "South Eastern Region"
   },
   "geometry": {
    "x": 7630944.9178735605,
    "y": 3944986.9994598841
   }
  },
  {
   "attributes": {
    "OBJECTID": 1094,
    "ولایت": "غزنى",
    "Province": "GHAZNI",
    "PC_Code": "1107249",
    "District": "ANDAR",
    "د_مرکز_نوم__نام_مرکز": "مسجد قریه عبد الوال",
    "Polling_Center_Name": "Abdul Wal Village Mosque",
    "د_مرکز_ځای__موقعیت_مرکز": "قریه عبد الوال ",
    "Polling_Center_Location": "Abdul Wal Village ",
    "Map_Accuracy": "Building",
    "Map_Accuracy_Dari": "تعمیر",
    "Status": "Open",
    "Status_Dari": null,
    "PS_Male": 3,
    "PS_Female": 1,
    "PS_Total": 4,
    "ولسوالي": "اندر",
    "Region": "South Eastern Region"
   },
   "geometry": {
    "x": 7624951.4709232729,
    "y": 3937911.648668753
   }
  },
  {
   "attributes": {
    "OBJECTID": 1095,
    "ولایت": "غزنى",
    "Province": "GHAZNI",
    "PC_Code": "1110255",
    "District": "NAWUR",
    "د_مرکز_نوم__نام_مرکز": "مسجد قریه میانه سوخته",
    "Polling_Center_Name": "Meyana Sokhta Mosque",
    "د_مرکز_ځای__موقعیت_مرکز": "قریه میانه سوخته ",
    "Polling_Center_Location": "Meyana Sokhtah Village",
    "Map_Accuracy": "Village",
    "Map_Accuracy_Dari": "قریه",
    "Status": "Open",
    "Status_Dari": null,
    "PS_Male": 2,
    "PS_Female": 1,
    "PS_Total": 3,
    "ولسوالي": "ناور",
    "Region": "South Eastern Region"
   },
   "geometry": {
    "x": 7581745.778349489,
    "y": 3994017.2937581493
   }
  },
  {
   "attributes": {
    "OBJECTID": 1096,
    "ولایت": "غزنى",
    "Province": "GHAZNI",
    "PC_Code": "1110256",
    "District": "NAWUR",
    "د_مرکز_نوم__نام_مرکز": " متوسطه شهید سید عیسی خان ",
    "Polling_Center_Name": "Shaheed Sayed Esa Khan Secondary School",
    "د_مرکز_ځای__موقعیت_مرکز": "قریه جانبیګ ",
    "Polling_Center_Location": "Janbieg Village",
    "Map_Accuracy": "Building",
    "Map_Accuracy_Dari": "تعمیر",
    "Status": "Open",
    "Status_Dari": null,
    "PS_Male": 2,
    "PS_Female": 1,
    "PS_Total": 3,
    "ولسوالي": "ناور",
    "Region": "South Eastern Region"
   },
   "geometry": {
    "x": 7592258.7943995893,
    "y": 3995016.7078568395
   }
  },
  {
   "attributes": {
    "OBJECTID": 1097,
    "ولایت": "غزنى",
    "Province": "GHAZNI",
    "PC_Code": "1110279",
    "District": "NAWUR",
    "د_مرکز_نوم__نام_مرکز": "مدرسه قریه ګلچین ده",
    "Polling_Center_Name": "Gulchin Deh Village Madrassa",
    "د_مرکز_ځای__موقعیت_مرکز": "قریه ګلچین ده ",
    "Polling_Center_Location": "Gulchin Dah Village",
    "Map_Accuracy": "Village",
    "Map_Accuracy_Dari": "قریه",
    "Status": "Open",
    "Status_Dari": null,
    "PS_Male": 1,
    "PS_Female": 1,
    "PS_Total": 2,
    "ولسوالي": "ناور",
    "Region": "South Eastern Region"
   },
   "geometry": {
    "x": 7493488.1248267507,
    "y": 4022190.5311135231
   }
  },
  {
   "attributes": {
    "OBJECTID": 1098,
    "ولایت": "غزنى",
    "Province": "GHAZNI",
    "PC_Code": "1110280",
    "District": "NAWUR",
    "د_مرکز_نوم__نام_مرکز": "مدرسه قریه پایین دامن",
    "Polling_Center_Name": "Payen Daman Village Madrass",
    "د_مرکز_ځای__موقعیت_مرکز": "قریه وسه پایین دامن ",
    "Polling_Center_Location": "Wasa-e-Payen Daaman Village",
    "Map_Accuracy": "Village",
    "Map_Accuracy_Dari": "قریه",
    "Status": "Open",
    "Status_Dari": null,
    "PS_Male": 2,
    "PS_Female": 1,
    "PS_Total": 3,
    "ولسوالي": "ناور",
    "Region": "South Eastern Region"
   },
   "geometry": {
    "x": 7551089.0518227974,
    "y": 4014715.381783803
   }
  },
  {
   "attributes": {
    "OBJECTID": 1099,
    "ولایت": "غزنى",
    "Province": "GHAZNI",
    "PC_Code": "1110283",
    "District": "NAWUR",
    "د_مرکز_نوم__نام_مرکز": "مکتب قریه بهایی",
    "Polling_Center_Name": "Bahayee Village School",
    "د_مرکز_ځای__موقعیت_مرکز": "قریه  قاره بهایی",
    "Polling_Center_Location": "Qara-e-Bahaye Village",
    "Map_Accuracy": "Building",
    "Map_Accuracy_Dari": "تعمیر",
    "Status": "Open",
    "Status_Dari": null,
    "PS_Male": 1,
    "PS_Female": 1,
    "PS_Total": 2,
    "ولسوالي": "ناور",
    "Region": "South Eastern Region"
   },
   "geometry": {
    "x": 7539200.8682543011,
    "y": 3992086.4025824801
   }
  },
  {
   "attributes": {
    "OBJECTID": 1100,
    "ولایت": "باميان",
    "Province": "BAMYAN",
    "PC_Code": "1007125",
    "District": "WARAS",
    "د_مرکز_نوم__نام_مرکز": "لیسه عالی چیجین",
    "Polling_Center_Name": "Chijin High School",
    "د_مرکز_ځای__موقعیت_مرکز": "شکور داد",
    "Polling_Center_Location": "Shokoor Daad",
    "Map_Accuracy": "Building",
    "Map_Accuracy_Dari": "تعمیر",
    "Status": "Open",
    "Status_Dari": null,
    "PS_Male": 2,
    "PS_Female": 1,
    "PS_Total": 3,
    "ولسوالي": "ورس",
    "Region": "Central Highlands Region"
   },
   "geometry": {
    "x": 7436156.8316711709,
    "y": 4055984.8509958144
   }
  },
  {
   "attributes": {
    "OBJECTID": 1101,
    "ولایت": "باميان",
    "Province": "BAMYAN",
    "PC_Code": "1007126",
    "District": "WARAS",
    "د_مرکز_نوم__نام_مرکز": "مسجد شینیه قوم برفی",
    "Polling_Center_Name": "Shenia Qawm-e-Barfi Mosque",
    "د_مرکز_ځای__موقعیت_مرکز": "شینیه قوم برفی",
    "Polling_Center_Location": "Shenia Qawm-e-Barfi",
    "Map_Accuracy": "Building",
    "Map_Accuracy_Dari": "تعمیر",
    "Status": "Open",
    "Status_Dari": null,
    "PS_Male": 2,
    "PS_Female": 1,
    "PS_Total": 3,
    "ولسوالي": "ورس",
    "Region": "Central Highlands Region"
   },
   "geometry": {
    "x": 7439910.5249007158,
    "y": 4051733.2676004069
   }
  },
  {
   "attributes": {
    "OBJECTID": 1102,
    "ولایت": "باميان",
    "Province": "BAMYAN",
    "PC_Code": "1007161",
    "District": "WARAS",
    "د_مرکز_نوم__نام_مرکز": "مسجد توبک زیر کوه پجندور",
    "Polling_Center_Name": "Tubak Zer Kohe Pajankwar Mosque",
    "د_مرکز_ځای__موقعیت_مرکز": "توبک",
    "Polling_Center_Location": "Turbak",
    "Map_Accuracy": "Building",
    "Map_Accuracy_Dari": "تعمیر",
    "Status": "Open",
    "Status_Dari": null,
    "PS_Male": 1,
    "PS_Female": 1,
    "PS_Total": 2,
    "ولسوالي": "ورس",
    "Region": "Central Highlands Region"
   },
   "geometry": {
    "x": 7471895.3920269217,
    "y": 4018416.393783147
   }
  },
  {
   "attributes": {
    "OBJECTID": 1103,
    "ولایت": "باميان",
    "Province": "BAMYAN",
    "PC_Code": "1007162",
    "District": "WARAS",
    "د_مرکز_نوم__نام_مرکز": "مسجد ایلجم (امام جعفر صادق)",
    "Polling_Center_Name": "Eljem Mosque",
    "د_مرکز_ځای__موقعیت_مرکز": "ایلجم",
    "Polling_Center_Location": "Eljem",
    "Map_Accuracy": "Building",
    "Map_Accuracy_Dari": "تعمیر",
    "Status": "Open",
    "Status_Dari": null,
    "PS_Male": 1,
    "PS_Female": 1,
    "PS_Total": 2,
    "ولسوالي": "ورس",
    "Region": "Central Highlands Region"
   },
   "geometry": {
    "x": 7407025.7009171704,
    "y": 4040189.5882078754
   }
  },
  {
   "attributes": {
    "OBJECTID": 1104,
    "ولایت": "بدخشان",
    "Province": "BADAKHSHAN",
    "PC_Code": "1707062",
    "District": "DARAYIM",
    "د_مرکز_نوم__نام_مرکز": "مدرسه النعمان",
    "Polling_Center_Name": "Zamanuddin & Haji Habibullah House",
    "د_مرکز_ځای__موقعیت_مرکز": "مرکز شهر صفا",
    "Polling_Center_Location": "Deh Bazar",
    "Map_Accuracy": "Building",
    "Map_Accuracy_Dari": "تعمیر",
    "Status": "Open",
    "Status_Dari": null,
    "PS_Male": 3,
    "PS_Female": 1,
    "PS_Total": 4,
    "ولسوالي": "درایم",
    "Region": "North Eastern Region"
   },
   "geometry": {
    "x": 7833421.740226944,
    "y": 4426691.4740354512
   }
  },
  {
   "attributes": {
    "OBJECTID": 1105,
    "ولایت": "باميان",
    "Province": "BAMYAN",
    "PC_Code": "1001013",
    "District": "BAMYAN",
    "د_مرکز_نوم__نام_مرکز": "مکتب شهیدان",
    "Polling_Center_Name": "Shaheedan School",
    "د_مرکز_ځای__موقعیت_مرکز": "بازار شهیدان",
    "Polling_Center_Location": "Bazar-e-Shaheedan",
    "Map_Accuracy": "Building",
    "Map_Accuracy_Dari": "تعمیر",
    "Status": "Open",
    "Status_Dari": null,
    "PS_Male": 2,
    "PS_Female": 2,
    "PS_Total": 4,
    "ولسوالي": "بامیان",
    "Region": "Central Highlands Region"
   },
   "geometry": {
    "x": 7523920.7653297968,
    "y": 4137548.6956099197
   }
  },
  {
   "attributes": {
    "OBJECTID": 1106,
    "ولایت": "باميان",
    "Province": "BAMYAN",
    "PC_Code": "1001014",
    "District": "BAMYAN",
    "د_مرکز_نوم__نام_مرکز": "مسجد نعل شیره",
    "Polling_Center_Name": "Naul Shera Mosque",
    "د_مرکز_ځای__موقعیت_مرکز": "نعل شیره سفلی",
    "Polling_Center_Location": "Naul Shera Sufla",
    "Map_Accuracy": "Building",
    "Map_Accuracy_Dari": "تعمیر",
    "Status": "Open",
    "Status_Dari": null,
    "PS_Male": 1,
    "PS_Female": 2,
    "PS_Total": 3,
    "ولسوالي": "بامیان",
    "Region": "Central Highlands Region"
   },
   "geometry": {
    "x": 7522817.0169938551,
    "y": 4131660.0752799716
   }
  },
  {
   "attributes": {
    "OBJECTID": 1107,
    "ولایت": "باميان",
    "Province": "BAMYAN",
    "PC_Code": "1002024",
    "District": "SHEBAR",
    "د_مرکز_نوم__نام_مرکز": "مکتب نسوان برگلیج",
    "Polling_Center_Name": "Berglej Girls School",
    "د_مرکز_ځای__موقعیت_مرکز": "زی سلطان",
    "Polling_Center_Location": "Zee Sultan",
    "Map_Accuracy": "Building",
    "Map_Accuracy_Dari": "تعمیر",
    "Status": "Open",
    "Status_Dari": null,
    "PS_Male": 2,
    "PS_Female": 1,
    "PS_Total": 3,
    "ولسوالي": "شیبر",
    "Region": "Central Highlands Region"
   },
   "geometry": {
    "x": 7588434.4689531373,
    "y": 4151649.7916834494
   }
  },
  {
   "attributes": {
    "OBJECTID": 1108,
    "ولایت": "باميان",
    "Province": "BAMYAN",
    "PC_Code": "1002025",
    "District": "SHEBAR",
    "د_مرکز_نوم__نام_مرکز": "کلینیک شنبل",
    "Polling_Center_Name": "Shanbol Girls High School",
    "د_مرکز_ځای__موقعیت_مرکز": "دهن شنبل",
    "Polling_Center_Location": "Dahan-e-Shanbol",
    "Map_Accuracy": "Building",
    "Map_Accuracy_Dari": "تعمیر",
    "Status": "Open",
    "Status_Dari": null,
    "PS_Male": 1,
    "PS_Female": 1,
    "PS_Total": 2,
    "ولسوالي": "شیبر",
    "Region": "Central Highlands Region"
   },
   "geometry": {
    "x": 7587178.5123642357,
    "y": 4146796.6805339651
   }
  },
  {
   "attributes": {
    "OBJECTID": 1109,
    "ولایت": "باميان",
    "Province": "BAMYAN",
    "PC_Code": "1003035",
    "District": "SAIGHAN",
    "د_مرکز_نوم__نام_مرکز": "مسجد زنانه قرونه",
    "Polling_Center_Name": "Qarona Female Mosque",
    "د_مرکز_ځای__موقعیت_مرکز": "قرونه علیا",
    "Polling_Center_Location": "Qaron-e-Ulya",
    "Map_Accuracy": "Building",
    "Map_Accuracy_Dari": "تعمیر",
    "Status": "Open",
    "Status_Dari": null,
    "PS_Male": 0,
    "PS_Female": 3,
    "PS_Total": 3,
    "ولسوالي": "سیغان",
    "Region": "Central Highlands Region"
   },
   "geometry": {
    "x": 7530237.5063452441,
    "y": 4186551.9853047482
   }
  },
  {
   "attributes": {
    "OBJECTID": 1110,
    "ولایت": "باميان",
    "Province": "BAMYAN",
    "PC_Code": "1003036",
    "District": "SAIGHAN",
    "د_مرکز_نوم__نام_مرکز": "مسجد بغندی قرغان",
    "Polling_Center_Name": "Boghundi Qarghan Mosque",
    "د_مرکز_ځای__موقعیت_مرکز": "قرغان",
    "Polling_Center_Location": "Qarghan",
    "Map_Accuracy": "Building",
    "Map_Accuracy_Dari": "تعمیر",
    "Status": "Open",
    "Status_Dari": null,
    "PS_Male": 1,
    "PS_Female": 1,
    "PS_Total": 2,
    "ولسوالي": "سیغان",
    "Region": "Central Highlands Region"
   },
   "geometry": {
    "x": 7539321.1545300754,
    "y": 4189258.3833125662
   }
  },
  {
   "attributes": {
    "OBJECTID": 1111,
    "ولایت": "باميان",
    "Province": "BAMYAN",
    "PC_Code": "1004053",
    "District": "KAHMARD",
    "د_مرکز_نوم__نام_مرکز": "مکتب ذکور دورو",
    "Polling_Center_Name": "Duro Boys School",
    "د_مرکز_ځای__موقعیت_مرکز": "دورو",
    "Polling_Center_Location": "Doro",
    "Map_Accuracy": "Building",
    "Map_Accuracy_Dari": "تعمیر",
    "Status": "Open",
    "Status_Dari": null,
    "PS_Male": 2,
    "PS_Female": 1,
    "PS_Total": 3,
    "ولسوالي": "کهمرد",
    "Region": "Central Highlands Region"
   },
   "geometry": {
    "x": 7542968.9717919324,
    "y": 4213918.8931470979
   }
  },
  {
   "attributes": {
    "OBJECTID": 1112,
    "ولایت": "باميان",
    "Province": "BAMYAN",
    "PC_Code": "1004054",
    "District": "KAHMARD",
    "د_مرکز_نوم__نام_مرکز": "مسجد مدر",
    "Polling_Center_Name": "Madar Mosque",
    "د_مرکز_ځای__موقعیت_مرکز": "مدر",
    "Polling_Center_Location": "Madar",
    "Map_Accuracy": "Building",
    "Map_Accuracy_Dari": "تعمیر",
    "Status": "Open",
    "Status_Dari": null,
    "PS_Male": 1,
    "PS_Female": 1,
    "PS_Total": 2,
    "ولسوالي": "کهمرد",
    "Region": "Central Highlands Region"
   },
   "geometry": {
    "x": 7548831.8476586873,
    "y": 4218281.8191287033
   }
  },
  {
   "attributes": {
    "OBJECTID": 1113,
    "ولایت": "باميان",
    "Province": "BAMYAN",
    "PC_Code": "1004058",
    "District": "KAHMARD",
    "د_مرکز_نوم__نام_مرکز": "مسجد دربند",
    "Polling_Center_Name": "Darband Mosque",
    "د_مرکز_ځای__موقعیت_مرکز": "دربند",
    "Polling_Center_Location": "Darband",
    "Map_Accuracy": "Building",
    "Map_Accuracy_Dari": "تعمیر",
    "Status": "Open",
    "Status_Dari": null,
    "PS_Male": 1,
    "PS_Female": 1,
    "PS_Total": 2,
    "ولسوالي": "کهمرد",
    "Region": "Central Highlands Region"
   },
   "geometry": {
    "x": 7562901.7518709777,
    "y": 4202263.5429719249
   }
  },
  {
   "attributes": {
    "OBJECTID": 1114,
    "ولایت": "باميان",
    "Province": "BAMYAN",
    "PC_Code": "1004059",
    "District": "KAHMARD",
    "د_مرکز_نوم__نام_مرکز": "مسجد کلچ",
    "Polling_Center_Name": "Kalach Mosque",
    "د_مرکز_ځای__موقعیت_مرکز": "کلچ",
    "Polling_Center_Location": "Kalach",
    "Map_Accuracy": "Building",
    "Map_Accuracy_Dari": "تعمیر",
    "Status": "Open",
    "Status_Dari": null,
    "PS_Male": 1,
    "PS_Female": 1,
    "PS_Total": 2,
    "ولسوالي": "کهمرد",
    "Region": "Central Highlands Region"
   },
   "geometry": {
    "x": 7566562.6491730008,
    "y": 4201094.94455327
   }
  },
  {
   "attributes": {
    "OBJECTID": 1115,
    "ولایت": "باميان",
    "Province": "BAMYAN",
    "PC_Code": "1004063",
    "District": "KAHMARD",
    "د_مرکز_نوم__نام_مرکز": "مکتب دشت سفید",
    "Polling_Center_Name": "Dasht-e-Safid School",
    "د_مرکز_ځای__موقعیت_مرکز": "دشت سفید",
    "Polling_Center_Location": "Dasht-e-Safid",
    "Map_Accuracy": "Building",
    "Map_Accuracy_Dari": "تعمیر",
    "Status": "Open",
    "Status_Dari": null,
    "PS_Male": 2,
    "PS_Female": 1,
    "PS_Total": 3,
    "ولسوالي": "کهمرد",
    "Region": "Central Highlands Region"
   },
   "geometry": {
    "x": 7560206.1448354488,
    "y": 4206429.4625973282
   }
  },
  {
   "attributes": {
    "OBJECTID": 1116,
    "ولایت": "باميان",
    "Province": "BAMYAN",
    "PC_Code": "1004064",
    "District": "KAHMARD",
    "د_مرکز_نوم__نام_مرکز": "مکتب اشپشته",
    "Polling_Center_Name": "Eshpeshta School",
    "د_مرکز_ځای__موقعیت_مرکز": "اشپشته",
    "Polling_Center_Location": "Eshpeshta",
    "Map_Accuracy": "Building",
    "Map_Accuracy_Dari": "تعمیر",
    "Status": "Open",
    "Status_Dari": null,
    "PS_Male": 1,
    "PS_Female": 1,
    "PS_Total": 2,
    "ولسوالي": "کهمرد",
    "Region": "Central Highlands Region"
   },
   "geometry": {
    "x": 7578778.462700828,
    "y": 4206832.9892318286
   }
  },
  {
   "attributes": {
    "OBJECTID": 1117,
    "ولایت": "باميان",
    "Province": "BAMYAN",
    "PC_Code": "1004066",
    "District": "KAHMARD",
    "د_مرکز_نوم__نام_مرکز": "مسجد لغکی",
    "Polling_Center_Name": "Laghaki Mosque",
    "د_مرکز_ځای__موقعیت_مرکز": "لغکی",
    "Polling_Center_Location": "Laghaki",
    "Map_Accuracy": "Building",
    "Map_Accuracy_Dari": "تعمیر",
    "Status": "Open",
    "Status_Dari": null,
    "PS_Male": 1,
    "PS_Female": 1,
    "PS_Total": 2,
    "ولسوالي": "کهمرد",
    "Region": "Central Highlands Region"
   },
   "geometry": {
    "x": 7527480.50995012,
    "y": 4204793.9580297228
   }
  },
  {
   "attributes": {
    "OBJECTID": 1118,
    "ولایت": "باميان",
    "Province": "BAMYAN",
    "PC_Code": "1004067",
    "District": "KAHMARD",
    "د_مرکز_نوم__نام_مرکز": "مکتب سرگلی",
    "Polling_Center_Name": "Sargali School",
    "د_مرکز_ځای__موقعیت_مرکز": "سر گلی",
    "Polling_Center_Location": "Sargali",
    "Map_Accuracy": "Building",
    "Map_Accuracy_Dari": "تعمیر",
    "Status": "Open",
    "Status_Dari": null,
    "PS_Male": 1,
    "PS_Female": 1,
    "PS_Total": 2,
    "ولسوالي": "کهمرد",
    "Region": "Central Highlands Region"
   },
   "geometry": {
    "x": 7579767.6643939437,
    "y": 4215567.4962928714
   }
  },
  {
   "attributes": {
    "OBJECTID": 1119,
    "ولایت": "باميان",
    "Province": "BAMYAN",
    "PC_Code": "1006098",
    "District": "PANJAB",
    "د_مرکز_نوم__نام_مرکز": "مکتب شینیه اخضرات",
    "Polling_Center_Name": "Shenia Akhzarat School",
    "د_مرکز_ځای__موقعیت_مرکز": "شینیه",
    "Polling_Center_Location": "Shenia",
    "Map_Accuracy": "Building",
    "Map_Accuracy_Dari": "تعمیر",
    "Status": "Open",
    "Status_Dari": null,
    "PS_Male": 1,
    "PS_Female": 1,
    "PS_Total": 2,
    "ولسوالي": "پنجاب",
    "Region": "Central Highlands Region"
   },
   "geometry": {
    "x": 7428740.4600277413,
    "y": 4075753.169277187
   }
  },
  {
   "attributes": {
    "OBJECTID": 1120,
    "ولایت": "باميان",
    "Province": "BAMYAN",
    "PC_Code": "1006099",
    "District": "PANJAB",
    "د_مرکز_نوم__نام_مرکز": "منبر نو الترغان علیا",
    "Polling_Center_Name": "Munbar-e-Naw Altarghaan Ulya",
    "د_مرکز_ځای__موقعیت_مرکز": "نو الترغان علیا",
    "Polling_Center_Location": "Naw Altarghaan Ulya",
    "Map_Accuracy": "Building",
    "Map_Accuracy_Dari": "تعمیر",
    "Status": "Open",
    "Status_Dari": null,
    "PS_Male": 2,
    "PS_Female": 1,
    "PS_Total": 3,
    "ولسوالي": "پنجاب",
    "Region": "Central Highlands Region"
   },
   "geometry": {
    "x": 7421092.2165641626,
    "y": 4084990.9278324279
   }
  },
  {
   "attributes": {
    "OBJECTID": 1121,
    "ولایت": "باميان",
    "Province": "BAMYAN",
    "PC_Code": "1006109",
    "District": "PANJAB",
    "د_مرکز_نوم__نام_مرکز": "مکتب بارغو سنگ",
    "Polling_Center_Name": "Baarghosang School",
    "د_مرکز_ځای__موقعیت_مرکز": "بارغو سنگ",
    "Polling_Center_Location": "Baargho Sang",
    "Map_Accuracy": "Building",
    "Map_Accuracy_Dari": "تعمیر",
    "Status": "Open",
    "Status_Dari": null,
    "PS_Male": 1,
    "PS_Female": 1,
    "PS_Total": 2,
    "ولسوالي": "پنجاب",
    "Region": "Central Highlands Region"
   },
   "geometry": {
    "x": 7437873.9403826287,
    "y": 4090906.4705154872
   }
  },
  {
   "attributes": {
    "OBJECTID": 1122,
    "ولایت": "باميان",
    "Province": "BAMYAN",
    "PC_Code": "1006110",
    "District": "PANJAB",
    "د_مرکز_نوم__نام_مرکز": "لیسه ذکور غرغری",
    "Polling_Center_Name": "Ghur Ghuri Boys High School",
    "د_مرکز_ځای__موقعیت_مرکز": "غرغری",
    "Polling_Center_Location": "Ghur Ghuri",
    "Map_Accuracy": "Building",
    "Map_Accuracy_Dari": "تعمیر",
    "Status": "Open",
    "Status_Dari": null,
    "PS_Male": 1,
    "PS_Female": 1,
    "PS_Total": 2,
    "ولسوالي": "پنجاب",
    "Region": "Central Highlands Region"
   },
   "geometry": {
    "x": 7450963.4671978476,
    "y": 4094846.2827120847
   }
  },
  {
   "attributes": {
    "OBJECTID": 1123,
    "ولایت": "باميان",
    "Province": "BAMYAN",
    "PC_Code": "1006116",
    "District": "PANJAB",
    "د_مرکز_نوم__نام_مرکز": "مکتب متوسطه پیازان",
    "Polling_Center_Name": "Pyazan Secondary School",
    "د_مرکز_ځای__موقعیت_مرکز": "شینیه پیازان",
    "Polling_Center_Location": "Shenia Pyazan",
    "Map_Accuracy": "Building",
    "Map_Accuracy_Dari": "تعمیر",
    "Status": "Open",
    "Status_Dari": null,
    "PS_Male": 1,
    "PS_Female": 1,
    "PS_Total": 2,
    "ولسوالي": "پنجاب",
    "Region": "Central Highlands Region"
   },
   "geometry": {
    "x": 7408701.9609414833,
    "y": 4059069.0348740979
   }
  },
  {
   "attributes": {
    "OBJECTID": 1124,
    "ولایت": "باميان",
    "Province": "BAMYAN",
    "PC_Code": "1006117",
    "District": "PANJAB",
    "د_مرکز_نوم__نام_مرکز": "مکتب نسوان لشکر راه اخضراب",
    "Polling_Center_Name": "Lashkar Rah-e-Akhzarab Girls School",
    "د_مرکز_ځای__موقعیت_مرکز": "میانه ده",
    "Polling_Center_Location": "Miana Deh",
    "Map_Accuracy": "Building",
    "Map_Accuracy_Dari": "تعمیر",
    "Status": "Open",
    "Status_Dari": null,
    "PS_Male": 2,
    "PS_Female": 1,
    "PS_Total": 3,
    "ولسوالي": "پنجاب",
    "Region": "Central Highlands Region"
   },
   "geometry": {
    "x": 7427396.416325775,
    "y": 4087263.1120511009
   }
  },
  {
   "attributes": {
    "OBJECTID": 1125,
    "ولایت": "باميان",
    "Province": "BAMYAN",
    "PC_Code": "1007131",
    "District": "WARAS",
    "د_مرکز_نوم__نام_مرکز": "لیسه ذکور بند کوسه",
    "Polling_Center_Name": "Band-e-Kosa Boys High School",
    "د_مرکز_ځای__موقعیت_مرکز": "بند کوسه",
    "Polling_Center_Location": "Band-e-Kosa",
    "Map_Accuracy": "Building",
    "Map_Accuracy_Dari": "تعمیر",
    "Status": "Open",
    "Status_Dari": null,
    "PS_Male": 1,
    "PS_Female": 1,
    "PS_Total": 2,
    "ولسوالي": "ورس",
    "Region": "Central Highlands Region"
   },
   "geometry": {
    "x": 7428628.6139957607,
    "y": 4043036.299795086
   }
  },
  {
   "attributes": {
    "OBJECTID": 1126,
    "ولایت": "باميان",
    "Province": "BAMYAN",
    "PC_Code": "1007132",
    "District": "WARAS",
    "د_مرکز_نوم__نام_مرکز": "مسجد ریگجوی قوناق",
    "Polling_Center_Name": "Regjoy-e-Qonaaq Mosque",
    "د_مرکز_ځای__موقعیت_مرکز": "ریگجوی قوناق",
    "Polling_Center_Location": "Regjoy-e-Qonaaq",
    "Map_Accuracy": "Building",
    "Map_Accuracy_Dari": "تعمیر",
    "Status": "Open",
    "Status_Dari": null,
    "PS_Male": 2,
    "PS_Female": 1,
    "PS_Total": 3,
    "ولسوالي": "ورس",
    "Region": "Central Highlands Region"
   },
   "geometry": {
    "x": 7422795.4170184433,
    "y": 4032037.6521751848
   }
  },
  {
   "attributes": {
    "OBJECTID": 1127,
    "ولایت": "باميان",
    "Province": "BAMYAN",
    "PC_Code": "1007135",
    "District": "WARAS",
    "د_مرکز_نوم__نام_مرکز": "مسجد دهن دیوالک",
    "Polling_Center_Name": "Dahan-e-Dewalak Mosque",
    "د_مرکز_ځای__موقعیت_مرکز": "دهن دیوالک",
    "Polling_Center_Location": "Dahan-e-Dewalak ",
    "Map_Accuracy": "Building",
    "Map_Accuracy_Dari": "تعمیر",
    "Status": "Open",
    "Status_Dari": null,
    "PS_Male": 1,
    "PS_Female": 1,
    "PS_Total": 2,
    "ولسوالي": "ورس",
    "Region": "Central Highlands Region"
   },
   "geometry": {
    "x": 7432346.6738563059,
    "y": 4053858.1153923874
   }
  },
  {
   "attributes": {
    "OBJECTID": 1128,
    "ولایت": "باميان",
    "Province": "BAMYAN",
    "PC_Code": "1007136",
    "District": "WARAS",
    "د_مرکز_نوم__نام_مرکز": "مسجید سیب جوی",
    "Polling_Center_Name": "Seab Joy Mosque",
    "د_مرکز_ځای__موقعیت_مرکز": "سیب جوی",
    "Polling_Center_Location": "Seab Joy",
    "Map_Accuracy": "Building",
    "Map_Accuracy_Dari": "تعمیر",
    "Status": "Open",
    "Status_Dari": null,
    "PS_Male": 2,
    "PS_Female": 1,
    "PS_Total": 3,
    "ولسوالي": "ورس",
    "Region": "Central Highlands Region"
   },
   "geometry": {
    "x": 7459120.2314537084,
    "y": 4062639.2870281371
   }
  },
  {
   "attributes": {
    "OBJECTID": 1129,
    "ولایت": "باميان",
    "Province": "BAMYAN",
    "PC_Code": "1007147",
    "District": "WARAS",
    "د_مرکز_نوم__نام_مرکز": "مسجد ورزنگ",
    "Polling_Center_Name": "Warzang Mosque",
    "د_مرکز_ځای__موقعیت_مرکز": "ورزنگ",
    "Polling_Center_Location": "Warzang",
    "Map_Accuracy": "Building",
    "Map_Accuracy_Dari": "تعمیر",
    "Status": "Open",
    "Status_Dari": null,
    "PS_Male": 1,
    "PS_Female": 1,
    "PS_Total": 2,
    "ولسوالي": "ورس",
    "Region": "Central Highlands Region"
   },
   "geometry": {
    "x": 7483030.9647783078,
    "y": 4033648.5853648726
   }
  },
  {
   "attributes": {
    "OBJECTID": 1130,
    "ولایت": "باميان",
    "Province": "BAMYAN",
    "PC_Code": "1007148",
    "District": "WARAS",
    "د_مرکز_نوم__نام_مرکز": "مسجد نو میلک شینیه پچندور ",
    "Polling_Center_Name": "New Melik Shenia Pachandoor Mosque",
    "د_مرکز_ځای__موقعیت_مرکز": "نو میلک",
    "Polling_Center_Location": "Naw Melik",
    "Map_Accuracy": "Building",
    "Map_Accuracy_Dari": "تعمیر",
    "Status": "Open",
    "Status_Dari": null,
    "PS_Male": 1,
    "PS_Female": 1,
    "PS_Total": 2,
    "ولسوالي": "ورس",
    "Region": "Central Highlands Region"
   },
   "geometry": {
    "x": 7472844.6355888136,
    "y": 4027174.3611808796
   }
  },
  {
   "attributes": {
    "OBJECTID": 1131,
    "ولایت": "باميان",
    "Province": "BAMYAN",
    "PC_Code": "1002170",
    "District": "SHEBAR",
    "د_مرکز_نوم__نام_مرکز": "مکتب نسوان سرکالو",
    "Polling_Center_Name": "Sar kalo Female school",
    "د_مرکز_ځای__موقعیت_مرکز": "غرغره سرکالو",
    "Polling_Center_Location": "Ghar gharae sar kalo",
    "Map_Accuracy": "Building",
    "Map_Accuracy_Dari": "تعمیر",
    "Status": "Open",
    "Status_Dari": null,
    "PS_Male": 2,
    "PS_Female": 1,
    "PS_Total": 3,
    "ولسوالي": "شیبر",
    "Region": "Central Region"
   },
   "geometry": {
    "x": 7574869.9808325302,
    "y": 4117378.7911324333
   }
  },
  {
   "attributes": {
    "OBJECTID": 1132,
    "ولایت": "باميان",
    "Province": "BAMYAN",
    "PC_Code": "1002171",
    "District": "SHEBAR",
    "د_مرکز_نوم__نام_مرکز": "مسجد باغک",
    "Polling_Center_Name": "Baghak Mosque",
    "د_مرکز_ځای__موقعیت_مرکز": "باغک",
    "Polling_Center_Location": "Baghak",
    "Map_Accuracy": "Building",
    "Map_Accuracy_Dari": "تعمیر",
    "Status": "Open",
    "Status_Dari": null,
    "PS_Male": 2,
    "PS_Female": 1,
    "PS_Total": 3,
    "ولسوالي": "شیبر",
    "Region": "Central Highlands Region"
   },
   "geometry": {
    "x": 7566566.7269172687,
    "y": 4188436.7360172183
   }
  },
  {
   "attributes": {
    "OBJECTID": 1133,
    "ولایت": "باميان",
    "Province": "BAMYAN",
    "PC_Code": "1002032",
    "District": "SHEBAR",
    "د_مرکز_نوم__نام_مرکز": "مدرسه سری قندی باغک",
    "Polling_Center_Name": "Sare Qandi Baghak Madrassa",
    "د_مرکز_ځای__موقعیت_مرکز": "ایمنداب، سری قندی باغک",
    "Polling_Center_Location": "Aymandab, Sar-e-Qandi Baghak",
    "Map_Accuracy": "Building",
    "Map_Accuracy_Dari": "تعمیر",
    "Status": "Open",
    "Status_Dari": null,
    "PS_Male": 2,
    "PS_Female": 1,
    "PS_Total": 3,
    "ولسوالي": "شیبر",
    "Region": "Central Highlands Region"
   },
   "geometry": {
    "x": 7563079.5101734651,
    "y": 4182185.8367034984
   }
  },
  {
   "attributes": {
    "OBJECTID": 1134,
    "ولایت": "باميان",
    "Province": "BAMYAN",
    "PC_Code": "1003039",
    "District": "SAIGHAN",
    "د_مرکز_نوم__نام_مرکز": "مسجد جامع بیانقلی",
    "Polling_Center_Name": "Bianqali Mosque",
    "د_مرکز_ځای__موقعیت_مرکز": "بیانقلی",
    "Polling_Center_Location": "Bianqali",
    "Map_Accuracy": "Building",
    "Map_Accuracy_Dari": "تعمیر",
    "Status": "Open",
    "Status_Dari": null,
    "PS_Male": 1,
    "PS_Female": 1,
    "PS_Total": 2,
    "ولسوالي": "سیغان",
    "Region": "Central Highlands Region"
   },
   "geometry": {
    "x": 7545911.8594915373,
    "y": 4190369.6270953086
   }
  },
  {
   "attributes": {
    "OBJECTID": 1135,
    "ولایت": "پکتيکا",
    "Province": "PAKTIKA",
    "PC_Code": "1205286",
    "District": "SAR RAWZA",
    "د_مرکز_نوم__نام_مرکز": "مارزك ابتدائيه ښوونځي",
    "Polling_Center_Name": "Marzak Primary School",
    "د_مرکز_ځای__موقعیت_مرکز": "مارزک ",
    "Polling_Center_Location": "Marzak",
    "Map_Accuracy": "Village",
    "Map_Accuracy_Dari": "قریه",
    "Status": "Open",
    "Status_Dari": null,
    "PS_Male": 0,
    "PS_Female": 2,
    "PS_Total": 2,
    "ولسوالي": "سروضه ",
    "Region": "South Eastern Region"
   },
   "geometry": {
    "x": 7690471.6363267703,
    "y": 3914925.5315272231
   }
  },
  {
   "attributes": {
    "OBJECTID": 1136,
    "ولایت": "پکتيکا",
    "Province": "PAKTIKA",
    "PC_Code": "1206066",
    "District": "OMNA",
    "د_مرکز_نوم__نام_مرکز": "رﺍجى خیل جومات",
    "Polling_Center_Name": "Raji Khel Mosque",
    "د_مرکز_ځای__موقعیت_مرکز": "زواکہ",
    "Polling_Center_Location": "Zawaka",
    "Map_Accuracy": "Village",
    "Map_Accuracy_Dari": "قریه",
    "Status": "Open",
    "Status_Dari": null,
    "PS_Male": 3,
    "PS_Female": 1,
    "PS_Total": 4,
    "ولسوالي": "اومنه",
    "Region": "South Eastern Region"
   },
   "geometry": {
    "x": 7659886.1620665537,
    "y": 3891173.9630073463
   }
  },
  {
   "attributes": {
    "OBJECTID": 1137,
    "ولایت": "پکتيکا",
    "Province": "PAKTIKA",
    "PC_Code": "1207102",
    "District": "ZARGHUN SHAHR",
    "د_مرکز_نوم__نام_مرکز": "داودجان میلمستون",
    "Polling_Center_Name": "Daoud Jan Guest House",
    "د_مرکز_ځای__موقعیت_مرکز": "بک خیل",
    "Polling_Center_Location": "Bak Khel",
    "Map_Accuracy": "Village",
    "Map_Accuracy_Dari": "قریه",
    "Status": "Open",
    "Status_Dari": null,
    "PS_Male": 0,
    "PS_Female": 3,
    "PS_Total": 3,
    "ولسوالي": "زرغون شهر ",
    "Region": "South Eastern Region"
   },
   "geometry": {
    "x": 7631672.0200519916,
    "y": 3871306.304905585
   }
  },
  {
   "attributes": {
    "OBJECTID": 1138,
    "ولایت": "پکتيکا",
    "Province": "PAKTIKA",
    "PC_Code": "1207103",
    "District": "ZARGHUN SHAHR",
    "د_مرکز_نوم__نام_مرکز": "شاه خیل جومات",
    "Polling_Center_Name": "Shah Khel Mosque",
    "د_مرکز_ځای__موقعیت_مرکز": "شاه خیل",
    "Polling_Center_Location": "Shah Khel",
    "Map_Accuracy": "Village",
    "Map_Accuracy_Dari": "قریه",
    "Status": "Open",
    "Status_Dari": null,
    "PS_Male": 3,
    "PS_Female": 0,
    "PS_Total": 3,
    "ولسوالي": "زرغون شهر ",
    "Region": "South Eastern Region"
   },
   "geometry": {
    "x": 7630509.7555125142,
    "y": 3871358.9150418234
   }
  },
  {
   "attributes": {
    "OBJECTID": 1139,
    "ولایت": "پکتيکا",
    "Province": "PAKTIKA",
    "PC_Code": "1208131",
    "District": "GOMAL",
    "د_مرکز_نوم__نام_مرکز": "کمکی ګومل مولوی عباس ښوونځی ",
    "Polling_Center_Name": "Mawlavi Abbas School, Kamky Gomal",
    "د_مرکز_ځای__موقعیت_مرکز": "شادیزی کلې",
    "Polling_Center_Location": "Shadezai Village",
    "Map_Accuracy": "Building",
    "Map_Accuracy_Dari": "تعمیر",
    "Status": "Open",
    "Status_Dari": null,
    "PS_Male": 3,
    "PS_Female": 0,
    "PS_Total": 3,
    "ولسوالي": "گومل",
    "Region": "South Eastern Region"
   },
   "geometry": {
    "x": 7632693.7893753322,
    "y": 3811295.1429656241
   }
  },
  {
   "attributes": {
    "OBJECTID": 1140,
    "ولایت": "پکتيکا",
    "Province": "PAKTIKA",
    "PC_Code": "1208134",
    "District": "GOMAL",
    "د_مرکز_نوم__نام_مرکز": "شهید فیزوز ښوونځی ",
    "Polling_Center_Name": "Shaheed Feroz School",
    "د_مرکز_ځای__موقعیت_مرکز": "زاولو خیل",
    "Polling_Center_Location": "Zavlo Khel",
    "Map_Accuracy": "Village",
    "Map_Accuracy_Dari": "قریه",
    "Status": "Open",
    "Status_Dari": null,
    "PS_Male": 0,
    "PS_Female": 4,
    "PS_Total": 4,
    "ولسوالي": "گومل",
    "Region": "South Eastern Region"
   },
   "geometry": {
    "x": 7668818.1808597809,
    "y": 3839337.0645192591
   }
  },
  {
   "attributes": {
    "OBJECTID": 1141,
    "ولایت": "پکتيکا",
    "Province": "PAKTIKA",
    "PC_Code": "1208135",
    "District": "GOMAL",
    "د_مرکز_نوم__نام_مرکز": "امیر مدار میلمستون",
    "Polling_Center_Name": "Amir Madar Guest House",
    "د_مرکز_ځای__موقعیت_مرکز": "تابوت",
    "Polling_Center_Location": "Tabot",
    "Map_Accuracy": "Village",
    "Map_Accuracy_Dari": "قریه",
    "Status": "Open",
    "Status_Dari": null,
    "PS_Male": 2,
    "PS_Female": 0,
    "PS_Total": 2,
    "ولسوالي": "گومل",
    "Region": "South Eastern Region"
   },
   "geometry": {
    "x": 7674368.2177879484,
    "y": 3861175.0037880861
   }
  },
  {
   "attributes": {
    "OBJECTID": 1142,
    "ولایت": "پکتيکا",
    "Province": "PAKTIKA",
    "PC_Code": "1208137",
    "District": "GOMAL",
    "د_مرکز_نوم__نام_مرکز": "اپسینه د انجونو منځنی ښوونځی ",
    "Polling_Center_Name": "Apsena Girls Secondary School",
    "د_مرکز_ځای__موقعیت_مرکز": "اﺳﭙینه",
    "Polling_Center_Location": "Apsena",
    "Map_Accuracy": "District",
    "Map_Accuracy_Dari": "ولسوالی",
    "Status": "Open",
    "Status_Dari": null,
    "PS_Male": 0,
    "PS_Female": 2,
    "PS_Total": 2,
    "ولسوالي": "گومل",
    "Region": "South Eastern Region"
   },
   "geometry": {
    "x": 7712873.2266767854,
    "y": 3759877.2509514741
   }
  },
  {
   "attributes": {
    "OBJECTID": 1143,
    "ولایت": "پکتيکا",
    "Province": "PAKTIKA",
    "PC_Code": "1210149",
    "District": "SURUBI",
    "د_مرکز_نوم__نام_مرکز": "خانی قلعه جومات",
    "Polling_Center_Name": "Khani Qala Mosque",
    "د_مرکز_ځای__موقعیت_مرکز": "خانی قلعه",
    "Polling_Center_Location": "Khani Kala",
    "Map_Accuracy": "Village",
    "Map_Accuracy_Dari": "قریه",
    "Status": "Open",
    "Status_Dari": null,
    "PS_Male": 2,
    "PS_Female": 0,
    "PS_Total": 2,
    "ولسوالي": "سروبی",
    "Region": "South Eastern Region"
   },
   "geometry": {
    "x": 7683399.8764309986,
    "y": 3866956.8016562928
   }
  },
  {
   "attributes": {
    "OBJECTID": 1144,
    "ولایت": "پکتيکا",
    "Province": "PAKTIKA",
    "PC_Code": "1210150",
    "District": "SURUBI",
    "د_مرکز_نوم__نام_مرکز": "پایندی جومات",
    "Polling_Center_Name": "Payandi Mosque",
    "د_مرکز_ځای__موقعیت_مرکز": "خانی قلعه",
    "Polling_Center_Location": "Khani Kala",
    "Map_Accuracy": "Village",
    "Map_Accuracy_Dari": "قریه",
    "Status": "Open",
    "Status_Dari": null,
    "PS_Male": 0,
    "PS_Female": 3,
    "PS_Total": 3,
    "ولسوالي": "سروبی",
    "Region": "South Eastern Region"
   },
   "geometry": {
    "x": 7693404.3883867413,
    "y": 3858516.7017326611
   }
  },
  {
   "attributes": {
    "OBJECTID": 1145,
    "ولایت": "پکتيکا",
    "Province": "PAKTIKA",
    "PC_Code": "1211161",
    "District": "URGOON",
    "د_مرکز_نوم__نام_مرکز": "بالش ښوونځی ",
    "Polling_Center_Name": "Balish School",
    "د_مرکز_ځای__موقعیت_مرکز": "بالش ولسوالی مرکز",
    "Polling_Center_Location": "Balish District Center",
    "Map_Accuracy": "Building",
    "Map_Accuracy_Dari": "تعمیر",
    "Status": "Open",
    "Status_Dari": null,
    "PS_Male": 4,
    "PS_Female": 0,
    "PS_Total": 4,
    "ولسوالي": "اورگون",
    "Region": "South Eastern Region"
   },
   "geometry": {
    "x": 7700881.2365699243,
    "y": 3887406.1023485847
   }
  },
  {
   "attributes": {
    "OBJECTID": 1146,
    "ولایت": "پکتيکا",
    "Province": "PAKTIKA",
    "PC_Code": "1211162",
    "District": "URGOON",
    "د_مرکز_نوم__نام_مرکز": "برکت نجونو ښوونځی ",
    "Polling_Center_Name": "Barakat Girls School",
    "د_مرکز_ځای__موقعیت_مرکز": "بالش ولسوالی مرکز",
    "Polling_Center_Location": "Balish District Center",
    "Map_Accuracy": "Building",
    "Map_Accuracy_Dari": "تعمیر",
    "Status": "Open",
    "Status_Dari": null,
    "PS_Male": 0,
    "PS_Female": 3,
    "PS_Total": 3,
    "ولسوالي": "اورگون",
    "Region": "South Eastern Region"
   },
   "geometry": {
    "x": 7701025.0825027348,
    "y": 3887377.536201769
   }
  },
  {
   "attributes": {
    "OBJECTID": 1147,
    "ولایت": "پکتيکا",
    "Province": "PAKTIKA",
    "PC_Code": "1211175",
    "District": "URGOON",
    "د_مرکز_نوم__نام_مرکز": "نورلی ښوونځی ",
    "Polling_Center_Name": "Noorli School",
    "د_مرکز_ځای__موقعیت_مرکز": "نورﷲ کلی",
    "Polling_Center_Location": "Noorullah Village",
    "Map_Accuracy": "Village",
    "Map_Accuracy_Dari": "قریه",
    "Status": "Open",
    "Status_Dari": null,
    "PS_Male": 2,
    "PS_Female": 0,
    "PS_Total": 2,
    "ولسوالي": "اورگون",
    "Region": "South Eastern Region"
   },
   "geometry": {
    "x": 7696477.6234176951,
    "y": 3877470.5535141011
   }
  },
  {
   "attributes": {
    "OBJECTID": 1148,
    "ولایت": "پکتيکا",
    "Province": "PAKTIKA",
    "PC_Code": "1211176",
    "District": "URGOON",
    "د_مرکز_نوم__نام_مرکز": "حاجی میلمستون",
    "Polling_Center_Name": "Haji Guest House",
    "د_مرکز_ځای__موقعیت_مرکز": "نورﷲ کلی",
    "Polling_Center_Location": "Noorullah Village",
    "Map_Accuracy": "Village",
    "Map_Accuracy_Dari": "قریه",
    "Status": "Open",
    "Status_Dari": null,
    "PS_Male": 0,
    "PS_Female": 2,
    "PS_Total": 2,
    "ولسوالي": "اورگون",
    "Region": "South Eastern Region"
   },
   "geometry": {
    "x": 7696180.4827536996,
    "y": 3877249.0554312719
   }
  },
  {
   "attributes": {
    "OBJECTID": 1149,
    "ولایت": "پکتيکا",
    "Province": "PAKTIKA",
    "PC_Code": "1212195",
    "District": "ZIRUK",
    "د_مرکز_نوم__نام_مرکز": "وار زانه نجونو ښوونځی",
    "Polling_Center_Name": "War Zana Girls School",
    "د_مرکز_ځای__موقعیت_مرکز": "سرو میدان",
    "Polling_Center_Location": "Sro Maidan",
    "Map_Accuracy": "Village",
    "Map_Accuracy_Dari": "قریه",
    "Status": "Open",
    "Status_Dari": null,
    "PS_Male": 2,
    "PS_Female": 0,
    "PS_Total": 2,
    "ولسوالي": "زیړوک",
    "Region": "South Eastern Region"
   },
   "geometry": {
    "x": 7708643.1973461304,
    "y": 3911613.1442825161
   }
  },
  {
   "attributes": {
    "OBJECTID": 1150,
    "ولایت": "پکتيکا",
    "Province": "PAKTIKA",
    "PC_Code": "1212196",
    "District": "ZIRUK",
    "د_مرکز_نوم__نام_مرکز": "شاه اغاه جومات",
    "Polling_Center_Name": "Shah Agha Mosque",
    "د_مرکز_ځای__موقعیت_مرکز": "وار زانه",
    "Polling_Center_Location": "Var Zana",
    "Map_Accuracy": "Village",
    "Map_Accuracy_Dari": "قریه",
    "Status": "Open",
    "Status_Dari": null,
    "PS_Male": 0,
    "PS_Female": 2,
    "PS_Total": 2,
    "ولسوالي": "زیړوک",
    "Region": "South Eastern Region"
   },
   "geometry": {
    "x": 7706523.8478998356,
    "y": 3904950.741121232
   }
  },
  {
   "attributes": {
    "OBJECTID": 1151,
    "ولایت": "پکتيکا",
    "Province": "PAKTIKA",
    "PC_Code": "1214250",
    "District": "BARMAL",
    "د_مرکز_نوم__نام_مرکز": "نواب کلینیک",
    "Polling_Center_Name": "Nawab Clinic",
    "د_مرکز_ځای__موقعیت_مرکز": "د ولسوالی مرکز",
    "Polling_Center_Location": "District Center",
    "Map_Accuracy": "Village",
    "Map_Accuracy_Dari": "قریه",
    "Status": "Open",
    "Status_Dari": null,
    "PS_Male": 0,
    "PS_Female": 3,
    "PS_Total": 3,
    "ولسوالي": "برمل",
    "Region": "South Eastern Region"
   },
   "geometry": {
    "x": 7711336.5857842118,
    "y": 3831666.2491141148
   }
  },
  {
   "attributes": {
    "OBJECTID": 1152,
    "ولایت": "پکتيکا",
    "Province": "PAKTIKA",
    "PC_Code": "1214251",
    "District": "BARMAL",
    "د_مرکز_نوم__نام_مرکز": "فاروقیه ښوونځی ",
    "Polling_Center_Name": "Faroqia School",
    "د_مرکز_ځای__موقعیت_مرکز": "فاروقیه",
    "Polling_Center_Location": "Faroqia",
    "Map_Accuracy": "Building",
    "Map_Accuracy_Dari": "تعمیر",
    "Status": "Open",
    "Status_Dari": null,
    "PS_Male": 4,
    "PS_Female": 0,
    "PS_Total": 4,
    "ولسوالي": "برمل",
    "Region": "South Eastern Region"
   },
   "geometry": {
    "x": 7709537.4891545875,
    "y": 3834459.0018520155
   }
  },
  {
   "attributes": {
    "OBJECTID": 1153,
    "ولایت": "پکتيکا",
    "Province": "PAKTIKA",
    "PC_Code": "1217220",
    "District": "WAZAKHWAH",
    "د_مرکز_نوم__نام_مرکز": "د مشوری کلی جومات",
    "Polling_Center_Name": "Mashori Village Mosque",
    "د_مرکز_ځای__موقعیت_مرکز": "ماشوری کلی",
    "Polling_Center_Location": "Mashori Village",
    "Map_Accuracy": "Village",
    "Map_Accuracy_Dari": "قریه",
    "Status": "Open",
    "Status_Dari": null,
    "PS_Male": 0,
    "PS_Female": 4,
    "PS_Total": 4,
    "ولسوالي": "وازه خواه",
    "Region": "South Eastern Region"
   },
   "geometry": {
    "x": 7604787.876559237,
    "y": 3761225.7898018584
   }
  },
  {
   "attributes": {
    "OBJECTID": 1154,
    "ولایت": "پکتيکا",
    "Province": "PAKTIKA",
    "PC_Code": "1217221",
    "District": "WAZAKHWAH",
    "د_مرکز_نوم__نام_مرکز": "مرجان جومات",
    "Polling_Center_Name": "Marjan Mosque",
    "د_مرکز_ځای__موقعیت_مرکز": "مرجان کلی",
    "Polling_Center_Location": "Marjan Village",
    "Map_Accuracy": "Village",
    "Map_Accuracy_Dari": "قریه",
    "Status": "Open",
    "Status_Dari": null,
    "PS_Male": 4,
    "PS_Female": 0,
    "PS_Total": 4,
    "ولسوالي": "وازه خواه",
    "Region": "South Eastern Region"
   },
   "geometry": {
    "x": 7598585.8424866907,
    "y": 3787630.9000362684
   }
  },
  {
   "attributes": {
    "OBJECTID": 1155,
    "ولایت": "پکتيکا",
    "Province": "PAKTIKA",
    "PC_Code": "1217230",
    "District": "WAZAKHWAH",
    "د_مرکز_نوم__نام_مرکز": "میراج جماعت",
    "Polling_Center_Name": "Hamidullah Guest House",
    "د_مرکز_ځای__موقعیت_مرکز": "گلالبی",
    "Polling_Center_Location": "Gulalabi",
    "Map_Accuracy": "Village",
    "Map_Accuracy_Dari": "قریه",
    "Status": "Open",
    "Status_Dari": null,
    "PS_Male": 5,
    "PS_Female": 0,
    "PS_Total": 5,
    "ولسوالي": "وازه خواه",
    "Region": "South Eastern Region"
   },
   "geometry": {
    "x": 7604106.0914323144,
    "y": 3787063.8814801648
   }
  },
  {
   "attributes": {
    "OBJECTID": 1156,
    "ولایت": "پکتيکا",
    "Province": "PAKTIKA",
    "PC_Code": "1218237",
    "District": "WOR MAMY",
    "د_مرکز_نوم__نام_مرکز": "ولسوالی مرکز",
    "Polling_Center_Name": "District Compound",
    "د_مرکز_ځای__موقعیت_مرکز": "وور",
    "Polling_Center_Location": "Wowr",
    "Map_Accuracy": "Building",
    "Map_Accuracy_Dari": "تعمیر",
    "Status": "Open",
    "Status_Dari": null,
    "PS_Male": 5,
    "PS_Female": 0,
    "PS_Total": 5,
    "ولسوالي": "وړممی",
    "Region": "South Eastern Region"
   },
   "geometry": {
    "x": 7645040.9031293523,
    "y": 3775122.3277141126
   }
  },
  {
   "attributes": {
    "OBJECTID": 1157,
    "ولایت": "پکتيکا",
    "Province": "PAKTIKA",
    "PC_Code": "1218238",
    "District": "WOR MAMY",
    "د_مرکز_نوم__نام_مرکز": "کلینیک",
    "Polling_Center_Name": "Clinic",
    "د_مرکز_ځای__موقعیت_مرکز": "وور",
    "Polling_Center_Location": "Wowr",
    "Map_Accuracy": "Building",
    "Map_Accuracy_Dari": "تعمیر",
    "Status": "Open",
    "Status_Dari": null,
    "PS_Male": 0,
    "PS_Female": 3,
    "PS_Total": 3,
    "ولسوالي": "وړممی",
    "Region": "South Eastern Region"
   },
   "geometry": {
    "x": 7644690.997026721,
    "y": 3775201.6154093249
   }
  },
  {
   "attributes": {
    "OBJECTID": 1158,
    "ولایت": "پکتيا",
    "Province": "PAKTYA",
    "PC_Code": "1301011",
    "District": "GARDEZ",
    "د_مرکز_نوم__نام_مرکز": "خدایداد خیلو لیسه",
    "Polling_Center_Name": "Khudaidad Khel High School",
    "د_مرکز_ځای__موقعیت_مرکز": "دولت زی ",
    "Polling_Center_Location": "Dawlatzai",
    "Map_Accuracy": "Building",
    "Map_Accuracy_Dari": "تعمیر",
    "Status": "Open",
    "Status_Dari": null,
    "PS_Male": 3,
    "PS_Female": 3,
    "PS_Total": 6,
    "ولسوالي": "گردیز",
    "Region": "South Eastern Region"
   },
   "geometry": {
    "x": 7707006.3388555832,
    "y": 3973012.4331006492
   }
  },
  {
   "attributes": {
    "OBJECTID": 1159,
    "ولایت": "پکتيا",
    "Province": "PAKTYA",
    "PC_Code": "1301012",
    "District": "GARDEZ",
    "د_مرکز_نوم__نام_مرکز": "مکتب بالا ده",
    "Polling_Center_Name": "Bala Deh School",
    "د_مرکز_ځای__موقعیت_مرکز": " بالا ده",
    "Polling_Center_Location": "Bala Deh",
    "Map_Accuracy": "Building",
    "Map_Accuracy_Dari": "تعمیر",
    "Status": "Open",
    "Status_Dari": null,
    "PS_Male": 4,
    "PS_Female": 2,
    "PS_Total": 6,
    "ولسوالي": "گردیز",
    "Region": "South Eastern Region"
   },
   "geometry": {
    "x": 7713029.1975285262,
    "y": 3978492.770738103
   }
  },
  {
   "attributes": {
    "OBJECTID": 1160,
    "ولایت": "پکتيا",
    "Province": "PAKTYA",
    "PC_Code": "1302196",
    "District": "AHMADABA",
    "د_مرکز_نوم__نام_مرکز": "د مچلغو کلینیک",
    "Polling_Center_Name": "Machalgho Clinic",
    "د_مرکز_ځای__موقعیت_مرکز": "مچلغو",
    "Polling_Center_Location": "Machalgho",
    "Map_Accuracy": "Village",
    "Map_Accuracy_Dari": "قریه",
    "Status": "Open",
    "Status_Dari": null,
    "PS_Male": 2,
    "PS_Female": 2,
    "PS_Total": 4,
    "ولسوالي": "احمد آبا",
    "Region": "South Eastern Region"
   },
   "geometry": {
    "x": 7723372.318884979,
    "y": 3996447.6927311243
   }
  },
  {
   "attributes": {
    "OBJECTID": 1161,
    "ولایت": "پکتيا",
    "Province": "PAKTYA",
    "PC_Code": "1302197",
    "District": "AHMADABA",
    "د_مرکز_نوم__نام_مرکز": "د مموزیو منځنی ښوونځی",
    "Polling_Center_Name": "Mamozo Secondary School",
    "د_مرکز_ځای__موقعیت_مرکز": "مموزی",
    "Polling_Center_Location": "Mamozay",
    "Map_Accuracy": "Building",
    "Map_Accuracy_Dari": "تعمیر",
    "Status": "Open",
    "Status_Dari": null,
    "PS_Male": 4,
    "PS_Female": 1,
    "PS_Total": 5,
    "ولسوالي": "احمد آبا",
    "Region": "South Eastern Region"
   },
   "geometry": {
    "x": 7726606.4573343135,
    "y": 3994542.7392663462
   }
  },
  {
   "attributes": {
    "OBJECTID": 1162,
    "ولایت": "پکتيا",
    "Province": "PAKTYA",
    "PC_Code": "1303087",
    "District": "ZURMAT",
    "د_مرکز_نوم__نام_مرکز": "دولت خان مسجد ",
    "Polling_Center_Name": "Dawlat Khan Mosque",
    "د_مرکز_ځای__موقعیت_مرکز": "کولالگو",
    "Polling_Center_Location": "Kolalgo",
    "Map_Accuracy": "Village",
    "Map_Accuracy_Dari": "قریه",
    "Status": "Open",
    "Status_Dari": null,
    "PS_Male": 2,
    "PS_Female": 1,
    "PS_Total": 3,
    "ولسوالي": "زرمت",
    "Region": "South Eastern Region"
   },
   "geometry": {
    "x": 7668581.9686926827,
    "y": 3955769.1399144763
   }
  },
  {
   "attributes": {
    "OBJECTID": 1163,
    "ولایت": "پکتيا",
    "Province": "PAKTYA",
    "PC_Code": "1303092",
    "District": "ZURMAT",
    "د_مرکز_نوم__نام_مرکز": "د نوی کوهی مسجد",
    "Polling_Center_Name": "Nawi Kohi Mosque",
    "د_مرکز_ځای__موقعیت_مرکز": " گلدت خیل",
    "Polling_Center_Location": "Guldat Khel",
    "Map_Accuracy": "Village",
    "Map_Accuracy_Dari": "قریه",
    "Status": "Open",
    "Status_Dari": null,
    "PS_Male": 2,
    "PS_Female": 0,
    "PS_Total": 2,
    "ولسوالي": "زرمت",
    "Region": "South Eastern Region"
   },
   "geometry": {
    "x": 7678363.9730238346,
    "y": 3953423.5680662002
   }
  },
  {
   "attributes": {
    "OBJECTID": 1164,
    "ولایت": "پکتيا",
    "Province": "PAKTYA",
    "PC_Code": "1303094",
    "District": "ZURMAT",
    "د_مرکز_نوم__نام_مرکز": "مکتب سورکی",
    "Polling_Center_Name": "Sorkai School",
    "د_مرکز_ځای__موقعیت_مرکز": "سورکی",
    "Polling_Center_Location": "Sorkai",
    "Map_Accuracy": "Building",
    "Map_Accuracy_Dari": "تعمیر",
    "Status": "Open",
    "Status_Dari": null,
    "PS_Male": 0,
    "PS_Female": 4,
    "PS_Total": 4,
    "ولسوالي": "زرمت",
    "Region": "South Eastern Region"
   },
   "geometry": {
    "x": 7702046.7560913125,
    "y": 3943326.6308739414
   }
  },
  {
   "attributes": {
    "OBJECTID": 1165,
    "ولایت": "پکتيا",
    "Province": "PAKTYA",
    "PC_Code": "1303095",
    "District": "ZURMAT",
    "د_مرکز_نوم__نام_مرکز": "سالح خیل شاه محمد هجره",
    "Polling_Center_Name": "Saleh Khel Shah Mohammad Hojra",
    "د_مرکز_ځای__موقعیت_مرکز": "سورکی",
    "Polling_Center_Location": "Sorkai",
    "Map_Accuracy": "Village",
    "Map_Accuracy_Dari": "قریه",
    "Status": "Open",
    "Status_Dari": null,
    "PS_Male": 3,
    "PS_Female": 0,
    "PS_Total": 3,
    "ولسوالي": "زرمت",
    "Region": "South Eastern Region"
   },
   "geometry": {
    "x": 7696493.0834685769,
    "y": 3943031.5350682023
   }
  },
  {
   "attributes": {
    "OBJECTID": 1166,
    "ولایت": "پکتيا",
    "Province": "PAKTYA",
    "PC_Code": "1306039",
    "District": "SAYYID KARAM",
    "د_مرکز_نوم__نام_مرکز": "د کلگر مکتب",
    "Polling_Center_Name": "Kalgar School",
    "د_مرکز_ځای__موقعیت_مرکز": " کلگر",
    "Polling_Center_Location": "Kalgar",
    "Map_Accuracy": "Building",
    "Map_Accuracy_Dari": "تعمیر",
    "Status": "Open",
    "Status_Dari": null,
    "PS_Male": 0,
    "PS_Female": 2,
    "PS_Total": 2,
    "ولسوالي": "سید کرم",
    "Region": "South Eastern Region"
   },
   "geometry": {
    "x": 7732062.7209498286,
    "y": 3986059.799934003
   }
  },
  {
   "attributes": {
    "OBJECTID": 1167,
    "ولایت": "پکتيا",
    "Province": "PAKTYA",
    "PC_Code": "1306040",
    "District": "SAYYID KARAM",
    "د_مرکز_نوم__نام_مرکز": "مچ مسجد",
    "Polling_Center_Name": "Moch Mossque",
    "د_مرکز_ځای__موقعیت_مرکز": "مچ",
    "Polling_Center_Location": "Moch",
    "Map_Accuracy": "Building",
    "Map_Accuracy_Dari": "تعمیر",
    "Status": "Open",
    "Status_Dari": null,
    "PS_Male": 2,
    "PS_Female": 1,
    "PS_Total": 3,
    "ولسوالي": "سید کرم",
    "Region": "South Eastern Region"
   },
   "geometry": {
    "x": 7725661.8624743614,
    "y": 3983067.2040973087
   }
  },
  {
   "attributes": {
    "OBJECTID": 1168,
    "ولایت": "پکتيا",
    "Province": "PAKTYA",
    "PC_Code": "1307054",
    "District": "JAJI ARYOB",
    "د_مرکز_نوم__نام_مرکز": "مصری خیلو مسجد ",
    "Polling_Center_Name": "Miseri Khel Mosque",
    "د_مرکز_ځای__موقعیت_مرکز": "علی خیل",
    "Polling_Center_Location": "Ali Khel",
    "Map_Accuracy": "Building",
    "Map_Accuracy_Dari": "تعمیر",
    "Status": "Open",
    "Status_Dari": null,
    "PS_Male": 0,
    "PS_Female": 4,
    "PS_Total": 4,
    "ولسوالي": "ځاځی اریوب",
    "Region": "South Eastern Region"
   },
   "geometry": {
    "x": 7760528.0086411787,
    "y": 4021371.8672758965
   }
  },
  {
   "attributes": {
    "OBJECTID": 1169,
    "ولایت": "پکتيا",
    "Province": "PAKTYA",
    "PC_Code": "1307055",
    "District": "JAJI ARYOB",
    "د_مرکز_نوم__نام_مرکز": "د ماری خیلو مکتب",
    "Polling_Center_Name": "Maari Khel School",
    "د_مرکز_ځای__موقعیت_مرکز": "مری خیل",
    "Polling_Center_Location": "Mari Khel",
    "Map_Accuracy": "Building",
    "Map_Accuracy_Dari": "تعمیر",
    "Status": "Open",
    "Status_Dari": null,
    "PS_Male": 4,
    "PS_Female": 0,
    "PS_Total": 4,
    "ولسوالي": "ځاځی اریوب",
    "Region": "South Eastern Region"
   },
   "geometry": {
    "x": 7755848.2441149447,
    "y": 4024401.2654667483
   }
  },
  {
   "attributes": {
    "OBJECTID": 1170,
    "ولایت": "پکتيا",
    "Province": "PAKTYA",
    "PC_Code": "1307065",
    "District": "JAJI ARYOB",
    "د_مرکز_نوم__نام_مرکز": "محمد الله مکتب",
    "Polling_Center_Name": "Mohammadullah School",
    "د_مرکز_ځای__موقعیت_مرکز": "بلاووټ",
    "Polling_Center_Location": "Belawott",
    "Map_Accuracy": "Building",
    "Map_Accuracy_Dari": "تعمیر",
    "Status": "Open",
    "Status_Dari": null,
    "PS_Male": 4,
    "PS_Female": 2,
    "PS_Total": 6,
    "ولسوالي": "ځاځی اریوب",
    "Region": "South Eastern Region"
   },
   "geometry": {
    "x": 7771881.7072593616,
    "y": 4027188.509130206
   }
  },
  {
   "attributes": {
    "OBJECTID": 1171,
    "ولایت": "پکتيا",
    "Province": "PAKTYA",
    "PC_Code": "1307067",
    "District": "JAJI ARYOB",
    "د_مرکز_نوم__نام_مرکز": "د میر محمد دکان",
    "Polling_Center_Name": "Mir Mohammad Shop",
    "د_مرکز_ځای__موقعیت_مرکز": "خوازی خیل",
    "Polling_Center_Location": "Khawazi Khel",
    "Map_Accuracy": "Building",
    "Map_Accuracy_Dari": "تعمیر",
    "Status": "Open",
    "Status_Dari": null,
    "PS_Male": 3,
    "PS_Female": 0,
    "PS_Total": 3,
    "ولسوالي": "ځاځی اریوب",
    "Region": "South Eastern Region"
   },
   "geometry": {
    "x": 7764022.7816407001,
    "y": 4022433.8604980889
   }
  },
  {
   "attributes": {
    "OBJECTID": 1172,
    "ولایت": "پکتيا",
    "Province": "PAKTYA",
    "PC_Code": "1307071",
    "District": "JAJI ARYOB",
    "د_مرکز_نوم__نام_مرکز": "د امام اعظم مکتب",
    "Polling_Center_Name": "Imam-e-Azam School",
    "د_مرکز_ځای__موقعیت_مرکز": "علی سنگئ",
    "Polling_Center_Location": "Ali Sangi",
    "Map_Accuracy": "Building",
    "Map_Accuracy_Dari": "تعمیر",
    "Status": "Open",
    "Status_Dari": null,
    "PS_Male": 3,
    "PS_Female": 1,
    "PS_Total": 4,
    "ولسوالي": "ځاځی اریوب",
    "Region": "South Eastern Region"
   },
   "geometry": {
    "x": 7767707.5358228013,
    "y": 4026502.1779286172
   }
  },
  {
   "attributes": {
    "OBJECTID": 1173,
    "ولایت": "پنجشیر",
    "Province": "PANJSHIR",
    "PC_Code": "0807106",
    "District": "PARYAN",
    "د_مرکز_نوم__نام_مرکز": "خیمه",
    "Polling_Center_Name": "Tent",
    "د_مرکز_ځای__موقعیت_مرکز": "قلعه",
    "Polling_Center_Location": "Qala",
    "Map_Accuracy": "Village",
    "Map_Accuracy_Dari": "قریه",
    "Status": "Open",
    "Status_Dari": null,
    "PS_Male": 2,
    "PS_Female": 1,
    "PS_Total": 3,
    "ولسوالي": "پریان",
    "Region": "Central Region"
   },
   "geometry": {
    "x": 7792942.1348558329,
    "y": 4248527.6858483637
   }
  },
  {
   "attributes": {
    "OBJECTID": 1174,
    "ولایت": "پنجشیر",
    "Province": "PANJSHIR",
    "PC_Code": "0807107",
    "District": "PARYAN",
    "د_مرکز_نوم__نام_مرکز": "مسجد چمار",
    "Polling_Center_Name": "Chamar Mosque",
    "د_مرکز_ځای__موقعیت_مرکز": "چمار پائین",
    "Polling_Center_Location": "Chamar paien",
    "Map_Accuracy": "Village",
    "Map_Accuracy_Dari": "قریه",
    "Status": "Open",
    "Status_Dari": null,
    "PS_Male": 2,
    "PS_Female": 1,
    "PS_Total": 3,
    "ولسوالي": "پریان",
    "Region": "Central Region"
   },
   "geometry": {
    "x": 7803861.6477188626,
    "y": 4259164.0963048562
   }
  },
  {
   "attributes": {
    "OBJECTID": 1175,
    "ولایت": "پنجشیر",
    "Province": "PANJSHIR",
    "PC_Code": "0802021",
    "District": "RUKHA",
    "د_مرکز_نوم__نام_مرکز": "مکتب متوسطه دخترانه داکه ",
    "Polling_Center_Name": "Daka Girls Secondary School ",
    "د_مرکز_ځای__موقعیت_مرکز": "داکه ",
    "Polling_Center_Location": "Daka",
    "Map_Accuracy": "Building",
    "Map_Accuracy_Dari": "تعمیر",
    "Status": "Open",
    "Status_Dari": null,
    "PS_Male": 2,
    "PS_Female": 1,
    "PS_Total": 3,
    "ولسوالي": "رخه",
    "Region": "Central Region"
   },
   "geometry": {
    "x": 7733430.0994434506,
    "y": 4199826.0363293262
   }
  },
  {
   "attributes": {
    "OBJECTID": 1176,
    "ولایت": "پنجشیر",
    "Province": "PANJSHIR",
    "PC_Code": "0805035",
    "District": "UNABA",
    "د_مرکز_نوم__نام_مرکز": "مدرسه تاواخ ",
    "Polling_Center_Name": "Madrassa Tawaakh",
    "د_مرکز_ځای__موقعیت_مرکز": "تاواخ",
    "Polling_Center_Location": "Tawaakh",
    "Map_Accuracy": "Building",
    "Map_Accuracy_Dari": "تعمیر",
    "Status": "Open",
    "Status_Dari": null,
    "PS_Male": 2,
    "PS_Female": 1,
    "PS_Total": 3,
    "ولسوالي": "عنابه",
    "Region": "Central Region"
   },
   "geometry": {
    "x": 7725350.1233723434,
    "y": 4197633.6546022203
   }
  },
  {
   "attributes": {
    "OBJECTID": 1177,
    "ولایت": "پنجشیر",
    "Province": "PANJSHIR",
    "PC_Code": "0805036",
    "District": "UNABA",
    "د_مرکز_نوم__نام_مرکز": "مدرسه گنه",
    "Polling_Center_Name": "Madrassa Gana ",
    "د_مرکز_ځای__موقعیت_مرکز": "قریه گنه",
    "Polling_Center_Location": "Gana Village ",
    "Map_Accuracy": "Building",
    "Map_Accuracy_Dari": "تعمیر",
    "Status": "Open",
    "Status_Dari": null,
    "PS_Male": 1,
    "PS_Female": 1,
    "PS_Total": 2,
    "ولسوالي": "عنابه",
    "Region": "Central Region"
   },
   "geometry": {
    "x": 7730294.8271734715,
    "y": 4195207.7770456579
   }
  },
  {
   "attributes": {
    "OBJECTID": 1178,
    "ولایت": "پنجشیر",
    "Province": "PANJSHIR",
    "PC_Code": "0806093",
    "District": "SHUTUL",
    "د_مرکز_نوم__نام_مرکز": "دوآبی مرغی و آروی شتل",
    "Polling_Center_Name": "Du Aabi Murghi and Arwe Shutul",
    "د_مرکز_ځای__موقعیت_مرکز": "دوآبی مر غی و آرزو شتل",
    "Polling_Center_Location": "Du Aabi Murghi and Arzo Shutul",
    "Map_Accuracy": "Village",
    "Map_Accuracy_Dari": "قریه",
    "Status": "Open",
    "Status_Dari": null,
    "PS_Male": 1,
    "PS_Female": 1,
    "PS_Total": 2,
    "ولسوالي": "شتل",
    "Region": "Central Region"
   },
   "geometry": {
    "x": 7716217.9883134998,
    "y": 4200077.3005102752
   }
  },
  {
   "attributes": {
    "OBJECTID": 1179,
    "ولایت": "پنجشیر",
    "Province": "PANJSHIR",
    "PC_Code": "0807072",
    "District": "PARYAN",
    "د_مرکز_نوم__نام_مرکز": "مسجد کوهسور",
    "Polling_Center_Name": "Kohsar Mosque",
    "د_مرکز_ځای__موقعیت_مرکز": "کوهسور",
    "Polling_Center_Location": "Kohsar",
    "Map_Accuracy": "Village",
    "Map_Accuracy_Dari": "قریه",
    "Status": "Open",
    "Status_Dari": null,
    "PS_Male": 1,
    "PS_Female": 1,
    "PS_Total": 2,
    "ولسوالي": "پریان",
    "Region": "Central Region"
   },
   "geometry": {
    "x": 7791260.8020023201,
    "y": 4246849.0228780713
   }
  },
  {
   "attributes": {
    "OBJECTID": 1180,
    "ولایت": "پنجشیر",
    "Province": "PANJSHIR",
    "PC_Code": "0807073",
    "District": "PARYAN",
    "د_مرکز_نوم__نام_مرکز": "مکتب ده خاواک",
    "Polling_Center_Name": "Deh khawak School",
    "د_مرکز_ځای__موقعیت_مرکز": "ده خاواک",
    "Polling_Center_Location": "Deh Khawak",
    "Map_Accuracy": "Building",
    "Map_Accuracy_Dari": "تعمیر",
    "Status": "Open",
    "Status_Dari": null,
    "PS_Male": 1,
    "PS_Female": 1,
    "PS_Total": 2,
    "ولسوالي": "پریان",
    "Region": "Central Region"
   },
   "geometry": {
    "x": 7782253.3130471129,
    "y": 4251797.8367670085
   }
  },
  {
   "attributes": {
    "OBJECTID": 1181,
    "ولایت": "پنجشیر",
    "Province": "PANJSHIR",
    "PC_Code": "0807083",
    "District": "PARYAN",
    "د_مرکز_نوم__نام_مرکز": "مسجد جامع پس مزار ",
    "Polling_Center_Name": "Pasmazar Mosque ",
    "د_مرکز_ځای__موقعیت_مرکز": "پس مزار ",
    "Polling_Center_Location": "Pasmazar",
    "Map_Accuracy": "Village",
    "Map_Accuracy_Dari": "قریه",
    "Status": "Open",
    "Status_Dari": null,
    "PS_Male": 1,
    "PS_Female": 1,
    "PS_Total": 2,
    "ولسوالي": "پریان",
    "Region": "Central Region"
   },
   "geometry": {
    "x": 7805121.9387547765,
    "y": 4260027.0622214843
   }
  },
  {
   "attributes": {
    "OBJECTID": 1182,
    "ولایت": "پنجشیر",
    "Province": "PANJSHIR",
    "PC_Code": "0807094",
    "District": "PARYAN",
    "د_مرکز_نوم__نام_مرکز": "خیمه قریه چونی ",
    "Polling_Center_Name": "Choni Village Tent ",
    "د_مرکز_ځای__موقعیت_مرکز": "قریه چونی",
    "Polling_Center_Location": "Choni Village",
    "Map_Accuracy": "Village",
    "Map_Accuracy_Dari": "قریه",
    "Status": "Open",
    "Status_Dari": null,
    "PS_Male": 1,
    "PS_Female": 1,
    "PS_Total": 2,
    "ولسوالي": "پریان",
    "Region": "Central Region"
   },
   "geometry": {
    "x": 7778849.8042189246,
    "y": 4251345.3270263793
   }
  },
  {
   "attributes": {
    "OBJECTID": 1183,
    "ولایت": "پنجشیر",
    "Province": "PANJSHIR",
    "PC_Code": "0807096",
    "District": "PARYAN",
    "د_مرکز_نوم__نام_مرکز": "چمن بوسی",
    "Polling_Center_Name": "Chaman Bosee ",
    "د_مرکز_ځای__موقعیت_مرکز": "بوسی",
    "Polling_Center_Location": "Bosee",
    "Map_Accuracy": "Village",
    "Map_Accuracy_Dari": "قریه",
    "Status": "Open",
    "Status_Dari": null,
    "PS_Male": 1,
    "PS_Female": 1,
    "PS_Total": 2,
    "ولسوالي": "پریان",
    "Region": "Central Region"
   },
   "geometry": {
    "x": 7801600.3926384766,
    "y": 4258136.2870437643
   }
  },
  {
   "attributes": {
    "OBJECTID": 1184,
    "ولایت": "پنجشیر",
    "Province": "PANJSHIR",
    "PC_Code": "0808063",
    "District": "ABSHAR",
    "د_مرکز_نوم__نام_مرکز": "مسجد گلاب خیل",
    "Polling_Center_Name": "Gulabkhel Mosque ",
    "د_مرکز_ځای__موقعیت_مرکز": "گلاب خیل ",
    "Polling_Center_Location": "Gulabkhel",
    "Map_Accuracy": "Village",
    "Map_Accuracy_Dari": "قریه",
    "Status": "Open",
    "Status_Dari": null,
    "PS_Male": 1,
    "PS_Female": 1,
    "PS_Total": 2,
    "ولسوالي": "آبشار",
    "Region": "Central Region"
   },
   "geometry": {
    "x": 7777817.142283407,
    "y": 4199335.9686160376
   }
  },
  {
   "attributes": {
    "OBJECTID": 1185,
    "ولایت": "پنجشیر",
    "Province": "PANJSHIR",
    "PC_Code": "0808064",
    "District": "ABSHAR",
    "د_مرکز_نوم__نام_مرکز": "مسجد روبی صلاح",
    "Polling_Center_Name": "Rueebi Salah Mosque",
    "د_مرکز_ځای__موقعیت_مرکز": "پرنگال",
    "Polling_Center_Location": "Parngan",
    "Map_Accuracy": "Village",
    "Map_Accuracy_Dari": "قریه",
    "Status": "Open",
    "Status_Dari": null,
    "PS_Male": 1,
    "PS_Female": 1,
    "PS_Total": 2,
    "ولسوالي": "آبشار",
    "Region": "Central Region"
   },
   "geometry": {
    "x": 7764459.9956199629,
    "y": 4195139.0537353707
   }
  },
  {
   "attributes": {
    "OBJECTID": 1186,
    "ولایت": "بغلان",
    "Province": "BAGHLAN",
    "PC_Code": "0901018",
    "District": "PUL-E-KHUMRI",
    "د_مرکز_نوم__نام_مرکز": "مسجد  نیاز الله",
    "Polling_Center_Name": "Niazullah Village",
    "د_مرکز_ځای__موقعیت_مرکز": "قریه نیاز الله",
    "Polling_Center_Location": "Niazullah Village",
    "Map_Accuracy": "Building",
    "Map_Accuracy_Dari": "تعمیر",
    "Status": "Open",
    "Status_Dari": null,
    "PS_Male": 3,
    "PS_Female": 2,
    "PS_Total": 5,
    "ولسوالي": "پلخمری",
    "Region": "North Eastern Region"
   },
   "geometry": {
    "x": 7643645.1170148719,
    "y": 4295737.8466389999
   }
  },
  {
   "attributes": {
    "OBJECTID": 1187,
    "ولایت": "بغلان",
    "Province": "BAGHLAN",
    "PC_Code": "0901019",
    "District": "PUL-E-KHUMRI",
    "د_مرکز_نوم__نام_مرکز": "مکتب سید جمال الدین افغان چشمه شیر سرک مزار پلجمری",
    "Polling_Center_Name": "Said Jamalluddin Afghan School",
    "د_مرکز_ځای__موقعیت_مرکز": "باغ شمال",
    "Polling_Center_Location": "Bagh Shamal",
    "Map_Accuracy": "Building",
    "Map_Accuracy_Dari": "تعمیر",
    "Status": "Open",
    "Status_Dari": null,
    "PS_Male": 2,
    "PS_Female": 2,
    "PS_Total": 4,
    "ولسوالي": "پلخمری",
    "Region": "North Eastern Region"
   },
   "geometry": {
    "x": 7641573.2553501502,
    "y": 4299940.5424731839
   }
  },
  {
   "attributes": {
    "OBJECTID": 1188,
    "ولایت": "بغلان",
    "Province": "BAGHLAN",
    "PC_Code": "0901031",
    "District": "PUL-E-KHUMRI",
    "د_مرکز_نوم__نام_مرکز": "امرخیل جلادخان",
    "Polling_Center_Name": "Omar Khel Jalad Khan",
    "د_مرکز_ځای__موقعیت_مرکز": "امرخیل جلادخان",
    "Polling_Center_Location": "Omar Khil Jalad Khan",
    "Map_Accuracy": "Building",
    "Map_Accuracy_Dari": "تعمیر",
    "Status": "Open",
    "Status_Dari": null,
    "PS_Male": 3,
    "PS_Female": 2,
    "PS_Total": 5,
    "ولسوالي": "پلخمری",
    "Region": "North Eastern Region"
   },
   "geometry": {
    "x": 7632622.5215241285,
    "y": 4302933.2063725442
   }
  },
  {
   "attributes": {
    "OBJECTID": 1189,
    "ولایت": "بغلان",
    "Province": "BAGHLAN",
    "PC_Code": "0901032",
    "District": "PUL-E-KHUMRI",
    "د_مرکز_نوم__نام_مرکز": "کهنه مسجد ",
    "Polling_Center_Name": "Old Mosque",
    "د_مرکز_ځای__موقعیت_مرکز": "مکتب سرخ کوتل",
    "Polling_Center_Location": "Sorkh Kotal Village",
    "Map_Accuracy": "Building",
    "Map_Accuracy_Dari": "تعمیر",
    "Status": "Open",
    "Status_Dari": null,
    "PS_Male": 2,
    "PS_Female": 1,
    "PS_Total": 3,
    "ولسوالي": "پلخمری",
    "Region": "North Eastern Region"
   },
   "geometry": {
    "x": 7635566.6159270098,
    "y": 4304414.1025819443
   }
  },
  {
   "attributes": {
    "OBJECTID": 1190,
    "ولایت": "بغلان",
    "Province": "BAGHLAN",
    "PC_Code": "0901037",
    "District": "PUL-E-KHUMRI",
    "د_مرکز_نوم__نام_مرکز": "مکتب عمر خیل بی بی آینه",
    "Polling_Center_Name": "Omarkhel Bebi Aiyana School",
    "د_مرکز_ځای__موقعیت_مرکز": "ناحیه سوم",
    "Polling_Center_Location": "Third Nahia",
    "Map_Accuracy": "Building",
    "Map_Accuracy_Dari": "تعمیر",
    "Status": "Open",
    "Status_Dari": null,
    "PS_Male": 2,
    "PS_Female": 1,
    "PS_Total": 3,
    "ولسوالي": "پلخمری",
    "Region": "North Eastern Region"
   },
   "geometry": {
    "x": 7640641.8529630434,
    "y": 4311383.5870310608
   }
  },
  {
   "attributes": {
    "OBJECTID": 1191,
    "ولایت": "بغلان",
    "Province": "BAGHLAN",
    "PC_Code": "0901038",
    "District": "PUL-E-KHUMRI",
    "د_مرکز_نوم__نام_مرکز": "مکتب چشمه شیر",
    "Polling_Center_Name": "Chesma Shir School",
    "د_مرکز_ځای__موقعیت_مرکز": "قریه عیسی بای",
    "Polling_Center_Location": "Eisa Bai Village",
    "Map_Accuracy": "Building",
    "Map_Accuracy_Dari": "تعمیر",
    "Status": "Open",
    "Status_Dari": null,
    "PS_Male": 2,
    "PS_Female": 1,
    "PS_Total": 3,
    "ولسوالي": "پلخمری",
    "Region": "North Eastern Region"
   },
   "geometry": {
    "x": 7636224.8347177347,
    "y": 4308226.2628562674
   }
  },
  {
   "attributes": {
    "OBJECTID": 1192,
    "ولایت": "بغلان",
    "Province": "BAGHLAN",
    "PC_Code": "0901041",
    "District": "PUL-E-KHUMRI",
    "د_مرکز_نوم__نام_مرکز": "مکتب الجهاد مهاجرین",
    "Polling_Center_Name": "Aljehad Muhajreen School",
    "د_مرکز_ځای__موقعیت_مرکز": "قریه هزاردو",
    "Polling_Center_Location": "Hazardo Village",
    "Map_Accuracy": "Building",
    "Map_Accuracy_Dari": "تعمیر",
    "Status": "Open",
    "Status_Dari": null,
    "PS_Male": 2,
    "PS_Female": 1,
    "PS_Total": 3,
    "ولسوالي": "پلخمری",
    "Region": "North Eastern Region"
   },
   "geometry": {
    "x": 7633107.6340538887,
    "y": 4313131.7810641741
   }
  },
  {
   "attributes": {
    "OBJECTID": 1193,
    "ولایت": "بغلان",
    "Province": "BAGHLAN",
    "PC_Code": "0901227",
    "District": "PUL-E-KHUMRI",
    "د_مرکز_نوم__نام_مرکز": "مسجد قریه مزار دره",
    "Polling_Center_Name": "Mazar Dara Mosque",
    "د_مرکز_ځای__موقعیت_مرکز": " مکتب مزار دره ",
    "Polling_Center_Location": "Mazar Dara School",
    "Map_Accuracy": "Building",
    "Map_Accuracy_Dari": "تعمیر",
    "Status": "Open",
    "Status_Dari": null,
    "PS_Male": 2,
    "PS_Female": 1,
    "PS_Total": 3,
    "ولسوالي": "پلخمری",
    "Region": "North Eastern Region"
   },
   "geometry": {
    "x": 7654832.8872528542,
    "y": 4280519.3621370485
   }
  },
  {
   "attributes": {
    "OBJECTID": 1194,
    "ولایت": "بغلان",
    "Province": "BAGHLAN",
    "PC_Code": "0902079",
    "District": "DAHANA-E-GHURI",
    "د_مرکز_نوم__نام_مرکز": "تندره مسجد جامع بن نقاء",
    "Polling_Center_Name": "Ibn Neqa Mosque",
    "د_مرکز_ځای__موقعیت_مرکز": "تندره",
    "Polling_Center_Location": "Tondara",
    "Map_Accuracy": "Building",
    "Map_Accuracy_Dari": "تعمیر",
    "Status": "Open",
    "Status_Dari": null,
    "PS_Male": 1,
    "PS_Female": 1,
    "PS_Total": 2,
    "ولسوالي": "دهنه غوری",
    "Region": "North Eastern Region"
   },
   "geometry": {
    "x": 7624139.8494214583,
    "y": 4275629.0742018539
   }
  },
  {
   "attributes": {
    "OBJECTID": 1195,
    "ولایت": "بغلان",
    "Province": "BAGHLAN",
    "PC_Code": "0902080",
    "District": "DAHANA-E-GHURI",
    "د_مرکز_نوم__نام_مرکز": "مکتب دشتک علی جم",
    "Polling_Center_Name": "Dasht-e-Ali Jum School",
    "د_مرکز_ځای__موقعیت_مرکز": "دشتک علی جم",
    "Polling_Center_Location": "Ali Jam Desert",
    "Map_Accuracy": "Building",
    "Map_Accuracy_Dari": "تعمیر",
    "Status": "Open",
    "Status_Dari": null,
    "PS_Male": 1,
    "PS_Female": 1,
    "PS_Total": 2,
    "ولسوالي": "دهنه غوری",
    "Region": "North Eastern Region"
   },
   "geometry": {
    "x": 7645386.9186157808,
    "y": 4270348.736070958
   }
  },
  {
   "attributes": {
    "OBJECTID": 1196,
    "ولایت": "بغلان",
    "Province": "BAGHLAN",
    "PC_Code": "0902084",
    "District": "DAHANA-E-GHURI",
    "د_مرکز_نوم__نام_مرکز": "لیسه پشه قل",
    "Polling_Center_Name": "Pasha Qul High School",
    "د_مرکز_ځای__موقعیت_مرکز": "پشه قل",
    "Polling_Center_Location": "Pasha Qul",
    "Map_Accuracy": "Building",
    "Map_Accuracy_Dari": "تعمیر",
    "Status": "Open",
    "Status_Dari": null,
    "PS_Male": 1,
    "PS_Female": 1,
    "PS_Total": 2,
    "ولسوالي": "دهنه غوری",
    "Region": "North Eastern Region"
   },
   "geometry": {
    "x": 7617805.316211801,
    "y": 4279337.4678735631
   }
  },
  {
   "attributes": {
    "OBJECTID": 1197,
    "ولایت": "بغلان",
    "Province": "BAGHLAN",
    "PC_Code": "0902085",
    "District": "DAHANA-E-GHURI",
    "د_مرکز_نوم__نام_مرکز": "لیسه عزیزان بابا",
    "Polling_Center_Name": "Azizan Baba High School",
    "د_مرکز_ځای__موقعیت_مرکز": "مرکز ولسوالی دهنه غوری",
    "Polling_Center_Location": "Dahana-e-Ghuri District Capital ",
    "Map_Accuracy": "Building",
    "Map_Accuracy_Dari": "تعمیر",
    "Status": "Open",
    "Status_Dari": null,
    "PS_Male": 2,
    "PS_Female": 1,
    "PS_Total": 3,
    "ولسوالي": "دهنه غوری",
    "Region": "North Eastern Region"
   },
   "geometry": {
    "x": 7624947.2207451155,
    "y": 4288557.5043510348
   }
  },
  {
   "attributes": {
    "OBJECTID": 1198,
    "ولایت": "بغلان",
    "Province": "BAGHLAN",
    "PC_Code": "0902088",
    "District": "DAHANA-E-GHURI",
    "د_مرکز_نوم__نام_مرکز": "لیسه کمپیرک بالا",
    "Polling_Center_Name": "Kamperak Bala High School",
    "د_مرکز_ځای__موقعیت_مرکز": "کمپیرک بالا",
    "Polling_Center_Location": "Kaperak Bala",
    "Map_Accuracy": "Building",
    "Map_Accuracy_Dari": "تعمیر",
    "Status": "Open",
    "Status_Dari": null,
    "PS_Male": 2,
    "PS_Female": 1,
    "PS_Total": 3,
    "ولسوالي": "دهنه غوری",
    "Region": "North Eastern Region"
   },
   "geometry": {
    "x": 7635456.9417382944,
    "y": 4262170.7951127896
   }
  },
  {
   "attributes": {
    "OBJECTID": 1199,
    "ولایت": "بغلان",
    "Province": "BAGHLAN",
    "PC_Code": "0902089",
    "District": "DAHANA-E-GHURI",
    "د_مرکز_نوم__نام_مرکز": "شلکتو مسجد آش خواجه",
    "Polling_Center_Name": "Shalkato Mosque",
    "د_مرکز_ځای__موقعیت_مرکز": "آش خواجه",
    "Polling_Center_Location": "Ash Khawaja",
    "Map_Accuracy": "Building",
    "Map_Accuracy_Dari": "تعمیر",
    "Status": "Open",
    "Status_Dari": null,
    "PS_Male": 2,
    "PS_Female": 1,
    "PS_Total": 3,
    "ولسوالي": "دهنه غوری",
    "Region": "North Eastern Region"
   },
   "geometry": {
    "x": 7626976.0696717892,
    "y": 4264278.8315366814
   }
  },
  {
   "attributes": {
    "OBJECTID": 1200,
    "ولایت": "بغلان",
    "Province": "BAGHLAN",
    "PC_Code": "0903097",
    "District": "DUSHI",
    "د_مرکز_نوم__نام_مرکز": "مکتب چهل کپه",
    "Polling_Center_Name": "Chehl Kapa School",
    "د_مرکز_ځای__موقعیت_مرکز": "چهل کپه",
    "Polling_Center_Location": "Chehl Kapa",
    "Map_Accuracy": "Building",
    "Map_Accuracy_Dari": "تعمیر",
    "Status": "Open",
    "Status_Dari": null,
    "PS_Male": 2,
    "PS_Female": 1,
    "PS_Total": 3,
    "ولسوالي": "دوشی",
    "Region": "North Eastern Region"
   },
   "geometry": {
    "x": 7660644.0051223664,
    "y": 4276956.405924838
   }
  }
 ]
}