{
 "displayFieldName": "Polling_Center_Name",
 "fieldAliases": {
  "OBJECTID": "OBJECTID",
  "ولایت": "ولایت",
  "Province": "Province",
  "PC_Code": "PC_Code",
  "District": "District",
  "د_مرکز_نوم__نام_مرکز": "د_مرکز_نوم__نام_مرکز",
  "Polling_Center_Name": "Polling_Center_Name",
  "د_مرکز_ځای__موقعیت_مرکز": "د_مرکز_ځای__موقعیت_مرکز",
  "Polling_Center_Location": "Polling_Center_Location",
  "Map_Accuracy": "Map_Accuracy",
  "Map_Accuracy_Dari": "Map_Accuracy_Dari",
  "Status": "Status",
  "Status_Dari": "Status_Dari",
  "PS_Male": "PS_Male",
  "PS_Female": "PS_Female",
  "PS_Total": "PS_Total",
  "ولسوالي": "ولسوالي",
  "Region": "Region"
 },
 "geometryType": "esriGeometryPoint",
 "spatialReference": {
  "wkid": 102100,
  "latestWkid": 3857
 },
 "fields": [
  {
   "name": "OBJECTID",
   "type": "esriFieldTypeOID",
   "alias": "OBJECTID"
  },
  {
   "name": "ولایت",
   "type": "esriFieldTypeString",
   "alias": "ولایت",
   "length": 255
  },
  {
   "name": "Province",
   "type": "esriFieldTypeString",
   "alias": "Province",
   "length": 255
  },
  {
   "name": "PC_Code",
   "type": "esriFieldTypeString",
   "alias": "PC_Code",
   "length": 255
  },
  {
   "name": "District",
   "type": "esriFieldTypeString",
   "alias": "District",
   "length": 255
  },
  {
   "name": "د_مرکز_نوم__نام_مرکز",
   "type": "esriFieldTypeString",
   "alias": "د_مرکز_نوم__نام_مرکز",
   "length": 255
  },
  {
   "name": "Polling_Center_Name",
   "type": "esriFieldTypeString",
   "alias": "Polling_Center_Name",
   "length": 255
  },
  {
   "name": "د_مرکز_ځای__موقعیت_مرکز",
   "type": "esriFieldTypeString",
   "alias": "د_مرکز_ځای__موقعیت_مرکز",
   "length": 255
  },
  {
   "name": "Polling_Center_Location",
   "type": "esriFieldTypeString",
   "alias": "Polling_Center_Location",
   "length": 255
  },
  {
   "name": "Map_Accuracy",
   "type": "esriFieldTypeString",
   "alias": "Map_Accuracy",
   "length": 10
  },
  {
   "name": "Map_Accuracy_Dari",
   "type": "esriFieldTypeString",
   "alias": "Map_Accuracy_Dari",
   "length": 50
  },
  {
   "name": "Status",
   "type": "esriFieldTypeString",
   "alias": "Status",
   "length": 6
  },
  {
   "name": "Status_Dari",
   "type": "esriFieldTypeString",
   "alias": "Status_Dari",
   "length": 8
  },
  {
   "name": "PS_Male",
   "type": "esriFieldTypeSmallInteger",
   "alias": "PS_Male"
  },
  {
   "name": "PS_Female",
   "type": "esriFieldTypeSmallInteger",
   "alias": "PS_Female"
  },
  {
   "name": "PS_Total",
   "type": "esriFieldTypeSmallInteger",
   "alias": "PS_Total"
  },
  {
   "name": "ولسوالي",
   "type": "esriFieldTypeString",
   "alias": "ولسوالي",
   "length": 255
  },
  {
   "name": "Region",
   "type": "esriFieldTypeString",
   "alias": "Region",
   "length": 50
  }
 ],
 "features": [
  {
   "attributes": {
    "OBJECTID": 601,
    "ولایت": "وردک",
    "Province": "WARDAK",
    "PC_Code": "0409044",
    "District": "MARKAZ-E-BEHSUD",
    "د_مرکز_نوم__نام_مرکز": "لیسه تگاب راموز",
    "Polling_Center_Name": "Tagab-e-Ramoz High School",
    "د_مرکز_ځای__موقعیت_مرکز": "قریه تگاب راموز",
    "Polling_Center_Location": "Tagab Ramoz Village",
    "Map_Accuracy": "Building",
    "Map_Accuracy_Dari": "تعمیر",
    "Status": "Open",
    "Status_Dari": null,
    "PS_Male": 2,
    "PS_Female": 1,
    "PS_Total": 3,
    "ولسوالي": "مرکز بهسود",
    "Region": "Central Region"
   },
   "geometry": {
    "x": 7545297.4593919758,
    "y": 4083605.8655673112
   }
  },
  {
   "attributes": {
    "OBJECTID": 602,
    "ولایت": "وردک",
    "Province": "WARDAK",
    "PC_Code": "0409045",
    "District": "MARKAZ-E-BEHSUD",
    "د_مرکز_نوم__نام_مرکز": "مکتب کوتل ملا یعقوب",
    "Polling_Center_Name": "Kotal-e-Molla Yaqub School",
    "د_مرکز_ځای__موقعیت_مرکز": "کوتل ملا یعقوب",
    "Polling_Center_Location": "Kutal-e-Molla Yaqub",
    "Map_Accuracy": "Building",
    "Map_Accuracy_Dari": "تعمیر",
    "Status": "Open",
    "Status_Dari": null,
    "PS_Male": 2,
    "PS_Female": 1,
    "PS_Total": 3,
    "ولسوالي": "مرکز بهسود",
    "Region": "Central Region"
   },
   "geometry": {
    "x": 7533737.0493849451,
    "y": 4085279.1115142475
   }
  },
  {
   "attributes": {
    "OBJECTID": 603,
    "ولایت": "وردک",
    "Province": "WARDAK",
    "PC_Code": "0409053",
    "District": "MARKAZ-E-BEHSUD",
    "د_مرکز_نوم__نام_مرکز": "بازار مرکز",
    "Polling_Center_Name": "Bazar-e-Markaz",
    "د_مرکز_ځای__موقعیت_مرکز": "بازار مرکز",
    "Polling_Center_Location": "Bazar-e-Markaz",
    "Map_Accuracy": "Village",
    "Map_Accuracy_Dari": "قریه",
    "Status": "Open",
    "Status_Dari": null,
    "PS_Male": 2,
    "PS_Female": 1,
    "PS_Total": 3,
    "ولسوالي": "مرکز بهسود",
    "Region": "Central Region"
   },
   "geometry": {
    "x": 7559027.5942544714,
    "y": 4075215.0907390658
   }
  },
  {
   "attributes": {
    "OBJECTID": 604,
    "ولایت": "وردک",
    "Province": "WARDAK",
    "PC_Code": "0409054",
    "District": "MARKAZ-E-BEHSUD",
    "د_مرکز_نوم__نام_مرکز": "لیسه نسوان راه قل",
    "Polling_Center_Name": "Rahqul Girls High School",
    "د_مرکز_ځای__موقعیت_مرکز": "راه قل",
    "Polling_Center_Location": "Rahqul",
    "Map_Accuracy": "Building",
    "Map_Accuracy_Dari": "تعمیر",
    "Status": "Open",
    "Status_Dari": null,
    "PS_Male": 2,
    "PS_Female": 1,
    "PS_Total": 3,
    "ولسوالي": "مرکز بهسود",
    "Region": "Central Region"
   },
   "geometry": {
    "x": 7549771.6969687548,
    "y": 4076488.5584995816
   }
  },
  {
   "attributes": {
    "OBJECTID": 605,
    "ولایت": "وردک",
    "Province": "WARDAK",
    "PC_Code": "0409057",
    "District": "MARKAZ-E-BEHSUD",
    "د_مرکز_نوم__نام_مرکز": "لیسه میر هزار کجاب",
    "Polling_Center_Name": "Mer Hazar-e-Kajab High School",
    "د_مرکز_ځای__موقعیت_مرکز": "قریه میر هزار",
    "Polling_Center_Location": "Mer Hazar Village",
    "Map_Accuracy": "Building",
    "Map_Accuracy_Dari": "تعمیر",
    "Status": "Open",
    "Status_Dari": null,
    "PS_Male": 2,
    "PS_Female": 1,
    "PS_Total": 3,
    "ولسوالي": "مرکز بهسود",
    "Region": "Central Region"
   },
   "geometry": {
    "x": 7569985.7669294989,
    "y": 4061871.5909117339
   }
  },
  {
   "attributes": {
    "OBJECTID": 606,
    "ولایت": "وردک",
    "Province": "WARDAK",
    "PC_Code": "0409058",
    "District": "MARKAZ-E-BEHSUD",
    "د_مرکز_نوم__نام_مرکز": "لیسه دهن اوجی",
    "Polling_Center_Name": "Dahan Oji School",
    "د_مرکز_ځای__موقعیت_مرکز": "دهن اوجی",
    "Polling_Center_Location": "Dahan-e-Oji",
    "Map_Accuracy": "Village",
    "Map_Accuracy_Dari": "قریه",
    "Status": "Open",
    "Status_Dari": null,
    "PS_Male": 1,
    "PS_Female": 1,
    "PS_Total": 2,
    "ولسوالي": "مرکز بهسود",
    "Region": "Central Region"
   },
   "geometry": {
    "x": 7557350.3468262712,
    "y": 4060597.1191755966
   }
  },
  {
   "attributes": {
    "OBJECTID": 607,
    "ولایت": "وردک",
    "Province": "WARDAK",
    "PC_Code": "0403024",
    "District": "JALREZ",
    "د_مرکز_نوم__نام_مرکز": "مدرسه نجم القرآن",
    "Polling_Center_Name": "Kohi Zaiolat Tent",
    "د_مرکز_ځای__موقعیت_مرکز": "قریه احمد زی",
    "Polling_Center_Location": "Ahmad Zai Village",
    "Map_Accuracy": "Village",
    "Map_Accuracy_Dari": "قریه",
    "Status": "Open",
    "Status_Dari": null,
    "PS_Male": 2,
    "PS_Female": 1,
    "PS_Total": 3,
    "ولسوالي": "جلریز",
    "Region": "Central Region"
   },
   "geometry": {
    "x": 7660752.9913566336,
    "y": 4088536.5693647908
   }
  },
  {
   "attributes": {
    "OBJECTID": 608,
    "ولایت": "لوگر",
    "Province": "LOGAR",
    "PC_Code": "0501005",
    "District": "PULI ALAM",
    "د_مرکز_نوم__نام_مرکز": "مکتب پورک",
    "Polling_Center_Name": "Poorak School",
    "د_مرکز_ځای__موقعیت_مرکز": "کنجک",
    "Polling_Center_Location": "Konjak",
    "Map_Accuracy": "Building",
    "Map_Accuracy_Dari": "تعمیر",
    "Status": "Open",
    "Status_Dari": null,
    "PS_Male": 4,
    "PS_Female": 3,
    "PS_Total": 7,
    "ولسوالي": "پل علم",
    "Region": "Central Region"
   },
   "geometry": {
    "x": 7687051.5286493106,
    "y": 4042678.4760509613
   }
  },
  {
   "attributes": {
    "OBJECTID": 609,
    "ولایت": "لوگر",
    "Province": "LOGAR",
    "PC_Code": "0501006",
    "District": "PULI ALAM",
    "د_مرکز_نوم__نام_مرکز": "مکتب قلعه غفار",
    "Polling_Center_Name": "Qala-e-Ghafar School",
    "د_مرکز_ځای__موقعیت_مرکز": "قلعه غفار",
    "Polling_Center_Location": "Qala-e-Ghafar",
    "Map_Accuracy": "Building",
    "Map_Accuracy_Dari": "تعمیر",
    "Status": "Open",
    "Status_Dari": null,
    "PS_Male": 3,
    "PS_Female": 2,
    "PS_Total": 5,
    "ولسوالي": "پل علم",
    "Region": "Central Region"
   },
   "geometry": {
    "x": 7679682.7071263753,
    "y": 4034191.3739812043
   }
  },
  {
   "attributes": {
    "OBJECTID": 610,
    "ولایت": "لوگر",
    "Province": "LOGAR",
    "PC_Code": "0501008",
    "District": "PULI ALAM",
    "د_مرکز_نوم__نام_مرکز": "مکتب متوسطه دادو خيل",
    "Polling_Center_Name": "DadoKhel Secondary School",
    "د_مرکز_ځای__موقعیت_مرکز": "دادو خيل",
    "Polling_Center_Location": "Dado Khel",
    "Map_Accuracy": "Building",
    "Map_Accuracy_Dari": "تعمیر",
    "Status": "Open",
    "Status_Dari": null,
    "PS_Male": 4,
    "PS_Female": 1,
    "PS_Total": 5,
    "ولسوالي": "پل علم",
    "Region": "Central Region"
   },
   "geometry": {
    "x": 7691641.4360825773,
    "y": 4039996.6189794978
   }
  },
  {
   "attributes": {
    "OBJECTID": 611,
    "ولایت": "لوگر",
    "Province": "LOGAR",
    "PC_Code": "0501009",
    "District": "PULI ALAM",
    "د_مرکز_نوم__نام_مرکز": "مکتب متوسطه التمور",
    "Polling_Center_Name": "Altamor Secondary School",
    "د_مرکز_ځای__موقعیت_مرکز": "التمور",
    "Polling_Center_Location": "Altamor",
    "Map_Accuracy": "Building",
    "Map_Accuracy_Dari": "تعمیر",
    "Status": "Open",
    "Status_Dari": null,
    "PS_Male": 6,
    "PS_Female": 2,
    "PS_Total": 8,
    "ولسوالي": "پل علم",
    "Region": "Central Region"
   },
   "geometry": {
    "x": 7691682.3025808427,
    "y": 4000926.950444567
   }
  },
  {
   "attributes": {
    "OBJECTID": 612,
    "ولایت": "لوگر",
    "Province": "LOGAR",
    "PC_Code": "0502027",
    "District": "BARAKI BARAK",
    "د_مرکز_نوم__نام_مرکز": "مکتب ذکور و اناث قلعه شاکى",
    "Polling_Center_Name": "Qala-e-Shaki Boys and Girls School",
    "د_مرکز_ځای__موقعیت_مرکز": "قلعه شاکى",
    "Polling_Center_Location": "Qala-e-Shaki",
    "Map_Accuracy": "Building",
    "Map_Accuracy_Dari": "تعمیر",
    "Status": "Open",
    "Status_Dari": null,
    "PS_Male": 2,
    "PS_Female": 2,
    "PS_Total": 4,
    "ولسوالي": "برکی برک",
    "Region": "Central Region"
   },
   "geometry": {
    "x": 7680739.9083304396,
    "y": 4018477.3546294845
   }
  },
  {
   "attributes": {
    "OBJECTID": 613,
    "ولایت": "لوگر",
    "Province": "LOGAR",
    "PC_Code": "0502028",
    "District": "BARAKI BARAK",
    "د_مرکز_نوم__نام_مرکز": "مکتب و کلنيک پل غازى",
    "Polling_Center_Name": "Pul-e-Ghazi School and Clinic",
    "د_مرکز_ځای__موقعیت_مرکز": "چلوزایی",
    "Polling_Center_Location": "Chalozaye",
    "Map_Accuracy": "Building",
    "Map_Accuracy_Dari": "تعمیر",
    "Status": "Open",
    "Status_Dari": null,
    "PS_Male": 2,
    "PS_Female": 1,
    "PS_Total": 3,
    "ولسوالي": "برکی برک",
    "Region": "Central Region"
   },
   "geometry": {
    "x": 7667669.9503685115,
    "y": 4023703.049282338
   }
  },
  {
   "attributes": {
    "OBJECTID": 614,
    "ولایت": "لوگر",
    "Province": "LOGAR",
    "PC_Code": "0504049",
    "District": "KHUSHI",
    "د_مرکز_نوم__نام_مرکز": "مکتب دوبندى",
    "Polling_Center_Name": "Dubandi School",
    "د_مرکز_ځای__موقعیت_مرکز": "دوبندى بغل",
    "Polling_Center_Location": "Dubandi Baghal",
    "Map_Accuracy": "Building",
    "Map_Accuracy_Dari": "تعمیر",
    "Status": "Open",
    "Status_Dari": null,
    "PS_Male": 3,
    "PS_Female": 2,
    "PS_Total": 5,
    "ولسوالي": "خوشی",
    "Region": "Central Region"
   },
   "geometry": {
    "x": 7716243.7225967851,
    "y": 4023313.6508815479
   }
  },
  {
   "attributes": {
    "OBJECTID": 615,
    "ولایت": "لوگر",
    "Province": "LOGAR",
    "PC_Code": "0505050",
    "District": "MOHAMMAD AGHA",
    "د_مرکز_نوم__نام_مرکز": "مکتب سفيد سنگ",
    "Polling_Center_Name": "Safid Sang School",
    "د_مرکز_ځای__موقعیت_مرکز": "سفيد سنگ",
    "Polling_Center_Location": "Safid Sang",
    "Map_Accuracy": "Building",
    "Map_Accuracy_Dari": "تعمیر",
    "Status": "Open",
    "Status_Dari": null,
    "PS_Male": 4,
    "PS_Female": 1,
    "PS_Total": 5,
    "ولسوالي": "محمد آغه",
    "Region": "Central Region"
   },
   "geometry": {
    "x": 7697577.318610982,
    "y": 4068413.1019115695
   }
  },
  {
   "attributes": {
    "OBJECTID": 616,
    "ولایت": "لوگر",
    "Province": "LOGAR",
    "PC_Code": "0505052",
    "District": "MOHAMMAD AGHA",
    "د_مرکز_نوم__نام_مرکز": "مکتب آب پران",
    "Polling_Center_Name": "Aab Paran School",
    "د_مرکز_ځای__موقعیت_مرکز": "قریه آب پران",
    "Polling_Center_Location": "Aabparan",
    "Map_Accuracy": "Village",
    "Map_Accuracy_Dari": "قریه",
    "Status": "Open",
    "Status_Dari": null,
    "PS_Male": 1,
    "PS_Female": 1,
    "PS_Total": 2,
    "ولسوالي": "محمد آغه",
    "Region": "Central Region"
   },
   "geometry": {
    "x": 7707011.0276325336,
    "y": 4058926.2570562521
   }
  },
  {
   "attributes": {
    "OBJECTID": 617,
    "ولایت": "لوگر",
    "Province": "LOGAR",
    "PC_Code": "0505053",
    "District": "MOHAMMAD AGHA",
    "د_مرکز_نوم__نام_مرکز": "مکتب دشتک",
    "Polling_Center_Name": "Dashtak School",
    "د_مرکز_ځای__موقعیت_مرکز": "قریه دشتک",
    "Polling_Center_Location": "Dashtak Village",
    "Map_Accuracy": "Village",
    "Map_Accuracy_Dari": "قریه",
    "Status": "Open",
    "Status_Dari": null,
    "PS_Male": 1,
    "PS_Female": 1,
    "PS_Total": 2,
    "ولسوالي": "محمد آغه",
    "Region": "Central Region"
   },
   "geometry": {
    "x": 7708907.9484910816,
    "y": 4070547.0438478696
   }
  },
  {
   "attributes": {
    "OBJECTID": 618,
    "ولایت": "لوگر",
    "Province": "LOGAR",
    "PC_Code": "0505063",
    "District": "MOHAMMAD AGHA",
    "د_مرکز_نوم__نام_مرکز": "مکتب اناث مغل خيل",
    "Polling_Center_Name": "Moghul Khel Girls School",
    "د_مرکز_ځای__موقعیت_مرکز": "مغل خيل",
    "Polling_Center_Location": "Moghul Khel",
    "Map_Accuracy": "Building",
    "Map_Accuracy_Dari": "تعمیر",
    "Status": "Open",
    "Status_Dari": null,
    "PS_Male": 2,
    "PS_Female": 1,
    "PS_Total": 3,
    "ولسوالي": "محمد آغه",
    "Region": "Central Region"
   },
   "geometry": {
    "x": 7687594.3180336384,
    "y": 4049763.3940280555
   }
  },
  {
   "attributes": {
    "OBJECTID": 619,
    "ولایت": "لوگر",
    "Province": "LOGAR",
    "PC_Code": "0505064",
    "District": "MOHAMMAD AGHA",
    "د_مرکز_نوم__نام_مرکز": "مسجد دره",
    "Polling_Center_Name": "Dara Mosque",
    "د_مرکز_ځای__موقعیت_مرکز": "قریه دره",
    "Polling_Center_Location": "Dara Village",
    "Map_Accuracy": "Village",
    "Map_Accuracy_Dari": "قریه",
    "Status": "Open",
    "Status_Dari": null,
    "PS_Male": 2,
    "PS_Female": 1,
    "PS_Total": 3,
    "ولسوالي": "محمد آغه",
    "Region": "Central Region"
   },
   "geometry": {
    "x": 7712070.556375226,
    "y": 4047714.6741834879
   }
  },
  {
   "attributes": {
    "OBJECTID": 620,
    "ولایت": "لوگر",
    "Province": "LOGAR",
    "PC_Code": "0506071",
    "District": "KHAR WAR",
    "د_مرکز_نوم__نام_مرکز": "مکتب کوتگى",
    "Polling_Center_Name": "Kotagi School",
    "د_مرکز_ځای__موقعیت_مرکز": "گدى خيل",
    "Polling_Center_Location": "Gudi Khel",
    "Map_Accuracy": "Building",
    "Map_Accuracy_Dari": "تعمیر",
    "Status": "Open",
    "Status_Dari": null,
    "PS_Male": 4,
    "PS_Female": 3,
    "PS_Total": 7,
    "ولسوالي": "خروار",
    "Region": "Central Region"
   },
   "geometry": {
    "x": 7665949.1269256398,
    "y": 3989019.3153608935
   }
  },
  {
   "attributes": {
    "OBJECTID": 621,
    "ولایت": "لوگر",
    "Province": "LOGAR",
    "PC_Code": "0506072",
    "District": "KHAR WAR",
    "د_مرکز_نوم__نام_مرکز": "مکتب متوسطه مرکزي ولسوالي",
    "Polling_Center_Name": "District Compound Secondary School",
    "د_مرکز_ځای__موقعیت_مرکز": "ولسوالي جوزي",
    "Polling_Center_Location": "Jozi District",
    "Map_Accuracy": "Building",
    "Map_Accuracy_Dari": "تعمیر",
    "Status": "Open",
    "Status_Dari": null,
    "PS_Male": 4,
    "PS_Female": 2,
    "PS_Total": 6,
    "ولسوالي": "خروار",
    "Region": "Central Region"
   },
   "geometry": {
    "x": 7671021.1791110476,
    "y": 3983672.7573758243
   }
  },
  {
   "attributes": {
    "OBJECTID": 622,
    "ولایت": "لوگر",
    "Province": "LOGAR",
    "PC_Code": "0501001",
    "District": "PULI ALAM",
    "د_مرکز_نوم__نام_مرکز": "ليسه عمر فاروق",
    "Polling_Center_Name": "Omar Farooq High School",
    "د_مرکز_ځای__موقعیت_مرکز": "مرکز",
    "Polling_Center_Location": "Provincial Center",
    "Map_Accuracy": "Building",
    "Map_Accuracy_Dari": "تعمیر",
    "Status": "Open",
    "Status_Dari": null,
    "PS_Male": 6,
    "PS_Female": 4,
    "PS_Total": 10,
    "ولسوالي": "پل علم",
    "Region": "Central Region"
   },
   "geometry": {
    "x": 7682166.1837402554,
    "y": 4030291.8356670314
   }
  },
  {
   "attributes": {
    "OBJECTID": 623,
    "ولایت": "لوگر",
    "Province": "LOGAR",
    "PC_Code": "0502034",
    "District": "BARAKI BARAK",
    "د_مرکز_نوم__نام_مرکز": "مکتب زحقوم خيل",
    "Polling_Center_Name": "Zehqom Khel School",
    "د_مرکز_ځای__موقعیت_مرکز": "زحقوم خيل",
    "Polling_Center_Location": "Zahqom Khel",
    "Map_Accuracy": "Building",
    "Map_Accuracy_Dari": "تعمیر",
    "Status": "Open",
    "Status_Dari": null,
    "PS_Male": 2,
    "PS_Female": 1,
    "PS_Total": 3,
    "ولسوالي": "برکی برک",
    "Region": "Central Region"
   },
   "geometry": {
    "x": 7671320.942462245,
    "y": 4024188.454285454
   }
  },
  {
   "attributes": {
    "OBJECTID": 624,
    "ولایت": "لوگر",
    "Province": "LOGAR",
    "PC_Code": "0502035",
    "District": "BARAKI BARAK",
    "د_مرکز_نوم__نام_مرکز": "مکتب قلعه ممی",
    "Polling_Center_Name": "Qala-e-Mami School",
    "د_مرکز_ځای__موقعیت_مرکز": "قلعه ممی",
    "Polling_Center_Location": "Qala-e-Momi",
    "Map_Accuracy": "Building",
    "Map_Accuracy_Dari": "تعمیر",
    "Status": "Open",
    "Status_Dari": null,
    "PS_Male": 2,
    "PS_Female": 1,
    "PS_Total": 3,
    "ولسوالي": "برکی برک",
    "Region": "Central Region"
   },
   "geometry": {
    "x": 7666219.8648328092,
    "y": 4018434.2912131925
   }
  },
  {
   "attributes": {
    "OBJECTID": 625,
    "ولایت": "لوگر",
    "Province": "LOGAR",
    "PC_Code": "0502038",
    "District": "BARAKI BARAK",
    "د_مرکز_نوم__نام_مرکز": "ليسه حضرت بلال",
    "Polling_Center_Name": "Hazrat-e-Bilal High School",
    "د_مرکز_ځای__موقعیت_مرکز": "پل غازى",
    "Polling_Center_Location": "Pul-e-Ghazi",
    "Map_Accuracy": "Village",
    "Map_Accuracy_Dari": "قریه",
    "Status": "Open",
    "Status_Dari": null,
    "PS_Male": 2,
    "PS_Female": 1,
    "PS_Total": 3,
    "ولسوالي": "برکی برک",
    "Region": "Central Region"
   },
   "geometry": {
    "x": 7669790.1191262631,
    "y": 4021976.331279926
   }
  },
  {
   "attributes": {
    "OBJECTID": 626,
    "ولایت": "لوگر",
    "Province": "LOGAR",
    "PC_Code": "0502039",
    "District": "BARAKI BARAK",
    "د_مرکز_نوم__نام_مرکز": "مکتب چهلتن",
    "Polling_Center_Name": "Cheheltan School",
    "د_مرکز_ځای__موقعیت_مرکز": "چهلتن",
    "Polling_Center_Location": "Cheheltan",
    "Map_Accuracy": "Building",
    "Map_Accuracy_Dari": "تعمیر",
    "Status": "Open",
    "Status_Dari": null,
    "PS_Male": 2,
    "PS_Female": 2,
    "PS_Total": 4,
    "ولسوالي": "برکی برک",
    "Region": "Central Region"
   },
   "geometry": {
    "x": 7669748.9776688507,
    "y": 4020459.5421155798
   }
  },
  {
   "attributes": {
    "OBJECTID": 627,
    "ولایت": "لوگر",
    "Province": "LOGAR",
    "PC_Code": "0505056",
    "District": "MOHAMMAD AGHA",
    "د_مرکز_نوم__نام_مرکز": "مسجد حارو ",
    "Polling_Center_Name": "Haro Mosque",
    "د_مرکز_ځای__موقعیت_مرکز": "قریه برگ",
    "Polling_Center_Location": "Borag",
    "Map_Accuracy": "Village",
    "Map_Accuracy_Dari": "قریه",
    "Status": "Open",
    "Status_Dari": null,
    "PS_Male": 2,
    "PS_Female": 1,
    "PS_Total": 3,
    "ولسوالي": "محمد آغه",
    "Region": "Central Region"
   },
   "geometry": {
    "x": 7707527.3052782547,
    "y": 4046796.5518099065
   }
  },
  {
   "attributes": {
    "OBJECTID": 628,
    "ولایت": "لوگر",
    "Province": "LOGAR",
    "PC_Code": "0505057",
    "District": "MOHAMMAD AGHA",
    "د_مرکز_نوم__نام_مرکز": "تعمير سابقه ولسوالى",
    "Polling_Center_Name": "Old District Building",
    "د_مرکز_ځای__موقعیت_مرکز": "محمد آغه",
    "Polling_Center_Location": "Mohammad Agha",
    "Map_Accuracy": "Building",
    "Map_Accuracy_Dari": "تعمیر",
    "Status": "Open",
    "Status_Dari": null,
    "PS_Male": 3,
    "PS_Female": 2,
    "PS_Total": 5,
    "ولسوالي": "محمد آغه",
    "Region": "Central Region"
   },
   "geometry": {
    "x": 7690409.9263670538,
    "y": 4055957.8522567865
   }
  },
  {
   "attributes": {
    "OBJECTID": 629,
    "ولایت": "لوگر",
    "Province": "LOGAR",
    "PC_Code": "0507075",
    "District": "AZRA",
    "د_مرکز_نوم__نام_مرکز": "مکتب چوترا",
    "Polling_Center_Name": "Chotra School",
    "د_مرکز_ځای__موقعیت_مرکز": "چوترا",
    "Polling_Center_Location": "Chotra",
    "Map_Accuracy": "Building",
    "Map_Accuracy_Dari": "تعمیر",
    "Status": "Open",
    "Status_Dari": null,
    "PS_Male": 6,
    "PS_Female": 4,
    "PS_Total": 10,
    "ولسوالي": "اذره",
    "Region": "Central Region"
   },
   "geometry": {
    "x": 7760702.0722497655,
    "y": 4052718.772538871
   }
  },
  {
   "attributes": {
    "OBJECTID": 630,
    "ولایت": "ننگرهار",
    "Province": "NANGARHAR",
    "PC_Code": "0601002",
    "District": "JALALABAD",
    "د_مرکز_نوم__نام_مرکز": "لیسه تجربوی",
    "Polling_Center_Name": "Experimental High School",
    "د_مرکز_ځای__موقعیت_مرکز": "دریمه ناحیه",
    "Polling_Center_Location": "D03-Nahia 3",
    "Map_Accuracy": "Building",
    "Map_Accuracy_Dari": "تعمیر",
    "Status": "Open",
    "Status_Dari": null,
    "PS_Male": 0,
    "PS_Female": 8,
    "PS_Total": 8,
    "ولسوالي": "جلال آباد",
    "Region": "Eastern Region"
   },
   "geometry": {
    "x": 7841428.3805759996,
    "y": 4087588.4504672638
   }
  },
  {
   "attributes": {
    "OBJECTID": 631,
    "ولایت": "ننگرهار",
    "Province": "NANGARHAR",
    "PC_Code": "0601003",
    "District": "JALALABAD",
    "د_مرکز_نوم__نام_مرکز": "پوهنځی تعلیم و تربیه",
    "Polling_Center_Name": "Faculty of Education",
    "د_مرکز_ځای__موقعیت_مرکز": "دریمه ناحیه",
    "Polling_Center_Location": "D03-Nahia 4",
    "Map_Accuracy": "Building",
    "Map_Accuracy_Dari": "تعمیر",
    "Status": "Open",
    "Status_Dari": null,
    "PS_Male": 6,
    "PS_Female": 0,
    "PS_Total": 6,
    "ولسوالي": "جلال آباد",
    "Region": "Eastern Region"
   },
   "geometry": {
    "x": 7841363.8650311483,
    "y": 4087650.9940461465
   }
  },
  {
   "attributes": {
    "OBJECTID": 632,
    "ولایت": "ننگرهار",
    "Province": "NANGARHAR",
    "PC_Code": "0601004",
    "District": "JALALABAD",
    "د_مرکز_نوم__نام_مرکز": "الايي ليسه",
    "Polling_Center_Name": "Allayee High School",
    "د_مرکز_ځای__موقعیت_مرکز": "څلورمه ناحیه",
    "Polling_Center_Location": "D04-Nahia 4",
    "Map_Accuracy": "Building",
    "Map_Accuracy_Dari": "تعمیر",
    "Status": "Open",
    "Status_Dari": null,
    "PS_Male": 0,
    "PS_Female": 8,
    "PS_Total": 8,
    "ولسوالي": "جلال آباد",
    "Region": "Eastern Region"
   },
   "geometry": {
    "x": 7844477.5389822097,
    "y": 4086501.4938484891
   }
  },
  {
   "attributes": {
    "OBJECTID": 633,
    "ولایت": "ننگرهار",
    "Province": "NANGARHAR",
    "PC_Code": "0601012",
    "District": "JALALABAD",
    "د_مرکز_نوم__نام_مرکز": "جامع جومات",
    "Polling_Center_Name": "Jami Mosque",
    "د_مرکز_ځای__موقعیت_مرکز": "شپږمه ناحیه",
    "Polling_Center_Location": "D06-Nahia 6",
    "Map_Accuracy": "Building",
    "Map_Accuracy_Dari": "تعمیر",
    "Status": "Open",
    "Status_Dari": null,
    "PS_Male": 5,
    "PS_Female": 3,
    "PS_Total": 8,
    "ولسوالي": "جلال آباد",
    "Region": "Eastern Region"
   },
   "geometry": {
    "x": 7839712.8741972856,
    "y": 4077541.825445578
   }
  },
  {
   "attributes": {
    "OBJECTID": 634,
    "ولایت": "ننگرهار",
    "Province": "NANGARHAR",
    "PC_Code": "0601022",
    "District": "JALALABAD",
    "د_مرکز_نوم__نام_مرکز": "عربانو مکتب",
    "Polling_Center_Name": "Araban School",
    "د_مرکز_ځای__موقعیت_مرکز": "دریمه ناحیه",
    "Polling_Center_Location": "D03-Nahia 3",
    "Map_Accuracy": "Building",
    "Map_Accuracy_Dari": "تعمیر",
    "Status": "Open",
    "Status_Dari": null,
    "PS_Male": 0,
    "PS_Female": 7,
    "PS_Total": 7,
    "ولسوالي": "جلال آباد",
    "Region": "Eastern Region"
   },
   "geometry": {
    "x": 7841522.3335583089,
    "y": 4086788.9473635061
   }
  },
  {
   "attributes": {
    "OBJECTID": 635,
    "ولایت": "ننگرهار",
    "Province": "NANGARHAR",
    "PC_Code": "0601023",
    "District": "JALALABAD",
    "د_مرکز_نوم__نام_مرکز": "دارلمعلمین",
    "Polling_Center_Name": "Teacher Training Institution",
    "د_مرکز_ځای__موقعیت_مرکز": "پنځمه ناحیه",
    "Polling_Center_Location": "D05-Nahia 5",
    "Map_Accuracy": "Building",
    "Map_Accuracy_Dari": "تعمیر",
    "Status": "Open",
    "Status_Dari": null,
    "PS_Male": 7,
    "PS_Female": 0,
    "PS_Total": 7,
    "ولسوالي": "جلال آباد",
    "Region": "Eastern Region"
   },
   "geometry": {
    "x": 7840537.6464271424,
    "y": 4085809.9054247905
   }
  },
  {
   "attributes": {
    "OBJECTID": 636,
    "ولایت": "ننگرهار",
    "Province": "NANGARHAR",
    "PC_Code": "0601033",
    "District": "JALALABAD",
    "د_مرکز_نوم__نام_مرکز": "زيړ جومات",
    "Polling_Center_Name": "Zer Mosque",
    "د_مرکز_ځای__موقعیت_مرکز": "څلورمه ناحیه",
    "Polling_Center_Location": "D04-Nahia 4",
    "Map_Accuracy": "Building",
    "Map_Accuracy_Dari": "تعمیر",
    "Status": "Open",
    "Status_Dari": null,
    "PS_Male": 5,
    "PS_Female": 0,
    "PS_Total": 5,
    "ولسوالي": "جلال آباد",
    "Region": "Eastern Region"
   },
   "geometry": {
    "x": 7844007.6024159901,
    "y": 4084874.9927811548
   }
  },
  {
   "attributes": {
    "OBJECTID": 637,
    "ولایت": "ننگرهار",
    "Province": "NANGARHAR",
    "PC_Code": "0601034",
    "District": "JALALABAD",
    "د_مرکز_نوم__نام_مرکز": "کوچيانو جومات",
    "Polling_Center_Name": "Kochi Mosque",
    "د_مرکز_ځای__موقعیت_مرکز": "څلورمه ناحیه",
    "Polling_Center_Location": "D04-Nahia 4",
    "Map_Accuracy": "Building",
    "Map_Accuracy_Dari": "تعمیر",
    "Status": "Open",
    "Status_Dari": null,
    "PS_Male": 0,
    "PS_Female": 5,
    "PS_Total": 5,
    "ولسوالي": "جلال آباد",
    "Region": "Eastern Region"
   },
   "geometry": {
    "x": 7843984.7585432855,
    "y": 4085427.5851603146
   }
  },
  {
   "attributes": {
    "OBJECTID": 638,
    "ولایت": "ننگرهار",
    "Province": "NANGARHAR",
    "PC_Code": "0602060",
    "District": "BEHSUD",
    "د_مرکز_نوم__نام_مرکز": "وچ تنګی لیسه",
    "Polling_Center_Name": "Wuch Tangai High School",
    "د_مرکز_ځای__موقعیت_مرکز": "وچ تنګي",
    "Polling_Center_Location": "Woch Tangahe",
    "Map_Accuracy": "Village",
    "Map_Accuracy_Dari": "قریه",
    "Status": "Open",
    "Status_Dari": null,
    "PS_Male": 3,
    "PS_Female": 1,
    "PS_Total": 4,
    "ولسوالي": "بهسود",
    "Region": "Eastern Region"
   },
   "geometry": {
    "x": 7851311.7695786702,
    "y": 4094741.5155899744
   }
  },
  {
   "attributes": {
    "OBJECTID": 639,
    "ولایت": "ننگرهار",
    "Province": "NANGARHAR",
    "PC_Code": "0602061",
    "District": "BEHSUD",
    "د_مرکز_نوم__نام_مرکز": "بانډه جومات",
    "Polling_Center_Name": "Baanda Mosque",
    "د_مرکز_ځای__موقعیت_مرکز": "بنې ګاه",
    "Polling_Center_Location": "Bani Gah",
    "Map_Accuracy": "Village",
    "Map_Accuracy_Dari": "قریه",
    "Status": "Open",
    "Status_Dari": null,
    "PS_Male": 7,
    "PS_Female": 0,
    "PS_Total": 7,
    "ولسوالي": "بهسود",
    "Region": "Eastern Region"
   },
   "geometry": {
    "x": 7850676.7286191266,
    "y": 4091113.7836298025
   }
  },
  {
   "attributes": {
    "OBJECTID": 640,
    "ولایت": "ننگرهار",
    "Province": "NANGARHAR",
    "PC_Code": "0602070",
    "District": "BEHSUD",
    "د_مرکز_نوم__نام_مرکز": "بحر آباد ابتدائیه",
    "Polling_Center_Name": "Bahr Abad Primary School",
    "د_مرکز_ځای__موقعیت_مرکز": "بحر آباد",
    "Polling_Center_Location": "Bahr Abad",
    "Map_Accuracy": "Village",
    "Map_Accuracy_Dari": "قریه",
    "Status": "Open",
    "Status_Dari": null,
    "PS_Male": 3,
    "PS_Female": 1,
    "PS_Total": 4,
    "ولسوالي": "بهسود",
    "Region": "Eastern Region"
   },
   "geometry": {
    "x": 7839068.95884794,
    "y": 4090002.4754973915
   }
  },
  {
   "attributes": {
    "OBJECTID": 641,
    "ولایت": "ننگرهار",
    "Province": "NANGARHAR",
    "PC_Code": "0602072",
    "District": "BEHSUD",
    "د_مرکز_نوم__نام_مرکز": "بحرآباد لیسه",
    "Polling_Center_Name": "Bahr Abad High School",
    "د_مرکز_ځای__موقعیت_مرکز": "بحرآباد",
    "Polling_Center_Location": "Bahr Abad",
    "Map_Accuracy": "Building",
    "Map_Accuracy_Dari": "تعمیر",
    "Status": "Open",
    "Status_Dari": null,
    "PS_Male": 5,
    "PS_Female": 2,
    "PS_Total": 7,
    "ولسوالي": "بهسود",
    "Region": "Eastern Region"
   },
   "geometry": {
    "x": 7842570.7683524741,
    "y": 4089876.631165273
   }
  },
  {
   "attributes": {
    "OBJECTID": 642,
    "ولایت": "ننگرهار",
    "Province": "NANGARHAR",
    "PC_Code": "0603093",
    "District": "SURKH RUD",
    "د_مرکز_نوم__نام_مرکز": "لیسه فقرالله",
    "Polling_Center_Name": "Faqrullah School",
    "د_مرکز_ځای__موقعیت_مرکز": "کوزسلطان پور",
    "Polling_Center_Location": "Koz Sultanpoor",
    "Map_Accuracy": "Village",
    "Map_Accuracy_Dari": "قریه",
    "Status": "Open",
    "Status_Dari": null,
    "PS_Male": 5,
    "PS_Female": 2,
    "PS_Total": 7,
    "ولسوالي": "سرخرود",
    "Region": "Eastern Region"
   },
   "geometry": {
    "x": 7828361.6880600099,
    "y": 4084816.6674359841
   }
  },
  {
   "attributes": {
    "OBJECTID": 643,
    "ولایت": "ننگرهار",
    "Province": "NANGARHAR",
    "PC_Code": "0603094",
    "District": "SURKH RUD",
    "د_مرکز_نوم__نام_مرکز": "لیسه اناث",
    "Polling_Center_Name": "Girls' High School",
    "د_مرکز_ځای__موقعیت_مرکز": "کوزسلطان پور",
    "Polling_Center_Location": "Koz Sultanpoor",
    "Map_Accuracy": "Village",
    "Map_Accuracy_Dari": "قریه",
    "Status": "Open",
    "Status_Dari": null,
    "PS_Male": 3,
    "PS_Female": 2,
    "PS_Total": 5,
    "ولسوالي": "سرخرود",
    "Region": "Eastern Region"
   },
   "geometry": {
    "x": 7828552.9115680978,
    "y": 4085151.3307943996
   }
  },
  {
   "attributes": {
    "OBJECTID": 644,
    "ولایت": "ننگرهار",
    "Province": "NANGARHAR",
    "PC_Code": "0605154",
    "District": "KAMA",
    "د_مرکز_نوم__نام_مرکز": "خښی ميدان",
    "Polling_Center_Name": "Khashe Maidan",
    "د_مرکز_ځای__موقعیت_مرکز": "خښی",
    "Polling_Center_Location": "Khashe ",
    "Map_Accuracy": "Village",
    "Map_Accuracy_Dari": "قریه",
    "Status": "Open",
    "Status_Dari": null,
    "PS_Male": 0,
    "PS_Female": 3,
    "PS_Total": 3,
    "ولسوالي": "کامه",
    "Region": "Eastern Region"
   },
   "geometry": {
    "x": 7855163.8102387488,
    "y": 4086762.0450670123
   }
  },
  {
   "attributes": {
    "OBJECTID": 645,
    "ولایت": "ننگرهار",
    "Province": "NANGARHAR",
    "PC_Code": "0605155",
    "District": "KAMA",
    "د_مرکز_نوم__نام_مرکز": "سپدري جومات",
    "Polling_Center_Name": "Spadree Mosque",
    "د_مرکز_ځای__موقعیت_مرکز": "سپدرى",
    "Polling_Center_Location": "Spadree",
    "Map_Accuracy": "Village",
    "Map_Accuracy_Dari": "قریه",
    "Status": "Open",
    "Status_Dari": null,
    "PS_Male": 2,
    "PS_Female": 1,
    "PS_Total": 3,
    "ولسوالي": "کامه",
    "Region": "Eastern Region"
   },
   "geometry": {
    "x": 7863867.1854770556,
    "y": 4088683.243328182
   }
  },
  {
   "attributes": {
    "OBJECTID": 646,
    "ولایت": "کابل",
    "Province": "KABUL",
    "PC_Code": "0101532",
    "District": "Nahia_21",
    "د_مرکز_نوم__نام_مرکز": "مسجد عبدالوهاب",
    "Polling_Center_Name": "Abdul wahab Mosque",
    "د_مرکز_ځای__موقعیت_مرکز": "ناحیه 21 ده سبز",
    "Polling_Center_Location": "Deh sabz_District_21",
    "Map_Accuracy": "Building",
    "Map_Accuracy_Dari": "تعمیر",
    "Status": "Open",
    "Status_Dari": null,
    "PS_Male": 2,
    "PS_Female": 1,
    "PS_Total": 3,
    "ولسوالي": "ناحیه_21",
    "Region": "Central Region"
   },
   "geometry": {
    "x": 7726667.1100928318,
    "y": 4099824.799482218
   }
  },
  {
   "attributes": {
    "OBJECTID": 647,
    "ولایت": "کابل",
    "Province": "KABUL",
    "PC_Code": "0101534",
    "District": "Nahia_17",
    "د_مرکز_نوم__نام_مرکز": "لیسه شهرک طلائی",
    "Polling_Center_Name": "Shahrak tlaie High school",
    "د_مرکز_ځای__موقعیت_مرکز": "شهرک طلائی",
    "Polling_Center_Location": "Shahrak tlaie town",
    "Map_Accuracy": "Building",
    "Map_Accuracy_Dari": "تعمیر",
    "Status": "Open",
    "Status_Dari": null,
    "PS_Male": 4,
    "PS_Female": 2,
    "PS_Total": 6,
    "ولسوالي": "ناحیه_17",
    "Region": "Central Region"
   },
   "geometry": {
    "x": 7690169.7763842829,
    "y": 4110618.7910393993
   }
  },
  {
   "attributes": {
    "OBJECTID": 648,
    "ولایت": "کابل",
    "Province": "KABUL",
    "PC_Code": "0106543",
    "District": "Shakar Dara",
    "د_مرکز_نوم__نام_مرکز": "مسجد",
    "Polling_Center_Name": "Mosque",
    "د_مرکز_ځای__موقعیت_مرکز": "اسد آباد",
    "Polling_Center_Location": "Asad abad",
    "Map_Accuracy": "District",
    "Map_Accuracy_Dari": "ولسوالی",
    "Status": "Open",
    "Status_Dari": null,
    "PS_Male": 2,
    "PS_Female": 1,
    "PS_Total": 3,
    "ولسوالي": "شکردره",
    "Region": "Central Region"
   },
   "geometry": {
    "x": 7688362.986353334,
    "y": 4122922.7070426494
   }
  },
  {
   "attributes": {
    "OBJECTID": 649,
    "ولایت": "کابل",
    "Province": "KABUL",
    "PC_Code": "0110544",
    "District": "Kalakan",
    "د_مرکز_نوم__نام_مرکز": "مکتب متوسطه مقاومت",
    "Polling_Center_Name": "Moqawmat Secondary school",
    "د_مرکز_ځای__موقعیت_مرکز": "قریه بازاری",
    "Polling_Center_Location": "Bazari village",
    "Map_Accuracy": "Building",
    "Map_Accuracy_Dari": "تعمیر",
    "Status": "Open",
    "Status_Dari": null,
    "PS_Male": 2,
    "PS_Female": 1,
    "PS_Total": 3,
    "ولسوالي": "کلکان",
    "Region": "Central Region"
   },
   "geometry": {
    "x": 7699314.4611572409,
    "y": 4136279.4835497299
   }
  },
  {
   "attributes": {
    "OBJECTID": 650,
    "ولایت": "کابل",
    "Province": "KABUL",
    "PC_Code": "0101523",
    "District": "Nahia_11",
    "د_مرکز_نوم__نام_مرکز": "مسجد یعقوب",
    "Polling_Center_Name": "Yaqob Mosque",
    "د_مرکز_ځای__موقعیت_مرکز": "عقب لوای 16 ",
    "Polling_Center_Location": "Behaind Lwai 16",
    "Map_Accuracy": "Building",
    "Map_Accuracy_Dari": "تعمیر",
    "Status": "Open",
    "Status_Dari": null,
    "PS_Male": 2,
    "PS_Female": 1,
    "PS_Total": 3,
    "ولسوالي": "ناحیه_11",
    "Region": "Central Region"
   },
   "geometry": {
    "x": 7693375.4518869827,
    "y": 4105844.349116324
   }
  },
  {
   "attributes": {
    "OBJECTID": 651,
    "ولایت": "کابل",
    "Province": "KABUL",
    "PC_Code": "0101524",
    "District": "Nahia_12",
    "د_مرکز_نوم__نام_مرکز": "لیسه غلام صدیق",
    "Polling_Center_Name": "Ghulam sedeq High school",
    "د_مرکز_ځای__موقعیت_مرکز": "بلاک ده ارزان قیمت",
    "Polling_Center_Location": "Arzan qimat 10th Block",
    "Map_Accuracy": "Building",
    "Map_Accuracy_Dari": "تعمیر",
    "Status": "Open",
    "Status_Dari": null,
    "PS_Male": 2,
    "PS_Female": 1,
    "PS_Total": 3,
    "ولسوالي": "ناحیه_12",
    "Region": "Central Region"
   },
   "geometry": {
    "x": 7718311.6723832805,
    "y": 4098516.4625958889
   }
  },
  {
   "attributes": {
    "OBJECTID": 652,
    "ولایت": "کابل",
    "Province": "KABUL",
    "PC_Code": "0101525",
    "District": "Nahia_12",
    "د_مرکز_نوم__نام_مرکز": "لیسه صدیق الله رشتین",
    "Polling_Center_Name": "Sedeq ullah risghteen High school",
    "د_مرکز_ځای__موقعیت_مرکز": "بلاک سیزده ارزان قیمت",
    "Polling_Center_Location": "Arzan qimat 13th Block",
    "Map_Accuracy": "Building",
    "Map_Accuracy_Dari": "تعمیر",
    "Status": "Open",
    "Status_Dari": null,
    "PS_Male": 2,
    "PS_Female": 1,
    "PS_Total": 3,
    "ولسوالي": "ناحیه_12",
    "Region": "Central Region"
   },
   "geometry": {
    "x": 7718363.7849331042,
    "y": 4096929.7356587839
   }
  },
  {
   "attributes": {
    "OBJECTID": 653,
    "ولایت": "کابل",
    "Province": "KABUL",
    "PC_Code": "0114548",
    "District": "Qarabagh",
    "د_مرکز_نوم__نام_مرکز": "مکتب متوسطه جارچی",
    "Polling_Center_Name": "Jar chi Secondary school",
    "د_مرکز_ځای__موقعیت_مرکز": "جارچی",
    "Polling_Center_Location": "Jar chi",
    "Map_Accuracy": "Village",
    "Map_Accuracy_Dari": "قریه",
    "Status": "Open",
    "Status_Dari": null,
    "PS_Male": 2,
    "PS_Female": 1,
    "PS_Total": 3,
    "ولسوالي": "قره باغ",
    "Region": "Central Region"
   },
   "geometry": {
    "x": 7703289.3684788933,
    "y": 4147442.8371794149
   }
  },
  {
   "attributes": {
    "OBJECTID": 654,
    "ولایت": "کابل",
    "Province": "KABUL",
    "PC_Code": "0114549",
    "District": "Qarabagh",
    "د_مرکز_نوم__نام_مرکز": "مکتب متوسطه قلعه حاجی",
    "Polling_Center_Name": "Qala haji Secondary school",
    "د_مرکز_ځای__موقعیت_مرکز": "قلعه حاجی",
    "Polling_Center_Location": "Qala haji",
    "Map_Accuracy": "Village",
    "Map_Accuracy_Dari": "قریه",
    "Status": "Open",
    "Status_Dari": null,
    "PS_Male": 2,
    "PS_Female": 1,
    "PS_Total": 3,
    "ولسوالي": "قره باغ",
    "Region": "Central Region"
   },
   "geometry": {
    "x": 7697633.2744662231,
    "y": 4140833.4067084594
   }
  },
  {
   "attributes": {
    "OBJECTID": 655,
    "ولایت": "کابل",
    "Province": "KABUL",
    "PC_Code": "0115550",
    "District": "Surbi",
    "د_مرکز_نوم__نام_مرکز": "مکتب رودبار",
    "Polling_Center_Name": "Rod bar School",
    "د_مرکز_ځای__موقعیت_مرکز": "رودبار",
    "Polling_Center_Location": "Rod bar",
    "Map_Accuracy": "Building",
    "Map_Accuracy_Dari": "تعمیر",
    "Status": "Open",
    "Status_Dari": null,
    "PS_Male": 2,
    "PS_Female": 1,
    "PS_Total": 3,
    "ولسوالي": "سروبی",
    "Region": "Central Region"
   },
   "geometry": {
    "x": 7775014.1572462907,
    "y": 4127410.3857128024
   }
  },
  {
   "attributes": {
    "OBJECTID": 656,
    "ولایت": "هرات",
    "Province": "HERAT",
    "PC_Code": "3207479",
    "District": "KUSHK (RUBAT-E-SANGI)",
    "د_مرکز_نوم__نام_مرکز": "مکتب",
    "Polling_Center_Name": "School",
    "د_مرکز_ځای__موقعیت_مرکز": "جعفر بيگ خراساني ",
    "Polling_Center_Location": "Jafar big khurasani",
    "Map_Accuracy": "Building",
    "Map_Accuracy_Dari": "تعمیر",
    "Status": "Open",
    "Status_Dari": null,
    "PS_Male": 2,
    "PS_Female": 1,
    "PS_Total": 3,
    "ولسوالي": "کشک (رباط سنگی)",
    "Region": "Western Region"
   },
   "geometry": {
    "x": 6938795.3175142379,
    "y": 4133466.243174877
   }
  },
  {
   "attributes": {
    "OBJECTID": 657,
    "ولایت": " فراه",
    "Province": "FARAH",
    "PC_Code": "3309252",
    "District": "LASH-E-JUWAYN",
    "د_مرکز_نوم__نام_مرکز": "مکتب سبزگذی",
    "Polling_Center_Name": "Sabz gazi School",
    "د_مرکز_ځای__موقعیت_مرکز": "سبزگذی",
    "Polling_Center_Location": "Sabz gazi",
    "Map_Accuracy": "Building",
    "Map_Accuracy_Dari": "تعمیر",
    "Status": "Open",
    "Status_Dari": null,
    "PS_Male": 2,
    "PS_Female": 1,
    "PS_Total": 3,
    "ولسوالي": "لاش جوین",
    "Region": "Western Region"
   },
   "geometry": {
    "x": 6865152.5194126274,
    "y": 3756565.4584579705
   }
  },
  {
   "attributes": {
    "OBJECTID": 658,
    "ولایت": "لوگر",
    "Province": "LOGAR",
    "PC_Code": "0505083",
    "District": "Mohamad Agha",
    "د_مرکز_نوم__نام_مرکز": "مسجد عقب بازار",
    "Polling_Center_Name": "Aqeb Bazar Mosque",
    "د_مرکز_ځای__موقعیت_مرکز": "بازارواغجان",
    "Polling_Center_Location": "Waghjan bazar",
    "Map_Accuracy": "Building",
    "Map_Accuracy_Dari": "تعمیر",
    "Status": "Open",
    "Status_Dari": null,
    "PS_Male": 2,
    "PS_Female": 1,
    "PS_Total": 3,
    "ولسوالي": "محمدآغه",
    "Region": "Central Region"
   },
   "geometry": {
    "x": 7688907.0127198417,
    "y": 4050193.2334664781
   }
  },
  {
   "attributes": {
    "OBJECTID": 659,
    "ولایت": "ننگرهار",
    "Province": "NANGARHAR",
    "PC_Code": "0601508",
    "District": "JALALABAD",
    "د_مرکز_نوم__نام_مرکز": "مسجد شهرک سیاف",
    "Polling_Center_Name": "Shahrak Saiaf Mosque",
    "د_مرکز_ځای__موقعیت_مرکز": "فامیلی های فارم هده ",
    "Polling_Center_Location": "Farm hada family",
    "Map_Accuracy": "Building",
    "Map_Accuracy_Dari": "تعمیر",
    "Status": "Open",
    "Status_Dari": null,
    "PS_Male": 3,
    "PS_Female": 1,
    "PS_Total": 4,
    "ولسوالي": "جلال آباد",
    "Region": "Eastern Region"
   },
   "geometry": {
    "x": 7838313.2988786567,
    "y": 4081343.0766112916
   }
  },
  {
   "attributes": {
    "OBJECTID": 660,
    "ولایت": "پنجشیر",
    "Province": "PANJSHIR",
    "PC_Code": "0804102",
    "District": "HISSA-E-AWAL KHINJ",
    "د_مرکز_نوم__نام_مرکز": "مکتب خاتم الانبیا",
    "Polling_Center_Name": "Khatam alanbia School",
    "د_مرکز_ځای__موقعیت_مرکز": "مرکز خینج،شاه چهره",
    "Polling_Center_Location": "Khenj center_Shah chehra",
    "Map_Accuracy": "Building",
    "Map_Accuracy_Dari": "تعمیر",
    "Status": "Open",
    "Status_Dari": null,
    "PS_Male": 2,
    "PS_Female": 1,
    "PS_Total": 3,
    "ولسوالي": "( خنج (حصه اول",
    "Region": "Central Region"
   },
   "geometry": {
    "x": 7758711.1986315371,
    "y": 4219671.5333293835
   }
  },
  {
   "attributes": {
    "OBJECTID": 661,
    "ولایت": "پنجشیر",
    "Province": "PANJSHIR",
    "PC_Code": "0804103",
    "District": "HISSA-E-AWAL KHINJ",
    "د_مرکز_نوم__نام_مرکز": "مکتب محمد پناه شهید",
    "Polling_Center_Name": "Muhammad pana shaheed School",
    "د_مرکز_ځای__موقعیت_مرکز": "زریان شهر",
    "Polling_Center_Location": "Zarian Shahr",
    "Map_Accuracy": "Building",
    "Map_Accuracy_Dari": "تعمیر",
    "Status": "Open",
    "Status_Dari": null,
    "PS_Male": 2,
    "PS_Female": 1,
    "PS_Total": 3,
    "ولسوالي": "( خنج (حصه اول",
    "Region": "Central Region"
   },
   "geometry": {
    "x": 7765899.8222853523,
    "y": 4227742.4927442512
   }
  },
  {
   "attributes": {
    "OBJECTID": 662,
    "ولایت": "بغلان",
    "Province": "BAGHLAN",
    "PC_Code": "0905269",
    "District": "BAGLAN-E-JADEED",
    "د_مرکز_نوم__نام_مرکز": "مکتب ابتدایه",
    "Polling_Center_Name": "Primary School",
    "د_مرکز_ځای__موقعیت_مرکز": "شتر غلت",
    "Polling_Center_Location": "Shotur ghalt",
    "Map_Accuracy": "Building",
    "Map_Accuracy_Dari": "تعمیر",
    "Status": "Open",
    "Status_Dari": null,
    "PS_Male": 2,
    "PS_Female": 1,
    "PS_Total": 3,
    "ولسوالي": "بغلان جدید",
    "Region": "North Eastern Region"
   },
   "geometry": {
    "x": 7662706.8413367337,
    "y": 4322421.5878393548
   }
  },
  {
   "attributes": {
    "OBJECTID": 663,
    "ولایت": "باميان",
    "Province": "BAMYAN",
    "PC_Code": "1003172",
    "District": "SAIGHAN",
    "د_مرکز_نوم__نام_مرکز": "مسجد سموچها",
    "Polling_Center_Name": "Samuch ha Mosque",
    "د_مرکز_ځای__موقعیت_مرکز": "سموج ها",
    "Polling_Center_Location": "Samuch ha",
    "Map_Accuracy": "Building",
    "Map_Accuracy_Dari": "تعمیر",
    "Status": "Open",
    "Status_Dari": null,
    "PS_Male": 2,
    "PS_Female": 1,
    "PS_Total": 3,
    "ولسوالي": "سیغان",
    "Region": "Central Highlands Region"
   },
   "geometry": {
    "x": 7527081.5385574093,
    "y": 4190625.5381643046
   }
  },
  {
   "attributes": {
    "OBJECTID": 664,
    "ولایت": "باميان",
    "Province": "BAMYAN",
    "PC_Code": "1003173",
    "District": "SAIGHAN",
    "د_مرکز_نوم__نام_مرکز": "مسجد کدو خانه",
    "Polling_Center_Name": "Kado khana Mosque",
    "د_مرکز_ځای__موقعیت_مرکز": "کدوخانه",
    "Polling_Center_Location": "Kado khana",
    "Map_Accuracy": "Building",
    "Map_Accuracy_Dari": "تعمیر",
    "Status": "Open",
    "Status_Dari": null,
    "PS_Male": 2,
    "PS_Female": 1,
    "PS_Total": 3,
    "ولسوالي": "سیغان",
    "Region": "Central Highlands Region"
   },
   "geometry": {
    "x": 7511571.382439279,
    "y": 4180336.2083707284
   }
  },
  {
   "attributes": {
    "OBJECTID": 665,
    "ولایت": "باميان",
    "Province": "BAMYAN",
    "PC_Code": "1005174",
    "District": "Yakawlang",
    "د_مرکز_نوم__نام_مرکز": "منبر پای وچه",
    "Polling_Center_Name": "Pai wcha Mosque",
    "د_مرکز_ځای__موقعیت_مرکز": "سرتوسری",
    "Polling_Center_Location": "Sartosari",
    "Map_Accuracy": "Building",
    "Map_Accuracy_Dari": "تعمیر",
    "Status": "Open",
    "Status_Dari": null,
    "PS_Male": 2,
    "PS_Female": 1,
    "PS_Total": 3,
    "ولسوالي": "یکاولنگ",
    "Region": "Central Highlands Region"
   },
   "geometry": {
    "x": 7424386.4729931857,
    "y": 4176924.8760718415
   }
  },
  {
   "attributes": {
    "OBJECTID": 666,
    "ولایت": "باميان",
    "Province": "BAMYAN",
    "PC_Code": "1006181",
    "District": "PANJAB",
    "د_مرکز_نوم__نام_مرکز": "مدرسه دینی دهن کوهدر",
    "Polling_Center_Name": "Dahan kohdar Madrasa",
    "د_مرکز_ځای__موقعیت_مرکز": "دهن کهدر",
    "Polling_Center_Location": "Dahan Kahdar",
    "Map_Accuracy": "Building",
    "Map_Accuracy_Dari": "تعمیر",
    "Status": "Open",
    "Status_Dari": null,
    "PS_Male": 2,
    "PS_Female": 1,
    "PS_Total": 3,
    "ولسوالي": "پنجاب",
    "Region": "Central Highlands Region"
   },
   "geometry": {
    "x": 7433038.553212015,
    "y": 4078603.9118111408
   }
  },
  {
   "attributes": {
    "OBJECTID": 667,
    "ولایت": "باميان",
    "Province": "BAMYAN",
    "PC_Code": "1006182",
    "District": "PANJAB",
    "د_مرکز_نوم__نام_مرکز": "مکتب متوسطه دو آبی",
    "Polling_Center_Name": "Do abi Secondary School",
    "د_مرکز_ځای__موقعیت_مرکز": "دوآبی مهر",
    "Polling_Center_Location": "Do abi",
    "Map_Accuracy": "Building",
    "Map_Accuracy_Dari": "تعمیر",
    "Status": "Open",
    "Status_Dari": null,
    "PS_Male": 2,
    "PS_Female": 1,
    "PS_Total": 3,
    "ولسوالي": "پنجاب",
    "Region": "Central Highlands Region"
   },
   "geometry": {
    "x": 7473078.4846657636,
    "y": 4086559.4774100073
   }
  },
  {
   "attributes": {
    "OBJECTID": 668,
    "ولایت": "پکتيا",
    "Province": "PAKTYA",
    "PC_Code": "1308219",
    "District": "AHMADABA",
    "د_مرکز_نوم__نام_مرکز": "هده",
    "Polling_Center_Name": "Transport station",
    "د_مرکز_ځای__موقعیت_مرکز": "د ماما خیلو کلی",
    "Polling_Center_Location": "Mama khil village",
    "Map_Accuracy": "Building",
    "Map_Accuracy_Dari": "تعمیر",
    "Status": "Open",
    "Status_Dari": null,
    "PS_Male": 2,
    "PS_Female": 1,
    "PS_Total": 3,
    "ولسوالي": "لجه احمد خیل",
    "Region": "South Eastern Region"
   },
   "geometry": {
    "x": 7752222.295010454,
    "y": 4006862.4610727918
   }
  },
  {
   "attributes": {
    "OBJECTID": 669,
    "ولایت": "کنړ ",
    "Province": "KUNAR",
    "PC_Code": "1510122",
    "District": "KHAS KUNAR",
    "د_مرکز_نوم__نام_مرکز": "مسجد",
    "Polling_Center_Name": "Mosque",
    "د_مرکز_ځای__موقعیت_مرکز": "چمباړی",
    "Polling_Center_Location": "Chambari",
    "Map_Accuracy": "Building",
    "Map_Accuracy_Dari": "تعمیر",
    "Status": "Open",
    "Status_Dari": null,
    "PS_Male": 2,
    "PS_Female": 1,
    "PS_Total": 3,
    "ولسوالي": "خاص کنر",
    "Region": "Eastern Region"
   },
   "geometry": {
    "x": 7883152.7766344883,
    "y": 4111514.4548596782
   }
  },
  {
   "attributes": {
    "OBJECTID": 670,
    "ولایت": "بدخشان",
    "Province": "BADAKHSHAN",
    "PC_Code": "1701283",
    "District": "FAIZ ABAD",
    "د_مرکز_نوم__نام_مرکز": " لیسه نسوان لایابه",
    "Polling_Center_Name": "Laiaba Femal high school",
    "د_مرکز_ځای__موقعیت_مرکز": "لایابه",
    "Polling_Center_Location": "Laiaba",
    "Map_Accuracy": "Building",
    "Map_Accuracy_Dari": "تعمیر",
    "Status": "Open",
    "Status_Dari": null,
    "PS_Male": 2,
    "PS_Female": 1,
    "PS_Total": 3,
    "ولسوالي": "فیض آباد",
    "Region": "North Eastern Region"
   },
   "geometry": {
    "x": 7850713.2624514913,
    "y": 4463354.9192397762
   }
  },
  {
   "attributes": {
    "OBJECTID": 671,
    "ولایت": "بدخشان",
    "Province": "BADAKHSHAN",
    "PC_Code": "1702290",
    "District": "ARGO",
    "د_مرکز_نوم__نام_مرکز": "نسوان دهدهی ولسوالی",
    "Polling_Center_Name": "Dehdhi Femal School",
    "د_مرکز_ځای__موقعیت_مرکز": "درخان",
    "Polling_Center_Location": "Dur khan",
    "Map_Accuracy": "Building",
    "Map_Accuracy_Dari": "تعمیر",
    "Status": "Open",
    "Status_Dari": null,
    "PS_Male": 2,
    "PS_Female": 1,
    "PS_Total": 3,
    "ولسوالي": "ارگو",
    "Region": "North Eastern Region"
   },
   "geometry": {
    "x": 7843456.4353494197,
    "y": 4438984.0463260291
   }
  },
  {
   "attributes": {
    "OBJECTID": 672,
    "ولایت": "بدخشان",
    "Province": "BADAKHSHAN",
    "PC_Code": "1704291",
    "District": "YAFTAL-E-SUFLA",
    "د_مرکز_نوم__نام_مرکز": " لیسه بید کلان",
    "Polling_Center_Name": "Bid kalan High School",
    "د_مرکز_ځای__موقعیت_مرکز": "بید کلان",
    "Polling_Center_Location": "Bid kalan",
    "Map_Accuracy": "Building",
    "Map_Accuracy_Dari": "تعمیر",
    "Status": "Open",
    "Status_Dari": null,
    "PS_Male": 2,
    "PS_Female": 1,
    "PS_Total": 3,
    "ولسوالي": "یفتل سفلی",
    "Region": "North Eastern Region"
   },
   "geometry": {
    "x": 7827013.7124423105,
    "y": 4487272.6608831594
   }
  },
  {
   "attributes": {
    "OBJECTID": 673,
    "ولایت": "بدخشان",
    "Province": "BADAKHSHAN",
    "PC_Code": "1709299",
    "District": "YAWAN",
    "د_مرکز_نوم__نام_مرکز": "مدرسه",
    "Polling_Center_Name": "Madrasa",
    "د_مرکز_ځای__موقعیت_مرکز": "تیرگران",
    "Polling_Center_Location": "Tir garan",
    "Map_Accuracy": "Building",
    "Map_Accuracy_Dari": "تعمیر",
    "Status": "Open",
    "Status_Dari": null,
    "PS_Male": 2,
    "PS_Female": 1,
    "PS_Total": 3,
    "ولسوالي": "یاوان",
    "Region": "North Eastern Region"
   },
   "geometry": {
    "x": 7838923.5724760126,
    "y": 4519694.9910658989
   }
  },
  {
   "attributes": {
    "OBJECTID": 674,
    "ولایت": "بدخشان",
    "Province": "BADAKHSHAN",
    "PC_Code": "1710300",
    "District": "Jurm ",
    "د_مرکز_نوم__نام_مرکز": "نسوان خرنداب",
    "Polling_Center_Name": "Kharandab Female School",
    "د_مرکز_ځای__موقعیت_مرکز": "خرنداب",
    "Polling_Center_Location": "Kharandab",
    "Map_Accuracy": "Building",
    "Map_Accuracy_Dari": "تعمیر",
    "Status": "Open",
    "Status_Dari": null,
    "PS_Male": 2,
    "PS_Female": 1,
    "PS_Total": 3,
    "ولسوالي": "جرم",
    "Region": "North Eastern Region"
   },
   "geometry": {
    "x": 7886224.1693278765,
    "y": 4416798.7630501315
   }
  },
  {
   "attributes": {
    "OBJECTID": 675,
    "ولایت": "بدخشان",
    "Province": "BADAKHSHAN",
    "PC_Code": "1713308",
    "District": "SHAHR-E-BUZURG",
    "د_مرکز_نوم__نام_مرکز": "مسجد غضنفر پائین",
    "Polling_Center_Name": "Ghazanfar paien Mosque",
    "د_مرکز_ځای__موقعیت_مرکز": "غنغر پایان",
    "Polling_Center_Location": "Ghanghar paian",
    "Map_Accuracy": "Building",
    "Map_Accuracy_Dari": "تعمیر",
    "Status": "Open",
    "Status_Dari": null,
    "PS_Male": 2,
    "PS_Female": 1,
    "PS_Total": 3,
    "ولسوالي": "شهر بزرگ",
    "Region": "North Eastern Region"
   },
   "geometry": {
    "x": 7820631.1213839604,
    "y": 4497719.1493881438
   }
  },
  {
   "attributes": {
    "OBJECTID": 676,
    "ولایت": "بدخشان",
    "Province": "BADAKHSHAN",
    "PC_Code": "1715309",
    "District": "KHASH",
    "د_مرکز_نوم__نام_مرکز": "مدرسه وحدت آباد ",
    "Polling_Center_Name": "Wahdat abad Madrasa",
    "د_مرکز_ځای__موقعیت_مرکز": "وحدت آباد",
    "Polling_Center_Location": "Wahdat abad",
    "Map_Accuracy": "Building",
    "Map_Accuracy_Dari": "تعمیر",
    "Status": "Open",
    "Status_Dari": null,
    "PS_Male": 2,
    "PS_Female": 1,
    "PS_Total": 3,
    "ولسوالي": "کشم",
    "Region": "North Eastern Region"
   },
   "geometry": {
    "x": 7815920.9153184528,
    "y": 4422731.1818558285
   }
  },
  {
   "attributes": {
    "OBJECTID": 677,
    "ولایت": "بدخشان",
    "Province": "BADAKHSHAN",
    "PC_Code": "1726316",
    "District": "KIRAN WA MENJAN",
    "د_مرکز_نوم__نام_مرکز": " مکتب لاجور شو",
    "Polling_Center_Name": "Lahjor sho School",
    "د_مرکز_ځای__موقعیت_مرکز": "لاجور شو",
    "Polling_Center_Location": "Lahjor sho",
    "Map_Accuracy": "Building",
    "Map_Accuracy_Dari": "تعمیر",
    "Status": "Open",
    "Status_Dari": null,
    "PS_Male": 2,
    "PS_Female": 1,
    "PS_Total": 3,
    "ولسوالي": "کران ومنجان",
    "Region": "North Eastern Region"
   },
   "geometry": {
    "x": 7879274.5279153707,
    "y": 4324409.220684736
   }
  },
  {
   "attributes": {
    "OBJECTID": 678,
    "ولایت": "سمنگان",
    "Province": "SAMANGAN",
    "PC_Code": "2005100",
    "District": "ROI-DO-AB",
    "د_مرکز_نوم__نام_مرکز": "مکتب اناثیه سرخ قلعه",
    "Polling_Center_Name": "Sorkh qala Female school",
    "د_مرکز_ځای__موقعیت_مرکز": "چوقورک ده",
    "Polling_Center_Location": "Choqurak",
    "Map_Accuracy": "Building",
    "Map_Accuracy_Dari": "تعمیر",
    "Status": "Open",
    "Status_Dari": null,
    "PS_Male": 2,
    "PS_Female": 1,
    "PS_Total": 3,
    "ولسوالي": "روی دو آب",
    "Region": "Northern Region"
   },
   "geometry": {
    "x": 7565999.1071639229,
    "y": 4235308.2812169306
   }
  },
  {
   "attributes": {
    "OBJECTID": 679,
    "ولایت": "سمنگان",
    "Province": "SAMANGAN",
    "PC_Code": "2006101",
    "District": "DARA-E-SOOF-E-PAYIN",
    "د_مرکز_نوم__نام_مرکز": "مکتب",
    "Polling_Center_Name": "School",
    "د_مرکز_ځای__موقعیت_مرکز": "قریه تاقچی",
    "Polling_Center_Location": "Qaria taqchi",
    "Map_Accuracy": "Building",
    "Map_Accuracy_Dari": "تعمیر",
    "Status": "Open",
    "Status_Dari": null,
    "PS_Male": 2,
    "PS_Female": 1,
    "PS_Total": 3,
    "ولسوالي": "درۀ صوف پائین",
    "Region": "Northern Region"
   },
   "geometry": {
    "x": 7496160.3356222697,
    "y": 4288317.8306449745
   }
  },
  {
   "attributes": {
    "OBJECTID": 680,
    "ولایت": "دایکندی",
    "Province": "DAYKUNDI",
    "PC_Code": "2404176",
    "District": "ASHTARLAY",
    "د_مرکز_نوم__نام_مرکز": "مسجد",
    "Polling_Center_Name": "Mosque",
    "د_مرکز_ځای__موقعیت_مرکز": "تالیج ",
    "Polling_Center_Location": "Taleej",
    "Map_Accuracy": "Building",
    "Map_Accuracy_Dari": "تعمیر",
    "Status": "Open",
    "Status_Dari": null,
    "PS_Male": 2,
    "PS_Female": 1,
    "PS_Total": 3,
    "ولسوالي": "اشترلی",
    "Region": "Central Highlands Region"
   },
   "geometry": {
    "x": 7381053.6366403541,
    "y": 4025381.3947767303
   }
  },
  {
   "attributes": {
    "OBJECTID": 681,
    "ولایت": "دایکندی",
    "Province": "DAYKUNDI",
    "PC_Code": "2404177",
    "District": "ASHTARLAY",
    "د_مرکز_نوم__نام_مرکز": "مسجد",
    "Polling_Center_Name": "Mosque",
    "د_مرکز_ځای__موقعیت_مرکز": "خربید علیا",
    "Polling_Center_Location": "Khar bid hulia",
    "Map_Accuracy": "Building",
    "Map_Accuracy_Dari": "تعمیر",
    "Status": "Open",
    "Status_Dari": null,
    "PS_Male": 2,
    "PS_Female": 1,
    "PS_Total": 3,
    "ولسوالي": "اشترلی",
    "Region": "Central Highlands Region"
   },
   "geometry": {
    "x": 7369893.1564868521,
    "y": 4014975.0326734465
   }
  },
  {
   "attributes": {
    "OBJECTID": 682,
    "ولایت": "دایکندی",
    "Province": "DAYKUNDI",
    "PC_Code": "2406186",
    "District": "KITI",
    "د_مرکز_نوم__نام_مرکز": "مسجد",
    "Polling_Center_Name": "Mosque",
    "د_مرکز_ځای__موقعیت_مرکز": "غوله کیسو ",
    "Polling_Center_Location": "Ghola kisaw",
    "Map_Accuracy": "Building",
    "Map_Accuracy_Dari": "تعمیر",
    "Status": "Open",
    "Status_Dari": null,
    "PS_Male": 2,
    "PS_Female": 1,
    "PS_Total": 3,
    "ولسوالي": "کیتی",
    "Region": "Central Highlands Region"
   },
   "geometry": {
    "x": 7332495.6069918266,
    "y": 3951930.0241719708
   }
  },
  {
   "attributes": {
    "OBJECTID": 683,
    "ولایت": "دایکندی",
    "Province": "DAYKUNDI",
    "PC_Code": "2406187",
    "District": "KITI",
    "د_مرکز_نوم__نام_مرکز": "مدرسه",
    "Polling_Center_Name": "Madrasa",
    "د_مرکز_ځای__موقعیت_مرکز": "کورنگگ ",
    "Polling_Center_Location": "Korangak",
    "Map_Accuracy": "Building",
    "Map_Accuracy_Dari": "تعمیر",
    "Status": "Open",
    "Status_Dari": null,
    "PS_Male": 2,
    "PS_Female": 1,
    "PS_Total": 3,
    "ولسوالي": "کیتی",
    "Region": "Central Highlands Region"
   },
   "geometry": {
    "x": 7313110.4422196727,
    "y": 3970082.6255532708
   }
  },
  {
   "attributes": {
    "OBJECTID": 684,
    "ولایت": "زابل",
    "Province": "ZABUL",
    "PC_Code": "2601046",
    "District": "QALAT",
    "د_مرکز_نوم__نام_مرکز": "کگری مسجد",
    "Polling_Center_Name": "Kagari Mosque",
    "د_مرکز_ځای__موقعیت_مرکز": "کگری،امکی",
    "Polling_Center_Location": "Kagari, Amaki",
    "Map_Accuracy": "Building",
    "Map_Accuracy_Dari": "تعمیر",
    "Status": "Open",
    "Status_Dari": null,
    "PS_Male": 2,
    "PS_Female": 1,
    "PS_Total": 3,
    "ولسوالي": "قلات",
    "Region": "Southern Region"
   },
   "geometry": {
    "x": 7443993.1209166534,
    "y": 3785902.668324281
   }
  },
  {
   "attributes": {
    "OBJECTID": 685,
    "ولایت": "زابل",
    "Province": "ZABUL",
    "PC_Code": "2601047",
    "District": "QALAT",
    "د_مرکز_نوم__نام_مرکز": "مسحد لور کاریز",
    "Polling_Center_Name": "Lwar kariz Mosque",
    "د_مرکز_ځای__موقعیت_مرکز": "میرانزائی",
    "Polling_Center_Location": "Miranzaie",
    "Map_Accuracy": "Building",
    "Map_Accuracy_Dari": "تعمیر",
    "Status": "Open",
    "Status_Dari": null,
    "PS_Male": 2,
    "PS_Female": 1,
    "PS_Total": 3,
    "ولسوالي": "قلات",
    "Region": "Southern Region"
   },
   "geometry": {
    "x": 7456798.0053523788,
    "y": 3783411.5656492258
   }
  },
  {
   "attributes": {
    "OBJECTID": 686,
    "ولایت": "زابل",
    "Province": "ZABUL",
    "PC_Code": "2603056",
    "District": "SHINKAI",
    "د_مرکز_نوم__نام_مرکز": "مسجد",
    "Polling_Center_Name": "Moque",
    "د_مرکز_ځای__موقعیت_مرکز": "عمرزی",
    "Polling_Center_Location": "Omar zai",
    "Map_Accuracy": "Building",
    "Map_Accuracy_Dari": "تعمیر",
    "Status": "Open",
    "Status_Dari": null,
    "PS_Male": 2,
    "PS_Female": 1,
    "PS_Total": 3,
    "ولسوالي": "شنیکی",
    "Region": "Southern Region"
   },
   "geometry": {
    "x": 7458948.6352416361,
    "y": 3757480.3879688517
   }
  },
  {
   "attributes": {
    "OBJECTID": 687,
    "ولایت": "جوزجان",
    "Province": "JAWZJAN",
    "PC_Code": "2805125",
    "District": "QUSH TEPA",
    "د_مرکز_نوم__نام_مرکز": "مسجد",
    "Polling_Center_Name": "Mosque",
    "د_مرکز_ځای__موقعیت_مرکز": "گردن",
    "Polling_Center_Location": "Gardan",
    "Map_Accuracy": "Village",
    "Map_Accuracy_Dari": "قریه",
    "Status": "Open",
    "Status_Dari": null,
    "PS_Male": 2,
    "PS_Female": 1,
    "PS_Total": 3,
    "ولسوالي": "قوش تیپه",
    "Region": "Northern Region"
   },
   "geometry": {
    "x": 7276832.9062853502,
    "y": 4306642.9039019011
   }
  },
  {
   "attributes": {
    "OBJECTID": 688,
    "ولایت": "بادغيس",
    "Province": "BADGHIS",
    "PC_Code": "3102192",
    "District": "AB KAMARI",
    "د_مرکز_نوم__نام_مرکز": "سنگ لوح مسجد",
    "Polling_Center_Name": "Sang lawh Mosque",
    "د_مرکز_ځای__موقعیت_مرکز": "سنگ لوح",
    "Polling_Center_Location": "Sang lawh",
    "Map_Accuracy": "Building",
    "Map_Accuracy_Dari": "تعمیر",
    "Status": "Open",
    "Status_Dari": null,
    "PS_Male": 2,
    "PS_Female": 1,
    "PS_Total": 3,
    "ولسوالي": "آبکمری",
    "Region": "Western Region"
   },
   "geometry": {
    "x": 6999247.398715579,
    "y": 4124323.4147997811
   }
  },
  {
   "attributes": {
    "OBJECTID": 689,
    "ولایت": "خوست",
    "Province": "KHOST",
    "PC_Code": "1404180",
    "District": "TANAY",
    "د_مرکز_نوم__نام_مرکز": "حاجي پير بادشاه کلى جوما",
    "Polling_Center_Name": "Haji pir padsh village Mosque",
    "د_مرکز_ځای__موقعیت_مرکز": "پير باد شاه کلى",
    "Polling_Center_Location": "Pir padsha village",
    "Map_Accuracy": "Building",
    "Map_Accuracy_Dari": "تعمیر",
    "Status": "Open",
    "Status_Dari": null,
    "PS_Male": 2,
    "PS_Female": 1,
    "PS_Total": 3,
    "ولسوالي": "تنی",
    "Region": "South Eastern Region"
   },
   "geometry": {
    "x": 7772431.9621740198,
    "y": 3930508.1710741236
   }
  },
  {
   "attributes": {
    "OBJECTID": 690,
    "ولایت": "فارياب",
    "Province": "FARYAB",
    "PC_Code": "2910215",
    "District": "KOHISTAN",
    "د_مرکز_نوم__نام_مرکز": "مسجد",
    "Polling_Center_Name": "Mosque",
    "د_مرکز_ځای__موقعیت_مرکز": "دیوارک",
    "Polling_Center_Location": "Diwarak",
    "Map_Accuracy": "Village",
    "Map_Accuracy_Dari": "قریه",
    "Status": "Open",
    "Status_Dari": null,
    "PS_Male": 2,
    "PS_Female": 1,
    "PS_Total": 3,
    "ولسوالي": "کوهستان",
    "Region": "Northern Region"
   },
   "geometry": {
    "x": 7262598.6737992186,
    "y": 4205472.0058211293
   }
  },
  {
   "attributes": {
    "OBJECTID": 691,
    "ولایت": " فراه",
    "Province": "FARAH",
    "PC_Code": "3310172",
    "District": "GULISTAN",
    "د_مرکز_نوم__نام_مرکز": "مکتب ابتایه ذکور قلعه کهنه ",
    "Polling_Center_Name": "Qala Kohna Boys Primary School",
    "د_مرکز_ځای__موقعیت_مرکز": "قلعه کهنه",
    "Polling_Center_Location": "Qala-e-Kohna",
    "Map_Accuracy": "Village",
    "Map_Accuracy_Dari": "قریه",
    "Status": "Open",
    "Status_Dari": null,
    "PS_Male": 2,
    "PS_Female": 1,
    "PS_Total": 3,
    "ولسوالي": "گلستان",
    "Region": "Western Region"
   },
   "geometry": {
    "x": 7088073.3886665413,
    "y": 3844254.6566679687
   }
  },
  {
   "attributes": {
    "OBJECTID": 692,
    "ولایت": "پروان",
    "Province": "PARWAN",
    "PC_Code": "0306064",
    "District": "SALANG",
    "د_مرکز_نوم__نام_مرکز": "لیسه تاخمه",
    "Polling_Center_Name": "Takhma Mosque",
    "د_مرکز_ځای__موقعیت_مرکز": "تاخمه بابه مردان صاحب",
    "Polling_Center_Location": "Takhma ",
    "Map_Accuracy": "Building",
    "Map_Accuracy_Dari": "تعمیر",
    "Status": "Open",
    "Status_Dari": null,
    "PS_Male": 2,
    "PS_Female": 1,
    "PS_Total": 3,
    "ولسوالي": "سالنگ ",
    "Region": "Central Region"
   },
   "geometry": {
    "x": 7705792.9857942816,
    "y": 4187737.7942631822
   }
  },
  {
   "attributes": {
    "OBJECTID": 693,
    "ولایت": "بادغيس",
    "Province": "BADGHIS",
    "PC_Code": "3104080",
    "District": "QADIS",
    "د_مرکز_نوم__نام_مرکز": "مسجد شورک",
    "Polling_Center_Name": "Nawa Mullah Gadah Mosque",
    "د_مرکز_ځای__موقعیت_مرکز": "شورک حاجی محمد شاه خان ",
    "Polling_Center_Location": "Nawa Mullah Gadah ",
    "Map_Accuracy": "Building",
    "Map_Accuracy_Dari": "تعمیر",
    "Status": "Open",
    "Status_Dari": null,
    "PS_Male": 1,
    "PS_Female": 1,
    "PS_Total": 2,
    "ولسوالي": "قادس",
    "Region": "Western Region"
   },
   "geometry": {
    "x": 7109220.1636750717,
    "y": 4125260.4955194453
   }
  },
  {
   "attributes": {
    "OBJECTID": 694,
    "ولایت": "پروان",
    "Province": "PARWAN",
    "PC_Code": "0309142",
    "District": "SURKHI PARSA",
    "د_مرکز_نوم__نام_مرکز": "لیسه نسوان حضرت زینب",
    "Polling_Center_Name": "Ziarat-e-Shah Daleer Lolenj ",
    "د_مرکز_ځای__موقعیت_مرکز": "دینگک سیل زاده",
    "Polling_Center_Location": "Lolenj ",
    "Map_Accuracy": "Building",
    "Map_Accuracy_Dari": "تعمیر",
    "Status": "Open",
    "Status_Dari": null,
    "PS_Male": 1,
    "PS_Female": 1,
    "PS_Total": 2,
    "ولسوالي": "سرخ پارسا ",
    "Region": "Central Region"
   },
   "geometry": {
    "x": 7641645.2363140061,
    "y": 4152520.1626011776
   }
  },
  {
   "attributes": {
    "OBJECTID": 695,
    "ولایت": "کابل",
    "Province": "KABUL",
    "PC_Code": "0101013",
    "District": "KABUL-D01",
    "د_مرکز_نوم__نام_مرکز": " تکيه خانه عمومي",
    "Polling_Center_Name": "Takya Khana-e-Umomi",
    "د_مرکز_ځای__موقعیت_مرکز": "چنداول",
    "Polling_Center_Location": "Chendawol",
    "Map_Accuracy": "Building",
    "Map_Accuracy_Dari": "تعمیر",
    "Status": "Open",
    "Status_Dari": null,
    "PS_Male": 3,
    "PS_Female": 2,
    "PS_Total": 5,
    "ولسوالي": "کابل - ناحیه 01",
    "Region": "Central Region"
   },
   "geometry": {
    "x": 7700539.0348892566,
    "y": 4097607.4234659262
   }
  },
  {
   "attributes": {
    "OBJECTID": 696,
    "ولایت": "کابل",
    "Province": "KABUL",
    "PC_Code": "0101244",
    "District": "KABUL-D11",
    "د_مرکز_نوم__نام_مرکز": "مکتب متوسطه نمبر ١٦",
    "Polling_Center_Name": "No.16th Secondary School",
    "د_مرکز_ځای__موقعیت_مرکز": "قلعه نجارها",
    "Polling_Center_Location": "Qala-e-Najarha",
    "Map_Accuracy": "Building",
    "Map_Accuracy_Dari": "تعمیر",
    "Status": "Open",
    "Status_Dari": null,
    "PS_Male": 4,
    "PS_Female": 3,
    "PS_Total": 7,
    "ولسوالي": "کابل - ناحیه 11",
    "Region": "Central Region"
   },
   "geometry": {
    "x": 7695858.3965050103,
    "y": 4105530.7250656369
   }
  },
  {
   "attributes": {
    "OBJECTID": 697,
    "ولایت": "کابل",
    "Province": "KABUL",
    "PC_Code": "0102417",
    "District": "PAGHMAN",
    "د_مرکز_نوم__نام_مرکز": "مکتب متوسطه اوریاخیل",
    "Polling_Center_Name": "Orya Khel Secondary School",
    "د_مرکز_ځای__موقعیت_مرکز": "اوريا خيل",
    "Polling_Center_Location": "Orya Khel",
    "Map_Accuracy": "Building",
    "Map_Accuracy_Dari": "تعمیر",
    "Status": "Open",
    "Status_Dari": null,
    "PS_Male": 2,
    "PS_Female": 2,
    "PS_Total": 4,
    "ولسوالي": "پغمان",
    "Region": "Central Region"
   },
   "geometry": {
    "x": 7677076.8814865574,
    "y": 4101919.0540125696
   }
  },
  {
   "attributes": {
    "OBJECTID": 698,
    "ولایت": "کابل",
    "Province": "KABUL",
    "PC_Code": "0102418",
    "District": "PAGHMAN",
    "د_مرکز_نوم__نام_مرکز": " ساحه کوچي ها",
    "Polling_Center_Name": "Saha-e-Kuchiha",
    "د_مرکز_ځای__موقعیت_مرکز": " چوک ارغندي",
    "Polling_Center_Location": "Chawk Arghandi",
    "Map_Accuracy": "Village",
    "Map_Accuracy_Dari": "قریه",
    "Status": "Open",
    "Status_Dari": null,
    "PS_Male": 2,
    "PS_Female": 1,
    "PS_Total": 3,
    "ولسوالي": "پغمان",
    "Region": "Central Region"
   },
   "geometry": {
    "x": 7675374.9133390365,
    "y": 4093444.7561937002
   }
  },
  {
   "attributes": {
    "OBJECTID": 699,
    "ولایت": "کابل",
    "Province": "KABUL",
    "PC_Code": "0103422",
    "District": "CHAHAR ASYAB",
    "د_مرکز_نوم__نام_مرکز": " منزل ملک خواني",
    "Polling_Center_Name": "Malik Khani House",
    "د_مرکز_ځای__موقعیت_مرکز": "نونياز",
    "Polling_Center_Location": "Nowniaz",
    "Map_Accuracy": "Village",
    "Map_Accuracy_Dari": "قریه",
    "Status": "Open",
    "Status_Dari": null,
    "PS_Male": 2,
    "PS_Female": 1,
    "PS_Total": 3,
    "ولسوالي": "چهار آسیاب",
    "Region": "Central Region"
   },
   "geometry": {
    "x": 7694085.3976168111,
    "y": 4076204.9286686424
   }
  },
  {
   "attributes": {
    "OBJECTID": 700,
    "ولایت": "کابل",
    "Province": "KABUL",
    "PC_Code": "0103423",
    "District": "CHAHAR ASYAB",
    "د_مرکز_نوم__نام_مرکز": "لیسه ذکور چهارآسیاب",
    "Polling_Center_Name": "Chahar Asyab Boys High School",
    "د_مرکز_ځای__موقعیت_مرکز": "بالا قلعه",
    "Polling_Center_Location": "Bala Qala",
    "Map_Accuracy": "Building",
    "Map_Accuracy_Dari": "تعمیر",
    "Status": "Open",
    "Status_Dari": null,
    "PS_Male": 2,
    "PS_Female": 1,
    "PS_Total": 3,
    "ولسوالي": "چهار آسیاب",
    "Region": "Central Region"
   },
   "geometry": {
    "x": 7697206.3987280717,
    "y": 4084919.5071659363
   }
  },
  {
   "attributes": {
    "OBJECTID": 701,
    "ولایت": "کابل",
    "Province": "KABUL",
    "PC_Code": "0104459",
    "District": "BAGRAMI",
    "د_مرکز_نوم__نام_مرکز": " مکتب متوسطه شهید محمد عارف ظریف",
    "Polling_Center_Name": "Shaheed Mohammad Arif Zarif Secondary School",
    "د_مرکز_ځای__موقعیت_مرکز": "ولايتي",
    "Polling_Center_Location": "Valayati",
    "Map_Accuracy": "Building",
    "Map_Accuracy_Dari": "تعمیر",
    "Status": "Open",
    "Status_Dari": null,
    "PS_Male": 2,
    "PS_Female": 2,
    "PS_Total": 4,
    "ولسوالي": "بگرامی",
    "Region": "Central Region"
   },
   "geometry": {
    "x": 7703384.9123280486,
    "y": 4092101.702192802
   }
  },
  {
   "attributes": {
    "OBJECTID": 702,
    "ولایت": "کابل",
    "Province": "KABUL",
    "PC_Code": "0104460",
    "District": "BAGRAMI",
    "د_مرکز_نوم__نام_مرکز": "مکتب ابتدائيه کاريز بکر",
    "Polling_Center_Name": "Kariz Bakr Primary School",
    "د_مرکز_ځای__موقعیت_مرکز": "قريه کاريز بکر",
    "Polling_Center_Location": "Karez Bakr Village",
    "Map_Accuracy": "Building",
    "Map_Accuracy_Dari": "تعمیر",
    "Status": "Open",
    "Status_Dari": null,
    "PS_Male": 2,
    "PS_Female": 1,
    "PS_Total": 3,
    "ولسوالي": "بگرامی",
    "Region": "Central Region"
   },
   "geometry": {
    "x": 7715924.9714800417,
    "y": 4091749.932728067
   }
  },
  {
   "attributes": {
    "OBJECTID": 703,
    "ولایت": "کابل",
    "Province": "KABUL",
    "PC_Code": "0105472",
    "District": "DEHSABZ",
    "د_مرکز_نوم__نام_مرکز": " لیسه نسوان ده سبز خاص",
    "Polling_Center_Name": "Deh Sabz-e-Khas Girls High School",
    "د_مرکز_ځای__موقعیت_مرکز": "ده سبز خاص",
    "Polling_Center_Location": "Deh Sabz Khas",
    "Map_Accuracy": "Building",
    "Map_Accuracy_Dari": "تعمیر",
    "Status": "Open",
    "Status_Dari": null,
    "PS_Male": 1,
    "PS_Female": 1,
    "PS_Total": 2,
    "ولسوالي": "ده سبز",
    "Region": "Central Region"
   },
   "geometry": {
    "x": 7724965.0988646736,
    "y": 4115891.0334173176
   }
  },
  {
   "attributes": {
    "OBJECTID": 704,
    "ولایت": "پکتيا",
    "Province": "PAKTYA",
    "PC_Code": "1301006",
    "District": "GARDEZ",
    "د_مرکز_نوم__نام_مرکز": "ابراهیم خیل مکتب",
    "Polling_Center_Name": "Ibrahim Khel School",
    "د_مرکز_ځای__موقعیت_مرکز": "ابراهیم خیل",
    "Polling_Center_Location": "Ibrahim Khel",
    "Map_Accuracy": "Building",
    "Map_Accuracy_Dari": "تعمیر",
    "Status": "Open",
    "Status_Dari": null,
    "PS_Male": 5,
    "PS_Female": 3,
    "PS_Total": 8,
    "ولسوالي": "گردیز",
    "Region": "South Eastern Region"
   },
   "geometry": {
    "x": 7699923.6674233172,
    "y": 3969565.5459942757
   }
  },
  {
   "attributes": {
    "OBJECTID": 705,
    "ولایت": "پکتيا",
    "Province": "PAKTYA",
    "PC_Code": "1301007",
    "District": "GARDEZ",
    "د_مرکز_نوم__نام_مرکز": "مکتب ذکور رباط",
    "Polling_Center_Name": "Robaat Boys School",
    "د_مرکز_ځای__موقعیت_مرکز": "رباط کلی ",
    "Polling_Center_Location": "Robaat Village",
    "Map_Accuracy": "Building",
    "Map_Accuracy_Dari": "تعمیر",
    "Status": "Open",
    "Status_Dari": null,
    "PS_Male": 4,
    "PS_Female": 0,
    "PS_Total": 4,
    "ولسوالي": "گردیز",
    "Region": "South Eastern Region"
   },
   "geometry": {
    "x": 7699337.2686284715,
    "y": 3980033.3639456672
   }
  },
  {
   "attributes": {
    "OBJECTID": 706,
    "ولایت": "پکتيا",
    "Province": "PAKTYA",
    "PC_Code": "1306031",
    "District": "SAYYID KARAM",
    "د_مرکز_نوم__نام_مرکز": "مسجد کاریز",
    "Polling_Center_Name": "Karez Mosque",
    "د_مرکز_ځای__موقعیت_مرکز": "کاریز",
    "Polling_Center_Location": "Karez",
    "Map_Accuracy": "Building",
    "Map_Accuracy_Dari": "تعمیر",
    "Status": "Open",
    "Status_Dari": null,
    "PS_Male": 3,
    "PS_Female": 0,
    "PS_Total": 3,
    "ولسوالي": "سید کرم",
    "Region": "South Eastern Region"
   },
   "geometry": {
    "x": 7731366.2538952669,
    "y": 3995840.2449132465
   }
  },
  {
   "attributes": {
    "OBJECTID": 707,
    "ولایت": "پکتيا",
    "Province": "PAKTYA",
    "PC_Code": "1306032",
    "District": "SAYYID KARAM",
    "د_مرکز_نوم__نام_مرکز": "د کاریز مکتب",
    "Polling_Center_Name": "Karez School",
    "د_مرکز_ځای__موقعیت_مرکز": "  کاریز",
    "Polling_Center_Location": "Karez",
    "Map_Accuracy": "Building",
    "Map_Accuracy_Dari": "تعمیر",
    "Status": "Open",
    "Status_Dari": null,
    "PS_Male": 0,
    "PS_Female": 2,
    "PS_Total": 2,
    "ولسوالي": "سید کرم",
    "Region": "South Eastern Region"
   },
   "geometry": {
    "x": 7731150.2172726756,
    "y": 3995741.653258001
   }
  },
  {
   "attributes": {
    "OBJECTID": 708,
    "ولایت": "پکتيا",
    "Province": "PAKTYA",
    "PC_Code": "1310157",
    "District": "SAMKANI",
    "د_مرکز_نوم__نام_مرکز": "د ولسوالی مرکزی شفاخانه ",
    "Polling_Center_Name": "District Central Hospital ",
    "د_مرکز_ځای__موقعیت_مرکز": "چمکنی- شهرنو",
    "Polling_Center_Location": "Chamkani, Shahr-e-Naw",
    "Map_Accuracy": "Building",
    "Map_Accuracy_Dari": "تعمیر",
    "Status": "Open",
    "Status_Dari": null,
    "PS_Male": 0,
    "PS_Female": 4,
    "PS_Total": 4,
    "ولسوالي": "څمکنی",
    "Region": "South Eastern Region"
   },
   "geometry": {
    "x": 7771737.3069554903,
    "y": 4002543.8532902938
   }
  },
  {
   "attributes": {
    "OBJECTID": 709,
    "ولایت": "پکتيا",
    "Province": "PAKTYA",
    "PC_Code": "1310159",
    "District": "SAMKANI",
    "د_مرکز_نوم__نام_مرکز": "د بګیاړ مسجد",
    "Polling_Center_Name": "Sultan House",
    "د_مرکز_ځای__موقعیت_مرکز": "ټنی، بګیاړ",
    "Polling_Center_Location": "Tanni, Bagyaar",
    "Map_Accuracy": "Building",
    "Map_Accuracy_Dari": "تعمیر",
    "Status": "Open",
    "Status_Dari": null,
    "PS_Male": 0,
    "PS_Female": 4,
    "PS_Total": 4,
    "ولسوالي": "څمکنی",
    "Region": "South Eastern Region"
   },
   "geometry": {
    "x": 7763646.3659145357,
    "y": 4001561.9933302803
   }
  },
  {
   "attributes": {
    "OBJECTID": 710,
    "ولایت": "پکتيا",
    "Province": "PAKTYA",
    "PC_Code": "1310160",
    "District": "SAMKANI",
    "د_مرکز_نوم__نام_مرکز": "د عید گل مسجد",
    "Polling_Center_Name": "Eid Gul Mosque",
    "د_مرکز_ځای__موقعیت_مرکز": "منګیاړ کلی",
    "Polling_Center_Location": "Mangyaar Village",
    "Map_Accuracy": "Village",
    "Map_Accuracy_Dari": "قریه",
    "Status": "Open",
    "Status_Dari": null,
    "PS_Male": 4,
    "PS_Female": 0,
    "PS_Total": 4,
    "ولسوالي": "څمکنی",
    "Region": "South Eastern Region"
   },
   "geometry": {
    "x": 7765906.3586318949,
    "y": 3990268.8058860772
   }
  },
  {
   "attributes": {
    "OBJECTID": 711,
    "ولایت": "خوست",
    "Province": "KHOST",
    "PC_Code": "1401047",
    "District": "KHOST",
    "د_مرکز_نوم__نام_مرکز": "رسول کور ",
    "Polling_Center_Name": "Rasool House",
    "د_مرکز_ځای__موقعیت_مرکز": " بانګي باغ",
    "Polling_Center_Location": "Bangi Bagh",
    "Map_Accuracy": "Building",
    "Map_Accuracy_Dari": "تعمیر",
    "Status": "Open",
    "Status_Dari": null,
    "PS_Male": 3,
    "PS_Female": 1,
    "PS_Total": 4,
    "ولسوالي": "خوست",
    "Region": "South Eastern Region"
   },
   "geometry": {
    "x": 7787568.8487887532,
    "y": 3937041.8866339545
   }
  },
  {
   "attributes": {
    "OBJECTID": 712,
    "ولایت": "خوست",
    "Province": "KHOST",
    "PC_Code": "1401161",
    "District": "KHOST",
    "د_مرکز_نوم__نام_مرکز": "ډيري مدرسه",
    "Polling_Center_Name": "Dere Madrassa",
    "د_مرکز_ځای__موقعیت_مرکز": "ډيري ",
    "Polling_Center_Location": "Deri",
    "Map_Accuracy": "Building",
    "Map_Accuracy_Dari": "تعمیر",
    "Status": "Open",
    "Status_Dari": null,
    "PS_Male": 3,
    "PS_Female": 2,
    "PS_Total": 5,
    "ولسوالي": "خوست",
    "Region": "South Eastern Region"
   },
   "geometry": {
    "x": 7794778.9443025487,
    "y": 3941883.8207624853
   }
  },
  {
   "attributes": {
    "OBJECTID": 713,
    "ولایت": "خوست",
    "Province": "KHOST",
    "PC_Code": "1402085",
    "District": "MANDUZAY",
    "د_مرکز_نوم__نام_مرکز": "د تورې وړى ليسه ديګان",
    "Polling_Center_Name": "Tora Wari High School Degan",
    "د_مرکز_ځای__موقعیت_مرکز": " توړه وړۍ",
    "Polling_Center_Location": "Tora Worrai",
    "Map_Accuracy": "Building",
    "Map_Accuracy_Dari": "تعمیر",
    "Status": "Open",
    "Status_Dari": null,
    "PS_Male": 1,
    "PS_Female": 1,
    "PS_Total": 2,
    "ولسوالي": "مندوزی",
    "Region": "South Eastern Region"
   },
   "geometry": {
    "x": 7777672.4035682874,
    "y": 3935126.8054203363
   }
  },
  {
   "attributes": {
    "OBJECTID": 714,
    "ولایت": "خوست",
    "Province": "KHOST",
    "PC_Code": "1402086",
    "District": "MANDUZAY",
    "د_مرکز_نوم__نام_مرکز": "سيدا جان جومات",
    "Polling_Center_Name": "Sayda Jan Mosque",
    "د_مرکز_ځای__موقعیت_مرکز": " د دیگانو کلی سيدا جان جومات",
    "Polling_Center_Location": "Deganano Village",
    "Map_Accuracy": "Building",
    "Map_Accuracy_Dari": "تعمیر",
    "Status": "Open",
    "Status_Dari": null,
    "PS_Male": 1,
    "PS_Female": 1,
    "PS_Total": 2,
    "ولسوالي": "مندوزی",
    "Region": "South Eastern Region"
   },
   "geometry": {
    "x": 7776971.1631339593,
    "y": 3938265.1657674932
   }
  },
  {
   "attributes": {
    "OBJECTID": 715,
    "ولایت": "تخار",
    "Province": "TAKHAR",
    "PC_Code": "1801017",
    "District": "TALUQAN",
    "د_مرکز_نوم__نام_مرکز": "مکتب ابتدای بولک اورته بز",
    "Polling_Center_Name": "Bolak Orta Baz Primary School",
    "د_مرکز_ځای__موقعیت_مرکز": "بولک اورته بز",
    "Polling_Center_Location": "Bolak Orta Baz",
    "Map_Accuracy": "Building",
    "Map_Accuracy_Dari": "تعمیر",
    "Status": "Open",
    "Status_Dari": null,
    "PS_Male": 3,
    "PS_Female": 2,
    "PS_Total": 5,
    "ولسوالي": "تالقان",
    "Region": "North Eastern Region"
   },
   "geometry": {
    "x": 7742965.953003373,
    "y": 4403710.6197108515
   }
  },
  {
   "attributes": {
    "OBJECTID": 716,
    "ولایت": "تخار",
    "Province": "TAKHAR",
    "PC_Code": "1806083",
    "District": "NAMAK AB",
    "د_مرکز_نوم__نام_مرکز": "مرکز ولسوالی",
    "Polling_Center_Name": "District Office",
    "د_مرکز_ځای__موقعیت_مرکز": "بیخ کوتل",
    "Polling_Center_Location": "Bekh Kotal",
    "Map_Accuracy": "Building",
    "Map_Accuracy_Dari": "تعمیر",
    "Status": "Open",
    "Status_Dari": null,
    "PS_Male": 3,
    "PS_Female": 2,
    "PS_Total": 5,
    "ولسوالي": "نمک آب",
    "Region": "North Eastern Region"
   },
   "geometry": {
    "x": 7752410.6281079678,
    "y": 4382720.9427919369
   }
  },
  {
   "attributes": {
    "OBJECTID": 717,
    "ولایت": "بلخ",
    "Province": "BALKH",
    "PC_Code": "2106159",
    "District": "BALKH",
    "د_مرکز_نوم__نام_مرکز": "مکتب ایلقیچی",
    "Polling_Center_Name": "Elqechee School",
    "د_مرکز_ځای__موقعیت_مرکز": "قریه ایلقیچی",
    "Polling_Center_Location": "Elqechee Village",
    "Map_Accuracy": "Building",
    "Map_Accuracy_Dari": "تعمیر",
    "Status": "Open",
    "Status_Dari": null,
    "PS_Male": 2,
    "PS_Female": 1,
    "PS_Total": 3,
    "ولسوالي": "بلخ",
    "Region": "Northern Region"
   },
   "geometry": {
    "x": 7433556.7868525088,
    "y": 4424102.5225254213
   }
  },
  {
   "attributes": {
    "OBJECTID": 718,
    "ولایت": "هرات",
    "Province": "HERAT",
    "PC_Code": "3202038",
    "District": "ENJIL",
    "د_مرکز_نوم__نام_مرکز": "مسجد جامع ابوالولید",
    "Polling_Center_Name": "Abul Waleed Mosque",
    "د_مرکز_ځای__موقعیت_مرکز": "ابوالولید",
    "Polling_Center_Location": "Abul Waleed",
    "Map_Accuracy": "Building",
    "Map_Accuracy_Dari": "تعمیر",
    "Status": "Open",
    "Status_Dari": null,
    "PS_Male": 3,
    "PS_Female": 3,
    "PS_Total": 6,
    "ولسوالي": "انجیل",
    "Region": "Western Region"
   },
   "geometry": {
    "x": 6918279.4458310967,
    "y": 4077253.8553335103
   }
  },
  {
   "attributes": {
    "OBJECTID": 719,
    "ولایت": "هرات",
    "Province": "HERAT",
    "PC_Code": "3202039",
    "District": "ENJIL",
    "د_مرکز_نوم__نام_مرکز": "ليسه گاوبتان",
    "Polling_Center_Name": "Gow Butan High School ",
    "د_مرکز_ځای__موقعیت_مرکز": "گاوبتان",
    "Polling_Center_Location": "Gow Butan ",
    "Map_Accuracy": "Building",
    "Map_Accuracy_Dari": "تعمیر",
    "Status": "Open",
    "Status_Dari": null,
    "PS_Male": 3,
    "PS_Female": 2,
    "PS_Total": 5,
    "ولسوالي": "انجیل",
    "Region": "Western Region"
   },
   "geometry": {
    "x": 6916887.8826214969,
    "y": 4075109.8770325757
   }
  },
  {
   "attributes": {
    "OBJECTID": 720,
    "ولایت": "هرات",
    "Province": "HERAT",
    "PC_Code": "3204158",
    "District": "KARRUKH",
    "د_مرکز_نوم__نام_مرکز": "مکتب اسلام آباد ",
    "Polling_Center_Name": "Islam Abad School ",
    "د_مرکز_ځای__موقعیت_مرکز": "قریه اسلام آباد ",
    "Polling_Center_Location": "Islam Abad Village ",
    "Map_Accuracy": "Building",
    "Map_Accuracy_Dari": "تعمیر",
    "Status": "Open",
    "Status_Dari": null,
    "PS_Male": 1,
    "PS_Female": 1,
    "PS_Total": 2,
    "ولسوالي": "کرخ ",
    "Region": "Western Region"
   },
   "geometry": {
    "x": 6951328.3129992653,
    "y": 4079510.2663976448
   }
  },
  {
   "attributes": {
    "OBJECTID": 721,
    "ولایت": "هرات",
    "Province": "HERAT",
    "PC_Code": "3204159",
    "District": "KARRUKH",
    "د_مرکز_نوم__نام_مرکز": "مکتب متوسطه پهلوان پیری ",
    "Polling_Center_Name": "Pahlawan Peri Scondary School ",
    "د_مرکز_ځای__موقعیت_مرکز": "قریه پهلوان پیری ",
    "Polling_Center_Location": "Pahlawan Peri Village",
    "Map_Accuracy": "Building",
    "Map_Accuracy_Dari": "تعمیر",
    "Status": "Open",
    "Status_Dari": null,
    "PS_Male": 1,
    "PS_Female": 1,
    "PS_Total": 2,
    "ولسوالي": "کرخ ",
    "Region": "Western Region"
   },
   "geometry": {
    "x": 6945867.20420291,
    "y": 4076989.0484078317
   }
  },
  {
   "attributes": {
    "OBJECTID": 722,
    "ولایت": "هرات",
    "Province": "HERAT",
    "PC_Code": "3204163",
    "District": "KARRUKH",
    "د_مرکز_نوم__نام_مرکز": "مکتب کورپه ",
    "Polling_Center_Name": "Korpa School",
    "د_مرکز_ځای__موقعیت_مرکز": "قریه کور په ",
    "Polling_Center_Location": "Korpa Village ",
    "Map_Accuracy": "Building",
    "Map_Accuracy_Dari": "تعمیر",
    "Status": "Open",
    "Status_Dari": null,
    "PS_Male": 1,
    "PS_Female": 2,
    "PS_Total": 3,
    "ولسوالي": "کرخ ",
    "Region": "Western Region"
   },
   "geometry": {
    "x": 6937116.4335782044,
    "y": 4102447.1326546161
   }
  },
  {
   "attributes": {
    "OBJECTID": 723,
    "ولایت": "هرات",
    "Province": "HERAT",
    "PC_Code": "3204164",
    "District": "KARRUKH",
    "د_مرکز_نوم__نام_مرکز": "موقعیت کوچی ها",
    "Polling_Center_Name": "Kochis Location ",
    "د_مرکز_ځای__موقعیت_مرکز": "مجید چوبی",
    "Polling_Center_Location": "Mjid Chobi ",
    "Map_Accuracy": "Village",
    "Map_Accuracy_Dari": "قریه",
    "Status": "Open",
    "Status_Dari": null,
    "PS_Male": 2,
    "PS_Female": 1,
    "PS_Total": 3,
    "ولسوالي": "کرخ ",
    "Region": "Western Region"
   },
   "geometry": {
    "x": 7023303.7570810961,
    "y": 4106062.1382744312
   }
  },
  {
   "attributes": {
    "OBJECTID": 724,
    "ولایت": " فراه",
    "Province": "FARAH",
    "PC_Code": "3301247",
    "District": "FARAH",
    "د_مرکز_نوم__نام_مرکز": "مسجد سنگ زور",
    "Polling_Center_Name": "Sang zor Mosque",
    "د_مرکز_ځای__موقعیت_مرکز": "سنگ زور",
    "Polling_Center_Location": "Sang zor",
    "Map_Accuracy": "Building",
    "Map_Accuracy_Dari": "تعمیر",
    "Status": "Open",
    "Status_Dari": null,
    "PS_Male": 2,
    "PS_Female": 1,
    "PS_Total": 3,
    "ولسوالي": " فراه",
    "Region": "Western Region"
   },
   "geometry": {
    "x": 6911435.7665475728,
    "y": 3809935.017450281
   }
  },
  {
   "attributes": {
    "OBJECTID": 725,
    "ولایت": " فراه",
    "Province": "FARAH",
    "PC_Code": "3304248",
    "District": "QALA-E-KAH",
    "د_مرکز_نوم__نام_مرکز": " مکتب انجیران",
    "Polling_Center_Name": "Angiran School",
    "د_مرکز_ځای__موقعیت_مرکز": "انجیران",
    "Polling_Center_Location": "Anjeeran",
    "Map_Accuracy": "Building",
    "Map_Accuracy_Dari": "تعمیر",
    "Status": "Open",
    "Status_Dari": null,
    "PS_Male": 2,
    "PS_Female": 1,
    "PS_Total": 3,
    "ولسوالي": "قلعه کاه",
    "Region": "Western Region"
   },
   "geometry": {
    "x": 6833985.6319122789,
    "y": 3821062.9199359422
   }
  },
  {
   "attributes": {
    "OBJECTID": 726,
    "ولایت": "باميان",
    "Province": "BAMYAN",
    "PC_Code": "1001168",
    "District": "BAMYAN",
    "د_مرکز_نوم__نام_مرکز": "لیسه کارته صلح",
    "Polling_Center_Name": "Karte solh High school",
    "د_مرکز_ځای__موقعیت_مرکز": "ملاغلام",
    "Polling_Center_Location": "Mulah ghulam",
    "Map_Accuracy": "Building",
    "Map_Accuracy_Dari": "تعمیر",
    "Status": "Open",
    "Status_Dari": null,
    "PS_Male": 2,
    "PS_Female": 1,
    "PS_Total": 3,
    "ولسوالي": "بامیان",
    "Region": "Central Highlands Region"
   },
   "geometry": {
    "x": 7545450.1013456667,
    "y": 4141310.9577352349
   }
  },
  {
   "attributes": {
    "OBJECTID": 727,
    "ولایت": "باميان",
    "Province": "BAMYAN",
    "PC_Code": "1001169",
    "District": "BAMYAN",
    "د_مرکز_نوم__نام_مرکز": "مسجد",
    "Polling_Center_Name": "Mosque",
    "د_مرکز_ځای__موقعیت_مرکز": "دهن جوپلال",
    "Polling_Center_Location": "Dahan jaopalan",
    "Map_Accuracy": "Building",
    "Map_Accuracy_Dari": "تعمیر",
    "Status": "Open",
    "Status_Dari": null,
    "PS_Male": 2,
    "PS_Female": 1,
    "PS_Total": 3,
    "ولسوالي": "بامیان",
    "Region": "Central Highlands Region"
   },
   "geometry": {
    "x": 7515761.9650404546,
    "y": 4147395.9665369657
   }
  },
  {
   "attributes": {
    "OBJECTID": 728,
    "ولایت": "فارياب",
    "Province": "FARYAB",
    "PC_Code": "2911216",
    "District": "QARAM QUL",
    "د_مرکز_نوم__نام_مرکز": "مکتب متوسطه قپچاق",
    "Polling_Center_Name": "Qepchaq Secondary school",
    "د_مرکز_ځای__موقعیت_مرکز": "قپچاق",
    "Polling_Center_Location": "Qep chap",
    "Map_Accuracy": "District",
    "Map_Accuracy_Dari": "ولسوالی",
    "Status": "Open",
    "Status_Dari": null,
    "PS_Male": 2,
    "PS_Female": 1,
    "PS_Total": 3,
    "ولسوالي": "قرم قل",
    "Region": "Northern Region"
   },
   "geometry": {
    "x": 7233292.7947104517,
    "y": 4410039.5012844922
   }
  },
  {
   "attributes": {
    "OBJECTID": 729,
    "ولایت": "نيمروز",
    "Province": "NIMROZ",
    "PC_Code": "3403061",
    "District": "ASL-E-CHAKHANSUR",
    "د_مرکز_نوم__نام_مرکز": "مکتب سرکنگ",
    "Polling_Center_Name": "Sarkanak School",
    "د_مرکز_ځای__موقعیت_مرکز": "حاجی میر علی خان,سرکنگ",
    "Polling_Center_Location": "Haji mir ali",
    "Map_Accuracy": "Building",
    "Map_Accuracy_Dari": "تعمیر",
    "Status": "Open",
    "Status_Dari": null,
    "PS_Male": 2,
    "PS_Female": 1,
    "PS_Total": 3,
    "ولسوالي": "اصل چغانسور",
    "Region": "Southern Region"
   },
   "geometry": {
    "x": 6906244.1929626158,
    "y": 3664284.3346855328
   }
  },
  {
   "attributes": {
    "OBJECTID": 730,
    "ولایت": "هرات",
    "Province": "HERAT",
    "PC_Code": "3210414",
    "District": "KUSHK-E-KUHNA",
    "د_مرکز_نوم__نام_مرکز": "مسجد بلند محمد آباد چشمه خافی مردانه",
    "Polling_Center_Name": "Muhammad Abad Cheshma khafi Mosque(Male)",
    "د_مرکز_ځای__موقعیت_مرکز": "قریه چشمه خافی",
    "Polling_Center_Location": "Chashma-e- Khafi Village",
    "Map_Accuracy": "Building",
    "Map_Accuracy_Dari": "تعمیر",
    "Status": "Open",
    "Status_Dari": null,
    "PS_Male": 2,
    "PS_Female": 0,
    "PS_Total": 2,
    "ولسوالي": "کشک کهنه ",
    "Region": "Western Region"
   },
   "geometry": {
    "x": 6974103.1993467137,
    "y": 4147834.4330950943
   }
  },
  {
   "attributes": {
    "OBJECTID": 731,
    "ولایت": "کابل",
    "Province": "KABUL",
    "PC_Code": "0101535",
    "District": "Nahia_21",
    "د_مرکز_نوم__نام_مرکز": "مسجد حمزه",
    "Polling_Center_Name": "Hamza Mosque",
    "د_مرکز_ځای__موقعیت_مرکز": "ناحیه 21 ده سبز",
    "Polling_Center_Location": "Deh sabz_District_21",
    "Map_Accuracy": "District",
    "Map_Accuracy_Dari": "ولسوالی",
    "Status": "Open",
    "Status_Dari": null,
    "PS_Male": 2,
    "PS_Female": 1,
    "PS_Total": 3,
    "ولسوالي": "ناحیه_21",
    "Region": "Central Region"
   },
   "geometry": {
    "x": 7725323.6730820909,
    "y": 4100788.0841634911
   }
  },
  {
   "attributes": {
    "OBJECTID": 732,
    "ولایت": "کابل",
    "Province": "KABUL",
    "PC_Code": "0111545",
    "District": "Guldara",
    "د_مرکز_نوم__نام_مرکز": "ابتدائیه قول افغان",
    "Polling_Center_Name": "Qul afghan Primary school",
    "د_مرکز_ځای__موقعیت_مرکز": "قول افغان",
    "Polling_Center_Location": "Qul  Afghan",
    "Map_Accuracy": "Building",
    "Map_Accuracy_Dari": "تعمیر",
    "Status": "Open",
    "Status_Dari": null,
    "PS_Male": 2,
    "PS_Female": 1,
    "PS_Total": 3,
    "ولسوالي": "گلدره",
    "Region": "Central Region"
   },
   "geometry": {
    "x": 7686024.5451210225,
    "y": 4127288.4387456086
   }
  },
  {
   "attributes": {
    "OBJECTID": 733,
    "ولایت": "کابل",
    "Province": "KABUL",
    "PC_Code": "0112546",
    "District": "Farza",
    "د_مرکز_نوم__نام_مرکز": "مسجد قلعه مقرب",
    "Polling_Center_Name": "Qala muqareb Mosque",
    "د_مرکز_ځای__موقعیت_مرکز": "بوستان",
    "Polling_Center_Location": "Bostan",
    "Map_Accuracy": "Village",
    "Map_Accuracy_Dari": "قریه",
    "Status": "Open",
    "Status_Dari": null,
    "PS_Male": 2,
    "PS_Female": 1,
    "PS_Total": 3,
    "ولسوالي": "فرزه",
    "Region": "Central Region"
   },
   "geometry": {
    "x": 7688557.0892513702,
    "y": 4133593.8955670362
   }
  },
  {
   "attributes": {
    "OBJECTID": 734,
    "ولایت": "کابل",
    "Province": "KABUL",
    "PC_Code": "0114547",
    "District": "Qarabagh",
    "د_مرکز_نوم__نام_مرکز": "لیسه السغان",
    "Polling_Center_Name": "Alas ghan High school",
    "د_مرکز_ځای__موقعیت_مرکز": "شهرک باریک آب",
    "Polling_Center_Location": "Barik ab town",
    "Map_Accuracy": "Building",
    "Map_Accuracy_Dari": "تعمیر",
    "Status": "Open",
    "Status_Dari": null,
    "PS_Male": 2,
    "PS_Female": 1,
    "PS_Total": 3,
    "ولسوالي": "قره باغ",
    "Region": "Central Region"
   },
   "geometry": {
    "x": 7708927.5372705627,
    "y": 4139979.4957629936
   }
  },
  {
   "attributes": {
    "OBJECTID": 735,
    "ولایت": "پنجشیر",
    "Province": "PANJSHIR",
    "PC_Code": "0807066",
    "District": "PARYAN",
    "د_مرکز_نوم__نام_مرکز": "مسجد بالای کوچه",
    "Polling_Center_Name": "Balaye Kucha Mosque ",
    "د_مرکز_ځای__موقعیت_مرکز": "کرپیتاب",
    "Polling_Center_Location": "Karpitab",
    "Map_Accuracy": "Village",
    "Map_Accuracy_Dari": "قریه",
    "Status": "Open",
    "Status_Dari": null,
    "PS_Male": 3,
    "PS_Female": 0,
    "PS_Total": 3,
    "ولسوالي": "پریان",
    "Region": "Central Region"
   },
   "geometry": {
    "x": 7803034.7739996519,
    "y": 4258872.4588449514
   }
  },
  {
   "attributes": {
    "OBJECTID": 736,
    "ولایت": "ننگرهار",
    "Province": "NANGARHAR",
    "PC_Code": "0616520",
    "District": "SHINWAR",
    "د_مرکز_نوم__نام_مرکز": "لیسه مار کو",
    "Polling_Center_Name": "Marko High school",
    "د_مرکز_ځای__موقعیت_مرکز": "مارکو",
    "Polling_Center_Location": "Marko",
    "Map_Accuracy": "Building",
    "Map_Accuracy_Dari": "تعمیر",
    "Status": "Open",
    "Status_Dari": null,
    "PS_Male": 2,
    "PS_Female": 1,
    "PS_Total": 3,
    "ولسوالي": "شینوار",
    "Region": "Eastern Region"
   },
   "geometry": {
    "x": 7882374.1729389243,
    "y": 4062418.2004004871
   }
  },
  {
   "attributes": {
    "OBJECTID": 737,
    "ولایت": "ننگرهار",
    "Province": "NANGARHAR",
    "PC_Code": "0622521",
    "District": "DUR BABA",
    "د_مرکز_نوم__نام_مرکز": "انځرکلی منځنی ښوونځی",
    "Polling_Center_Name": "Anjeer village Secondary school",
    "د_مرکز_ځای__موقعیت_مرکز": "انځرکلی",
    "Polling_Center_Location": "Ageer village",
    "Map_Accuracy": "Building",
    "Map_Accuracy_Dari": "تعمیر",
    "Status": "Open",
    "Status_Dari": null,
    "PS_Male": 2,
    "PS_Female": 1,
    "PS_Total": 3,
    "ولسوالي": "د\u064Fر بابا",
    "Region": "Eastern Region"
   },
   "geometry": {
    "x": 7896236.5019231243,
    "y": 4042313.6882688496
   }
  },
  {
   "attributes": {
    "OBJECTID": 738,
    "ولایت": "لغمان",
    "Province": "LAGHMAN",
    "PC_Code": "0702130",
    "District": "QARGHAYEE",
    "د_مرکز_نوم__نام_مرکز": "گل غوتدی مکتب",
    "Polling_Center_Name": "Gul ghondi School",
    "د_مرکز_ځای__موقعیت_مرکز": "چپه دره",
    "Polling_Center_Location": "Chapa dara",
    "Map_Accuracy": "Building",
    "Map_Accuracy_Dari": "تعمیر",
    "Status": "Open",
    "Status_Dari": null,
    "PS_Male": 3,
    "PS_Female": 2,
    "PS_Total": 5,
    "ولسوالي": "قرغه ئی",
    "Region": "Eastern Region"
   },
   "geometry": {
    "x": 7833306.9386624843,
    "y": 4094694.8414492081
   }
  },
  {
   "attributes": {
    "OBJECTID": 739,
    "ولایت": "پنجشیر",
    "Province": "PANJSHIR",
    "PC_Code": "0806104",
    "District": "SHUTUL",
    "د_مرکز_نوم__نام_مرکز": "مسجد استوفالو",
    "Polling_Center_Name": "Estofalo Mosque",
    "د_مرکز_ځای__موقعیت_مرکز": "استوفالو",
    "Polling_Center_Location": "Astofalo",
    "Map_Accuracy": "Building",
    "Map_Accuracy_Dari": "تعمیر",
    "Status": "Open",
    "Status_Dari": null,
    "PS_Male": 2,
    "PS_Female": 1,
    "PS_Total": 3,
    "ولسوالي": "ش\u064Fتل",
    "Region": "Central Region"
   },
   "geometry": {
    "x": 7715347.6486746017,
    "y": 4197525.7353250543
   }
  },
  {
   "attributes": {
    "OBJECTID": 740,
    "ولایت": "پنجشیر",
    "Province": "PANJSHIR",
    "PC_Code": "0806105",
    "District": "SHUTUL",
    "د_مرکز_نوم__نام_مرکز": "مسجد سنگ لخشان",
    "Polling_Center_Name": "Sang lakhshan Mosque",
    "د_مرکز_ځای__موقعیت_مرکز": "سنگ لخشان",
    "Polling_Center_Location": "Sang lakhshan",
    "Map_Accuracy": "Building",
    "Map_Accuracy_Dari": "تعمیر",
    "Status": "Open",
    "Status_Dari": null,
    "PS_Male": 2,
    "PS_Female": 1,
    "PS_Total": 3,
    "ولسوالي": "ش\u064Fتل",
    "Region": "Central Region"
   },
   "geometry": {
    "x": 7713607.3491075803,
    "y": 4194802.3440344697
   }
  },
  {
   "attributes": {
    "OBJECTID": 741,
    "ولایت": "بغلان",
    "Province": "BAGHLAN",
    "PC_Code": "0905272",
    "District": "BAGLAN-E-JADEED",
    "د_مرکز_نوم__نام_مرکز": "مسجد ملاخیل ",
    "Polling_Center_Name": "Mualah khil Mosque",
    "د_مرکز_ځای__موقعیت_مرکز": "ملا خیل",
    "Polling_Center_Location": "Mulah khil",
    "Map_Accuracy": "Building",
    "Map_Accuracy_Dari": "تعمیر",
    "Status": "Open",
    "Status_Dari": null,
    "PS_Male": 2,
    "PS_Female": 1,
    "PS_Total": 3,
    "ولسوالي": "بغلان جدید",
    "Region": "North Eastern Region"
   },
   "geometry": {
    "x": 7653047.4510832271,
    "y": 4329402.5620186655
   }
  },
  {
   "attributes": {
    "OBJECTID": 742,
    "ولایت": "باميان",
    "Province": "BAMYAN",
    "PC_Code": "1005175",
    "District": "Yakawlang",
    "د_مرکز_نوم__نام_مرکز": "لیسه نسوان سوختگی دره چاشت",
    "Polling_Center_Name": "Dara chasht sokhtagi Femal high school",
    "د_مرکز_ځای__موقعیت_مرکز": "سرک سوختگی",
    "Polling_Center_Location": "Sarak sokhtagi",
    "Map_Accuracy": "Building",
    "Map_Accuracy_Dari": "تعمیر",
    "Status": "Open",
    "Status_Dari": null,
    "PS_Male": 2,
    "PS_Female": 1,
    "PS_Total": 3,
    "ولسوالي": "یکاولنگ",
    "Region": "Central Highlands Region"
   },
   "geometry": {
    "x": 7424177.3222603425,
    "y": 4145200.6029529083
   }
  },
  {
   "attributes": {
    "OBJECTID": 743,
    "ولایت": "باميان",
    "Province": "BAMYAN",
    "PC_Code": "1006183",
    "District": "PANJAB",
    "د_مرکز_نوم__نام_مرکز": "مکتب متوسطه قلعه عاشور",
    "Polling_Center_Name": "Qala ashor Secondary school",
    "د_مرکز_ځای__موقعیت_مرکز": "دهن سبزچوبک",
    "Polling_Center_Location": "Dahan sabz chobak",
    "Map_Accuracy": "Village",
    "Map_Accuracy_Dari": "قریه",
    "Status": "Open",
    "Status_Dari": null,
    "PS_Male": 2,
    "PS_Female": 1,
    "PS_Total": 3,
    "ولسوالي": "پنجاب",
    "Region": "Central Highlands Region"
   },
   "geometry": {
    "x": 7457250.5377841294,
    "y": 4089006.0772029203
   }
  },
  {
   "attributes": {
    "OBJECTID": 744,
    "ولایت": "ننگرهار",
    "Province": "NANGARHAR",
    "PC_Code": "0601013",
    "District": "JALALABAD",
    "د_مرکز_نوم__نام_مرکز": "نجم الجهاد لیسه",
    "Polling_Center_Name": "Najmul Jihad High School",
    "د_مرکز_ځای__موقعیت_مرکز": "شپږمه ناحیه",
    "Polling_Center_Location": "D06-Nahia 6",
    "Map_Accuracy": "Building",
    "Map_Accuracy_Dari": "تعمیر",
    "Status": "Open",
    "Status_Dari": null,
    "PS_Male": 3,
    "PS_Female": 2,
    "PS_Total": 5,
    "ولسوالي": "جلال آباد",
    "Region": "Eastern Region"
   },
   "geometry": {
    "x": 7840231.7365702642,
    "y": 4077764.2082411614
   }
  },
  {
   "attributes": {
    "OBJECTID": 745,
    "ولایت": "ننگرهار",
    "Province": "NANGARHAR",
    "PC_Code": "0601040",
    "District": "JALALABAD",
    "د_مرکز_نوم__نام_مرکز": "انګور باغ جامع جومات",
    "Polling_Center_Name": "Angoor Bagh Jame Mosque",
    "د_مرکز_ځای__موقعیت_مرکز": "دویمه ناحیه",
    "Polling_Center_Location": "D02-Nahia 2",
    "Map_Accuracy": "Building",
    "Map_Accuracy_Dari": "تعمیر",
    "Status": "Open",
    "Status_Dari": null,
    "PS_Male": 3,
    "PS_Female": 2,
    "PS_Total": 5,
    "ولسوالي": "جلال آباد",
    "Region": "Eastern Region"
   },
   "geometry": {
    "x": 7843334.0073979637,
    "y": 4084728.2188120377
   }
  },
  {
   "attributes": {
    "OBJECTID": 746,
    "ولایت": "ننگرهار",
    "Province": "NANGARHAR",
    "PC_Code": "0601044",
    "District": "JALALABAD",
    "د_مرکز_نوم__نام_مرکز": "مياعمر مکتب",
    "Polling_Center_Name": "Mia Umar School",
    "د_مرکز_ځای__موقعیت_مرکز": "دویمه ناحیه",
    "Polling_Center_Location": "D02-Nahia 2",
    "Map_Accuracy": "Building",
    "Map_Accuracy_Dari": "تعمیر",
    "Status": "Open",
    "Status_Dari": null,
    "PS_Male": 0,
    "PS_Female": 7,
    "PS_Total": 7,
    "ولسوالي": "جلال آباد",
    "Region": "Eastern Region"
   },
   "geometry": {
    "x": 7842713.3913293583,
    "y": 4085321.5421691462
   }
  },
  {
   "attributes": {
    "OBJECTID": 747,
    "ولایت": "پکتيا",
    "Province": "PAKTYA",
    "PC_Code": "1312222",
    "District": "LAJA MANGAL",
    "د_مرکز_نوم__نام_مرکز": "للک کهول مدرسه",
    "Polling_Center_Name": "Lalak kahol Madrasa ",
    "د_مرکز_ځای__موقعیت_مرکز": "لعلک کلی",
    "Polling_Center_Location": "Lalak village",
    "Map_Accuracy": "Building",
    "Map_Accuracy_Dari": "تعمیر",
    "Status": "Open",
    "Status_Dari": null,
    "PS_Male": 2,
    "PS_Female": 1,
    "PS_Total": 3,
    "ولسوالي": "لجه منگل",
    "Region": "South Eastern Region"
   },
   "geometry": {
    "x": 7751094.5862673158,
    "y": 3993232.5345813455
   }
  },
  {
   "attributes": {
    "OBJECTID": 748,
    "ولایت": "پکتيا",
    "Province": "PAKTYA",
    "PC_Code": "1312223",
    "District": "LAJA MANGAL",
    "د_مرکز_نوم__نام_مرکز": "دودی مسجد",
    "Polling_Center_Name": "Dodai Mosque",
    "د_مرکز_ځای__موقعیت_مرکز": "کوزه ډوډه",
    "Polling_Center_Location": "Koza doda",
    "Map_Accuracy": "Building",
    "Map_Accuracy_Dari": "تعمیر",
    "Status": "Open",
    "Status_Dari": null,
    "PS_Male": 2,
    "PS_Female": 1,
    "PS_Total": 3,
    "ولسوالي": "لجه منگل",
    "Region": "South Eastern Region"
   },
   "geometry": {
    "x": 7756091.7927930821,
    "y": 4002520.9921469036
   }
  },
  {
   "attributes": {
    "OBJECTID": 749,
    "ولایت": "خوست",
    "Province": "KHOST",
    "PC_Code": "1401176",
    "District": "KHOST",
    "د_مرکز_نوم__نام_مرکز": "شمل ګډه خاره حسن کوټ مکتب",
    "Polling_Center_Name": "Hasan kot School",
    "د_مرکز_ځای__موقعیت_مرکز": "مرکز",
    "Polling_Center_Location": "Center",
    "Map_Accuracy": "Building",
    "Map_Accuracy_Dari": "تعمیر",
    "Status": "Open",
    "Status_Dari": null,
    "PS_Male": 2,
    "PS_Female": 1,
    "PS_Total": 3,
    "ولسوالي": "( خوست(متون",
    "Region": "South Eastern Region"
   },
   "geometry": {
    "x": 7796697.1605796823,
    "y": 3937896.9988325052
   }
  },
  {
   "attributes": {
    "OBJECTID": 750,
    "ولایت": "ننگرهار",
    "Province": "NANGARHAR",
    "PC_Code": "0606188",
    "District": "KUZ KUNAR",
    "د_مرکز_نوم__نام_مرکز": "زرګران کلي جومات",
    "Polling_Center_Name": "Zargaran Village Mosque",
    "د_مرکز_ځای__موقعیت_مرکز": "زرګران کلي",
    "Polling_Center_Location": "Zargaran Village",
    "Map_Accuracy": "Building",
    "Map_Accuracy_Dari": "تعمیر",
    "Status": "Open",
    "Status_Dari": null,
    "PS_Male": 2,
    "PS_Female": 1,
    "PS_Total": 3,
    "ولسوالي": "کوز کنړ",
    "Region": "Eastern Region"
   },
   "geometry": {
    "x": 7857034.3460402712,
    "y": 4105517.1832330949
   }
  },
  {
   "attributes": {
    "OBJECTID": 751,
    "ولایت": "تخار",
    "Province": "TAKHAR",
    "PC_Code": "1803204",
    "District": "BAHARAK",
    "د_مرکز_نوم__نام_مرکز": "لیسه قاضی عنایت الله",
    "Polling_Center_Name": "Qazi enayaht ullah High School",
    "د_مرکز_ځای__موقعیت_مرکز": "شش بند",
    "Polling_Center_Location": "Shash band",
    "Map_Accuracy": "Village",
    "Map_Accuracy_Dari": "قریه",
    "Status": "Open",
    "Status_Dari": null,
    "PS_Male": 2,
    "PS_Female": 1,
    "PS_Total": 3,
    "ولسوالي": "بهارک",
    "Region": "North Eastern Region"
   },
   "geometry": {
    "x": 7729814.1246766625,
    "y": 4408539.7439641487
   }
  },
  {
   "attributes": {
    "OBJECTID": 752,
    "ولایت": "تخار",
    "Province": "TAKHAR",
    "PC_Code": "1806205",
    "District": "NAMAK AB",
    "د_مرکز_نوم__نام_مرکز": "مکتب ابتدایه",
    "Polling_Center_Name": "Primary School",
    "د_مرکز_ځای__موقعیت_مرکز": "تاش یلاق",
    "Polling_Center_Location": "Tash yalaq",
    "Map_Accuracy": "Building",
    "Map_Accuracy_Dari": "تعمیر",
    "Status": "Open",
    "Status_Dari": null,
    "PS_Male": 2,
    "PS_Female": 1,
    "PS_Total": 3,
    "ولسوالي": null,
    "Region": "North Eastern Region"
   },
   "geometry": {
    "x": 7750176.5021440862,
    "y": 4379816.9325614022
   }
  },
  {
   "attributes": {
    "OBJECTID": 753,
    "ولایت": "تخار",
    "Province": "TAKHAR",
    "PC_Code": "1807206",
    "District": "KALAFGAN",
    "د_مرکز_نوم__نام_مرکز": "مکتب متوسطه امام ابوحنیفه",
    "Polling_Center_Name": "Emam abo hanifa Secondary School",
    "د_مرکز_ځای__موقعیت_مرکز": "خرقان،خیاردره",
    "Polling_Center_Location": "Kharqan khiar dara",
    "Map_Accuracy": "Building",
    "Map_Accuracy_Dari": "تعمیر",
    "Status": "Open",
    "Status_Dari": null,
    "PS_Male": 2,
    "PS_Female": 1,
    "PS_Total": 3,
    "ولسوالي": "کلفگان",
    "Region": "North Eastern Region"
   },
   "geometry": {
    "x": 7781752.7891130922,
    "y": 4420013.9070309885
   }
  },
  {
   "attributes": {
    "OBJECTID": 754,
    "ولایت": "تخار",
    "Province": "TAKHAR",
    "PC_Code": "1807207",
    "District": "KALAFGAN",
    "د_مرکز_نوم__نام_مرکز": "مکتب ابتدایه",
    "Polling_Center_Name": "Primary School",
    "د_مرکز_ځای__موقعیت_مرکز": "گرم سیر",
    "Polling_Center_Location": "Garm sir",
    "Map_Accuracy": "Building",
    "Map_Accuracy_Dari": "تعمیر",
    "Status": "Open",
    "Status_Dari": null,
    "PS_Male": 2,
    "PS_Female": 1,
    "PS_Total": 3,
    "ولسوالي": "کلفگان",
    "Region": "North Eastern Region"
   },
   "geometry": {
    "x": 7789413.18988958,
    "y": 4427550.6910914797
   }
  },
  {
   "attributes": {
    "OBJECTID": 755,
    "ولایت": "تخار",
    "Province": "TAKHAR",
    "PC_Code": "1808208",
    "District": "FARKHAR",
    "د_مرکز_نوم__نام_مرکز": "مکتب متوسطه",
    "Polling_Center_Name": "Secondary School",
    "د_مرکز_ځای__موقعیت_مرکز": "کشکتان",
    "Polling_Center_Location": "Kashkatan",
    "Map_Accuracy": "Building",
    "Map_Accuracy_Dari": "تعمیر",
    "Status": "Open",
    "Status_Dari": null,
    "PS_Male": 2,
    "PS_Female": 1,
    "PS_Total": 3,
    "ولسوالي": "فرخار",
    "Region": "North Eastern Region"
   },
   "geometry": {
    "x": 7764526.3083066698,
    "y": 4387765.626172334
   }
  },
  {
   "attributes": {
    "OBJECTID": 756,
    "ولایت": "سرپل",
    "Province": "SAR-E-PUL",
    "PC_Code": "2203137",
    "District": "KOHISTANAT",
    "د_مرکز_نوم__نام_مرکز": "مسجد حاجی طاهر",
    "Polling_Center_Name": "Haji zaher Mosque",
    "د_مرکز_ځای__موقعیت_مرکز": "گنجی ها",
    "Polling_Center_Location": "Kunji ha",
    "Map_Accuracy": "Village",
    "Map_Accuracy_Dari": "قریه",
    "Status": "Open",
    "Status_Dari": null,
    "PS_Male": 2,
    "PS_Female": 1,
    "PS_Total": 3,
    "ولسوالي": "کوهستانات",
    "Region": "Northern Region"
   },
   "geometry": {
    "x": 7334496.4451516327,
    "y": 4271005.2109736558
   }
  },
  {
   "attributes": {
    "OBJECTID": 757,
    "ولایت": "سرپل",
    "Province": "SAR-E-PUL",
    "PC_Code": "2203138",
    "District": "KOHISTANAT",
    "د_مرکز_نوم__نام_مرکز": "مسجد",
    "Polling_Center_Name": "Mosque",
    "د_مرکز_ځای__موقعیت_مرکز": "خمیده",
    "Polling_Center_Location": "Khamida",
    "Map_Accuracy": "Village",
    "Map_Accuracy_Dari": "قریه",
    "Status": "Open",
    "Status_Dari": null,
    "PS_Male": 2,
    "PS_Female": 1,
    "PS_Total": 3,
    "ولسوالي": "کوهستانات",
    "Region": "Northern Region"
   },
   "geometry": {
    "x": 7328874.4025466759,
    "y": 4229167.1752616959
   }
  },
  {
   "attributes": {
    "OBJECTID": 758,
    "ولایت": "زابل",
    "Province": "ZABUL",
    "PC_Code": "2601048",
    "District": "QALAT",
    "د_مرکز_نوم__نام_مرکز": "پوسته امنیتی بارکزی",
    "Polling_Center_Name": "Barak zai Check post",
    "د_مرکز_ځای__موقعیت_مرکز": "میرانزائی،خرجوی",
    "Polling_Center_Location": "Miranzaie kharjoi",
    "Map_Accuracy": "Village",
    "Map_Accuracy_Dari": "قریه",
    "Status": "Open",
    "Status_Dari": null,
    "PS_Male": 2,
    "PS_Female": 1,
    "PS_Total": 3,
    "ولسوالي": "قلات",
    "Region": "Southern Region"
   },
   "geometry": {
    "x": 7474333.5112916343,
    "y": 3798735.685331841
   }
  },
  {
   "attributes": {
    "OBJECTID": 759,
    "ولایت": "زابل",
    "Province": "ZABUL",
    "PC_Code": "2601049",
    "District": "QALAT",
    "د_مرکز_نوم__نام_مرکز": "مسجد نوخیز",
    "Polling_Center_Name": "Naw khiz Mosque",
    "د_مرکز_ځای__موقعیت_مرکز": "نوخیز",
    "Polling_Center_Location": "Naw khiz",
    "Map_Accuracy": "Building",
    "Map_Accuracy_Dari": "تعمیر",
    "Status": "Open",
    "Status_Dari": null,
    "PS_Male": 2,
    "PS_Female": 1,
    "PS_Total": 3,
    "ولسوالي": "قلات",
    "Region": "Southern Region"
   },
   "geometry": {
    "x": 7436049.6725237025,
    "y": 3775300.8513141018
   }
  },
  {
   "attributes": {
    "OBJECTID": 760,
    "ولایت": "فارياب",
    "Province": "FARYAB",
    "PC_Code": "2901209",
    "District": "MAIMANA",
    "د_مرکز_نوم__نام_مرکز": "مکتب متوسطه دولت کپتان",
    "Polling_Center_Name": "Dawlat keptan Secondary school",
    "د_مرکز_ځای__موقعیت_مرکز": "قتور",
    "Polling_Center_Location": "Qatoor",
    "Map_Accuracy": "District",
    "Map_Accuracy_Dari": "ولسوالی",
    "Status": "Open",
    "Status_Dari": null,
    "PS_Male": 3,
    "PS_Female": 1,
    "PS_Total": 4,
    "ولسوالي": "میمنه",
    "Region": "Northern Region"
   },
   "geometry": {
    "x": 7212278.569600719,
    "y": 4288917.6820338834
   }
  },
  {
   "attributes": {
    "OBJECTID": 761,
    "ولایت": "بادغيس",
    "Province": "BADGHIS",
    "PC_Code": "3106195",
    "District": "JAWAND",
    "د_مرکز_نوم__نام_مرکز": "فضای آزاد",
    "Polling_Center_Name": "Open Field",
    "د_مرکز_ځای__موقعیت_مرکز": "سر خاص",
    "Polling_Center_Location": "Sar khas",
    "Map_Accuracy": "Building",
    "Map_Accuracy_Dari": "تعمیر",
    "Status": "Open",
    "Status_Dari": null,
    "PS_Male": 2,
    "PS_Female": 1,
    "PS_Total": 3,
    "ولسوالي": "جوند",
    "Region": "Western Region"
   },
   "geometry": {
    "x": 7181672.0919129336,
    "y": 4182396.9322526264
   }
  },
  {
   "attributes": {
    "OBJECTID": 762,
    "ولایت": "بادغيس",
    "Province": "BADGHIS",
    "PC_Code": "3106196",
    "District": "JAWAND",
    "د_مرکز_نوم__نام_مرکز": "مسجد گوساله دانک",
    "Polling_Center_Name": "Gosala danak Mosque",
    "د_مرکز_ځای__موقعیت_مرکز": "گوساله دانک",
    "Polling_Center_Location": "Gosala danak",
    "Map_Accuracy": "Building",
    "Map_Accuracy_Dari": "تعمیر",
    "Status": "Open",
    "Status_Dari": null,
    "PS_Male": 2,
    "PS_Female": 1,
    "PS_Total": 3,
    "ولسوالي": "جوند",
    "Region": "Western Region"
   },
   "geometry": {
    "x": 7167413.8448070185,
    "y": 4171420.0514290971
   }
  },
  {
   "attributes": {
    "OBJECTID": 763,
    "ولایت": "بادغيس",
    "Province": "BADGHIS",
    "PC_Code": "3106197",
    "District": "JAWAND",
    "د_مرکز_نوم__نام_مرکز": " مسجد گل زیری پاین",
    "Polling_Center_Name": "Gul zirai paien Mosque",
    "د_مرکز_ځای__موقعیت_مرکز": "گل زیری پاین",
    "Polling_Center_Location": "Gul zirai pahien",
    "Map_Accuracy": "Building",
    "Map_Accuracy_Dari": "تعمیر",
    "Status": "Open",
    "Status_Dari": null,
    "PS_Male": 2,
    "PS_Female": 1,
    "PS_Total": 3,
    "ولسوالي": "جوند",
    "Region": "Western Region"
   },
   "geometry": {
    "x": 7137464.5387275033,
    "y": 4144778.1759672598
   }
  },
  {
   "attributes": {
    "OBJECTID": 764,
    "ولایت": "هرات",
    "Province": "HERAT",
    "PC_Code": "3202476",
    "District": "ENJIL",
    "د_مرکز_نوم__نام_مرکز": " ليسه چونگر",
    "Polling_Center_Name": "Chongar High school",
    "د_مرکز_ځای__موقعیت_مرکز": "چونگر",
    "Polling_Center_Location": "Chongar",
    "Map_Accuracy": "Building",
    "Map_Accuracy_Dari": "تعمیر",
    "Status": "Open",
    "Status_Dari": null,
    "PS_Male": 2,
    "PS_Female": 1,
    "PS_Total": 3,
    "ولسوالي": "انجیل",
    "Region": "Western Region"
   },
   "geometry": {
    "x": 6931679.5787385469,
    "y": 4069579.4715294577
   }
  },
  {
   "attributes": {
    "OBJECTID": 765,
    "ولایت": "هرات",
    "Province": "HERAT",
    "PC_Code": "3205478",
    "District": "ZENDAJAN",
    "د_مرکز_نوم__نام_مرکز": "مکتب قلعه یادگار",
    "Polling_Center_Name": "Qala yadgar School",
    "د_مرکز_ځای__موقعیت_مرکز": "يادگار",
    "Polling_Center_Location": "Yadgar",
    "Map_Accuracy": "Building",
    "Map_Accuracy_Dari": "تعمیر",
    "Status": "Open",
    "Status_Dari": null,
    "PS_Male": 2,
    "PS_Female": 1,
    "PS_Total": 3,
    "ولسوالي": "زنده جان",
    "Region": "Western Region"
   },
   "geometry": {
    "x": 6896647.7820449825,
    "y": 4076245.0381253031
   }
  },
  {
   "attributes": {
    "OBJECTID": 766,
    "ولایت": "هرات",
    "Province": "HERAT",
    "PC_Code": "3209481",
    "District": "ADRASKAN",
    "د_مرکز_نوم__نام_مرکز": "مكتب ابتدائي كال يك پايه",
    "Polling_Center_Name": "Kal yak paia Promary School",
    "د_مرکز_ځای__موقعیت_مرکز": "كال يك پايه",
    "Polling_Center_Location": "Kal yak paia",
    "Map_Accuracy": "Building",
    "Map_Accuracy_Dari": "تعمیر",
    "Status": "Open",
    "Status_Dari": null,
    "PS_Male": 2,
    "PS_Female": 1,
    "PS_Total": 3,
    "ولسوالي": "ادرسکن",
    "Region": "Western Region"
   },
   "geometry": {
    "x": 6932932.204648287,
    "y": 3988668.3178422092
   }
  },
  {
   "attributes": {
    "OBJECTID": 767,
    "ولایت": "هرات",
    "Province": "HERAT",
    "PC_Code": "3203084",
    "District": "GUZARA",
    "د_مرکز_نوم__نام_مرکز": "مدرسه شهرک خاتم الانبیاء",
    "Polling_Center_Name": "Khatamul Anbeya Madrassa",
    "د_مرکز_ځای__موقعیت_مرکز": "شهرک خاتم الانبیاء",
    "Polling_Center_Location": "Shahrak-e- Khatamul Anbeya ",
    "Map_Accuracy": "Building",
    "Map_Accuracy_Dari": "تعمیر",
    "Status": "Open",
    "Status_Dari": null,
    "PS_Male": 2,
    "PS_Female": 1,
    "PS_Total": 3,
    "ولسوالي": "گذره",
    "Region": "Western Region"
   },
   "geometry": {
    "x": 6927263.9495378435,
    "y": 4064026.7711376627
   }
  },
  {
   "attributes": {
    "OBJECTID": 768,
    "ولایت": "هرات",
    "Province": "HERAT",
    "PC_Code": "3203085",
    "District": "GUZARA",
    "د_مرکز_نوم__نام_مرکز": "لیسه خواجه شهاب",
    "Polling_Center_Name": "Khwaja Shahab High School",
    "د_مرکز_ځای__موقعیت_مرکز": "قریه فیروز آباد",
    "Polling_Center_Location": "Feroz Abad Village ",
    "Map_Accuracy": "Building",
    "Map_Accuracy_Dari": "تعمیر",
    "Status": "Open",
    "Status_Dari": null,
    "PS_Male": 1,
    "PS_Female": 1,
    "PS_Total": 2,
    "ولسوالي": "گذره",
    "Region": "Western Region"
   },
   "geometry": {
    "x": 6929682.0281772679,
    "y": 4061393.5113788676
   }
  },
  {
   "attributes": {
    "OBJECTID": 769,
    "ولایت": "هرات",
    "Province": "HERAT",
    "PC_Code": "3201018",
    "District": "HERAT",
    "د_مرکز_نوم__نام_مرکز": "مسجد جامع کبیر برامان",
    "Polling_Center_Name": "Kabeer Buraman Mosque",
    "د_مرکز_ځای__موقعیت_مرکز": "ناحیه هفتم",
    "Polling_Center_Location": "D07 - Nahia 7",
    "Map_Accuracy": "Building",
    "Map_Accuracy_Dari": "تعمیر",
    "Status": "Open",
    "Status_Dari": null,
    "PS_Male": 4,
    "PS_Female": 5,
    "PS_Total": 9,
    "ولسوالي": "هرات",
    "Region": "Western Region"
   },
   "geometry": {
    "x": 6921655.6580069466,
    "y": 4075507.2142277556
   }
  },
  {
   "attributes": {
    "OBJECTID": 770,
    "ولایت": "هرات",
    "Province": "HERAT",
    "PC_Code": "3201019",
    "District": "HERAT",
    "د_مرکز_نوم__نام_مرکز": "لیسه پایین آب",
    "Polling_Center_Name": "Paeen Aab School",
    "د_مرکز_ځای__موقعیت_مرکز": "ناحیه دهم ",
    "Polling_Center_Location": "D07 - Nahia 7",
    "Map_Accuracy": "Building",
    "Map_Accuracy_Dari": "تعمیر",
    "Status": "Open",
    "Status_Dari": null,
    "PS_Male": 3,
    "PS_Female": 4,
    "PS_Total": 7,
    "ولسوالي": "هرات",
    "Region": "Western Region"
   },
   "geometry": {
    "x": 6921034.1445919238,
    "y": 4073454.1207493739
   }
  },
  {
   "attributes": {
    "OBJECTID": 771,
    "ولایت": "کابل",
    "Province": "KABUL",
    "PC_Code": "0101526",
    "District": "Nahia_15",
    "د_مرکز_نوم__نام_مرکز": "مسجد اقصی",
    "Polling_Center_Name": "Aqsa Mosque",
    "د_مرکز_ځای__موقعیت_مرکز": "ناحیه 15",
    "Polling_Center_Location": "District-15",
    "Map_Accuracy": "Building",
    "Map_Accuracy_Dari": "تعمیر",
    "Status": "Open",
    "Status_Dari": null,
    "PS_Male": 2,
    "PS_Female": 1,
    "PS_Total": 3,
    "ولسوالي": "ناحیه_15",
    "Region": "Central Region"
   },
   "geometry": {
    "x": 7698529.1533566583,
    "y": 4106915.6331873662
   }
  },
  {
   "attributes": {
    "OBJECTID": 772,
    "ولایت": "کابل",
    "Province": "KABUL",
    "PC_Code": "0101527",
    "District": "Nahia_15",
    "د_مرکز_نوم__نام_مرکز": "مسجد آل محمد",
    "Polling_Center_Name": "Al muhammad Mosque",
    "د_مرکز_ځای__موقعیت_مرکز": "ناحیه 15",
    "Polling_Center_Location": "District-15",
    "Map_Accuracy": "Building",
    "Map_Accuracy_Dari": "تعمیر",
    "Status": "Open",
    "Status_Dari": null,
    "PS_Male": 2,
    "PS_Female": 1,
    "PS_Total": 3,
    "ولسوالي": "ناحیه_15",
    "Region": "Central Region"
   },
   "geometry": {
    "x": 7700093.1097145602,
    "y": 4105540.5719362036
   }
  },
  {
   "attributes": {
    "OBJECTID": 773,
    "ولایت": "کابل",
    "Province": "KABUL",
    "PC_Code": "0110353",
    "District": "KALAKAN",
    "د_مرکز_نوم__نام_مرکز": " مکتب سواد حياتي",
    "Polling_Center_Name": "Sawad Hayati School",
    "د_مرکز_ځای__موقعیت_مرکز": "سعيد آباد",
    "Polling_Center_Location": "Saied Abad",
    "Map_Accuracy": "Building",
    "Map_Accuracy_Dari": "تعمیر",
    "Status": "Open",
    "Status_Dari": null,
    "PS_Male": 2,
    "PS_Female": 1,
    "PS_Total": 3,
    "ولسوالي": "کلکان",
    "Region": "Central Region"
   },
   "geometry": {
    "x": 7695284.9486197261,
    "y": 4135866.9475039821
   }
  },
  {
   "attributes": {
    "OBJECTID": 774,
    "ولایت": "کابل",
    "Province": "KABUL",
    "PC_Code": "0111385",
    "District": "GULDARA",
    "د_مرکز_نوم__نام_مرکز": "مکتب ده عربان",
    "Polling_Center_Name": "Deh-e-Araban Mosque",
    "د_مرکز_ځای__موقعیت_مرکز": "ده عربان",
    "Polling_Center_Location": "Deh Araban",
    "Map_Accuracy": "Building",
    "Map_Accuracy_Dari": "تعمیر",
    "Status": "Open",
    "Status_Dari": null,
    "PS_Male": 2,
    "PS_Female": 2,
    "PS_Total": 4,
    "ولسوالي": "گلدره",
    "Region": "Central Region"
   },
   "geometry": {
    "x": 7684194.559559091,
    "y": 4129778.6457348871
   }
  },
  {
   "attributes": {
    "OBJECTID": 775,
    "ولایت": "کابل",
    "Province": "KABUL",
    "PC_Code": "0112345",
    "District": "FARZA",
    "د_مرکز_نوم__نام_مرکز": "لیسه ذکور فرزه",
    "Polling_Center_Name": "Farza Boys High School",
    "د_مرکز_ځای__موقعیت_مرکز": "پايان ده",
    "Polling_Center_Location": "Payan Deh",
    "Map_Accuracy": "Building",
    "Map_Accuracy_Dari": "تعمیر",
    "Status": "Open",
    "Status_Dari": null,
    "PS_Male": 3,
    "PS_Female": 2,
    "PS_Total": 5,
    "ولسوالي": "فرزه",
    "Region": "Central Region"
   },
   "geometry": {
    "x": 7687910.2661256017,
    "y": 4136005.6820845534
   }
  },
  {
   "attributes": {
    "OBJECTID": 776,
    "ولایت": "کابل",
    "Province": "KABUL",
    "PC_Code": "0112347",
    "District": "FARZA",
    "د_مرکز_نوم__نام_مرکز": "مسجد مير افغان",
    "Polling_Center_Name": "Mir Afghan Mosque",
    "د_مرکز_ځای__موقعیت_مرکز": "قلعه مير افغان",
    "Polling_Center_Location": "Qala-e-Mir Afghan",
    "Map_Accuracy": "Building",
    "Map_Accuracy_Dari": "تعمیر",
    "Status": "Open",
    "Status_Dari": null,
    "PS_Male": 1,
    "PS_Female": 1,
    "PS_Total": 2,
    "ولسوالي": "فرزه",
    "Region": "Central Region"
   },
   "geometry": {
    "x": 7688065.6391916834,
    "y": 4136780.2673564316
   }
  },
  {
   "attributes": {
    "OBJECTID": 777,
    "ولایت": "کابل",
    "Province": "KABUL",
    "PC_Code": "0112348",
    "District": "FARZA",
    "د_مرکز_نوم__نام_مرکز": " مسجد سرخان خیل",
    "Polling_Center_Name": "Sarkhan Khel Mosque",
    "د_مرکز_ځای__موقعیت_مرکز": "سرخان خيل",
    "Polling_Center_Location": "Sar Khan Khel",
    "Map_Accuracy": "Building",
    "Map_Accuracy_Dari": "تعمیر",
    "Status": "Open",
    "Status_Dari": null,
    "PS_Male": 1,
    "PS_Female": 1,
    "PS_Total": 2,
    "ولسوالي": "فرزه",
    "Region": "Central Region"
   },
   "geometry": {
    "x": 7685624.1422709757,
    "y": 4135212.7187886084
   }
  },
  {
   "attributes": {
    "OBJECTID": 778,
    "ولایت": "کابل",
    "Province": "KABUL",
    "PC_Code": "0114361",
    "District": "QARA BAGH",
    "د_مرکز_نوم__نام_مرکز": " مکتب متوسطه باغ عارق",
    "Polling_Center_Name": "Bagh-e-Ariq Secondary School",
    "د_مرکز_ځای__موقعیت_مرکز": "باغ عارق",
    "Polling_Center_Location": "Bagh-e-Ariq",
    "Map_Accuracy": "Village",
    "Map_Accuracy_Dari": "قریه",
    "Status": "Open",
    "Status_Dari": null,
    "PS_Male": 1,
    "PS_Female": 1,
    "PS_Total": 2,
    "ولسوالي": "قره باغ",
    "Region": "Central Region"
   },
   "geometry": {
    "x": 7698951.1046544965,
    "y": 4139157.3479311774
   }
  },
  {
   "attributes": {
    "OBJECTID": 779,
    "ولایت": "کابل",
    "Province": "KABUL",
    "PC_Code": "0114362",
    "District": "QARA BAGH",
    "د_مرکز_نوم__نام_مرکز": " لیسه میرعلم خان",
    "Polling_Center_Name": "Mir Alam Khan High School",
    "د_مرکز_ځای__موقعیت_مرکز": "باغ زاغان",
    "Polling_Center_Location": "Bagh-e-Zaghan",
    "Map_Accuracy": "Village",
    "Map_Accuracy_Dari": "قریه",
    "Status": "Open",
    "Status_Dari": null,
    "PS_Male": 2,
    "PS_Female": 2,
    "PS_Total": 4,
    "ولسوالي": "قره باغ",
    "Region": "Central Region"
   },
   "geometry": {
    "x": 7703721.8973547472,
    "y": 4143572.8930180543
   }
  },
  {
   "attributes": {
    "OBJECTID": 780,
    "ولایت": "کابل",
    "Province": "KABUL",
    "PC_Code": "0114372",
    "District": "QARA BAGH",
    "د_مرکز_نوم__نام_مرکز": "متوسطه لنگر",
    "Polling_Center_Name": "Langar Secondary School",
    "د_مرکز_ځای__موقعیت_مرکز": "قره باغ بازار",
    "Polling_Center_Location": "Qarabagh Bazar",
    "Map_Accuracy": "Building",
    "Map_Accuracy_Dari": "تعمیر",
    "Status": "Open",
    "Status_Dari": null,
    "PS_Male": 2,
    "PS_Female": 2,
    "PS_Total": 4,
    "ولسوالي": "قره باغ",
    "Region": "Central Region"
   },
   "geometry": {
    "x": 7699765.0928086834,
    "y": 4144120.6917629284
   }
  },
  {
   "attributes": {
    "OBJECTID": 781,
    "ولایت": "کابل",
    "Province": "KABUL",
    "PC_Code": "0114373",
    "District": "QARA BAGH",
    "د_مرکز_نوم__نام_مرکز": "لیسه سبز سنگ",
    "Polling_Center_Name": "Sabz Sang High School",
    "د_مرکز_ځای__موقعیت_مرکز": "سبز سنگ",
    "Polling_Center_Location": "Sabz Sang",
    "Map_Accuracy": "Building",
    "Map_Accuracy_Dari": "تعمیر",
    "Status": "Open",
    "Status_Dari": null,
    "PS_Male": 3,
    "PS_Female": 3,
    "PS_Total": 6,
    "ولسوالي": "قره باغ",
    "Region": "Central Region"
   },
   "geometry": {
    "x": 7697186.0628834907,
    "y": 4138739.2991169612
   }
  },
  {
   "attributes": {
    "OBJECTID": 782,
    "ولایت": "کابل",
    "Province": "KABUL",
    "PC_Code": "0101519",
    "District": "Nahia_08",
    "د_مرکز_نوم__نام_مرکز": "مسجد سرک اول",
    "Polling_Center_Name": "Sarak Awal Mosque",
    "د_مرکز_ځای__موقعیت_مرکز": "نور محمدشاه مینه",
    "Polling_Center_Location": "Noor muhammad sha mina",
    "Map_Accuracy": "Building",
    "Map_Accuracy_Dari": "تعمیر",
    "Status": "Open",
    "Status_Dari": null,
    "PS_Male": 2,
    "PS_Female": 1,
    "PS_Total": 3,
    "ولسوالي": "ناحیه_8",
    "Region": "Central Region"
   },
   "geometry": {
    "x": 7705611.810873989,
    "y": 4097899.4171840101
   }
  },
  {
   "attributes": {
    "OBJECTID": 783,
    "ولایت": "کابل",
    "Province": "KABUL",
    "PC_Code": "0101057",
    "District": "KABUL-D04",
    "د_مرکز_نوم__نام_مرکز": " ليسه بابه نانک",
    "Polling_Center_Name": "Baba Nanak High School",
    "د_مرکز_ځای__موقعیت_مرکز": "کارته پروان",
    "Polling_Center_Location": "Kart-e-Parwan",
    "Map_Accuracy": "Village",
    "Map_Accuracy_Dari": "قریه",
    "Status": "Open",
    "Status_Dari": null,
    "PS_Male": 4,
    "PS_Female": 3,
    "PS_Total": 7,
    "ولسوالي": "کابل - ناحیه 04",
    "Region": "Central Region"
   },
   "geometry": {
    "x": 7696117.5237892931,
    "y": 4100773.0934860776
   }
  },
  {
   "attributes": {
    "OBJECTID": 784,
    "ولایت": "کابل",
    "Province": "KABUL",
    "PC_Code": "0101067",
    "District": "KABUL-D04",
    "د_مرکز_نوم__نام_مرکز": "مسجد خواجه علي موفق",
    "Polling_Center_Name": "Khwaja Ali Muafaq Mosque",
    "د_مرکز_ځای__موقعیت_مرکز": "شهر نو",
    "Polling_Center_Location": "Shahr-e-now",
    "Map_Accuracy": "Building",
    "Map_Accuracy_Dari": "تعمیر",
    "Status": "Open",
    "Status_Dari": null,
    "PS_Male": 2,
    "PS_Female": 2,
    "PS_Total": 4,
    "ولسوالي": "کابل - ناحیه 04",
    "Region": "Central Region"
   },
   "geometry": {
    "x": 7700141.0554645229,
    "y": 4100643.9086033315
   }
  },
  {
   "attributes": {
    "OBJECTID": 785,
    "ولایت": "پروان",
    "Province": "PARWAN",
    "PC_Code": "0301028",
    "District": "CHARIKAR",
    "د_مرکز_نوم__نام_مرکز": "مسجد جامع قلعه ساحل ",
    "Polling_Center_Name": "Qala-e-Sahil Mosque",
    "د_مرکز_ځای__موقعیت_مرکز": "قلعه سا حل",
    "Polling_Center_Location": "Qala-e-Sahil",
    "Map_Accuracy": "Building",
    "Map_Accuracy_Dari": "تعمیر",
    "Status": "Open",
    "Status_Dari": null,
    "PS_Male": 1,
    "PS_Female": 1,
    "PS_Total": 2,
    "ولسوالي": "چاریکار",
    "Region": "Central Region"
   },
   "geometry": {
    "x": 7705527.0505439062,
    "y": 4162889.7547345953
   }
  },
  {
   "attributes": {
    "OBJECTID": 786,
    "ولایت": "پروان",
    "Province": "PARWAN",
    "PC_Code": "0302109",
    "District": "BAGRAM",
    "د_مرکز_نوم__نام_مرکز": "لیسه قلعه بلند",
    "Polling_Center_Name": "Qala-e-Biland High School",
    "د_مرکز_ځای__موقعیت_مرکز": "قلعه بلند",
    "Polling_Center_Location": "Qala-e-Biland",
    "Map_Accuracy": "Building",
    "Map_Accuracy_Dari": "تعمیر",
    "Status": "Open",
    "Status_Dari": null,
    "PS_Male": 2,
    "PS_Female": 2,
    "PS_Total": 4,
    "ولسوالي": "بگرام ",
    "Region": "Central Region"
   },
   "geometry": {
    "x": 7713049.728182219,
    "y": 4162143.1319174347
   }
  },
  {
   "attributes": {
    "OBJECTID": 787,
    "ولایت": "پروان",
    "Province": "PARWAN",
    "PC_Code": "0302110",
    "District": "BAGRAM",
    "د_مرکز_نوم__نام_مرکز": "مسجد جامع دهن میدان ",
    "Polling_Center_Name": "Dahan-e-Maidan Mosque",
    "د_مرکز_ځای__موقعیت_مرکز": "دهن میدان ",
    "Polling_Center_Location": "Dahan-e-Maidan",
    "Map_Accuracy": "Building",
    "Map_Accuracy_Dari": "تعمیر",
    "Status": "Open",
    "Status_Dari": null,
    "PS_Male": 2,
    "PS_Female": 2,
    "PS_Total": 4,
    "ولسوالي": "بگرام ",
    "Region": "Central Region"
   },
   "geometry": {
    "x": 7707012.5504831672,
    "y": 4155015.4883364039
   }
  },
  {
   "attributes": {
    "OBJECTID": 788,
    "ولایت": "پروان",
    "Province": "PARWAN",
    "PC_Code": "0302113",
    "District": "BAGRAM",
    "د_مرکز_نوم__نام_مرکز": "مسجد ده پایان غلام علی ",
    "Polling_Center_Name": "Ghulam Ali Deh Payan Mosque",
    "د_مرکز_ځای__موقعیت_مرکز": "غلام علی ",
    "Polling_Center_Location": "Ghulam Ali",
    "Map_Accuracy": "Building",
    "Map_Accuracy_Dari": "تعمیر",
    "Status": "Open",
    "Status_Dari": null,
    "PS_Male": 2,
    "PS_Female": 2,
    "PS_Total": 4,
    "ولسوالي": "بگرام ",
    "Region": "Central Region"
   },
   "geometry": {
    "x": 7706181.4681079732,
    "y": 4157486.9047971605
   }
  },
  {
   "attributes": {
    "OBJECTID": 789,
    "ولایت": "پروان",
    "Province": "PARWAN",
    "PC_Code": "0302114",
    "District": "BAGRAM",
    "د_مرکز_نوم__نام_مرکز": "مسجد جامع ده مسکین",
    "Polling_Center_Name": "Deh Meskeen Mosque",
    "د_مرکز_ځای__موقعیت_مرکز": "ده مسکین ",
    "Polling_Center_Location": "Deh Meskeen ",
    "Map_Accuracy": "Building",
    "Map_Accuracy_Dari": "تعمیر",
    "Status": "Open",
    "Status_Dari": null,
    "PS_Male": 2,
    "PS_Female": 2,
    "PS_Total": 4,
    "ولسوالي": "بگرام ",
    "Region": "Central Region"
   },
   "geometry": {
    "x": 7699737.5334423482,
    "y": 4158423.4631489362
   }
  },
  {
   "attributes": {
    "OBJECTID": 790,
    "ولایت": "پروان",
    "Province": "PARWAN",
    "PC_Code": "0302121",
    "District": "BAGRAM",
    "د_مرکز_نوم__نام_مرکز": "لیسه شهرک مهاجرین بارک آب ",
    "Polling_Center_Name": "Shahrak-e-Muhajerin Barik Aab High School",
    "د_مرکز_ځای__موقعیت_مرکز": "شهرک مهاجرین باریک آب ",
    "Polling_Center_Location": "Shahrak-e-Muhajerin Barik Aab",
    "Map_Accuracy": "Building",
    "Map_Accuracy_Dari": "تعمیر",
    "Status": "Open",
    "Status_Dari": null,
    "PS_Male": 3,
    "PS_Female": 1,
    "PS_Total": 4,
    "ولسوالي": "بگرام ",
    "Region": "Central Region"
   },
   "geometry": {
    "x": 7715908.0820869012,
    "y": 4150142.3564355914
   }
  },
  {
   "attributes": {
    "OBJECTID": 791,
    "ولایت": "پروان",
    "Province": "PARWAN",
    "PC_Code": "0303072",
    "District": "SHINWARI",
    "د_مرکز_نوم__نام_مرکز": "مکتب تفهیم القران",
    "Polling_Center_Name": "Tafhimul Quran School ",
    "د_مرکز_ځای__موقعیت_مرکز": "قاشقال ",
    "Polling_Center_Location": "Qashqal",
    "Map_Accuracy": "Building",
    "Map_Accuracy_Dari": "تعمیر",
    "Status": "Open",
    "Status_Dari": null,
    "PS_Male": 2,
    "PS_Female": 1,
    "PS_Total": 3,
    "ولسوالي": "شینواری ",
    "Region": "Central Region"
   },
   "geometry": {
    "x": 7681735.6756471163,
    "y": 4169242.4075371367
   }
  },
  {
   "attributes": {
    "OBJECTID": 792,
    "ولایت": "پروان",
    "Province": "PARWAN",
    "PC_Code": "0305059",
    "District": "JABULUSSARAJ",
    "د_مرکز_نوم__نام_مرکز": "مسجد عسی خیل",
    "Polling_Center_Name": "Esa Khel Mosque",
    "د_مرکز_ځای__موقعیت_مرکز": "عسی خیل",
    "Polling_Center_Location": "Esa Khel",
    "Map_Accuracy": "Building",
    "Map_Accuracy_Dari": "تعمیر",
    "Status": "Open",
    "Status_Dari": null,
    "PS_Male": 2,
    "PS_Female": 2,
    "PS_Total": 4,
    "ولسوالي": "جبل السراج",
    "Region": "Central Region"
   },
   "geometry": {
    "x": 7712275.6842443123,
    "y": 4178684.8335338663
   }
  },
  {
   "attributes": {
    "OBJECTID": 793,
    "ولایت": "پروان",
    "Province": "PARWAN",
    "PC_Code": "0305060",
    "District": "JABULUSSARAJ",
    "د_مرکز_نوم__نام_مرکز": "مکتب متوسط خلیل زمان, تپه سرخ",
    "Polling_Center_Name": "Khalil Zaman Secondary School, Tape Sorkh",
    "د_مرکز_ځای__موقعیت_مرکز": "میانه گذر ",
    "Polling_Center_Location": "Meyana Guzar ",
    "Map_Accuracy": "Building",
    "Map_Accuracy_Dari": "تعمیر",
    "Status": "Open",
    "Status_Dari": null,
    "PS_Male": 3,
    "PS_Female": 1,
    "PS_Total": 4,
    "ولسوالي": "جبل السراج",
    "Region": "Central Region"
   },
   "geometry": {
    "x": 7706467.5291430494,
    "y": 4179238.7592164422
   }
  },
  {
   "attributes": {
    "OBJECTID": 794,
    "ولایت": "پروان",
    "Province": "PARWAN",
    "PC_Code": "0307086",
    "District": "SYAHGIRDI GHORBAND",
    "د_مرکز_نوم__نام_مرکز": "مکتب فندقستان ",
    "Polling_Center_Name": "Fundaqistan School",
    "د_مرکز_ځای__موقعیت_مرکز": "فنده قستان ",
    "Polling_Center_Location": "Fundaqistan",
    "Map_Accuracy": "Building",
    "Map_Accuracy_Dari": "تعمیر",
    "Status": "Open",
    "Status_Dari": null,
    "PS_Male": 2,
    "PS_Female": 1,
    "PS_Total": 3,
    "ولسوالي": "سیاه گرد غوربند",
    "Region": "Central Region"
   },
   "geometry": {
    "x": 7667467.2064063186,
    "y": 4161066.4973911964
   }
  },
  {
   "attributes": {
    "OBJECTID": 795,
    "ولایت": "پروان",
    "Province": "PARWAN",
    "PC_Code": "0307087",
    "District": "SYAHGIRDI GHORBAND",
    "د_مرکز_نوم__نام_مرکز": "لیسه فرنجل",
    "Polling_Center_Name": "Faranjil High School",
    "د_مرکز_ځای__موقعیت_مرکز": "فرنجل ",
    "Polling_Center_Location": "Faranjil ",
    "Map_Accuracy": "Building",
    "Map_Accuracy_Dari": "تعمیر",
    "Status": "Open",
    "Status_Dari": null,
    "PS_Male": 2,
    "PS_Female": 1,
    "PS_Total": 3,
    "ولسوالي": "سیاه گرد غوربند",
    "Region": "Central Region"
   },
   "geometry": {
    "x": 7648372.1043822952,
    "y": 4161734.8955080402
   }
  },
  {
   "attributes": {
    "OBJECTID": 796,
    "ولایت": "پروان",
    "Province": "PARWAN",
    "PC_Code": "0309137",
    "District": "SURKHI PARSA",
    "د_مرکز_نوم__نام_مرکز": "مسجد جامع شینه",
    "Polling_Center_Name": "Sheena Mosque",
    "د_مرکز_ځای__موقعیت_مرکز": "قریه شینه",
    "Polling_Center_Location": "Sheena Village",
    "Map_Accuracy": "Building",
    "Map_Accuracy_Dari": "تعمیر",
    "Status": "Open",
    "Status_Dari": null,
    "PS_Male": 1,
    "PS_Female": 1,
    "PS_Total": 2,
    "ولسوالي": "سرخ پارسا ",
    "Region": "Central Region"
   },
   "geometry": {
    "x": 7643592.0064858124,
    "y": 4132708.4061262012
   }
  },
  {
   "attributes": {
    "OBJECTID": 797,
    "ولایت": "پروان",
    "Province": "PARWAN",
    "PC_Code": "0305155",
    "District": "JABULUSSARAJ",
    "د_مرکز_نوم__نام_مرکز": "لیسه ابوحنیفه",
    "Polling_Center_Name": "Abo hanifa high school",
    "د_مرکز_ځای__موقعیت_مرکز": "آشاوه یا آشابه",
    "Polling_Center_Location": "Ashawa",
    "Map_Accuracy": "Building",
    "Map_Accuracy_Dari": "تعمیر",
    "Status": "Open",
    "Status_Dari": null,
    "PS_Male": 2,
    "PS_Female": 1,
    "PS_Total": 3,
    "ولسوالي": "جبل السراج",
    "Region": "Central Region"
   },
   "geometry": {
    "x": 7693384.7615359966,
    "y": 4180260.2250943957
   }
  },
  {
   "attributes": {
    "OBJECTID": 798,
    "ولایت": "پروان",
    "Province": "PARWAN",
    "PC_Code": "0308156",
    "District": "KOHI SAFI",
    "د_مرکز_نوم__نام_مرکز": "مسجد حسن زی",
    "Polling_Center_Name": "Hasan zai Mosque",
    "د_مرکز_ځای__موقعیت_مرکز": "حسن زی",
    "Polling_Center_Location": "Hasan zai",
    "Map_Accuracy": "Village",
    "Map_Accuracy_Dari": "قریه",
    "Status": "Open",
    "Status_Dari": null,
    "PS_Male": 2,
    "PS_Female": 1,
    "PS_Total": 3,
    "ولسوالي": "کوه صافی",
    "Region": "Central Region"
   },
   "geometry": {
    "x": 7721003.5676930351,
    "y": 4141907.3610273665
   }
  },
  {
   "attributes": {
    "OBJECTID": 799,
    "ولایت": "پروان",
    "Province": "PARWAN",
    "PC_Code": "0302153",
    "District": "BAGRAM",
    "د_مرکز_نوم__نام_مرکز": "مسجد جامع یورچی",
    "Polling_Center_Name": "Yor chi Mosque",
    "د_مرکز_ځای__موقعیت_مرکز": "یورچی ",
    "Polling_Center_Location": "Yor chi",
    "Map_Accuracy": "Building",
    "Map_Accuracy_Dari": "تعمیر",
    "Status": "Open",
    "Status_Dari": null,
    "PS_Male": 2,
    "PS_Female": 1,
    "PS_Total": 3,
    "ولسوالي": "بگرام",
    "Region": "Central Region"
   },
   "geometry": {
    "x": 7705082.2588242702,
    "y": 4161640.2173616458
   }
  },
  {
   "attributes": {
    "OBJECTID": 800,
    "ولایت": "وردک",
    "Province": "WARDAK",
    "PC_Code": "0405130",
    "District": "SAYYD ABAD",
    "د_مرکز_نوم__نام_مرکز": "مسجد زنه خان ",
    "Polling_Center_Name": "Zana Khan Mosque",
    "د_مرکز_ځای__موقعیت_مرکز": "زنه خان",
    "Polling_Center_Location": "Zana Khan",
    "Map_Accuracy": "Village",
    "Map_Accuracy_Dari": "قریه",
    "Status": "Open",
    "Status_Dari": null,
    "PS_Male": 1,
    "PS_Female": 1,
    "PS_Total": 2,
    "ولسوالي": "سید آباد",
    "Region": "Central Region"
   },
   "geometry": {
    "x": 7639067.2877463512,
    "y": 3993286.6196003808
   }
  }
 ]
}