{
 "displayFieldName": "Polling_Center_Name",
 "fieldAliases": {
  "OBJECTID": "OBJECTID",
  "ولایت": "ولایت",
  "Province": "Province",
  "PC_Code": "PC_Code",
  "District": "District",
  "د_مرکز_نوم__نام_مرکز": "د_مرکز_نوم__نام_مرکز",
  "Polling_Center_Name": "Polling_Center_Name",
  "د_مرکز_ځای__موقعیت_مرکز": "د_مرکز_ځای__موقعیت_مرکز",
  "Polling_Center_Location": "Polling_Center_Location",
  "Map_Accuracy": "Map_Accuracy",
  "Map_Accuracy_Dari": "Map_Accuracy_Dari",
  "Status": "Status",
  "Status_Dari": "Status_Dari",
  "PS_Male": "PS_Male",
  "PS_Female": "PS_Female",
  "PS_Total": "PS_Total",
  "ولسوالي": "ولسوالي",
  "Region": "Region"
 },
 "geometryType": "esriGeometryPoint",
 "spatialReference": {
  "wkid": 102100,
  "latestWkid": 3857
 },
 "fields": [
  {
   "name": "OBJECTID",
   "type": "esriFieldTypeOID",
   "alias": "OBJECTID"
  },
  {
   "name": "ولایت",
   "type": "esriFieldTypeString",
   "alias": "ولایت",
   "length": 255
  },
  {
   "name": "Province",
   "type": "esriFieldTypeString",
   "alias": "Province",
   "length": 255
  },
  {
   "name": "PC_Code",
   "type": "esriFieldTypeString",
   "alias": "PC_Code",
   "length": 255
  },
  {
   "name": "District",
   "type": "esriFieldTypeString",
   "alias": "District",
   "length": 255
  },
  {
   "name": "د_مرکز_نوم__نام_مرکز",
   "type": "esriFieldTypeString",
   "alias": "د_مرکز_نوم__نام_مرکز",
   "length": 255
  },
  {
   "name": "Polling_Center_Name",
   "type": "esriFieldTypeString",
   "alias": "Polling_Center_Name",
   "length": 255
  },
  {
   "name": "د_مرکز_ځای__موقعیت_مرکز",
   "type": "esriFieldTypeString",
   "alias": "د_مرکز_ځای__موقعیت_مرکز",
   "length": 255
  },
  {
   "name": "Polling_Center_Location",
   "type": "esriFieldTypeString",
   "alias": "Polling_Center_Location",
   "length": 255
  },
  {
   "name": "Map_Accuracy",
   "type": "esriFieldTypeString",
   "alias": "Map_Accuracy",
   "length": 10
  },
  {
   "name": "Map_Accuracy_Dari",
   "type": "esriFieldTypeString",
   "alias": "Map_Accuracy_Dari",
   "length": 50
  },
  {
   "name": "Status",
   "type": "esriFieldTypeString",
   "alias": "Status",
   "length": 6
  },
  {
   "name": "Status_Dari",
   "type": "esriFieldTypeString",
   "alias": "Status_Dari",
   "length": 8
  },
  {
   "name": "PS_Male",
   "type": "esriFieldTypeSmallInteger",
   "alias": "PS_Male"
  },
  {
   "name": "PS_Female",
   "type": "esriFieldTypeSmallInteger",
   "alias": "PS_Female"
  },
  {
   "name": "PS_Total",
   "type": "esriFieldTypeSmallInteger",
   "alias": "PS_Total"
  },
  {
   "name": "ولسوالي",
   "type": "esriFieldTypeString",
   "alias": "ولسوالي",
   "length": 255
  },
  {
   "name": "Region",
   "type": "esriFieldTypeString",
   "alias": "Region",
   "length": 50
  }
 ],
 "features": [
  {
   "attributes": {
    "OBJECTID": 2201,
    "ولایت": "سرپل",
    "Province": "SAR-E-PUL",
    "PC_Code": "2203062",
    "District": "KOHISTANAT",
    "د_مرکز_نوم__نام_مرکز": "مسجد جامع نگاله",
    "Polling_Center_Name": "Nagala Mosque",
    "د_مرکز_ځای__موقعیت_مرکز": "نگاله",
    "Polling_Center_Location": "Nagala",
    "Map_Accuracy": "Building",
    "Map_Accuracy_Dari": "تعمیر",
    "Status": "Open",
    "Status_Dari": null,
    "PS_Male": 1,
    "PS_Female": 1,
    "PS_Total": 2,
    "ولسوالي": "کوهستانات",
    "Region": "Northern Region"
   },
   "geometry": {
    "x": 7334155.5002680058,
    "y": 4288505.1486506332
   }
  },
  {
   "attributes": {
    "OBJECTID": 2202,
    "ولایت": "سرپل",
    "Province": "SAR-E-PUL",
    "PC_Code": "2203063",
    "District": "KOHISTANAT",
    "د_مرکز_نوم__نام_مرکز": "مسجد جامع سر ده",
    "Polling_Center_Name": "Sar Deh Mosque",
    "د_مرکز_ځای__موقعیت_مرکز": "سر ده",
    "Polling_Center_Location": "Sar Deh",
    "Map_Accuracy": "Building",
    "Map_Accuracy_Dari": "تعمیر",
    "Status": "Open",
    "Status_Dari": null,
    "PS_Male": 2,
    "PS_Female": 2,
    "PS_Total": 4,
    "ولسوالي": "کوهستانات",
    "Region": "Northern Region"
   },
   "geometry": {
    "x": 7335547.3378801486,
    "y": 4278064.5226989761
   }
  },
  {
   "attributes": {
    "OBJECTID": 2203,
    "ولایت": "سرپل",
    "Province": "SAR-E-PUL",
    "PC_Code": "2205103",
    "District": "SANG CHARAK",
    "د_مرکز_نوم__نام_مرکز": "مسجد جامع مسجد قریه سبز",
    "Polling_Center_Name": "Sabz Village Mosque",
    "د_مرکز_ځای__موقعیت_مرکز": "قریه سبز",
    "Polling_Center_Location": "Sabz Village",
    "Map_Accuracy": "Building",
    "Map_Accuracy_Dari": "تعمیر",
    "Status": "Open",
    "Status_Dari": null,
    "PS_Male": 2,
    "PS_Female": 2,
    "PS_Total": 4,
    "ولسوالي": "سنگ چارک",
    "Region": "Northern Region"
   },
   "geometry": {
    "x": 7384588.307992531,
    "y": 4282231.9129839418
   }
  },
  {
   "attributes": {
    "OBJECTID": 2204,
    "ولایت": "سرپل",
    "Province": "SAR-E-PUL",
    "PC_Code": "2205104",
    "District": "SANG CHARAK",
    "د_مرکز_نوم__نام_مرکز": "مسجد جامع قریه توپخانه",
    "Polling_Center_Name": "Topkhana Village Mosque",
    "د_مرکز_ځای__موقعیت_مرکز": "قریه توپخانه",
    "Polling_Center_Location": "Topkhana Village",
    "Map_Accuracy": "Building",
    "Map_Accuracy_Dari": "تعمیر",
    "Status": "Open",
    "Status_Dari": null,
    "PS_Male": 2,
    "PS_Female": 1,
    "PS_Total": 3,
    "ولسوالي": "سنگ چارک",
    "Region": "Northern Region"
   },
   "geometry": {
    "x": 7386208.2325621396,
    "y": 4286443.6927955076
   }
  },
  {
   "attributes": {
    "OBJECTID": 2205,
    "ولایت": "سرپل",
    "Province": "SAR-E-PUL",
    "PC_Code": "2205113",
    "District": "SANG CHARAK",
    "د_مرکز_نوم__نام_مرکز": "مسجد جامع چارو",
    "Polling_Center_Name": "Charoo Mosque",
    "د_مرکز_ځای__موقعیت_مرکز": "چارو علیا",
    "Polling_Center_Location": "Charoo Ulya ",
    "Map_Accuracy": "Building",
    "Map_Accuracy_Dari": "تعمیر",
    "Status": "Open",
    "Status_Dari": null,
    "PS_Male": 1,
    "PS_Female": 1,
    "PS_Total": 2,
    "ولسوالي": "سنگ چارک",
    "Region": "Northern Region"
   },
   "geometry": {
    "x": 7396351.5131687131,
    "y": 4281291.6720441021
   }
  },
  {
   "attributes": {
    "OBJECTID": 2206,
    "ولایت": "سرپل",
    "Province": "SAR-E-PUL",
    "PC_Code": "2205119",
    "District": "SANG CHARAK",
    "د_مرکز_نوم__نام_مرکز": "مسجد فرشقان میانه",
    "Polling_Center_Name": "Farshqan Miyana Mosque",
    "د_مرکز_ځای__موقعیت_مرکز": "فرشقان میانه",
    "Polling_Center_Location": "Farshaqan Miyana",
    "Map_Accuracy": "Building",
    "Map_Accuracy_Dari": "تعمیر",
    "Status": "Open",
    "Status_Dari": null,
    "PS_Male": 1,
    "PS_Female": 1,
    "PS_Total": 2,
    "ولسوالي": "سنگ چارک",
    "Region": "Northern Region"
   },
   "geometry": {
    "x": 7398164.7206569919,
    "y": 4291870.4277218701
   }
  },
  {
   "attributes": {
    "OBJECTID": 2207,
    "ولایت": "سرپل",
    "Province": "SAR-E-PUL",
    "PC_Code": "2205120",
    "District": "SANG CHARAK",
    "د_مرکز_نوم__نام_مرکز": "مسجد رستم قریه\u200Cدار",
    "Polling_Center_Name": "Rostam Qaryadar Mosque",
    "د_مرکز_ځای__موقعیت_مرکز": "لرک افغانیه ",
    "Polling_Center_Location": "Larak Afghania",
    "Map_Accuracy": "Building",
    "Map_Accuracy_Dari": "تعمیر",
    "Status": "Open",
    "Status_Dari": null,
    "PS_Male": 1,
    "PS_Female": 1,
    "PS_Total": 2,
    "ولسوالي": "سنگ چارک",
    "Region": "Northern Region"
   },
   "geometry": {
    "x": 7392697.3829785381,
    "y": 4308260.9799496904
   }
  },
  {
   "attributes": {
    "OBJECTID": 2208,
    "ولایت": "سرپل",
    "Province": "SAR-E-PUL",
    "PC_Code": "2206129",
    "District": "GOSFANDI",
    "د_مرکز_نوم__نام_مرکز": "مدرسه قریه شاه مرد",
    "Polling_Center_Name": "Shah Mard Village Madrassa",
    "د_مرکز_ځای__موقعیت_مرکز": "قریه شاه مرد",
    "Polling_Center_Location": "Shah Mard Village",
    "Map_Accuracy": "Building",
    "Map_Accuracy_Dari": "تعمیر",
    "Status": "Open",
    "Status_Dari": null,
    "PS_Male": 2,
    "PS_Female": 1,
    "PS_Total": 3,
    "ولسوالي": "گوسفندی ",
    "Region": "Northern Region"
   },
   "geometry": {
    "x": 7401208.2389498819,
    "y": 4282711.1627313914
   }
  },
  {
   "attributes": {
    "OBJECTID": 2209,
    "ولایت": "سرپل",
    "Province": "SAR-E-PUL",
    "PC_Code": "2206130",
    "District": "GOSFANDI",
    "د_مرکز_نوم__نام_مرکز": "مدرسه قریه کران",
    "Polling_Center_Name": "Karan Village Madrassa",
    "د_مرکز_ځای__موقعیت_مرکز": "قریه کران",
    "Polling_Center_Location": "Karan Village",
    "Map_Accuracy": "Building",
    "Map_Accuracy_Dari": "تعمیر",
    "Status": "Open",
    "Status_Dari": null,
    "PS_Male": 2,
    "PS_Female": 2,
    "PS_Total": 4,
    "ولسوالي": "گوسفندی ",
    "Region": "Northern Region"
   },
   "geometry": {
    "x": 7405382.369198231,
    "y": 4288363.6320086531
   }
  },
  {
   "attributes": {
    "OBJECTID": 2210,
    "ولایت": "سرپل",
    "Province": "SAR-E-PUL",
    "PC_Code": "2206134",
    "District": "GOSFANDI",
    "د_مرکز_نوم__نام_مرکز": "مسجد جامع الغن افغانیه",
    "Polling_Center_Name": "Alghan Afghania Mosque",
    "د_مرکز_ځای__موقعیت_مرکز": "الغن افغانیه",
    "Polling_Center_Location": "Alghan Afghania",
    "Map_Accuracy": "Building",
    "Map_Accuracy_Dari": "تعمیر",
    "Status": "Open",
    "Status_Dari": null,
    "PS_Male": 2,
    "PS_Female": 2,
    "PS_Total": 4,
    "ولسوالي": "گوسفندی ",
    "Region": "Northern Region"
   },
   "geometry": {
    "x": 7406296.9423047183,
    "y": 4300659.8240014501
   }
  },
  {
   "attributes": {
    "OBJECTID": 2211,
    "ولایت": "سرپل",
    "Province": "SAR-E-PUL",
    "PC_Code": "2207097",
    "District": "BALKHAB",
    "د_مرکز_نوم__نام_مرکز": "مدرسه زوج",
    "Polling_Center_Name": "Zawj Madrassa",
    "د_مرکز_ځای__موقعیت_مرکز": "زوج",
    "Polling_Center_Location": "Zawj",
    "Map_Accuracy": "Building",
    "Map_Accuracy_Dari": "تعمیر",
    "Status": "Open",
    "Status_Dari": null,
    "PS_Male": 2,
    "PS_Female": 2,
    "PS_Total": 4,
    "ولسوالي": "بلخآب",
    "Region": "Northern Region"
   },
   "geometry": {
    "x": 7392000.9303955026,
    "y": 4205941.4248211393
   }
  },
  {
   "attributes": {
    "OBJECTID": 2212,
    "ولایت": "سرپل",
    "Province": "SAR-E-PUL",
    "PC_Code": "2207098",
    "District": "BALKHAB",
    "د_مرکز_نوم__نام_مرکز": "مدرسه باجگاه",
    "Polling_Center_Name": "Bajgah Madrassa",
    "د_مرکز_ځای__موقعیت_مرکز": "شیخ منگ",
    "Polling_Center_Location": "Shekh Mang",
    "Map_Accuracy": "Building",
    "Map_Accuracy_Dari": "تعمیر",
    "Status": "Open",
    "Status_Dari": null,
    "PS_Male": 3,
    "PS_Female": 1,
    "PS_Total": 4,
    "ولسوالي": "بلخآب",
    "Region": "Northern Region"
   },
   "geometry": {
    "x": 7414878.8078660453,
    "y": 4255310.7803152939
   }
  },
  {
   "attributes": {
    "OBJECTID": 2213,
    "ولایت": "سرپل",
    "Province": "SAR-E-PUL",
    "PC_Code": "2207100",
    "District": "BALKHAB",
    "د_مرکز_نوم__نام_مرکز": "مکتب متوسطه پیتاب",
    "Polling_Center_Name": "Pitab Secondar School",
    "د_مرکز_ځای__موقعیت_مرکز": "پیتاب",
    "Polling_Center_Location": "Pitab",
    "Map_Accuracy": "Building",
    "Map_Accuracy_Dari": "تعمیر",
    "Status": "Open",
    "Status_Dari": null,
    "PS_Male": 2,
    "PS_Female": 2,
    "PS_Total": 4,
    "ولسوالي": "بلخآب",
    "Region": "Northern Region"
   },
   "geometry": {
    "x": 7410479.899075496,
    "y": 4255098.1227688473
   }
  },
  {
   "attributes": {
    "OBJECTID": 2214,
    "ولایت": "غور",
    "Province": "GHOR",
    "PC_Code": "2301001",
    "District": "CHIGHCHERAN",
    "د_مرکز_نوم__نام_مرکز": "لیسه سلطان علا والدین غوری ",
    "Polling_Center_Name": "Sultan Alauddin Ghori High School",
    "د_مرکز_ځای__موقعیت_مرکز": "تحت شهر",
    "Polling_Center_Location": "Taht Shahr",
    "Map_Accuracy": "Building",
    "Map_Accuracy_Dari": "تعمیر",
    "Status": "Open",
    "Status_Dari": null,
    "PS_Male": 6,
    "PS_Female": 4,
    "PS_Total": 10,
    "ولسوالي": "چغچران",
    "Region": "Western Region"
   },
   "geometry": {
    "x": 7264564.5736689214,
    "y": 4098996.3382088835
   }
  },
  {
   "attributes": {
    "OBJECTID": 2215,
    "ولایت": "سرپل",
    "Province": "SAR-E-PUL",
    "PC_Code": "2201003",
    "District": "SAR-E-PUL",
    "د_مرکز_نوم__نام_مرکز": "لیسه رحمت آباد",
    "Polling_Center_Name": "Rahmat Abad High School",
    "د_مرکز_ځای__موقعیت_مرکز": "قریه رحمت آ باد",
    "Polling_Center_Location": "Rahmat Abad Village",
    "Map_Accuracy": "Building",
    "Map_Accuracy_Dari": "تعمیر",
    "Status": "Open",
    "Status_Dari": null,
    "PS_Male": 6,
    "PS_Female": 3,
    "PS_Total": 9,
    "ولسوالي": "سرپل",
    "Region": "Northern Region"
   },
   "geometry": {
    "x": 7339781.0374144157,
    "y": 4331734.1866683848
   }
  },
  {
   "attributes": {
    "OBJECTID": 2216,
    "ولایت": "سرپل",
    "Province": "SAR-E-PUL",
    "PC_Code": "2201004",
    "District": "SAR-E-PUL",
    "د_مرکز_نوم__نام_مرکز": "لیسه امام یحیی ",
    "Polling_Center_Name": "Imam Yahya High School",
    "د_مرکز_ځای__موقعیت_مرکز": "قریه امام خورد ",
    "Polling_Center_Location": "Imam Khord Village",
    "Map_Accuracy": "Building",
    "Map_Accuracy_Dari": "تعمیر",
    "Status": "Open",
    "Status_Dari": null,
    "PS_Male": 5,
    "PS_Female": 3,
    "PS_Total": 8,
    "ولسوالي": "سرپل",
    "Region": "Northern Region"
   },
   "geometry": {
    "x": 7341442.9060549568,
    "y": 4330231.6415715115
   }
  },
  {
   "attributes": {
    "OBJECTID": 2217,
    "ولایت": "سرپل",
    "Province": "SAR-E-PUL",
    "PC_Code": "2203065",
    "District": "KOHISTANAT",
    "د_مرکز_نوم__نام_مرکز": "لیسه همت ده سرخ وپس نی",
    "Polling_Center_Name": "Himat Deh Surkh o Pas Nai High School",
    "د_مرکز_ځای__موقعیت_مرکز": "قریه ده سرخ",
    "Polling_Center_Location": "Deh Surkh Village",
    "Map_Accuracy": "Building",
    "Map_Accuracy_Dari": "تعمیر",
    "Status": "Open",
    "Status_Dari": null,
    "PS_Male": 2,
    "PS_Female": 1,
    "PS_Total": 3,
    "ولسوالي": "کوهستانات",
    "Region": "Northern Region"
   },
   "geometry": {
    "x": 7321682.4563400252,
    "y": 4268563.9828441264
   }
  },
  {
   "attributes": {
    "OBJECTID": 2218,
    "ولایت": "سرپل",
    "Province": "SAR-E-PUL",
    "PC_Code": "2204036",
    "District": "SOZMA QALA",
    "د_مرکز_نوم__نام_مرکز": "مسجد جامع گورکاب علیا",
    "Polling_Center_Name": "Gorkaab Ulya Mosque",
    "د_مرکز_ځای__موقعیت_مرکز": "گورکاب علیا",
    "Polling_Center_Location": "Gorkaab Ulya",
    "Map_Accuracy": "Building",
    "Map_Accuracy_Dari": "تعمیر",
    "Status": "Open",
    "Status_Dari": null,
    "PS_Male": 2,
    "PS_Female": 1,
    "PS_Total": 3,
    "ولسوالي": "سوزمه قلعه",
    "Region": "Northern Region"
   },
   "geometry": {
    "x": 7373236.8235190166,
    "y": 4303993.8192944061
   }
  },
  {
   "attributes": {
    "OBJECTID": 2219,
    "ولایت": "سرپل",
    "Province": "SAR-E-PUL",
    "PC_Code": "2204037",
    "District": "SOZMA QALA",
    "د_مرکز_نوم__نام_مرکز": "مسجد جامع تنزیل",
    "Polling_Center_Name": "Tanzeel Mosque",
    "د_مرکز_ځای__موقعیت_مرکز": "تنزیل",
    "Polling_Center_Location": "Tanzeel",
    "Map_Accuracy": "Building",
    "Map_Accuracy_Dari": "تعمیر",
    "Status": "Open",
    "Status_Dari": null,
    "PS_Male": 1,
    "PS_Female": 1,
    "PS_Total": 2,
    "ولسوالي": "سوزمه قلعه",
    "Region": "Northern Region"
   },
   "geometry": {
    "x": 7371845.1907347422,
    "y": 4301269.9025884029
   }
  },
  {
   "attributes": {
    "OBJECTID": 2220,
    "ولایت": "سرپل",
    "Province": "SAR-E-PUL",
    "PC_Code": "2204041",
    "District": "SOZMA QALA",
    "د_مرکز_نوم__نام_مرکز": "مکتب متوسطه نسوان خانقاه",
    "Polling_Center_Name": "Khanqah Girls Secondary School",
    "د_مرکز_ځای__موقعیت_مرکز": "خانقاه",
    "Polling_Center_Location": "Khanqah",
    "Map_Accuracy": "Building",
    "Map_Accuracy_Dari": "تعمیر",
    "Status": "Open",
    "Status_Dari": null,
    "PS_Male": 3,
    "PS_Female": 1,
    "PS_Total": 4,
    "ولسوالي": "سوزمه قلعه",
    "Region": "Northern Region"
   },
   "geometry": {
    "x": 7363059.883238012,
    "y": 4284747.6400982644
   }
  },
  {
   "attributes": {
    "OBJECTID": 2221,
    "ولایت": "سرپل",
    "Province": "SAR-E-PUL",
    "PC_Code": "2206136",
    "District": "GOSFANDI",
    "د_مرکز_نوم__نام_مرکز": "مکتب متوسطه نسوان یولتراب",
    "Polling_Center_Name": "Yoltarab Girls Secondary School",
    "د_مرکز_ځای__موقعیت_مرکز": "قریه یولتراب",
    "Polling_Center_Location": "Yoltarab Village",
    "Map_Accuracy": "Building",
    "Map_Accuracy_Dari": "تعمیر",
    "Status": "Open",
    "Status_Dari": null,
    "PS_Male": 2,
    "PS_Female": 1,
    "PS_Total": 3,
    "ولسوالي": "گوسفندی ",
    "Region": "Northern Region"
   },
   "geometry": {
    "x": 7404820.4807288721,
    "y": 4294409.6931573842
   }
  },
  {
   "attributes": {
    "OBJECTID": 2222,
    "ولایت": "سرپل",
    "Province": "SAR-E-PUL",
    "PC_Code": "2207087",
    "District": "BALKHAB",
    "د_مرکز_نوم__نام_مرکز": "مدرسه تگاب تخت",
    "Polling_Center_Name": "Tagab Takht Madrassa",
    "د_مرکز_ځای__موقعیت_مرکز": "تگاب تخت",
    "Polling_Center_Location": "Tagab Takht",
    "Map_Accuracy": "Building",
    "Map_Accuracy_Dari": "تعمیر",
    "Status": "Open",
    "Status_Dari": null,
    "PS_Male": 3,
    "PS_Female": 1,
    "PS_Total": 4,
    "ولسوالي": "بلخآب",
    "Region": "Northern Region"
   },
   "geometry": {
    "x": 7449232.1274026781,
    "y": 4253736.3313982254
   }
  },
  {
   "attributes": {
    "OBJECTID": 2223,
    "ولایت": "سرپل",
    "Province": "SAR-E-PUL",
    "PC_Code": "2207090",
    "District": "BALKHAB",
    "د_مرکز_نوم__نام_مرکز": "مکتب دوشاخ ",
    "Polling_Center_Name": "Doshakh School",
    "د_مرکز_ځای__موقعیت_مرکز": "دو شاخ",
    "Polling_Center_Location": "Doshakh",
    "Map_Accuracy": "Building",
    "Map_Accuracy_Dari": "تعمیر",
    "Status": "Open",
    "Status_Dari": null,
    "PS_Male": 3,
    "PS_Female": 2,
    "PS_Total": 5,
    "ولسوالي": "بلخآب",
    "Region": "Northern Region"
   },
   "geometry": {
    "x": 7435635.3009699937,
    "y": 4227070.0674074087
   }
  },
  {
   "attributes": {
    "OBJECTID": 2224,
    "ولایت": "سرپل",
    "Province": "SAR-E-PUL",
    "PC_Code": "2207091",
    "District": "BALKHAB",
    "د_مرکز_نوم__نام_مرکز": "لیسه طلوع جورازی",
    "Polling_Center_Name": "Tolo Jorazi High School",
    "د_مرکز_ځای__موقعیت_مرکز": "جورازی ",
    "Polling_Center_Location": "Jorazi",
    "Map_Accuracy": "Building",
    "Map_Accuracy_Dari": "تعمیر",
    "Status": "Open",
    "Status_Dari": null,
    "PS_Male": 2,
    "PS_Female": 2,
    "PS_Total": 4,
    "ولسوالي": "بلخآب",
    "Region": "Northern Region"
   },
   "geometry": {
    "x": 7426874.6307029705,
    "y": 4242606.4382938547
   }
  },
  {
   "attributes": {
    "OBJECTID": 2225,
    "ولایت": "سرپل",
    "Province": "SAR-E-PUL",
    "PC_Code": "2207094",
    "District": "BALKHAB",
    "د_مرکز_نوم__نام_مرکز": "مسجد جامع پای زیارت",
    "Polling_Center_Name": "Pay Ziarat Mosque",
    "د_مرکز_ځای__موقعیت_مرکز": "پای زیارت",
    "Polling_Center_Location": "Pay Ziarat",
    "Map_Accuracy": "Building",
    "Map_Accuracy_Dari": "تعمیر",
    "Status": "Open",
    "Status_Dari": null,
    "PS_Male": 3,
    "PS_Female": 2,
    "PS_Total": 5,
    "ولسوالي": "بلخآب",
    "Region": "Northern Region"
   },
   "geometry": {
    "x": 7396223.5926022595,
    "y": 4226481.7755451351
   }
  },
  {
   "attributes": {
    "OBJECTID": 2226,
    "ولایت": "سرپل",
    "Province": "SAR-E-PUL",
    "PC_Code": "2207095",
    "District": "BALKHAB",
    "د_مرکز_نوم__نام_مرکز": "مدرسه پیغوله ",
    "Polling_Center_Name": "Peghola Madrassa",
    "د_مرکز_ځای__موقعیت_مرکز": "پیغوله ",
    "Polling_Center_Location": "Peghola",
    "Map_Accuracy": "Building",
    "Map_Accuracy_Dari": "تعمیر",
    "Status": "Open",
    "Status_Dari": null,
    "PS_Male": 2,
    "PS_Female": 2,
    "PS_Total": 4,
    "ولسوالي": "بلخآب",
    "Region": "Northern Region"
   },
   "geometry": {
    "x": 7384014.2901514499,
    "y": 4220510.6276039071
   }
  },
  {
   "attributes": {
    "OBJECTID": 2227,
    "ولایت": "سرپل",
    "Province": "SAR-E-PUL",
    "PC_Code": "2204140",
    "District": "SOZMA QALA",
    "د_مرکز_نوم__نام_مرکز": "مکتب ",
    "Polling_Center_Name": "School",
    "د_مرکز_ځای__موقعیت_مرکز": "قریه ملک ازبکیه",
    "Polling_Center_Location": "Malek uzbakia village",
    "Map_Accuracy": "Building",
    "Map_Accuracy_Dari": "تعمیر",
    "Status": "Open",
    "Status_Dari": null,
    "PS_Male": 2,
    "PS_Female": 1,
    "PS_Total": 3,
    "ولسوالي": "سوزمه قلعه",
    "Region": "Northern Region"
   },
   "geometry": {
    "x": 7360930.3979294403,
    "y": 4283500.118354368
   }
  },
  {
   "attributes": {
    "OBJECTID": 2228,
    "ولایت": "سرپل",
    "Province": "SAR-E-PUL",
    "PC_Code": "2205142",
    "District": "SANG CHARAK",
    "د_مرکز_نوم__نام_مرکز": "مکتب خواجه سرخ",
    "Polling_Center_Name": "Khwaja surkh School",
    "د_مرکز_ځای__موقعیت_مرکز": "خواجه سرخ",
    "Polling_Center_Location": "Khwaja sorkh",
    "Map_Accuracy": "Village",
    "Map_Accuracy_Dari": "قریه",
    "Status": "Open",
    "Status_Dari": null,
    "PS_Male": 2,
    "PS_Female": 1,
    "PS_Total": 3,
    "ولسوالي": " سانچارك",
    "Region": "Northern Region"
   },
   "geometry": {
    "x": 7388712.2925951434,
    "y": 4306105.8475163877
   }
  },
  {
   "attributes": {
    "OBJECTID": 2229,
    "ولایت": "سرپل",
    "Province": "SAR-E-PUL",
    "PC_Code": "2206143",
    "District": "GOSFANDI",
    "د_مرکز_نوم__نام_مرکز": "مسجد",
    "Polling_Center_Name": "Mosque",
    "د_مرکز_ځای__موقعیت_مرکز": "چغدان",
    "Polling_Center_Location": "Chaghdan",
    "Map_Accuracy": "Building",
    "Map_Accuracy_Dari": "تعمیر",
    "Status": "Open",
    "Status_Dari": null,
    "PS_Male": 2,
    "PS_Female": 1,
    "PS_Total": 3,
    "ولسوالي": "گوسفندی",
    "Region": "Northern Region"
   },
   "geometry": {
    "x": 7421266.7392543284,
    "y": 4313159.4142618701
   }
  },
  {
   "attributes": {
    "OBJECTID": 2230,
    "ولایت": "سرپل",
    "Province": "SAR-E-PUL",
    "PC_Code": "2201008",
    "District": "SAR-E-PUL",
    "د_مرکز_نوم__نام_مرکز": "مکتب متوسطه کورک اوزبیکیه",
    "Polling_Center_Name": "Korak Uzbekya Secondary School",
    "د_مرکز_ځای__موقعیت_مرکز": "قریه کورک اوزبیکیه ",
    "Polling_Center_Location": "Korak Uzbekya Village",
    "Map_Accuracy": "Building",
    "Map_Accuracy_Dari": "تعمیر",
    "Status": "Open",
    "Status_Dari": null,
    "PS_Male": 3,
    "PS_Female": 2,
    "PS_Total": 5,
    "ولسوالي": "سرپل",
    "Region": "Northern Region"
   },
   "geometry": {
    "x": 7332865.630196237,
    "y": 4339425.7814848209
   }
  },
  {
   "attributes": {
    "OBJECTID": 2231,
    "ولایت": "سرپل",
    "Province": "SAR-E-PUL",
    "PC_Code": "2201009",
    "District": "SAR-E-PUL",
    "د_مرکز_نوم__نام_مرکز": "مکتب متوسطه بغاوی اوزبیکیه",
    "Polling_Center_Name": "Baghawi Uzbekya Secondary School",
    "د_مرکز_ځای__موقعیت_مرکز": "قریه بغاوی اوزبیکیه",
    "Polling_Center_Location": "Baghawi Uzbekya Village",
    "Map_Accuracy": "Building",
    "Map_Accuracy_Dari": "تعمیر",
    "Status": "Open",
    "Status_Dari": null,
    "PS_Male": 4,
    "PS_Female": 2,
    "PS_Total": 6,
    "ولسوالي": "سرپل",
    "Region": "Northern Region"
   },
   "geometry": {
    "x": 7355732.9312019544,
    "y": 4325139.9363522502
   }
  },
  {
   "attributes": {
    "OBJECTID": 2232,
    "ولایت": "سرپل",
    "Province": "SAR-E-PUL",
    "PC_Code": "2201010",
    "District": "SAR-E-PUL",
    "د_مرکز_نوم__نام_مرکز": "لیسه قوش تپه",
    "Polling_Center_Name": "Qosh Tapa High School",
    "د_مرکز_ځای__موقعیت_مرکز": "قریه قوش تپه ",
    "Polling_Center_Location": "Qosh Tapa Village",
    "Map_Accuracy": "Building",
    "Map_Accuracy_Dari": "تعمیر",
    "Status": "Open",
    "Status_Dari": null,
    "PS_Male": 5,
    "PS_Female": 1,
    "PS_Total": 6,
    "ولسوالي": "سرپل",
    "Region": "Northern Region"
   },
   "geometry": {
    "x": 7334996.5334924851,
    "y": 4347917.994524206
   }
  },
  {
   "attributes": {
    "OBJECTID": 2233,
    "ولایت": "سرپل",
    "Province": "SAR-E-PUL",
    "PC_Code": "2201020",
    "District": "SAR-E-PUL",
    "د_مرکز_نوم__نام_مرکز": "مدرسه قدم جای",
    "Polling_Center_Name": "Qadam Jay Madrassa",
    "د_مرکز_ځای__موقعیت_مرکز": "قریه قدم جایی",
    "Polling_Center_Location": "Qadam Jay Village",
    "Map_Accuracy": "Village",
    "Map_Accuracy_Dari": "قریه",
    "Status": "Open",
    "Status_Dari": null,
    "PS_Male": 2,
    "PS_Female": 1,
    "PS_Total": 3,
    "ولسوالي": "سرپل",
    "Region": "Northern Region"
   },
   "geometry": {
    "x": 7366811.8888640795,
    "y": 4332742.8213311536
   }
  },
  {
   "attributes": {
    "OBJECTID": 2234,
    "ولایت": "سرپل",
    "Province": "SAR-E-PUL",
    "PC_Code": "2202048",
    "District": "SAYAD",
    "د_مرکز_نوم__نام_مرکز": "لیسه نسوان ملا سخیداد",
    "Polling_Center_Name": "Mula Sakhidad Girls High School",
    "د_مرکز_ځای__موقعیت_مرکز": "ملا سخیداد",
    "Polling_Center_Location": "Mula Sakhidad ",
    "Map_Accuracy": "Building",
    "Map_Accuracy_Dari": "تعمیر",
    "Status": "Open",
    "Status_Dari": null,
    "PS_Male": 4,
    "PS_Female": 2,
    "PS_Total": 6,
    "ولسوالي": "صیاد",
    "Region": "Northern Region"
   },
   "geometry": {
    "x": 7328412.4230976617,
    "y": 4319935.1320544379
   }
  },
  {
   "attributes": {
    "OBJECTID": 2235,
    "ولایت": "سرپل",
    "Province": "SAR-E-PUL",
    "PC_Code": "2202049",
    "District": "SAYAD",
    "د_مرکز_نوم__نام_مرکز": "مکتب متوسطه انگشکه",
    "Polling_Center_Name": "Angushka Secondary School",
    "د_مرکز_ځای__موقعیت_مرکز": "انگشکه",
    "Polling_Center_Location": "Angushka",
    "Map_Accuracy": "Building",
    "Map_Accuracy_Dari": "تعمیر",
    "Status": "Open",
    "Status_Dari": null,
    "PS_Male": 2,
    "PS_Female": 1,
    "PS_Total": 3,
    "ولسوالي": "صیاد",
    "Region": "Northern Region"
   },
   "geometry": {
    "x": 7331357.4113960546,
    "y": 4325448.5207602987
   }
  },
  {
   "attributes": {
    "OBJECTID": 2236,
    "ولایت": "سرپل",
    "Province": "SAR-E-PUL",
    "PC_Code": "2202053",
    "District": "SAYAD",
    "د_مرکز_نوم__نام_مرکز": "ملکیت مسجد قره خوال",
    "Polling_Center_Name": "Qara Khowal Mosque Property",
    "د_مرکز_ځای__موقعیت_مرکز": "قریه قره خوال",
    "Polling_Center_Location": "Qara Khowal Village",
    "Map_Accuracy": "Village",
    "Map_Accuracy_Dari": "قریه",
    "Status": "Open",
    "Status_Dari": null,
    "PS_Male": 2,
    "PS_Female": 2,
    "PS_Total": 4,
    "ولسوالي": "صیاد",
    "Region": "Northern Region"
   },
   "geometry": {
    "x": 7307774.4963833503,
    "y": 4306098.3764112815
   }
  },
  {
   "attributes": {
    "OBJECTID": 2237,
    "ولایت": "سرپل",
    "Province": "SAR-E-PUL",
    "PC_Code": "2202054",
    "District": "SAYAD",
    "د_مرکز_نوم__نام_مرکز": "مدرسه قریه شاه توت",
    "Polling_Center_Name": "Shah Toot Village Madrassa",
    "د_مرکز_ځای__موقعیت_مرکز": "قریه شاه توت",
    "Polling_Center_Location": "Shah Toot Village",
    "Map_Accuracy": "Village",
    "Map_Accuracy_Dari": "قریه",
    "Status": "Open",
    "Status_Dari": null,
    "PS_Male": 2,
    "PS_Female": 1,
    "PS_Total": 3,
    "ولسوالي": "صیاد",
    "Region": "Northern Region"
   },
   "geometry": {
    "x": 7296715.8612074694,
    "y": 4301929.5939420359
   }
  },
  {
   "attributes": {
    "OBJECTID": 2238,
    "ولایت": "سرپل",
    "Province": "SAR-E-PUL",
    "PC_Code": "2203069",
    "District": "KOHISTANAT",
    "د_مرکز_نوم__نام_مرکز": "مدرسه قلعه شهر",
    "Polling_Center_Name": "Qala-e-Shahr Madrassa",
    "د_مرکز_ځای__موقعیت_مرکز": "مدرسه قلعه شهر",
    "Polling_Center_Location": "Qala-e-Shahr Madrassa",
    "Map_Accuracy": "Building",
    "Map_Accuracy_Dari": "تعمیر",
    "Status": "Open",
    "Status_Dari": null,
    "PS_Male": 1,
    "PS_Female": 1,
    "PS_Total": 2,
    "ولسوالي": "کوهستانات",
    "Region": "Northern Region"
   },
   "geometry": {
    "x": 7299029.1626025792,
    "y": 4238373.096427964
   }
  },
  {
   "attributes": {
    "OBJECTID": 2239,
    "ولایت": "سرپل",
    "Province": "SAR-E-PUL",
    "PC_Code": "2203070",
    "District": "KOHISTANAT",
    "د_مرکز_نوم__نام_مرکز": "مسجد حاجی ملا قربان",
    "Polling_Center_Name": "Haji Mula Qurban Mosque",
    "د_مرکز_ځای__موقعیت_مرکز": "نوآباد قلعه شهر",
    "Polling_Center_Location": "Naw Qala Shahr ",
    "Map_Accuracy": "Building",
    "Map_Accuracy_Dari": "تعمیر",
    "Status": "Open",
    "Status_Dari": null,
    "PS_Male": 2,
    "PS_Female": 1,
    "PS_Total": 3,
    "ولسوالي": "کوهستانات",
    "Region": "Northern Region"
   },
   "geometry": {
    "x": 7297252.5558496751,
    "y": 4235341.8430353431
   }
  },
  {
   "attributes": {
    "OBJECTID": 2240,
    "ولایت": "سرپل",
    "Province": "SAR-E-PUL",
    "PC_Code": "2203082",
    "District": "KOHISTANAT",
    "د_مرکز_نوم__نام_مرکز": "لیسه\u064E آزادی",
    "Polling_Center_Name": "Azadi High School",
    "د_مرکز_ځای__موقعیت_مرکز": "شینه\u064E سفید میدان",
    "Polling_Center_Location": "Safid Maidan Shina",
    "Map_Accuracy": "Building",
    "Map_Accuracy_Dari": "تعمیر",
    "Status": "Open",
    "Status_Dari": null,
    "PS_Male": 2,
    "PS_Female": 1,
    "PS_Total": 3,
    "ولسوالي": "کوهستانات",
    "Region": "Northern Region"
   },
   "geometry": {
    "x": 7368933.9923545783,
    "y": 4202370.8838371867
   }
  },
  {
   "attributes": {
    "OBJECTID": 2241,
    "ولایت": "سرپل",
    "Province": "SAR-E-PUL",
    "PC_Code": "2203083",
    "District": "KOHISTANAT",
    "د_مرکز_نوم__نام_مرکز": "لیسه\u064E شهید مزاری",
    "Polling_Center_Name": "Shaheed Mazari High School",
    "د_مرکز_ځای__موقعیت_مرکز": " دهنه\u064E کاشان",
    "Polling_Center_Location": "Dahna Kashan",
    "Map_Accuracy": "Building",
    "Map_Accuracy_Dari": "تعمیر",
    "Status": "Open",
    "Status_Dari": null,
    "PS_Male": 1,
    "PS_Female": 1,
    "PS_Total": 2,
    "ولسوالي": "کوهستانات",
    "Region": "Northern Region"
   },
   "geometry": {
    "x": 7373130.3698031688,
    "y": 4182060.6789093465
   }
  },
  {
   "attributes": {
    "OBJECTID": 2242,
    "ولایت": "سرپل",
    "Province": "SAR-E-PUL",
    "PC_Code": "2204043",
    "District": "SOZMA QALA",
    "د_مرکز_نوم__نام_مرکز": "مسجد جامع سبزی کلان",
    "Polling_Center_Name": "Sabzi Kalan Mosque",
    "د_مرکز_ځای__موقعیت_مرکز": "سبزی کلان",
    "Polling_Center_Location": "Sabzi Kalan",
    "Map_Accuracy": "Building",
    "Map_Accuracy_Dari": "تعمیر",
    "Status": "Open",
    "Status_Dari": null,
    "PS_Male": 1,
    "PS_Female": 1,
    "PS_Total": 2,
    "ولسوالي": "سوزمه قلعه",
    "Region": "Northern Region"
   },
   "geometry": {
    "x": 7378684.4376100944,
    "y": 4315912.3034591321
   }
  },
  {
   "attributes": {
    "OBJECTID": 2243,
    "ولایت": "غور",
    "Province": "GHOR",
    "PC_Code": "2301008",
    "District": "CHIGHCHERAN",
    "د_مرکز_نوم__نام_مرکز": "مکتب تغه تیمور",
    "Polling_Center_Name": "Tagha-e-Taimur School",
    "د_مرکز_ځای__موقعیت_مرکز": " تغه تیمور",
    "Polling_Center_Location": "Tagha-e-Taimur",
    "Map_Accuracy": "Village",
    "Map_Accuracy_Dari": "قریه",
    "Status": "Open",
    "Status_Dari": null,
    "PS_Male": 4,
    "PS_Female": 1,
    "PS_Total": 5,
    "ولسوالي": "چغچران",
    "Region": "Western Region"
   },
   "geometry": {
    "x": 7249209.8098751381,
    "y": 4089849.8457024074
   }
  },
  {
   "attributes": {
    "OBJECTID": 2244,
    "ولایت": "غور",
    "Province": "GHOR",
    "PC_Code": "2301009",
    "District": "CHIGHCHERAN",
    "د_مرکز_نوم__نام_مرکز": "مکتب کاسی علیا",
    "Polling_Center_Name": "Kaasi Ulya School",
    "د_مرکز_ځای__موقعیت_مرکز": "سر پل کاسی ",
    "Polling_Center_Location": "Sar Pul Kasi",
    "Map_Accuracy": "Building",
    "Map_Accuracy_Dari": "تعمیر",
    "Status": "Open",
    "Status_Dari": null,
    "PS_Male": 4,
    "PS_Female": 2,
    "PS_Total": 6,
    "ولسوالي": "چغچران",
    "Region": "Western Region"
   },
   "geometry": {
    "x": 7268373.542591624,
    "y": 4109789.1462635333
   }
  },
  {
   "attributes": {
    "OBJECTID": 2245,
    "ولایت": "غور",
    "Province": "GHOR",
    "PC_Code": "2301017",
    "District": "CHIGHCHERAN",
    "د_مرکز_نوم__نام_مرکز": "زمین عبدالاحمد",
    "Polling_Center_Name": "Abdul Ahmad Open Space",
    "د_مرکز_ځای__موقعیت_مرکز": " لشاره سفلی",
    "Polling_Center_Location": "Lashara Sufla",
    "Map_Accuracy": "Village",
    "Map_Accuracy_Dari": "قریه",
    "Status": "Open",
    "Status_Dari": null,
    "PS_Male": 3,
    "PS_Female": 2,
    "PS_Total": 5,
    "ولسوالي": "چغچران",
    "Region": "Western Region"
   },
   "geometry": {
    "x": 7227010.7074524909,
    "y": 4115746.5993747241
   }
  },
  {
   "attributes": {
    "OBJECTID": 2246,
    "ولایت": "دایکندی",
    "Province": "DAYKUNDI",
    "PC_Code": "2405183",
    "District": "KHEDIR",
    "د_مرکز_نوم__نام_مرکز": "مدرسه",
    "Polling_Center_Name": "School",
    "د_مرکز_ځای__موقعیت_مرکز": "رنگ درخت ",
    "Polling_Center_Location": "Rang darakht",
    "Map_Accuracy": "Building",
    "Map_Accuracy_Dari": "تعمیر",
    "Status": "Open",
    "Status_Dari": null,
    "PS_Male": 2,
    "PS_Female": 1,
    "PS_Total": 3,
    "ولسوالي": "خدیر",
    "Region": "Central Highlands Region"
   },
   "geometry": {
    "x": 7329369.4002472199,
    "y": 4010807.3397511402
   }
  },
  {
   "attributes": {
    "OBJECTID": 2247,
    "ولایت": "دایکندی",
    "Province": "DAYKUNDI",
    "PC_Code": "2406184",
    "District": "KITI",
    "د_مرکز_نوم__نام_مرکز": "مسجد",
    "Polling_Center_Name": "Mosque",
    "د_مرکز_ځای__موقعیت_مرکز": "سر باغ کیسو",
    "Polling_Center_Location": "Sar bagh kisaw",
    "Map_Accuracy": "Building",
    "Map_Accuracy_Dari": "تعمیر",
    "Status": "Open",
    "Status_Dari": null,
    "PS_Male": 2,
    "PS_Female": 1,
    "PS_Total": 3,
    "ولسوالي": "کیتی",
    "Region": "Central Highlands Region"
   },
   "geometry": {
    "x": 7329055.0813159989,
    "y": 3952373.3848793162
   }
  },
  {
   "attributes": {
    "OBJECTID": 2248,
    "ولایت": "دایکندی",
    "Province": "DAYKUNDI",
    "PC_Code": "2406185",
    "District": "KITI",
    "د_مرکز_نوم__نام_مرکز": "مسجد",
    "Polling_Center_Name": "Mosque",
    "د_مرکز_ځای__موقعیت_مرکز": "تجریب",
    "Polling_Center_Location": "Tajreeb",
    "Map_Accuracy": "Building",
    "Map_Accuracy_Dari": "تعمیر",
    "Status": "Open",
    "Status_Dari": null,
    "PS_Male": 2,
    "PS_Female": 1,
    "PS_Total": 3,
    "ولسوالي": "کیتی",
    "Region": "Central Highlands Region"
   },
   "geometry": {
    "x": 7312725.301605775,
    "y": 3959480.5559708215
   }
  },
  {
   "attributes": {
    "OBJECTID": 2249,
    "ولایت": "دایکندی",
    "Province": "DAYKUNDI",
    "PC_Code": "2406143",
    "District": "KITI",
    "د_مرکز_نوم__نام_مرکز": "مسجد هوشی",
    "Polling_Center_Name": "Hoshi Mosque",
    "د_مرکز_ځای__موقعیت_مرکز": "هوشی",
    "Polling_Center_Location": "Hoshi",
    "Map_Accuracy": "Building",
    "Map_Accuracy_Dari": "تعمیر",
    "Status": "Open",
    "Status_Dari": null,
    "PS_Male": 2,
    "PS_Female": 1,
    "PS_Total": 3,
    "ولسوالي": "کیتی",
    "Region": "Central Highlands Region"
   },
   "geometry": {
    "x": 7320403.7560659647,
    "y": 3960513.8170880107
   }
  },
  {
   "attributes": {
    "OBJECTID": 2250,
    "ولایت": "دایکندی",
    "Province": "DAYKUNDI",
    "PC_Code": "2407144",
    "District": "MIRAMOR",
    "د_مرکز_نوم__نام_مرکز": "مسجد اورلک",
    "Polling_Center_Name": "Orlak Mosque",
    "د_مرکز_ځای__موقعیت_مرکز": "تیورسل",
    "Polling_Center_Location": "Teyorsal",
    "Map_Accuracy": "Building",
    "Map_Accuracy_Dari": "تعمیر",
    "Status": "Open",
    "Status_Dari": null,
    "PS_Male": 1,
    "PS_Female": 3,
    "PS_Total": 4,
    "ولسوالي": "میرامور",
    "Region": "Central Highlands Region"
   },
   "geometry": {
    "x": 7449805.4483837495,
    "y": 4006819.3084043032
   }
  },
  {
   "attributes": {
    "OBJECTID": 2251,
    "ولایت": "دایکندی",
    "Province": "DAYKUNDI",
    "PC_Code": "2406129",
    "District": "KITI",
    "د_مرکز_نوم__نام_مرکز": "مسجد شینه کیتی",
    "Polling_Center_Name": "Shina Kiti Mosque",
    "د_مرکز_ځای__موقعیت_مرکز": "شینه کیتی",
    "Polling_Center_Location": "Shina Kiti",
    "Map_Accuracy": "Building",
    "Map_Accuracy_Dari": "تعمیر",
    "Status": "Open",
    "Status_Dari": null,
    "PS_Male": 2,
    "PS_Female": 1,
    "PS_Total": 3,
    "ولسوالي": "کیتی",
    "Region": "Central Highlands Region"
   },
   "geometry": {
    "x": 7317241.9040411655,
    "y": 3972488.0593332201
   }
  },
  {
   "attributes": {
    "OBJECTID": 2252,
    "ولایت": "دایکندی",
    "Province": "DAYKUNDI",
    "PC_Code": "2405180",
    "District": "KHEDIR",
    "د_مرکز_نوم__نام_مرکز": "مکتب",
    "Polling_Center_Name": "School",
    "د_مرکز_ځای__موقعیت_مرکز": "چاغان",
    "Polling_Center_Location": "Chaghan",
    "Map_Accuracy": "Building",
    "Map_Accuracy_Dari": "تعمیر",
    "Status": "Open",
    "Status_Dari": null,
    "PS_Male": 2,
    "PS_Female": 1,
    "PS_Total": 3,
    "ولسوالي": "خدیر",
    "Region": "Western Region"
   },
   "geometry": {
    "x": 7304653.4968305668,
    "y": 3987107.678280721
   }
  },
  {
   "attributes": {
    "OBJECTID": 2253,
    "ولایت": "دایکندی",
    "Province": "DAYKUNDI",
    "PC_Code": "2405181",
    "District": "KHEDIR",
    "د_مرکز_نوم__نام_مرکز": "مسجد",
    "Polling_Center_Name": "Mosque",
    "د_مرکز_ځای__موقعیت_مرکز": "خربید سرقول",
    "Polling_Center_Location": "Kharbid sar qul",
    "Map_Accuracy": "Building",
    "Map_Accuracy_Dari": "تعمیر",
    "Status": "Open",
    "Status_Dari": null,
    "PS_Male": 2,
    "PS_Female": 1,
    "PS_Total": 3,
    "ولسوالي": "خدیر",
    "Region": "Central Highlands Region"
   },
   "geometry": {
    "x": 7336853.0784377623,
    "y": 4014254.7993046525
   }
  },
  {
   "attributes": {
    "OBJECTID": 2254,
    "ولایت": "دایکندی",
    "Province": "DAYKUNDI",
    "PC_Code": "2401007",
    "District": "NILI",
    "د_مرکز_نوم__نام_مرکز": "مسجد سنگ موم",
    "Polling_Center_Name": "Sang Moom Mosque",
    "د_مرکز_ځای__موقعیت_مرکز": "سنگ موم",
    "Polling_Center_Location": "Sang Moom",
    "Map_Accuracy": "Building",
    "Map_Accuracy_Dari": "تعمیر",
    "Status": "Open",
    "Status_Dari": null,
    "PS_Male": 2,
    "PS_Female": 3,
    "PS_Total": 5,
    "ولسوالي": "نیلی",
    "Region": "Central Highlands Region"
   },
   "geometry": {
    "x": 7363044.2116801003,
    "y": 3988111.5611705529
   }
  },
  {
   "attributes": {
    "OBJECTID": 2255,
    "ولایت": "دایکندی",
    "Province": "DAYKUNDI",
    "PC_Code": "2401008",
    "District": "NILI",
    "د_مرکز_نوم__نام_مرکز": "مسجد جامع دشت",
    "Polling_Center_Name": "Dasht Mosque",
    "د_مرکز_ځای__موقعیت_مرکز": "دشت",
    "Polling_Center_Location": "Dasht",
    "Map_Accuracy": "Building",
    "Map_Accuracy_Dari": "تعمیر",
    "Status": "Open",
    "Status_Dari": null,
    "PS_Male": 5,
    "PS_Female": 3,
    "PS_Total": 8,
    "ولسوالي": "نیلی",
    "Region": "Central Highlands Region"
   },
   "geometry": {
    "x": 7364033.8987261886,
    "y": 3996483.7202935773
   }
  },
  {
   "attributes": {
    "OBJECTID": 2256,
    "ولایت": "دایکندی",
    "Province": "DAYKUNDI",
    "PC_Code": "2402035",
    "District": "SHAHRISTAN",
    "د_مرکز_نوم__نام_مرکز": "مسجد آشو غولکه",
    "Polling_Center_Name": "Asho Gholaka Mosque",
    "د_مرکز_ځای__موقعیت_مرکز": "آشو غولکه",
    "Polling_Center_Location": "Asho Ghokala",
    "Map_Accuracy": "Building",
    "Map_Accuracy_Dari": "تعمیر",
    "Status": "Open",
    "Status_Dari": null,
    "PS_Male": 2,
    "PS_Female": 1,
    "PS_Total": 3,
    "ولسوالي": "شهرستان",
    "Region": "Central Highlands Region"
   },
   "geometry": {
    "x": 7415750.1867837096,
    "y": 3967635.0300447638
   }
  },
  {
   "attributes": {
    "OBJECTID": 2257,
    "ولایت": "دایکندی",
    "Province": "DAYKUNDI",
    "PC_Code": "2403109",
    "District": "GIZAB",
    "د_مرکز_نوم__نام_مرکز": "مسجد صاحب زمان وگیر",
    "Polling_Center_Name": "Sahib Zaman Wageer Mosque",
    "د_مرکز_ځای__موقعیت_مرکز": "وگیر",
    "Polling_Center_Location": "Wageer",
    "Map_Accuracy": "Building",
    "Map_Accuracy_Dari": "تعمیر",
    "Status": "Open",
    "Status_Dari": null,
    "PS_Male": 1,
    "PS_Female": 1,
    "PS_Total": 2,
    "ولسوالي": "گیزاب",
    "Region": "Central Highlands Region"
   },
   "geometry": {
    "x": 7356176.1642260803,
    "y": 3984773.0649265046
   }
  },
  {
   "attributes": {
    "OBJECTID": 2258,
    "ولایت": "دایکندی",
    "Province": "DAYKUNDI",
    "PC_Code": "2403110",
    "District": "GIZAB",
    "د_مرکز_نوم__نام_مرکز": "مکتب بازار چلزی",
    "Polling_Center_Name": "Chalzai Bazar School",
    "د_مرکز_ځای__موقعیت_مرکز": "چلزی",
    "Polling_Center_Location": "Chalzai",
    "Map_Accuracy": "District",
    "Map_Accuracy_Dari": "ولسوالی",
    "Status": "Open",
    "Status_Dari": null,
    "PS_Male": 1,
    "PS_Female": 1,
    "PS_Total": 2,
    "ولسوالي": "گیزاب",
    "Region": "Central Highlands Region"
   },
   "geometry": {
    "x": 7361370.5698902085,
    "y": 3957960.0348712415
   }
  },
  {
   "attributes": {
    "OBJECTID": 2259,
    "ولایت": "دایکندی",
    "Province": "DAYKUNDI",
    "PC_Code": "2403114",
    "District": "GIZAB",
    "د_مرکز_نوم__نام_مرکز": "مسجد سهور تگاب دار",
    "Polling_Center_Name": "Sohoor Tagabdar Mosque",
    "د_مرکز_ځای__موقعیت_مرکز": "سهور تگاب دار",
    "Polling_Center_Location": "Sohoor Tagabdar",
    "Map_Accuracy": "Building",
    "Map_Accuracy_Dari": "تعمیر",
    "Status": "Open",
    "Status_Dari": null,
    "PS_Male": 3,
    "PS_Female": 2,
    "PS_Total": 5,
    "ولسوالي": "گیزاب",
    "Region": "Central Highlands Region"
   },
   "geometry": {
    "x": 7348957.2800384946,
    "y": 3943972.1863738503
   }
  },
  {
   "attributes": {
    "OBJECTID": 2260,
    "ولایت": "دایکندی",
    "Province": "DAYKUNDI",
    "PC_Code": "2404036",
    "District": "ISHTERLAI",
    "د_مرکز_نوم__نام_مرکز": "مسجد سیاه ناورعبدی",
    "Polling_Center_Name": "Siyah Nawar Abdi Mosque",
    "د_مرکز_ځای__موقعیت_مرکز": "سیاه ناورعبدی",
    "Polling_Center_Location": "Siyah Nawar Abdi",
    "Map_Accuracy": "Building",
    "Map_Accuracy_Dari": "تعمیر",
    "Status": "Open",
    "Status_Dari": null,
    "PS_Male": 2,
    "PS_Female": 2,
    "PS_Total": 4,
    "ولسوالي": "اشترلی",
    "Region": "Central Highlands Region"
   },
   "geometry": {
    "x": 7388946.0230055107,
    "y": 4026562.5925993323
   }
  },
  {
   "attributes": {
    "OBJECTID": 2261,
    "ولایت": "دایکندی",
    "Province": "DAYKUNDI",
    "PC_Code": "2404037",
    "District": "ISHTERLAI",
    "د_مرکز_نوم__نام_مرکز": "مسجد سفید سنگ",
    "Polling_Center_Name": "Safid Sang Mosque",
    "د_مرکز_ځای__موقعیت_مرکز": "پیرستان",
    "Polling_Center_Location": "Pirestan",
    "Map_Accuracy": "Building",
    "Map_Accuracy_Dari": "تعمیر",
    "Status": "Open",
    "Status_Dari": null,
    "PS_Male": 2,
    "PS_Female": 1,
    "PS_Total": 3,
    "ولسوالي": "اشترلی",
    "Region": "Central Highlands Region"
   },
   "geometry": {
    "x": 7403259.7892603111,
    "y": 4032783.5983289713
   }
  },
  {
   "attributes": {
    "OBJECTID": 2262,
    "ولایت": "دایکندی",
    "Province": "DAYKUNDI",
    "PC_Code": "2404042",
    "District": "ISHTERLAI",
    "د_مرکز_نوم__نام_مرکز": "مسجد گم آب",
    "Polling_Center_Name": "Gum Aab Mosque",
    "د_مرکز_ځای__موقعیت_مرکز": "گم آب",
    "Polling_Center_Location": "Gum Aab",
    "Map_Accuracy": "Building",
    "Map_Accuracy_Dari": "تعمیر",
    "Status": "Open",
    "Status_Dari": null,
    "PS_Male": 1,
    "PS_Female": 1,
    "PS_Total": 2,
    "ولسوالي": "اشترلی",
    "Region": "Central Highlands Region"
   },
   "geometry": {
    "x": 7405336.547201518,
    "y": 4067734.301279569
   }
  },
  {
   "attributes": {
    "OBJECTID": 2263,
    "ولایت": "دایکندی",
    "Province": "DAYKUNDI",
    "PC_Code": "2404043",
    "District": "ISHTERLAI",
    "د_مرکز_نوم__نام_مرکز": "مسجد لوران خوشک",
    "Polling_Center_Name": "Loran Khushk Mosque",
    "د_مرکز_ځای__موقعیت_مرکز": "لوران خوشک",
    "Polling_Center_Location": "Loran Khushk",
    "Map_Accuracy": "Building",
    "Map_Accuracy_Dari": "تعمیر",
    "Status": "Open",
    "Status_Dari": null,
    "PS_Male": 2,
    "PS_Female": 1,
    "PS_Total": 3,
    "ولسوالي": "اشترلی",
    "Region": "Central Highlands Region"
   },
   "geometry": {
    "x": 7379517.0049873022,
    "y": 4023431.640413058
   }
  },
  {
   "attributes": {
    "OBJECTID": 2264,
    "ولایت": "دایکندی",
    "Province": "DAYKUNDI",
    "PC_Code": "2405088",
    "District": "KHEDIR",
    "د_مرکز_نوم__نام_مرکز": "مسجد خدیر سفلی",
    "Polling_Center_Name": "Khadeer Sufla Mosque",
    "د_مرکز_ځای__موقعیت_مرکز": "خدیر سفلی",
    "Polling_Center_Location": "Khadeer Sufla",
    "Map_Accuracy": "Building",
    "Map_Accuracy_Dari": "تعمیر",
    "Status": "Open",
    "Status_Dari": null,
    "PS_Male": 1,
    "PS_Female": 2,
    "PS_Total": 3,
    "ولسوالي": "خدیر",
    "Region": "Central Highlands Region"
   },
   "geometry": {
    "x": 7338157.2656432027,
    "y": 4019031.0492465994
   }
  },
  {
   "attributes": {
    "OBJECTID": 2265,
    "ولایت": "دایکندی",
    "Province": "DAYKUNDI",
    "PC_Code": "2405089",
    "District": "KHEDIR",
    "د_مرکز_نوم__نام_مرکز": "مسجد شکردره",
    "Polling_Center_Name": "Shakar Dara Mosque",
    "د_مرکز_ځای__موقعیت_مرکز": "شکردره",
    "Polling_Center_Location": "Shakar Dara",
    "Map_Accuracy": "Building",
    "Map_Accuracy_Dari": "تعمیر",
    "Status": "Open",
    "Status_Dari": null,
    "PS_Male": 1,
    "PS_Female": 2,
    "PS_Total": 3,
    "ولسوالي": "خدیر",
    "Region": "Central Highlands Region"
   },
   "geometry": {
    "x": 7314356.010807652,
    "y": 4005145.5538433995
   }
  },
  {
   "attributes": {
    "OBJECTID": 2266,
    "ولایت": "دایکندی",
    "Province": "DAYKUNDI",
    "PC_Code": "2405091",
    "District": "KHEDIR",
    "د_مرکز_نوم__نام_مرکز": "مکتب دستنی",
    "Polling_Center_Name": "Dastani School",
    "د_مرکز_ځای__موقعیت_مرکز": "دستنی",
    "Polling_Center_Location": "Dastani",
    "Map_Accuracy": "Building",
    "Map_Accuracy_Dari": "تعمیر",
    "Status": "Open",
    "Status_Dari": null,
    "PS_Male": 1,
    "PS_Female": 2,
    "PS_Total": 3,
    "ولسوالي": "خدیر",
    "Region": "Central Highlands Region"
   },
   "geometry": {
    "x": 7309505.4042588929,
    "y": 4002277.3452968765
   }
  },
  {
   "attributes": {
    "OBJECTID": 2267,
    "ولایت": "دایکندی",
    "Province": "DAYKUNDI",
    "PC_Code": "2405092",
    "District": "KHEDIR",
    "د_مرکز_نوم__نام_مرکز": "مسجد قریه بزی",
    "Polling_Center_Name": "Bazi Village Mosque",
    "د_مرکز_ځای__موقعیت_مرکز": "قریه بزی",
    "Polling_Center_Location": "Bazi Village",
    "Map_Accuracy": "Building",
    "Map_Accuracy_Dari": "تعمیر",
    "Status": "Open",
    "Status_Dari": null,
    "PS_Male": 1,
    "PS_Female": 2,
    "PS_Total": 3,
    "ولسوالي": "خدیر",
    "Region": "Central Highlands Region"
   },
   "geometry": {
    "x": 7311838.365789271,
    "y": 3995477.308837356
   }
  },
  {
   "attributes": {
    "OBJECTID": 2268,
    "ولایت": "دایکندی",
    "Province": "DAYKUNDI",
    "PC_Code": "2407146",
    "District": "MIRAMOR",
    "د_مرکز_نوم__نام_مرکز": "مکتب اسکان",
    "Polling_Center_Name": "Askan Mosque",
    "د_مرکز_ځای__موقعیت_مرکز": "اسکان",
    "Polling_Center_Location": "Askan",
    "Map_Accuracy": "Building",
    "Map_Accuracy_Dari": "تعمیر",
    "Status": "Open",
    "Status_Dari": null,
    "PS_Male": 2,
    "PS_Female": 2,
    "PS_Total": 4,
    "ولسوالي": "میرامور",
    "Region": "Central Highlands Region"
   },
   "geometry": {
    "x": 7435304.2846717564,
    "y": 3992563.9333102209
   }
  },
  {
   "attributes": {
    "OBJECTID": 2269,
    "ولایت": "دایکندی",
    "Province": "DAYKUNDI",
    "PC_Code": "2407147",
    "District": "MIRAMOR",
    "د_مرکز_نوم__نام_مرکز": "مسجد سرخ جوی",
    "Polling_Center_Name": "Surkh Joy Mosque",
    "د_مرکز_ځای__موقعیت_مرکز": "سرخ جوی",
    "Polling_Center_Location": "Surkh Joy ",
    "Map_Accuracy": "Building",
    "Map_Accuracy_Dari": "تعمیر",
    "Status": "Open",
    "Status_Dari": null,
    "PS_Male": 2,
    "PS_Female": 2,
    "PS_Total": 4,
    "ولسوالي": "میرامور",
    "Region": "Central Highlands Region"
   },
   "geometry": {
    "x": 7444064.3371156091,
    "y": 4013738.7830471341
   }
  },
  {
   "attributes": {
    "OBJECTID": 2270,
    "ولایت": "دایکندی",
    "Province": "DAYKUNDI",
    "PC_Code": "2407154",
    "District": "MIRAMOR",
    "د_مرکز_نوم__نام_مرکز": "لیسه زکور وطنه",
    "Polling_Center_Name": "Watana Boys High School",
    "د_مرکز_ځای__موقعیت_مرکز": "پتاپ جوی",
    "Polling_Center_Location": "Pitap Joy",
    "Map_Accuracy": "Building",
    "Map_Accuracy_Dari": "تعمیر",
    "Status": "Open",
    "Status_Dari": null,
    "PS_Male": 1,
    "PS_Female": 1,
    "PS_Total": 2,
    "ولسوالي": "میرامور",
    "Region": "Central Highlands Region"
   },
   "geometry": {
    "x": 7474658.5633141929,
    "y": 4008901.1658041435
   }
  },
  {
   "attributes": {
    "OBJECTID": 2271,
    "ولایت": "دایکندی",
    "Province": "DAYKUNDI",
    "PC_Code": "2407155",
    "District": "MIRAMOR",
    "د_مرکز_نوم__نام_مرکز": "مسجد شینیه نیک",
    "Polling_Center_Name": "Shinya Nek Mosque",
    "د_مرکز_ځای__موقعیت_مرکز": "شینیه نیک",
    "Polling_Center_Location": "Shinya Nek",
    "Map_Accuracy": "Building",
    "Map_Accuracy_Dari": "تعمیر",
    "Status": "Open",
    "Status_Dari": null,
    "PS_Male": 1,
    "PS_Female": 1,
    "PS_Total": 2,
    "ولسوالي": "میرامور",
    "Region": "Central Highlands Region"
   },
   "geometry": {
    "x": 7491736.2010558676,
    "y": 4012221.2548454567
   }
  },
  {
   "attributes": {
    "OBJECTID": 2272,
    "ولایت": "دایکندی",
    "Province": "DAYKUNDI",
    "PC_Code": "2407157",
    "District": "MIRAMOR",
    "د_مرکز_نوم__نام_مرکز": "مکتب شینیه برکر",
    "Polling_Center_Name": "Shinya Barkar School",
    "د_مرکز_ځای__موقعیت_مرکز": "شینیه برکر",
    "Polling_Center_Location": "Shinya Barkar",
    "Map_Accuracy": "Building",
    "Map_Accuracy_Dari": "تعمیر",
    "Status": "Open",
    "Status_Dari": null,
    "PS_Male": 2,
    "PS_Female": 1,
    "PS_Total": 3,
    "ولسوالي": "میرامور",
    "Region": "Central Highlands Region"
   },
   "geometry": {
    "x": 7464432.8751149736,
    "y": 3998744.9918180462
   }
  },
  {
   "attributes": {
    "OBJECTID": 2273,
    "ولایت": "دایکندی",
    "Province": "DAYKUNDI",
    "PC_Code": "2407158",
    "District": "MIRAMOR",
    "د_مرکز_نوم__نام_مرکز": "مسجد شینه اشتو",
    "Polling_Center_Name": "Shina Ashto Mosque",
    "د_مرکز_ځای__موقعیت_مرکز": "اشتو",
    "Polling_Center_Location": "Ashto",
    "Map_Accuracy": "Building",
    "Map_Accuracy_Dari": "تعمیر",
    "Status": "Open",
    "Status_Dari": null,
    "PS_Male": 1,
    "PS_Female": 1,
    "PS_Total": 2,
    "ولسوالي": "میرامور",
    "Region": "Central Highlands Region"
   },
   "geometry": {
    "x": 7453640.2679186035,
    "y": 3988958.2848553541
   }
  },
  {
   "attributes": {
    "OBJECTID": 2274,
    "ولایت": "دایکندی",
    "Province": "DAYKUNDI",
    "PC_Code": "2407166",
    "District": "MIRAMOR",
    "د_مرکز_نوم__نام_مرکز": "مسجد قریه گرگی",
    "Polling_Center_Name": "Gargai Village Mosque",
    "د_مرکز_ځای__موقعیت_مرکز": "گرگی",
    "Polling_Center_Location": "Gargai",
    "Map_Accuracy": "Building",
    "Map_Accuracy_Dari": "تعمیر",
    "Status": "Open",
    "Status_Dari": null,
    "PS_Male": 1,
    "PS_Female": 1,
    "PS_Total": 2,
    "ولسوالي": "میرامور",
    "Region": "Central Highlands Region"
   },
   "geometry": {
    "x": 7414287.4230712056,
    "y": 4025008.649654428
   }
  },
  {
   "attributes": {
    "OBJECTID": 2275,
    "ولایت": "دایکندی",
    "Province": "DAYKUNDI",
    "PC_Code": "2407167",
    "District": "MIRAMOR",
    "د_مرکز_نوم__نام_مرکز": "مسجد دو جهان تیکان برکر",
    "Polling_Center_Name": "Do Jahan Tikan Barkar Mosque",
    "د_مرکز_ځای__موقعیت_مرکز": "دو جهان",
    "Polling_Center_Location": "Do Jahan",
    "Map_Accuracy": "Building",
    "Map_Accuracy_Dari": "تعمیر",
    "Status": "Open",
    "Status_Dari": null,
    "PS_Male": 1,
    "PS_Female": 1,
    "PS_Total": 2,
    "ولسوالي": "میرامور",
    "Region": "Central Highlands Region"
   },
   "geometry": {
    "x": 7464022.426794081,
    "y": 4009692.7992961034
   }
  },
  {
   "attributes": {
    "OBJECTID": 2276,
    "ولایت": "دایکندی",
    "Province": "DAYKUNDI",
    "PC_Code": "2408074",
    "District": "SANG-E-TAKHT",
    "د_مرکز_نوم__نام_مرکز": "مکتب شینیه قرامت",
    "Polling_Center_Name": "Shinya Qaramat School",
    "د_مرکز_ځای__موقعیت_مرکز": "شینیه قرامت",
    "Polling_Center_Location": "Shinya Qaramat",
    "Map_Accuracy": "Building",
    "Map_Accuracy_Dari": "تعمیر",
    "Status": "Open",
    "Status_Dari": null,
    "PS_Male": 2,
    "PS_Female": 1,
    "PS_Total": 3,
    "ولسوالي": "سنگ تخت",
    "Region": "Central Highlands Region"
   },
   "geometry": {
    "x": 7367174.4063518224,
    "y": 4056753.7060532519
   }
  },
  {
   "attributes": {
    "OBJECTID": 2277,
    "ولایت": "دایکندی",
    "Province": "DAYKUNDI",
    "PC_Code": "2408075",
    "District": "SANG-E-TAKHT",
    "د_مرکز_نوم__نام_مرکز": "مسجد قلعه سنگی",
    "Polling_Center_Name": "Qala-e-Sangi Mosque",
    "د_مرکز_ځای__موقعیت_مرکز": "شیخ علی",
    "Polling_Center_Location": "Shekh Ali ",
    "Map_Accuracy": "Building",
    "Map_Accuracy_Dari": "تعمیر",
    "Status": "Open",
    "Status_Dari": null,
    "PS_Male": 2,
    "PS_Female": 1,
    "PS_Total": 3,
    "ولسوالي": "سنگ تخت",
    "Region": "Central Highlands Region"
   },
   "geometry": {
    "x": 7355929.4301407132,
    "y": 4044781.0837239702
   }
  },
  {
   "attributes": {
    "OBJECTID": 2278,
    "ولایت": "دایکندی",
    "Province": "DAYKUNDI",
    "PC_Code": "2408079",
    "District": "SANG-E-TAKHT",
    "د_مرکز_نوم__نام_مرکز": "مکتب بازار سیاه چوب",
    "Polling_Center_Name": "Siyah Chob Bazar Mosque",
    "د_مرکز_ځای__موقعیت_مرکز": "سیاه چوب",
    "Polling_Center_Location": "Siyah Chob",
    "Map_Accuracy": "Building",
    "Map_Accuracy_Dari": "تعمیر",
    "Status": "Open",
    "Status_Dari": null,
    "PS_Male": 2,
    "PS_Female": 2,
    "PS_Total": 4,
    "ولسوالي": "سنگ تخت",
    "Region": "Central Highlands Region"
   },
   "geometry": {
    "x": 7305792.8814298203,
    "y": 4033954.4883165257
   }
  },
  {
   "attributes": {
    "OBJECTID": 2279,
    "ولایت": "دایکندی",
    "Province": "DAYKUNDI",
    "PC_Code": "2408080",
    "District": "SANG-E-TAKHT",
    "د_مرکز_نوم__نام_مرکز": "مسجد شینیه لیس",
    "Polling_Center_Name": "Shinya Les Mosque",
    "د_مرکز_ځای__موقعیت_مرکز": "شینیه لیس",
    "Polling_Center_Location": "Shinya Les",
    "Map_Accuracy": "Building",
    "Map_Accuracy_Dari": "تعمیر",
    "Status": "Open",
    "Status_Dari": null,
    "PS_Male": 1,
    "PS_Female": 1,
    "PS_Total": 2,
    "ولسوالي": "سنگ تخت",
    "Region": "Central Highlands Region"
   },
   "geometry": {
    "x": 7315549.1731849918,
    "y": 4043415.33184051
   }
  },
  {
   "attributes": {
    "OBJECTID": 2280,
    "ولایت": "دایکندی",
    "Province": "DAYKUNDI",
    "PC_Code": "2409059",
    "District": "KEJRAN",
    "د_مرکز_نوم__نام_مرکز": "مکتب لاغر جوی",
    "Polling_Center_Name": "Laghar Joy School",
    "د_مرکز_ځای__موقعیت_مرکز": "لاغر جوی",
    "Polling_Center_Location": "Laghar Joy",
    "Map_Accuracy": "Building",
    "Map_Accuracy_Dari": "تعمیر",
    "Status": "Open",
    "Status_Dari": null,
    "PS_Male": 1,
    "PS_Female": 1,
    "PS_Total": 2,
    "ولسوالي": "کجران",
    "Region": "Central Highlands Region"
   },
   "geometry": {
    "x": 7287536.1732451497,
    "y": 3926241.6419905126
   }
  },
  {
   "attributes": {
    "OBJECTID": 2281,
    "ولایت": "دایکندی",
    "Province": "DAYKUNDI",
    "PC_Code": "2409060",
    "District": "KEJRAN",
    "د_مرکز_نوم__نام_مرکز": "مسجد باغبان",
    "Polling_Center_Name": "Baghban Mosque",
    "د_مرکز_ځای__موقعیت_مرکز": "باغبان",
    "Polling_Center_Location": "Baghban",
    "Map_Accuracy": "Building",
    "Map_Accuracy_Dari": "تعمیر",
    "Status": "Open",
    "Status_Dari": null,
    "PS_Male": 1,
    "PS_Female": 1,
    "PS_Total": 2,
    "ولسوالي": "کجران",
    "Region": "Central Highlands Region"
   },
   "geometry": {
    "x": 7312774.1163156815,
    "y": 3925772.1764073935
   }
  },
  {
   "attributes": {
    "OBJECTID": 2282,
    "ولایت": "دایکندی",
    "Province": "DAYKUNDI",
    "PC_Code": "2409070",
    "District": "KEJRAN",
    "د_مرکز_نوم__نام_مرکز": "مسجد سليمان آباد",
    "Polling_Center_Name": "Sulaiman Abad Mosque",
    "د_مرکز_ځای__موقعیت_مرکز": "سليمان آباد",
    "Polling_Center_Location": "Sulaiman Abad",
    "Map_Accuracy": "Building",
    "Map_Accuracy_Dari": "تعمیر",
    "Status": "Open",
    "Status_Dari": null,
    "PS_Male": 1,
    "PS_Female": 1,
    "PS_Total": 2,
    "ولسوالي": "کجران",
    "Region": "Central Highlands Region"
   },
   "geometry": {
    "x": 7302038.928825859,
    "y": 3926801.982675673
   }
  },
  {
   "attributes": {
    "OBJECTID": 2283,
    "ولایت": "دایکندی",
    "Province": "DAYKUNDI",
    "PC_Code": "2409168",
    "District": "KEJRAN",
    "د_مرکز_نوم__نام_مرکز": "مسجد هفتاد نفر",
    "Polling_Center_Name": "Haftad Nafar Mosque",
    "د_مرکز_ځای__موقعیت_مرکز": "هفتاد نفر",
    "Polling_Center_Location": "Haftad Nafar",
    "Map_Accuracy": "Building",
    "Map_Accuracy_Dari": "تعمیر",
    "Status": "Open",
    "Status_Dari": null,
    "PS_Male": 1,
    "PS_Female": 1,
    "PS_Total": 2,
    "ولسوالي": "کجران",
    "Region": "Central Highlands Region"
   },
   "geometry": {
    "x": 7316103.516419271,
    "y": 3939004.7873833543
   }
  },
  {
   "attributes": {
    "OBJECTID": 2284,
    "ولایت": "دایکندی",
    "Province": "DAYKUNDI",
    "PC_Code": "2401003",
    "District": "NILI",
    "د_مرکز_نوم__نام_مرکز": "مکتب شیش",
    "Polling_Center_Name": "Shish School",
    "د_مرکز_ځای__موقعیت_مرکز": "شیش",
    "Polling_Center_Location": "Shish",
    "Map_Accuracy": "Building",
    "Map_Accuracy_Dari": "تعمیر",
    "Status": "Open",
    "Status_Dari": null,
    "PS_Male": 2,
    "PS_Female": 2,
    "PS_Total": 4,
    "ولسوالي": "نیلی",
    "Region": "Central Highlands Region"
   },
   "geometry": {
    "x": 7349807.0028624209,
    "y": 4007441.5769515522
   }
  },
  {
   "attributes": {
    "OBJECTID": 2285,
    "ولایت": "دایکندی",
    "Province": "DAYKUNDI",
    "PC_Code": "2401004",
    "District": "NILI",
    "د_مرکز_نوم__نام_مرکز": "مسجد بازار پیشوک",
    "Polling_Center_Name": "Bazar Pishok Mosque",
    "د_مرکز_ځای__موقعیت_مرکز": "پیشوک",
    "Polling_Center_Location": "Pishok",
    "Map_Accuracy": "Building",
    "Map_Accuracy_Dari": "تعمیر",
    "Status": "Open",
    "Status_Dari": null,
    "PS_Male": 2,
    "PS_Female": 2,
    "PS_Total": 4,
    "ولسوالي": "نیلی",
    "Region": "Central Highlands Region"
   },
   "geometry": {
    "x": 7365022.864421986,
    "y": 4013588.9288301291
   }
  },
  {
   "attributes": {
    "OBJECTID": 2286,
    "ولایت": "دایکندی",
    "Province": "DAYKUNDI",
    "PC_Code": "2401012",
    "District": "NILI",
    "د_مرکز_نوم__نام_مرکز": "مسجد پای نیلی",
    "Polling_Center_Name": "Pai Nili Mosque",
    "د_مرکز_ځای__موقعیت_مرکز": "پای نیلی",
    "Polling_Center_Location": "Pai Nili",
    "Map_Accuracy": "Building",
    "Map_Accuracy_Dari": "تعمیر",
    "Status": "Open",
    "Status_Dari": null,
    "PS_Male": 3,
    "PS_Female": 2,
    "PS_Total": 5,
    "ولسوالي": "نیلی",
    "Region": "Central Highlands Region"
   },
   "geometry": {
    "x": 7366961.6202583667,
    "y": 3988182.7894341392
   }
  },
  {
   "attributes": {
    "OBJECTID": 2287,
    "ولایت": "دایکندی",
    "Province": "DAYKUNDI",
    "PC_Code": "2402013",
    "District": "SHAHRISTAN",
    "د_مرکز_نوم__نام_مرکز": "مکتب ورس",
    "Polling_Center_Name": "Waras School",
    "د_مرکز_ځای__موقعیت_مرکز": "ورس، سرخ کیجی",
    "Polling_Center_Location": "Waras, Surkh Keji",
    "Map_Accuracy": "Building",
    "Map_Accuracy_Dari": "تعمیر",
    "Status": "Open",
    "Status_Dari": null,
    "PS_Male": 3,
    "PS_Female": 2,
    "PS_Total": 5,
    "ولسوالي": "شهرستان",
    "Region": "Central Highlands Region"
   },
   "geometry": {
    "x": 7395869.4797360692,
    "y": 3984392.7113739564
   }
  },
  {
   "attributes": {
    "OBJECTID": 2288,
    "ولایت": "دایکندی",
    "Province": "DAYKUNDI",
    "PC_Code": "2402019",
    "District": "SHAHRISTAN",
    "د_مرکز_نوم__نام_مرکز": "مسجد اولقان",
    "Polling_Center_Name": "Olqan Mosque",
    "د_مرکز_ځای__موقعیت_مرکز": "اولقان",
    "Polling_Center_Location": "Olqan",
    "Map_Accuracy": "Building",
    "Map_Accuracy_Dari": "تعمیر",
    "Status": "Open",
    "Status_Dari": null,
    "PS_Male": 2,
    "PS_Female": 2,
    "PS_Total": 4,
    "ولسوالي": "شهرستان",
    "Region": "Central Highlands Region"
   },
   "geometry": {
    "x": 7408231.9989944221,
    "y": 3988015.7184749022
   }
  },
  {
   "attributes": {
    "OBJECTID": 2289,
    "ولایت": "دایکندی",
    "Province": "DAYKUNDI",
    "PC_Code": "2402020",
    "District": "SHAHRISTAN",
    "د_مرکز_نوم__نام_مرکز": "مسجد تگاب لرگر",
    "Polling_Center_Name": "Tagab Largar Mosque",
    "د_مرکز_ځای__موقعیت_مرکز": "تگاب لرگر",
    "Polling_Center_Location": "Tagab Largar",
    "Map_Accuracy": "Building",
    "Map_Accuracy_Dari": "تعمیر",
    "Status": "Open",
    "Status_Dari": null,
    "PS_Male": 1,
    "PS_Female": 1,
    "PS_Total": 2,
    "ولسوالي": "شهرستان",
    "Region": "Central Highlands Region"
   },
   "geometry": {
    "x": 7391191.6543953596,
    "y": 4013855.7578641861
   }
  },
  {
   "attributes": {
    "OBJECTID": 2290,
    "ولایت": "دایکندی",
    "Province": "DAYKUNDI",
    "PC_Code": "2402030",
    "District": "SHAHRISTAN",
    "د_مرکز_نوم__نام_مرکز": "لیسه تگگ",
    "Polling_Center_Name": "Tagag High School",
    "د_مرکز_ځای__موقعیت_مرکز": "تگگ",
    "Polling_Center_Location": "Tagag",
    "Map_Accuracy": "Building",
    "Map_Accuracy_Dari": "تعمیر",
    "Status": "Open",
    "Status_Dari": null,
    "PS_Male": 1,
    "PS_Female": 1,
    "PS_Total": 2,
    "ولسوالي": "شهرستان",
    "Region": "Central Highlands Region"
   },
   "geometry": {
    "x": 7417261.0984023781,
    "y": 3993669.6061787996
   }
  },
  {
   "attributes": {
    "OBJECTID": 2291,
    "ولایت": "دایکندی",
    "Province": "DAYKUNDI",
    "PC_Code": "2402031",
    "District": "SHAHRISTAN",
    "د_مرکز_نوم__نام_مرکز": "مسجد فیض آباد",
    "Polling_Center_Name": "Faiz Abad Mosque",
    "د_مرکز_ځای__موقعیت_مرکز": "فیض آباد",
    "Polling_Center_Location": "Faiz Abad",
    "Map_Accuracy": "Building",
    "Map_Accuracy_Dari": "تعمیر",
    "Status": "Open",
    "Status_Dari": null,
    "PS_Male": 1,
    "PS_Female": 1,
    "PS_Total": 2,
    "ولسوالي": "شهرستان",
    "Region": "Central Highlands Region"
   },
   "geometry": {
    "x": 7415626.1089660823,
    "y": 4003114.0897734929
   }
  },
  {
   "attributes": {
    "OBJECTID": 2292,
    "ولایت": "دایکندی",
    "Province": "DAYKUNDI",
    "PC_Code": "2404046",
    "District": "ISHTERLAI",
    "د_مرکز_نوم__نام_مرکز": "مسجد قلندران",
    "Polling_Center_Name": "Qalandaran Mosque",
    "د_مرکز_ځای__موقعیت_مرکز": "جنگان کلان",
    "Polling_Center_Location": "Jangan Kalan",
    "Map_Accuracy": "Building",
    "Map_Accuracy_Dari": "تعمیر",
    "Status": "Open",
    "Status_Dari": null,
    "PS_Male": 1,
    "PS_Female": 1,
    "PS_Total": 2,
    "ولسوالي": "اشترلی",
    "Region": "Central Highlands Region"
   },
   "geometry": {
    "x": 7381384.5452926429,
    "y": 4062632.7363988846
   }
  },
  {
   "attributes": {
    "OBJECTID": 2293,
    "ولایت": "دایکندی",
    "Province": "DAYKUNDI",
    "PC_Code": "2404047",
    "District": "ISHTERLAI",
    "د_مرکز_نوم__نام_مرکز": "مسجد ایل صافی",
    "Polling_Center_Name": "Elsafi Mosque",
    "د_مرکز_ځای__موقعیت_مرکز": "جنگان خورد",
    "Polling_Center_Location": "Jangan Khord",
    "Map_Accuracy": "Building",
    "Map_Accuracy_Dari": "تعمیر",
    "Status": "Open",
    "Status_Dari": null,
    "PS_Male": 1,
    "PS_Female": 2,
    "PS_Total": 3,
    "ولسوالي": "اشترلی",
    "Region": "Central Highlands Region"
   },
   "geometry": {
    "x": 7386012.4382757582,
    "y": 4058143.8840294671
   }
  },
  {
   "attributes": {
    "OBJECTID": 2294,
    "ولایت": "دایکندی",
    "Province": "DAYKUNDI",
    "PC_Code": "2404052",
    "District": "ISHTERLAI",
    "د_مرکز_نوم__نام_مرکز": "مسجد چکه جنکان",
    "Polling_Center_Name": "Chaka Jankan Mosque",
    "د_مرکز_ځای__موقعیت_مرکز": "چکه جنکان",
    "Polling_Center_Location": "Chaka Jankan",
    "Map_Accuracy": "Building",
    "Map_Accuracy_Dari": "تعمیر",
    "Status": "Open",
    "Status_Dari": null,
    "PS_Male": 1,
    "PS_Female": 1,
    "PS_Total": 2,
    "ولسوالي": "اشترلی",
    "Region": "Central Highlands Region"
   },
   "geometry": {
    "x": 7378890.2094624387,
    "y": 4053619.3933116603
   }
  },
  {
   "attributes": {
    "OBJECTID": 2295,
    "ولایت": "دایکندی",
    "Province": "DAYKUNDI",
    "PC_Code": "2404053",
    "District": "ISHTERLAI",
    "د_مرکز_نوم__نام_مرکز": "مسجد سرخ جوی",
    "Polling_Center_Name": "Surkh Joy Mosque",
    "د_مرکز_ځای__موقعیت_مرکز": "سرخ جوی",
    "Polling_Center_Location": "Surkh Joy ",
    "Map_Accuracy": "Building",
    "Map_Accuracy_Dari": "تعمیر",
    "Status": "Open",
    "Status_Dari": null,
    "PS_Male": 1,
    "PS_Female": 2,
    "PS_Total": 3,
    "ولسوالي": "اشترلی",
    "Region": "Central Highlands Region"
   },
   "geometry": {
    "x": 7377739.8883911315,
    "y": 4033180.7672321517
   }
  },
  {
   "attributes": {
    "OBJECTID": 2296,
    "ولایت": "دایکندی",
    "Province": "DAYKUNDI",
    "PC_Code": "2405095",
    "District": "KHEDIR",
    "د_مرکز_نوم__نام_مرکز": "مکتب دهن غم قل",
    "Polling_Center_Name": "Dahan Gham Qol School",
    "د_مرکز_ځای__موقعیت_مرکز": "غم قل",
    "Polling_Center_Location": "Gham Qol",
    "Map_Accuracy": "Building",
    "Map_Accuracy_Dari": "تعمیر",
    "Status": "Open",
    "Status_Dari": null,
    "PS_Male": 1,
    "PS_Female": 2,
    "PS_Total": 3,
    "ولسوالي": "خدیر",
    "Region": "Central Highlands Region"
   },
   "geometry": {
    "x": 7321348.638130202,
    "y": 4015952.2706667571
   }
  },
  {
   "attributes": {
    "OBJECTID": 2297,
    "ولایت": "دایکندی",
    "Province": "DAYKUNDI",
    "PC_Code": "2405096",
    "District": "KHEDIR",
    "د_مرکز_نوم__نام_مرکز": "مکتب پیتابک کورگه",
    "Polling_Center_Name": "Pitabak Korga School",
    "د_مرکز_ځای__موقعیت_مرکز": "پیتابک",
    "Polling_Center_Location": "Pitabak",
    "Map_Accuracy": "Building",
    "Map_Accuracy_Dari": "تعمیر",
    "Status": "Open",
    "Status_Dari": null,
    "PS_Male": 1,
    "PS_Female": 2,
    "PS_Total": 3,
    "ولسوالي": "خدیر",
    "Region": "Central Highlands Region"
   },
   "geometry": {
    "x": 7352807.0063663581,
    "y": 4013412.5874610548
   }
  },
  {
   "attributes": {
    "OBJECTID": 2298,
    "ولایت": "دایکندی",
    "Province": "DAYKUNDI",
    "PC_Code": "2405100",
    "District": "KHEDIR",
    "د_مرکز_نوم__نام_مرکز": "مسجد تخت کیان",
    "Polling_Center_Name": "Takht Kiyan Mosque",
    "د_مرکز_ځای__موقعیت_مرکز": "تخت کیان",
    "Polling_Center_Location": "Takht Kiyan",
    "Map_Accuracy": "Building",
    "Map_Accuracy_Dari": "تعمیر",
    "Status": "Open",
    "Status_Dari": null,
    "PS_Male": 2,
    "PS_Female": 1,
    "PS_Total": 3,
    "ولسوالي": "خدیر",
    "Region": "Central Highlands Region"
   },
   "geometry": {
    "x": 7333592.9483344816,
    "y": 3999579.4066429483
   }
  },
  {
   "attributes": {
    "OBJECTID": 2299,
    "ولایت": "دایکندی",
    "Province": "DAYKUNDI",
    "PC_Code": "2405101",
    "District": "KHEDIR",
    "د_مرکز_نوم__نام_مرکز": "مکتب قرب علی",
    "Polling_Center_Name": "Qorb Ali School",
    "د_مرکز_ځای__موقعیت_مرکز": "شلغم",
    "Polling_Center_Location": "Shalgham",
    "Map_Accuracy": "Building",
    "Map_Accuracy_Dari": "تعمیر",
    "Status": "Open",
    "Status_Dari": null,
    "PS_Male": 2,
    "PS_Female": 1,
    "PS_Total": 3,
    "ولسوالي": "خدیر",
    "Region": "Central Highlands Region"
   },
   "geometry": {
    "x": 7323305.3097254382,
    "y": 4028660.957095237
   }
  },
  {
   "attributes": {
    "OBJECTID": 2300,
    "ولایت": "دایکندی",
    "Province": "DAYKUNDI",
    "PC_Code": "2406126",
    "District": "KITI",
    "د_مرکز_نوم__نام_مرکز": "مدرسه کهنه ده",
    "Polling_Center_Name": "Kuhna Deh Madrassa",
    "د_مرکز_ځای__موقعیت_مرکز": "کهنه ده ",
    "Polling_Center_Location": "Kuhna Deh",
    "Map_Accuracy": "Building",
    "Map_Accuracy_Dari": "تعمیر",
    "Status": "Open",
    "Status_Dari": null,
    "PS_Male": 2,
    "PS_Female": 1,
    "PS_Total": 3,
    "ولسوالي": "کیتی",
    "Region": "Central Highlands Region"
   },
   "geometry": {
    "x": 7322724.6839593826,
    "y": 3981291.1348192953
   }
  },
  {
   "attributes": {
    "OBJECTID": 2301,
    "ولایت": "دایکندی",
    "Province": "DAYKUNDI",
    "PC_Code": "2406127",
    "District": "KITI",
    "د_مرکز_نوم__نام_مرکز": "مسجد کاروان سرای",
    "Polling_Center_Name": "Karwan Sarai Mosque",
    "د_مرکز_ځای__موقعیت_مرکز": "کاروان سرای",
    "Polling_Center_Location": "Karwan Sarai",
    "Map_Accuracy": "Building",
    "Map_Accuracy_Dari": "تعمیر",
    "Status": "Open",
    "Status_Dari": null,
    "PS_Male": 2,
    "PS_Female": 1,
    "PS_Total": 3,
    "ولسوالي": "کیتی",
    "Region": "Central Highlands Region"
   },
   "geometry": {
    "x": 7314270.7089082478,
    "y": 3980087.2593667754
   }
  },
  {
   "attributes": {
    "OBJECTID": 2302,
    "ولایت": "دایکندی",
    "Province": "DAYKUNDI",
    "PC_Code": "2406139",
    "District": "KITI",
    "د_مرکز_نوم__نام_مرکز": "مسجد شروع کیسو",
    "Polling_Center_Name": "Shoro Kiso Mosque",
    "د_مرکز_ځای__موقعیت_مرکز": "شروع کیسو",
    "Polling_Center_Location": "Shoro Kiso",
    "Map_Accuracy": "Building",
    "Map_Accuracy_Dari": "تعمیر",
    "Status": "Open",
    "Status_Dari": null,
    "PS_Male": 2,
    "PS_Female": 1,
    "PS_Total": 3,
    "ولسوالي": "کیتی",
    "Region": "Central Highlands Region"
   },
   "geometry": {
    "x": 7321509.5704916548,
    "y": 3950020.8941332335
   }
  },
  {
   "attributes": {
    "OBJECTID": 2303,
    "ولایت": "دایکندی",
    "Province": "DAYKUNDI",
    "PC_Code": "2406140",
    "District": "KITI",
    "د_مرکز_نوم__نام_مرکز": "مسجد مونمی",
    "Polling_Center_Name": "Monami Mosque",
    "د_مرکز_ځای__موقعیت_مرکز": "مونمی",
    "Polling_Center_Location": "Monami",
    "Map_Accuracy": "Building",
    "Map_Accuracy_Dari": "تعمیر",
    "Status": "Open",
    "Status_Dari": null,
    "PS_Male": 2,
    "PS_Female": 1,
    "PS_Total": 3,
    "ولسوالي": "کیتی",
    "Region": "Central Highlands Region"
   },
   "geometry": {
    "x": 7317333.9719392164,
    "y": 3966464.8582454105
   }
  },
  {
   "attributes": {
    "OBJECTID": 2304,
    "ولایت": "دایکندی",
    "Province": "DAYKUNDI",
    "PC_Code": "2407161",
    "District": "MIRAMOR",
    "د_مرکز_نوم__نام_مرکز": "مسجد تی جنک",
    "Polling_Center_Name": "Tai Jang Mosque",
    "د_مرکز_ځای__موقعیت_مرکز": "ندک",
    "Polling_Center_Location": "Nadak",
    "Map_Accuracy": "Building",
    "Map_Accuracy_Dari": "تعمیر",
    "Status": "Open",
    "Status_Dari": null,
    "PS_Male": 1,
    "PS_Female": 1,
    "PS_Total": 2,
    "ولسوالي": "میرامور",
    "Region": "Central Highlands Region"
   },
   "geometry": {
    "x": 7448477.5827433821,
    "y": 3985107.3023356986
   }
  },
  {
   "attributes": {
    "OBJECTID": 2305,
    "ولایت": "کندز",
    "Province": "KUNDUZ",
    "PC_Code": "1901025",
    "District": "KUNDUZ",
    "د_مرکز_نوم__نام_مرکز": "مکتب توبره کش",
    "Polling_Center_Name": "Tobra Kash School",
    "د_مرکز_ځای__موقعیت_مرکز": "قریه توبره کش",
    "Polling_Center_Location": "Tobra Kash",
    "Map_Accuracy": "Village",
    "Map_Accuracy_Dari": "قریه",
    "Status": "Open",
    "Status_Dari": null,
    "PS_Male": 3,
    "PS_Female": 1,
    "PS_Total": 4,
    "ولسوالي": "کندز",
    "Region": "North Eastern Region"
   },
   "geometry": {
    "x": 7649290.0337714301,
    "y": 4418457.4337946959
   }
  },
  {
   "attributes": {
    "OBJECTID": 2306,
    "ولایت": "کندز",
    "Province": "KUNDUZ",
    "PC_Code": "1901026",
    "District": "KUNDUZ",
    "د_مرکز_نوم__نام_مرکز": "مکتب تیموری آلچین",
    "Polling_Center_Name": "Taimori Alcheen School",
    "د_مرکز_ځای__موقعیت_مرکز": "تیموری آلچین",
    "Polling_Center_Location": "Taimori Alcheen",
    "Map_Accuracy": "Building",
    "Map_Accuracy_Dari": "تعمیر",
    "Status": "Open",
    "Status_Dari": null,
    "PS_Male": 4,
    "PS_Female": 1,
    "PS_Total": 5,
    "ولسوالي": "کندز",
    "Region": "North Eastern Region"
   },
   "geometry": {
    "x": 7668622.8251721943,
    "y": 4410518.5611219509
   }
  },
  {
   "attributes": {
    "OBJECTID": 2307,
    "ولایت": "دایکندی",
    "Province": "DAYKUNDI",
    "PC_Code": "2407162",
    "District": "MIRAMOR",
    "د_مرکز_نوم__نام_مرکز": "مسجد سیاه بومک رباط",
    "Polling_Center_Name": "Siyah Bomak Rabat Mosque",
    "د_مرکز_ځای__موقعیت_مرکز": "سیاه بومک",
    "Polling_Center_Location": "Siyah Bomak",
    "Map_Accuracy": "Building",
    "Map_Accuracy_Dari": "تعمیر",
    "Status": "Open",
    "Status_Dari": null,
    "PS_Male": 1,
    "PS_Female": 1,
    "PS_Total": 2,
    "ولسوالي": "میرامور",
    "Region": "Central Highlands Region"
   },
   "geometry": {
    "x": 7431891.6687960224,
    "y": 4021911.562106905
   }
  },
  {
   "attributes": {
    "OBJECTID": 2308,
    "ولایت": "دایکندی",
    "Province": "DAYKUNDI",
    "PC_Code": "2402173",
    "District": "SHAHRISTAN",
    "د_مرکز_نوم__نام_مرکز": "مسجد",
    "Polling_Center_Name": "Mosque",
    "د_مرکز_ځای__موقعیت_مرکز": "سفید پشته لرگر",
    "Polling_Center_Location": "Safid pushta largar",
    "Map_Accuracy": "Building",
    "Map_Accuracy_Dari": "تعمیر",
    "Status": "Open",
    "Status_Dari": null,
    "PS_Male": 2,
    "PS_Female": 1,
    "PS_Total": 3,
    "ولسوالي": "شهرستان",
    "Region": "Central Highlands Region"
   },
   "geometry": {
    "x": 7402771.8827226553,
    "y": 4013220.8013391229
   }
  },
  {
   "attributes": {
    "OBJECTID": 2309,
    "ولایت": "دایکندی",
    "Province": "DAYKUNDI",
    "PC_Code": "2402174",
    "District": "SHAHRISTAN",
    "د_مرکز_نوم__نام_مرکز": "مسجد",
    "Polling_Center_Name": "Mosque",
    "د_مرکز_ځای__موقعیت_مرکز": "غاف",
    "Polling_Center_Location": "Ghaf",
    "Map_Accuracy": "Building",
    "Map_Accuracy_Dari": "تعمیر",
    "Status": "Open",
    "Status_Dari": null,
    "PS_Male": 2,
    "PS_Female": 1,
    "PS_Total": 3,
    "ولسوالي": "شهرستان",
    "Region": "Central Highlands Region"
   },
   "geometry": {
    "x": 7426057.8828272829,
    "y": 4002871.3050171016
   }
  },
  {
   "attributes": {
    "OBJECTID": 2310,
    "ولایت": "دایکندی",
    "Province": "DAYKUNDI",
    "PC_Code": "2402175",
    "District": "SHAHRISTAN",
    "د_مرکز_نوم__نام_مرکز": "مسجد تگاب غیبی",
    "Polling_Center_Name": "School",
    "د_مرکز_ځای__موقعیت_مرکز": "غیبی ",
    "Polling_Center_Location": "Ghaibi",
    "Map_Accuracy": "Building",
    "Map_Accuracy_Dari": "تعمیر",
    "Status": "Open",
    "Status_Dari": null,
    "PS_Male": 2,
    "PS_Female": 1,
    "PS_Total": 3,
    "ولسوالي": "شهرستان",
    "Region": "Central Highlands Region"
   },
   "geometry": {
    "x": 7376614.9393694876,
    "y": 4008054.4959911858
   }
  },
  {
   "attributes": {
    "OBJECTID": 2311,
    "ولایت": "دایکندی",
    "Province": "DAYKUNDI",
    "PC_Code": "2403117",
    "District": "GIZAB",
    "د_مرکز_نوم__نام_مرکز": "مسجد بازار چونی",
    "Polling_Center_Name": "Chonai Bazar Mosque",
    "د_مرکز_ځای__موقعیت_مرکز": "قریه چونی",
    "Polling_Center_Location": "Chonai Village",
    "Map_Accuracy": "Village",
    "Map_Accuracy_Dari": "قریه",
    "Status": "Open",
    "Status_Dari": null,
    "PS_Male": 1,
    "PS_Female": 1,
    "PS_Total": 2,
    "ولسوالي": "گیزاب",
    "Region": "Central Highlands Region"
   },
   "geometry": {
    "x": 7376383.3913777284,
    "y": 3945903.5801189104
   }
  },
  {
   "attributes": {
    "OBJECTID": 2312,
    "ولایت": "دایکندی",
    "Province": "DAYKUNDI",
    "PC_Code": "2405085",
    "District": "KHEDIR",
    "د_مرکز_نوم__نام_مرکز": "مسجد شینیه خدیرعلیا ",
    "Polling_Center_Name": "Shiniya Khadeer Ulya Mosque",
    "د_مرکز_ځای__موقعیت_مرکز": "خدیرعلیا",
    "Polling_Center_Location": "Khadeer Ulya",
    "Map_Accuracy": "Building",
    "Map_Accuracy_Dari": "تعمیر",
    "Status": "Open",
    "Status_Dari": null,
    "PS_Male": 1,
    "PS_Female": 2,
    "PS_Total": 3,
    "ولسوالي": "خدیر",
    "Region": "Central Highlands Region"
   },
   "geometry": {
    "x": 7340955.8009063127,
    "y": 4017343.0258311243
   }
  },
  {
   "attributes": {
    "OBJECTID": 2313,
    "ولایت": "دایکندی",
    "Province": "DAYKUNDI",
    "PC_Code": "2405086",
    "District": "KHEDIR",
    "د_مرکز_نوم__نام_مرکز": "مکتب دهن سای پسی بند",
    "Polling_Center_Name": "Dahn Say Pasi Band School",
    "د_مرکز_ځای__موقعیت_مرکز": "دهن سای پسی بند",
    "Polling_Center_Location": "Dahn Say Pasi Band",
    "Map_Accuracy": "Building",
    "Map_Accuracy_Dari": "تعمیر",
    "Status": "Open",
    "Status_Dari": null,
    "PS_Male": 1,
    "PS_Female": 1,
    "PS_Total": 2,
    "ولسوالي": "خدیر",
    "Region": "Central Highlands Region"
   },
   "geometry": {
    "x": 7338102.650074631,
    "y": 4033596.313153252
   }
  },
  {
   "attributes": {
    "OBJECTID": 2314,
    "ولایت": "دایکندی",
    "Province": "DAYKUNDI",
    "PC_Code": "2407163",
    "District": "MIRAMOR",
    "د_مرکز_نوم__نام_مرکز": "مسجد زسپه تقمان دره",
    "Polling_Center_Name": "Zaspa Tuqman Dara Mosque",
    "د_مرکز_ځای__موقعیت_مرکز": "تقمان دره، میرغلام",
    "Polling_Center_Location": "Toqman Dara, Mir Ghulam",
    "Map_Accuracy": "Building",
    "Map_Accuracy_Dari": "تعمیر",
    "Status": "Open",
    "Status_Dari": null,
    "PS_Male": 1,
    "PS_Female": 1,
    "PS_Total": 2,
    "ولسوالي": "میرامور",
    "Region": "Central Highlands Region"
   },
   "geometry": {
    "x": 7442485.7176430607,
    "y": 3982942.7925702757
   }
  },
  {
   "attributes": {
    "OBJECTID": 2315,
    "ولایت": "دایکندی",
    "Province": "DAYKUNDI",
    "PC_Code": "2407164",
    "District": "MIRAMOR",
    "د_مرکز_نوم__نام_مرکز": "مسجد تی برکر",
    "Polling_Center_Name": "Tai Barkar Mosque",
    "د_مرکز_ځای__موقعیت_مرکز": "دهن شهرک، تی برکر",
    "Polling_Center_Location": "Dahan Shahrak, Tai Barkar",
    "Map_Accuracy": "Building",
    "Map_Accuracy_Dari": "تعمیر",
    "Status": "Open",
    "Status_Dari": null,
    "PS_Male": 1,
    "PS_Female": 1,
    "PS_Total": 2,
    "ولسوالي": "میرامور",
    "Region": "Central Highlands Region"
   },
   "geometry": {
    "x": 7460012.5662655141,
    "y": 4000791.3161398773
   }
  },
  {
   "attributes": {
    "OBJECTID": 2316,
    "ولایت": "دایکندی",
    "Province": "DAYKUNDI",
    "PC_Code": "2408071",
    "District": "SANG-E-TAKHT",
    "د_مرکز_نوم__نام_مرکز": "مسجد جعفریه بازارسنگ تخت",
    "Polling_Center_Name": "Jafaria Bazar Sang Takht Mosque",
    "د_مرکز_ځای__موقعیت_مرکز": "دهن قرغان پائین",
    "Polling_Center_Location": "Dahan Qarghan Payeen",
    "Map_Accuracy": "Building",
    "Map_Accuracy_Dari": "تعمیر",
    "Status": "Open",
    "Status_Dari": null,
    "PS_Male": 3,
    "PS_Female": 2,
    "PS_Total": 5,
    "ولسوالي": "سنگ تخت",
    "Region": "Central Highlands Region"
   },
   "geometry": {
    "x": 7362143.501189799,
    "y": 4064289.9319636999
   }
  },
  {
   "attributes": {
    "OBJECTID": 2317,
    "ولایت": "دایکندی",
    "Province": "DAYKUNDI",
    "PC_Code": "2408072",
    "District": "SANG-E-TAKHT",
    "د_مرکز_نوم__نام_مرکز": "مسجد شینیه چکه",
    "Polling_Center_Name": "Shinya Chaka Mosque",
    "د_مرکز_ځای__موقعیت_مرکز": "شینیه چکه",
    "Polling_Center_Location": "Shinya Chaka",
    "Map_Accuracy": "Building",
    "Map_Accuracy_Dari": "تعمیر",
    "Status": "Open",
    "Status_Dari": null,
    "PS_Male": 3,
    "PS_Female": 1,
    "PS_Total": 4,
    "ولسوالي": "سنگ تخت",
    "Region": "Central Highlands Region"
   },
   "geometry": {
    "x": 7355035.3798955521,
    "y": 4066766.0001422912
   }
  },
  {
   "attributes": {
    "OBJECTID": 2318,
    "ولایت": "دایکندی",
    "Province": "DAYKUNDI",
    "PC_Code": "2408076",
    "District": "SANG-E-TAKHT",
    "د_مرکز_نوم__نام_مرکز": "مکتب بازار سیاه خرک",
    "Polling_Center_Name": "Bazar Siyah Kharak School",
    "د_مرکز_ځای__موقعیت_مرکز": "سیاه خرک",
    "Polling_Center_Location": "Siyah Kharak",
    "Map_Accuracy": "Building",
    "Map_Accuracy_Dari": "تعمیر",
    "Status": "Open",
    "Status_Dari": null,
    "PS_Male": 2,
    "PS_Female": 1,
    "PS_Total": 3,
    "ولسوالي": "سنگ تخت",
    "Region": "Central Highlands Region"
   },
   "geometry": {
    "x": 7333431.7042784542,
    "y": 4065485.7658482897
   }
  },
  {
   "attributes": {
    "OBJECTID": 2319,
    "ولایت": "دایکندی",
    "Province": "DAYKUNDI",
    "PC_Code": "2408077",
    "District": "SANG-E-TAKHT",
    "د_مرکز_نوم__نام_مرکز": "مکتب بازار سلبیتو",
    "Polling_Center_Name": "Bazar Salbito School",
    "د_مرکز_ځای__موقعیت_مرکز": "سلبیتو",
    "Polling_Center_Location": "Salbito",
    "Map_Accuracy": "Building",
    "Map_Accuracy_Dari": "تعمیر",
    "Status": "Open",
    "Status_Dari": null,
    "PS_Male": 2,
    "PS_Female": 2,
    "PS_Total": 4,
    "ولسوالي": "سنگ تخت",
    "Region": "Central Highlands Region"
   },
   "geometry": {
    "x": 7326691.4916748879,
    "y": 4054155.8494864223
   }
  },
  {
   "attributes": {
    "OBJECTID": 2320,
    "ولایت": "دایکندی",
    "Province": "DAYKUNDI",
    "PC_Code": "2409054",
    "District": "KEJRAN",
    "د_مرکز_نوم__نام_مرکز": "مسجد جامع بلاغ",
    "Polling_Center_Name": "Balaagh Mosque",
    "د_مرکز_ځای__موقعیت_مرکز": "بلاغ",
    "Polling_Center_Location": "Balaagh",
    "Map_Accuracy": "Building",
    "Map_Accuracy_Dari": "تعمیر",
    "Status": "Open",
    "Status_Dari": null,
    "PS_Male": 2,
    "PS_Female": 2,
    "PS_Total": 4,
    "ولسوالي": "کجران",
    "Region": "Central Highlands Region"
   },
   "geometry": {
    "x": 7287981.3599263402,
    "y": 3922719.4777183016
   }
  },
  {
   "attributes": {
    "OBJECTID": 2321,
    "ولایت": "دایکندی",
    "Province": "DAYKUNDI",
    "PC_Code": "2409055",
    "District": "KEJRAN",
    "د_مرکز_نوم__نام_مرکز": "مسجد جامع بوکه صوف",
    "Polling_Center_Name": "Boka Sof Mosque",
    "د_مرکز_ځای__موقعیت_مرکز": "صوف",
    "Polling_Center_Location": "Sof",
    "Map_Accuracy": "Building",
    "Map_Accuracy_Dari": "تعمیر",
    "Status": "Open",
    "Status_Dari": null,
    "PS_Male": 1,
    "PS_Female": 2,
    "PS_Total": 3,
    "ولسوالي": "کجران",
    "Region": "Central Highlands Region"
   },
   "geometry": {
    "x": 7294205.4118809728,
    "y": 3923101.8666519681
   }
  },
  {
   "attributes": {
    "OBJECTID": 2322,
    "ولایت": "دایکندی",
    "Province": "DAYKUNDI",
    "PC_Code": "2406134",
    "District": "KITI",
    "د_مرکز_نوم__نام_مرکز": "مسجد شالیزار",
    "Polling_Center_Name": "Shalizar Mosque",
    "د_مرکز_ځای__موقعیت_مرکز": "شالیزار",
    "Polling_Center_Location": "Shalizar",
    "Map_Accuracy": "Building",
    "Map_Accuracy_Dari": "تعمیر",
    "Status": "Open",
    "Status_Dari": null,
    "PS_Male": 2,
    "PS_Female": 1,
    "PS_Total": 3,
    "ولسوالي": "کیتی",
    "Region": "Central Highlands Region"
   },
   "geometry": {
    "x": 7320104.9801186491,
    "y": 3980462.3615849451
   }
  },
  {
   "attributes": {
    "OBJECTID": 2323,
    "ولایت": "دایکندی",
    "Province": "DAYKUNDI",
    "PC_Code": "2406135",
    "District": "KITI",
    "د_مرکز_نوم__نام_مرکز": "مسجد دشت کیسو",
    "Polling_Center_Name": "Dasht Kiso Mosque",
    "د_مرکز_ځای__موقعیت_مرکز": "دشت کیسو",
    "Polling_Center_Location": "Dasht Kiso",
    "Map_Accuracy": "Building",
    "Map_Accuracy_Dari": "تعمیر",
    "Status": "Open",
    "Status_Dari": null,
    "PS_Male": 2,
    "PS_Female": 1,
    "PS_Total": 3,
    "ولسوالي": "کیتی",
    "Region": "Central Highlands Region"
   },
   "geometry": {
    "x": 7325318.557225476,
    "y": 3952634.8859834038
   }
  },
  {
   "attributes": {
    "OBJECTID": 2324,
    "ولایت": "دایکندی",
    "Province": "DAYKUNDI",
    "PC_Code": "2406137",
    "District": "KITI",
    "د_مرکز_نوم__نام_مرکز": "مسجد غوتله",
    "Polling_Center_Name": "Ghotla Mosque",
    "د_مرکز_ځای__موقعیت_مرکز": "غوتله",
    "Polling_Center_Location": "Ghotla",
    "Map_Accuracy": "Building",
    "Map_Accuracy_Dari": "تعمیر",
    "Status": "Open",
    "Status_Dari": null,
    "PS_Male": 2,
    "PS_Female": 1,
    "PS_Total": 3,
    "ولسوالي": "کیتی",
    "Region": "Central Highlands Region"
   },
   "geometry": {
    "x": 7330072.6720396103,
    "y": 3951361.6018310688
   }
  },
  {
   "attributes": {
    "OBJECTID": 2325,
    "ولایت": "ارزگان",
    "Province": "UROZGAN",
    "PC_Code": "2501050",
    "District": "TIRINKOT",
    "د_مرکز_نوم__نام_مرکز": "مکتب سجاول",
    "Polling_Center_Name": "Sajawal School",
    "د_مرکز_ځای__موقعیت_مرکز": "سجاول",
    "Polling_Center_Location": "Sajawal",
    "Map_Accuracy": "Building",
    "Map_Accuracy_Dari": "تعمیر",
    "Status": "Open",
    "Status_Dari": null,
    "PS_Male": 3,
    "PS_Female": 3,
    "PS_Total": 6,
    "ولسوالي": "ترینکوټ",
    "Region": "Southern Region"
   },
   "geometry": {
    "x": 7337790.7215068424,
    "y": 3865687.1079457132
   }
  },
  {
   "attributes": {
    "OBJECTID": 2326,
    "ولایت": "ارزگان",
    "Province": "UROZGAN",
    "PC_Code": "2502040",
    "District": "DEHRAOUD",
    "د_مرکز_نوم__نام_مرکز": "د نجونو لیسه",
    "Polling_Center_Name": "Girls High School",
    "د_مرکز_ځای__موقعیت_مرکز": "بازار دهرواد",
    "Polling_Center_Location": "Dehrawood Bazar",
    "Map_Accuracy": "Building",
    "Map_Accuracy_Dari": "تعمیر",
    "Status": "Open",
    "Status_Dari": null,
    "PS_Male": 0,
    "PS_Female": 5,
    "PS_Total": 5,
    "ولسوالي": "دهراود",
    "Region": "Southern Region"
   },
   "geometry": {
    "x": 7286521.2779003633,
    "y": 3845646.4445469677
   }
  },
  {
   "attributes": {
    "OBJECTID": 2327,
    "ولایت": "ارزگان",
    "Province": "UROZGAN",
    "PC_Code": "2502042",
    "District": "DEHRAOUD",
    "د_مرکز_نوم__نام_مرکز": "مكتب چتو",
    "Polling_Center_Name": "Chatoo School",
    "د_مرکز_ځای__موقعیت_مرکز": "چتو",
    "Polling_Center_Location": "Chatoo",
    "Map_Accuracy": "Building",
    "Map_Accuracy_Dari": "تعمیر",
    "Status": "Open",
    "Status_Dari": null,
    "PS_Male": 5,
    "PS_Female": 1,
    "PS_Total": 6,
    "ولسوالي": "دهراود",
    "Region": "Southern Region"
   },
   "geometry": {
    "x": 7288630.2790867994,
    "y": 3859607.8149936018
   }
  },
  {
   "attributes": {
    "OBJECTID": 2328,
    "ولایت": "ارزگان",
    "Province": "UROZGAN",
    "PC_Code": "2503017",
    "District": "CHORA",
    "د_مرکز_نوم__نام_مرکز": "مكتب زنانه دینار خیل",
    "Polling_Center_Name": "Dinarkhel Girls School",
    "د_مرکز_ځای__موقعیت_مرکز": "کلینیک زنانه مرکز ولسوالی",
    "Polling_Center_Location": "District Womens Clinic",
    "Map_Accuracy": "Building",
    "Map_Accuracy_Dari": "تعمیر",
    "Status": "Open",
    "Status_Dari": null,
    "PS_Male": 1,
    "PS_Female": 3,
    "PS_Total": 4,
    "ولسوالي": "چوره",
    "Region": "Southern Region"
   },
   "geometry": {
    "x": 7351841.6081199665,
    "y": 3876915.8327946202
   }
  },
  {
   "attributes": {
    "OBJECTID": 2329,
    "ولایت": "ارزگان",
    "Province": "UROZGAN",
    "PC_Code": "2503018",
    "District": "CHORA",
    "د_مرکز_نوم__نام_مرکز": "مکتب قلعه راغ",
    "Polling_Center_Name": "Qala-e-Ragh School",
    "د_مرکز_ځای__موقعیت_مرکز": "قلعچه بازار ",
    "Polling_Center_Location": "Qalacha Bazar",
    "Map_Accuracy": "Building",
    "Map_Accuracy_Dari": "تعمیر",
    "Status": "Open",
    "Status_Dari": null,
    "PS_Male": 3,
    "PS_Female": 1,
    "PS_Total": 4,
    "ولسوالي": "چوره",
    "Region": "Southern Region"
   },
   "geometry": {
    "x": 7352712.4714057483,
    "y": 3875004.9502323372
   }
  },
  {
   "attributes": {
    "OBJECTID": 2330,
    "ولایت": "ارزگان",
    "Province": "UROZGAN",
    "PC_Code": "2503020",
    "District": "CHORA",
    "د_مرکز_نوم__نام_مرکز": "د اويانو مكتب",
    "Polling_Center_Name": "Awiyan School",
    "د_مرکز_ځای__موقعیت_مرکز": "قلعه راغ ",
    "Polling_Center_Location": "Qala-e-Ragh",
    "Map_Accuracy": "Building",
    "Map_Accuracy_Dari": "تعمیر",
    "Status": "Open",
    "Status_Dari": null,
    "PS_Male": 2,
    "PS_Female": 2,
    "PS_Total": 4,
    "ولسوالي": "چوره",
    "Region": "Southern Region"
   },
   "geometry": {
    "x": 7348620.3742712764,
    "y": 3884732.1528939423
   }
  },
  {
   "attributes": {
    "OBJECTID": 2331,
    "ولایت": "ارزگان",
    "Province": "UROZGAN",
    "PC_Code": "2506046",
    "District": "CHENARTO",
    "د_مرکز_نوم__نام_مرکز": "کلینیک زنانه",
    "Polling_Center_Name": "Womens Clinic",
    "د_مرکز_ځای__موقعیت_مرکز": "چنارتو ",
    "Polling_Center_Location": "Chinarto",
    "Map_Accuracy": "Building",
    "Map_Accuracy_Dari": "تعمیر",
    "Status": "Open",
    "Status_Dari": null,
    "PS_Male": 0,
    "PS_Female": 5,
    "PS_Total": 5,
    "ولسوالي": "چنارتو",
    "Region": "Southern Region"
   },
   "geometry": {
    "x": 7378452.9030880025,
    "y": 3860690.2892592042
   }
  },
  {
   "attributes": {
    "OBJECTID": 2332,
    "ولایت": "ارزگان",
    "Province": "UROZGAN",
    "PC_Code": "2501006",
    "District": "TIRINKOT",
    "د_مرکز_نوم__نام_مرکز": "مکتب متوسطه تالانی",
    "Polling_Center_Name": "Talani Secondary School",
    "د_مرکز_ځای__موقعیت_مرکز": "قریه تالانی",
    "Polling_Center_Location": "Talani Village",
    "Map_Accuracy": "Building",
    "Map_Accuracy_Dari": "تعمیر",
    "Status": "Open",
    "Status_Dari": null,
    "PS_Male": 4,
    "PS_Female": 3,
    "PS_Total": 7,
    "ولسوالي": "ترینکوټ",
    "Region": "Southern Region"
   },
   "geometry": {
    "x": 7327294.1408889955,
    "y": 3844721.1934311017
   }
  },
  {
   "attributes": {
    "OBJECTID": 2333,
    "ولایت": "ارزگان",
    "Province": "UROZGAN",
    "PC_Code": "2501007",
    "District": "TIRINKOT",
    "د_مرکز_نوم__نام_مرکز": "مکتب گرم اب",
    "Polling_Center_Name": "Garm Aab School",
    "د_مرکز_ځای__موقعیت_مرکز": "گرم اب",
    "Polling_Center_Location": "Garm Aab",
    "Map_Accuracy": "Building",
    "Map_Accuracy_Dari": "تعمیر",
    "Status": "Open",
    "Status_Dari": null,
    "PS_Male": 3,
    "PS_Female": 2,
    "PS_Total": 5,
    "ولسوالي": "ترینکوټ",
    "Region": "Southern Region"
   },
   "geometry": {
    "x": 7342299.6542519508,
    "y": 3840652.9241400287
   }
  },
  {
   "attributes": {
    "OBJECTID": 2334,
    "ولایت": "ارزگان",
    "Province": "UROZGAN",
    "PC_Code": "2501011",
    "District": "TIRINKOT",
    "د_مرکز_نوم__نام_مرکز": "مسجد مدرسه پیروشه",
    "Polling_Center_Name": "Pirosha Madrassa Mosque",
    "د_مرکز_ځای__موقعیت_مرکز": "پیروشه",
    "Polling_Center_Location": "Pirosha",
    "Map_Accuracy": "Building",
    "Map_Accuracy_Dari": "تعمیر",
    "Status": "Open",
    "Status_Dari": null,
    "PS_Male": 3,
    "PS_Female": 2,
    "PS_Total": 5,
    "ولسوالي": "ترینکوټ",
    "Region": "Southern Region"
   },
   "geometry": {
    "x": 7334063.0472045159,
    "y": 3853714.2677802541
   }
  },
  {
   "attributes": {
    "OBJECTID": 2335,
    "ولایت": "ارزگان",
    "Province": "UROZGAN",
    "PC_Code": "2501012",
    "District": "TIRINKOT",
    "د_مرکز_نوم__نام_مرکز": "لیسه شاه حسین",
    "Polling_Center_Name": "Shah Hussain High School",
    "د_مرکز_ځای__موقعیت_مرکز": "قریه سرخ مرغاب",
    "Polling_Center_Location": "Surkh Marghab Village",
    "Map_Accuracy": "Building",
    "Map_Accuracy_Dari": "تعمیر",
    "Status": "Open",
    "Status_Dari": null,
    "PS_Male": 3,
    "PS_Female": 3,
    "PS_Total": 6,
    "ولسوالي": "ترینکوټ",
    "Region": "Southern Region"
   },
   "geometry": {
    "x": 7336770.4151442498,
    "y": 3860047.7621038505
   }
  },
  {
   "attributes": {
    "OBJECTID": 2336,
    "ولایت": "ارزگان",
    "Province": "UROZGAN",
    "PC_Code": "2504030",
    "District": "SHAHID-E-HASSAS",
    "د_مرکز_نوم__نام_مرکز": "لیسه مرکزی بازار چهارچینو",
    "Polling_Center_Name": "Chahar Chino Bazar High School",
    "د_مرکز_ځای__موقعیت_مرکز": "بازار چهارچینو",
    "Polling_Center_Location": "Chahar Chino Bazar",
    "Map_Accuracy": "Building",
    "Map_Accuracy_Dari": "تعمیر",
    "Status": "Open",
    "Status_Dari": null,
    "PS_Male": 6,
    "PS_Female": 0,
    "PS_Total": 6,
    "ولسوالي": "شهید حساس",
    "Region": "Southern Region"
   },
   "geometry": {
    "x": 7298554.322635428,
    "y": 3887335.376855874
   }
  },
  {
   "attributes": {
    "OBJECTID": 2337,
    "ولایت": "ارزگان",
    "Province": "UROZGAN",
    "PC_Code": "2504031",
    "District": "SHAHID-E-HASSAS",
    "د_مرکز_نوم__نام_مرکز": "کلینیک زنانه بازار چهارچینو",
    "Polling_Center_Name": "Chahar Chino Bazar Women's Clinic",
    "د_مرکز_ځای__موقعیت_مرکز": "بازار چهارچینو",
    "Polling_Center_Location": "Chahar Chino Bazar",
    "Map_Accuracy": "Building",
    "Map_Accuracy_Dari": "تعمیر",
    "Status": "Open",
    "Status_Dari": null,
    "PS_Male": 0,
    "PS_Female": 5,
    "PS_Total": 5,
    "ولسوالي": "شهید حساس",
    "Region": "Southern Region"
   },
   "geometry": {
    "x": 7298526.4304238167,
    "y": 3887746.2538885949
   }
  },
  {
   "attributes": {
    "OBJECTID": 2338,
    "ولایت": "زابل",
    "Province": "ZABUL",
    "PC_Code": "2601002",
    "District": "QALAT",
    "د_مرکز_نوم__نام_مرکز": "شیخ متی لیسه ",
    "Polling_Center_Name": "Shekh Mati High School",
    "د_مرکز_ځای__موقعیت_مرکز": "هواشناسی",
    "Polling_Center_Location": "Hawashnasi",
    "Map_Accuracy": "Building",
    "Map_Accuracy_Dari": "تعمیر",
    "Status": "Open",
    "Status_Dari": null,
    "PS_Male": 6,
    "PS_Female": 2,
    "PS_Total": 8,
    "ولسوالي": "قلات",
    "Region": "Southern Region"
   },
   "geometry": {
    "x": 7448819.4126169523,
    "y": 3776904.0601111455
   }
  },
  {
   "attributes": {
    "OBJECTID": 2339,
    "ولایت": "زابل",
    "Province": "ZABUL",
    "PC_Code": "2601003",
    "District": "QALAT",
    "د_مرکز_نوم__نام_مرکز": "کنډک مکتب",
    "Polling_Center_Name": "Kandak School",
    "د_مرکز_ځای__موقعیت_مرکز": "نوی رساله",
    "Polling_Center_Location": "Nawai Resala",
    "Map_Accuracy": "Building",
    "Map_Accuracy_Dari": "تعمیر",
    "Status": "Open",
    "Status_Dari": null,
    "PS_Male": 3,
    "PS_Female": 2,
    "PS_Total": 5,
    "ولسوالي": "قلات",
    "Region": "Southern Region"
   },
   "geometry": {
    "x": 7449066.1567210751,
    "y": 3777363.4544453458
   }
  },
  {
   "attributes": {
    "OBJECTID": 2340,
    "ولایت": "زابل",
    "Province": "ZABUL",
    "PC_Code": "2601008",
    "District": "QALAT",
    "د_مرکز_نوم__نام_مرکز": "سپينه غبرګه مدرسه",
    "Polling_Center_Name": "Spina Ghbarga Madrassa",
    "د_مرکز_ځای__موقعیت_مرکز": "سپينه غبرګه",
    "Polling_Center_Location": "Spina Ghbarga",
    "Map_Accuracy": "Building",
    "Map_Accuracy_Dari": "تعمیر",
    "Status": "Open",
    "Status_Dari": null,
    "PS_Male": 5,
    "PS_Female": 2,
    "PS_Total": 7,
    "ولسوالي": "قلات",
    "Region": "Southern Region"
   },
   "geometry": {
    "x": 7460411.9549949942,
    "y": 3788618.2692231783
   }
  },
  {
   "attributes": {
    "OBJECTID": 2341,
    "ولایت": "زابل",
    "Province": "ZABUL",
    "PC_Code": "2601009",
    "District": "QALAT",
    "د_مرکز_نوم__نام_مرکز": "د حاجی الله داد مسجد ",
    "Polling_Center_Name": "Haji Allah Dad Mosque",
    "د_مرکز_ځای__موقعیت_مرکز": "خرواريان کلي",
    "Polling_Center_Location": "Kharwaryan Village",
    "Map_Accuracy": "Building",
    "Map_Accuracy_Dari": "تعمیر",
    "Status": "Open",
    "Status_Dari": null,
    "PS_Male": 3,
    "PS_Female": 2,
    "PS_Total": 5,
    "ولسوالي": "قلات",
    "Region": "Southern Region"
   },
   "geometry": {
    "x": 7444719.5469404915,
    "y": 3774131.8399921269
   }
  },
  {
   "attributes": {
    "OBJECTID": 2342,
    "ولایت": "زابل",
    "Province": "ZABUL",
    "PC_Code": "2602029",
    "District": "TARANK WA JALDAK",
    "د_مرکز_نوم__نام_مرکز": "مكتب غيشي رباط",
    "Polling_Center_Name": "Ghaishi Rabat School",
    "د_مرکز_ځای__موقعیت_مرکز": "فولادګۍ",
    "Polling_Center_Location": "Foladgai",
    "Map_Accuracy": "Building",
    "Map_Accuracy_Dari": "تعمیر",
    "Status": "Open",
    "Status_Dari": null,
    "PS_Male": 5,
    "PS_Female": 0,
    "PS_Total": 5,
    "ولسوالي": "ترنک و جلدک",
    "Region": "Southern Region"
   },
   "geometry": {
    "x": 7405282.2963155946,
    "y": 3749303.0894726589
   }
  },
  {
   "attributes": {
    "OBJECTID": 2343,
    "ولایت": "زابل",
    "Province": "ZABUL",
    "PC_Code": "2602030",
    "District": "TARANK WA JALDAK",
    "د_مرکز_نوم__نام_مرکز": "د حاجی ښادی خان کور",
    "Polling_Center_Name": "Haji Khadi Khan Private House",
    "د_مرکز_ځای__موقعیت_مرکز": "خیشکی کلی",
    "Polling_Center_Location": "Kheshaki Village",
    "Map_Accuracy": "Building",
    "Map_Accuracy_Dari": "تعمیر",
    "Status": "Open",
    "Status_Dari": null,
    "PS_Male": 5,
    "PS_Female": 0,
    "PS_Total": 5,
    "ولسوالي": "ترنک و جلدک",
    "Region": "Southern Region"
   },
   "geometry": {
    "x": 7428289.8487477647,
    "y": 3770916.5389282345
   }
  },
  {
   "attributes": {
    "OBJECTID": 2344,
    "ولایت": "زابل",
    "Province": "ZABUL",
    "PC_Code": "2603033",
    "District": "SHINKAI",
    "د_مرکز_نوم__نام_مرکز": "د سیوری( شینکې) ولسوالي دفتر",
    "Polling_Center_Name": "Syori (Shenkai) District Office",
    "د_مرکز_ځای__موقعیت_مرکز": "سيوري",
    "Polling_Center_Location": "Syori",
    "Map_Accuracy": "Building",
    "Map_Accuracy_Dari": "تعمیر",
    "Status": "Open",
    "Status_Dari": null,
    "PS_Male": 5,
    "PS_Female": 5,
    "PS_Total": 10,
    "ولسوالي": "شینکې",
    "Region": "Southern Region"
   },
   "geometry": {
    "x": 7462626.5505108107,
    "y": 3759496.586516853
   }
  },
  {
   "attributes": {
    "OBJECTID": 2345,
    "ولایت": "زابل",
    "Province": "ZABUL",
    "PC_Code": "2606010",
    "District": "SHAH JOI",
    "د_مرکز_نوم__نام_مرکز": "بابا هوتك ليسه ",
    "Polling_Center_Name": "Baba Hotak High School",
    "د_مرکز_ځای__موقعیت_مرکز": "شاه جوی",
    "Polling_Center_Location": "Shah Joy",
    "Map_Accuracy": "Building",
    "Map_Accuracy_Dari": "تعمیر",
    "Status": "Open",
    "Status_Dari": null,
    "PS_Male": 7,
    "PS_Female": 1,
    "PS_Total": 8,
    "ولسوالي": "شاه جوی",
    "Region": "Southern Region"
   },
   "geometry": {
    "x": 7504483.1488173353,
    "y": 3831739.3717908156
   }
  },
  {
   "attributes": {
    "OBJECTID": 2346,
    "ولایت": "زابل",
    "Province": "ZABUL",
    "PC_Code": "2606014",
    "District": "SHAH JOI",
    "د_مرکز_نوم__نام_مرکز": "کرباغی مکتب",
    "Polling_Center_Name": "Karbaghi School",
    "د_مرکز_ځای__موقعیت_مرکز": "کرباغی",
    "Polling_Center_Location": "Karbaghi",
    "Map_Accuracy": "Building",
    "Map_Accuracy_Dari": "تعمیر",
    "Status": "Open",
    "Status_Dari": null,
    "PS_Male": 4,
    "PS_Female": 1,
    "PS_Total": 5,
    "ولسوالي": "شاه جوی",
    "Region": "Southern Region"
   },
   "geometry": {
    "x": 7500307.7751302691,
    "y": 3826156.6448055101
   }
  },
  {
   "attributes": {
    "OBJECTID": 2347,
    "ولایت": "زابل",
    "Province": "ZABUL",
    "PC_Code": "2601005",
    "District": "QALAT",
    "د_مرکز_نوم__نام_مرکز": "ليسه سينك",
    "Polling_Center_Name": "Sinak High School",
    "د_مرکز_ځای__موقعیت_مرکز": "سينك",
    "Polling_Center_Location": "Sinak",
    "Map_Accuracy": "Building",
    "Map_Accuracy_Dari": "تعمیر",
    "Status": "Open",
    "Status_Dari": null,
    "PS_Male": 3,
    "PS_Female": 2,
    "PS_Total": 5,
    "ولسوالي": "قلات",
    "Region": "Southern Region"
   },
   "geometry": {
    "x": 7448977.6710842336,
    "y": 3778371.3197658206
   }
  },
  {
   "attributes": {
    "OBJECTID": 2348,
    "ولایت": "زابل",
    "Province": "ZABUL",
    "PC_Code": "2601006",
    "District": "QALAT",
    "د_مرکز_نوم__نام_مرکز": "چوڼي مكتب",
    "Polling_Center_Name": "Chonai School",
    "د_مرکز_ځای__موقعیت_مرکز": "نوي كلي",
    "Polling_Center_Location": "Nawai Village",
    "Map_Accuracy": "Building",
    "Map_Accuracy_Dari": "تعمیر",
    "Status": "Open",
    "Status_Dari": null,
    "PS_Male": 4,
    "PS_Female": 2,
    "PS_Total": 6,
    "ولسوالي": "قلات",
    "Region": "Southern Region"
   },
   "geometry": {
    "x": 7446573.4183255676,
    "y": 3776542.7438291633
   }
  },
  {
   "attributes": {
    "OBJECTID": 2349,
    "ولایت": "زابل",
    "Province": "ZABUL",
    "PC_Code": "2609042",
    "District": "NAW BAHAR",
    "د_مرکز_نوم__نام_مرکز": "عمومی مکتب",
    "Polling_Center_Name": "Omomi School",
    "د_مرکز_ځای__موقعیت_مرکز": "لوړګی",
    "Polling_Center_Location": "Lorgai",
    "Map_Accuracy": "Building",
    "Map_Accuracy_Dari": "تعمیر",
    "Status": "Open",
    "Status_Dari": null,
    "PS_Male": 2,
    "PS_Female": 1,
    "PS_Total": 3,
    "ولسوالي": "نوبهار",
    "Region": "Southern Region"
   },
   "geometry": {
    "x": 7512173.2417302802,
    "y": 3764014.2638205001
   }
  },
  {
   "attributes": {
    "OBJECTID": 2350,
    "ولایت": "زابل",
    "Province": "ZABUL",
    "PC_Code": "2609043",
    "District": "NAW BAHAR",
    "د_مرکز_نوم__نام_مرکز": "كلينیك ولسوالي",
    "Polling_Center_Name": "District Clinic",
    "د_مرکز_ځای__موقعیت_مرکز": "مرکز ولسوالی ",
    "Polling_Center_Location": "District Compound",
    "Map_Accuracy": "Building",
    "Map_Accuracy_Dari": "تعمیر",
    "Status": "Open",
    "Status_Dari": null,
    "PS_Male": 2,
    "PS_Female": 1,
    "PS_Total": 3,
    "ولسوالي": "نوبهار",
    "Region": "Southern Region"
   },
   "geometry": {
    "x": 7529512.1006758567,
    "y": 3790131.5241517518
   }
  },
  {
   "attributes": {
    "OBJECTID": 2351,
    "ولایت": "زابل",
    "Province": "ZABUL",
    "PC_Code": "2610038",
    "District": "SHEMEL ZAYI",
    "د_مرکز_نوم__نام_مرکز": "د جنګی برج مسجد",
    "Polling_Center_Name": "Jangi Borj Mosque",
    "د_مرکز_ځای__موقعیت_مرکز": "ډګر جنګی",
    "Polling_Center_Location": "Dagar Jangai",
    "Map_Accuracy": "Building",
    "Map_Accuracy_Dari": "تعمیر",
    "Status": "Open",
    "Status_Dari": null,
    "PS_Male": 1,
    "PS_Female": 1,
    "PS_Total": 2,
    "ولسوالي": "شملزایي",
    "Region": "Southern Region"
   },
   "geometry": {
    "x": 7526991.0581866167,
    "y": 3706054.2614330882
   }
  },
  {
   "attributes": {
    "OBJECTID": 2352,
    "ولایت": "زابل",
    "Province": "ZABUL",
    "PC_Code": "2610039",
    "District": "SHEMEL ZAYI",
    "د_مرکز_نوم__نام_مرکز": "سین زايی مکتب",
    "Polling_Center_Name": "Seenzai School",
    "د_مرکز_ځای__موقعیت_مرکز": "سين زائي",
    "Polling_Center_Location": "Seenzai",
    "Map_Accuracy": "Building",
    "Map_Accuracy_Dari": "تعمیر",
    "Status": "Open",
    "Status_Dari": null,
    "PS_Male": 2,
    "PS_Female": 1,
    "PS_Total": 3,
    "ولسوالي": "شملزایي",
    "Region": "Southern Region"
   },
   "geometry": {
    "x": 7541235.2631180072,
    "y": 3765513.4618709954
   }
  },
  {
   "attributes": {
    "OBJECTID": 2353,
    "ولایت": "زابل",
    "Province": "ZABUL",
    "PC_Code": "2601050",
    "District": "QALAT",
    "د_مرکز_نوم__نام_مرکز": "مکتب نسوان رساله",
    "Polling_Center_Name": "Resala Female School",
    "د_مرکز_ځای__موقعیت_مرکز": "رساله",
    "Polling_Center_Location": "Rsala",
    "Map_Accuracy": "Building",
    "Map_Accuracy_Dari": "تعمیر",
    "Status": "Open",
    "Status_Dari": null,
    "PS_Male": 2,
    "PS_Female": 1,
    "PS_Total": 3,
    "ولسوالي": "قلات",
    "Region": "Southern Region"
   },
   "geometry": {
    "x": 7448883.9801480053,
    "y": 3777786.8381986632
   }
  },
  {
   "attributes": {
    "OBJECTID": 2354,
    "ولایت": "زابل",
    "Province": "ZABUL",
    "PC_Code": "2602051",
    "District": "TARANK WA JALDAK",
    "د_مرکز_نوم__نام_مرکز": "مسجد محمد جان کلی",
    "Polling_Center_Name": "Muhammad jan village Mosque",
    "د_مرکز_ځای__موقعیت_مرکز": "محمد زی کلی",
    "Polling_Center_Location": "Muhammad zai village",
    "Map_Accuracy": "Village",
    "Map_Accuracy_Dari": "قریه",
    "Status": "Open",
    "Status_Dari": null,
    "PS_Male": 2,
    "PS_Female": 1,
    "PS_Total": 3,
    "ولسوالي": "ترنک و جلدک",
    "Region": "Southern Region"
   },
   "geometry": {
    "x": 7410913.9314323869,
    "y": 3751097.7329873559
   }
  },
  {
   "attributes": {
    "OBJECTID": 2355,
    "ولایت": "زابل",
    "Province": "ZABUL",
    "PC_Code": "2603053",
    "District": "SHINKAI",
    "د_مرکز_نوم__نام_مرکز": "مدرسه زیارت",
    "Polling_Center_Name": "Ziarat Madrasa",
    "د_مرکز_ځای__موقعیت_مرکز": "بدین",
    "Polling_Center_Location": "Badin",
    "Map_Accuracy": "Village",
    "Map_Accuracy_Dari": "قریه",
    "Status": "Open",
    "Status_Dari": null,
    "PS_Male": 3,
    "PS_Female": 1,
    "PS_Total": 4,
    "ولسوالي": "شنیکی",
    "Region": "Southern Region"
   },
   "geometry": {
    "x": 7470859.8178622052,
    "y": 3766839.9148110459
   }
  },
  {
   "attributes": {
    "OBJECTID": 2356,
    "ولایت": "زابل",
    "Province": "ZABUL",
    "PC_Code": "2606070",
    "District": "SHAH JOI",
    "د_مرکز_نوم__نام_مرکز": "مکتب قیوم کلاه",
    "Polling_Center_Name": "Qaiom village School",
    "د_مرکز_ځای__موقعیت_مرکز": "شوبار،قیوم کلی",
    "Polling_Center_Location": "Shor bar, Qaiom village",
    "Map_Accuracy": "Building",
    "Map_Accuracy_Dari": "تعمیر",
    "Status": "Open",
    "Status_Dari": null,
    "PS_Male": 2,
    "PS_Female": 1,
    "PS_Total": 3,
    "ولسوالي": "شاه جوی",
    "Region": "Southern Region"
   },
   "geometry": {
    "x": 7511976.694701504,
    "y": 3839112.0891316221
   }
  },
  {
   "attributes": {
    "OBJECTID": 2357,
    "ولایت": "زابل",
    "Province": "ZABUL",
    "PC_Code": "2602026",
    "District": "TARANK WA JALDAK",
    "د_مرکز_نوم__نام_مرکز": "د هلكانو مكتب",
    "Polling_Center_Name": "Boys School",
    "د_مرکز_ځای__موقعیت_مرکز": "دولسوالی مرکز",
    "Polling_Center_Location": "District Compound",
    "Map_Accuracy": "Building",
    "Map_Accuracy_Dari": "تعمیر",
    "Status": "Open",
    "Status_Dari": null,
    "PS_Male": 6,
    "PS_Female": 0,
    "PS_Total": 6,
    "ولسوالي": "ترنک و جلدک",
    "Region": "Southern Region"
   },
   "geometry": {
    "x": 7383229.8740199879,
    "y": 3737016.5279826033
   }
  },
  {
   "attributes": {
    "OBJECTID": 2358,
    "ولایت": "زابل",
    "Province": "ZABUL",
    "PC_Code": "2602027",
    "District": "TARANK WA JALDAK",
    "د_مرکز_نوم__نام_مرکز": "د نجونومكتب",
    "Polling_Center_Name": "Girls School",
    "د_مرکز_ځای__موقعیت_مرکز": "دولسوالی مرکز",
    "Polling_Center_Location": "District Compound",
    "Map_Accuracy": "Building",
    "Map_Accuracy_Dari": "تعمیر",
    "Status": "Open",
    "Status_Dari": null,
    "PS_Male": 0,
    "PS_Female": 4,
    "PS_Total": 4,
    "ولسوالي": "ترنک و جلدک",
    "Region": "Southern Region"
   },
   "geometry": {
    "x": 7383256.4938498223,
    "y": 3737311.0739036743
   }
  },
  {
   "attributes": {
    "OBJECTID": 2359,
    "ولایت": "کندهار",
    "Province": "کندهار",
    "PC_Code": "2701005",
    "District": "KANDAHAR",
    "د_مرکز_نوم__نام_مرکز": "ميربازار مكتب",
    "Polling_Center_Name": "Mir Bazar School",
    "د_مرکز_ځای__موقعیت_مرکز": "شپږمه ناحيه",
    "Polling_Center_Location": "D06 - Nahia 6",
    "Map_Accuracy": "Building",
    "Map_Accuracy_Dari": "تعمیر",
    "Status": "Open",
    "Status_Dari": null,
    "PS_Male": 6,
    "PS_Female": 0,
    "PS_Total": 6,
    "ولسوالي": "کندهار",
    "Region": "Southern Region"
   },
   "geometry": {
    "x": 7313989.0783889079,
    "y": 3713852.3408557419
   }
  },
  {
   "attributes": {
    "OBJECTID": 2360,
    "ولایت": "کندهار",
    "Province": "کندهار",
    "PC_Code": "2701006",
    "District": "KANDAHAR",
    "د_مرکز_نوم__نام_مرکز": "قومي منځني ښونځي",
    "Polling_Center_Name": "Qawmi Secondary School",
    "د_مرکز_ځای__موقعیت_مرکز": "لسمه ناحيه",
    "Polling_Center_Location": "D10 - Nahia 10",
    "Map_Accuracy": "Building",
    "Map_Accuracy_Dari": "تعمیر",
    "Status": "Open",
    "Status_Dari": null,
    "PS_Male": 4,
    "PS_Female": 3,
    "PS_Total": 7,
    "ولسوالي": "کندهار",
    "Region": "Southern Region"
   },
   "geometry": {
    "x": 7316250.3980345931,
    "y": 3716068.6216841317
   }
  },
  {
   "attributes": {
    "OBJECTID": 2361,
    "ولایت": "کندهار",
    "Province": "کندهار",
    "PC_Code": "2701040",
    "District": "KANDAHAR",
    "د_مرکز_نوم__نام_مرکز": "ميرويس نيكه لیسه",
    "Polling_Center_Name": "Mirwais Neeka High School",
    "د_مرکز_ځای__موقعیت_مرکز": "څلورمه ناحيه",
    "Polling_Center_Location": "D04 - Nahia 4",
    "Map_Accuracy": "Building",
    "Map_Accuracy_Dari": "تعمیر",
    "Status": "Open",
    "Status_Dari": null,
    "PS_Male": 10,
    "PS_Female": 2,
    "PS_Total": 12,
    "ولسوالي": "کندهار",
    "Region": "Southern Region"
   },
   "geometry": {
    "x": 7317081.5293903621,
    "y": 3713700.1576059898
   }
  },
  {
   "attributes": {
    "OBJECTID": 2362,
    "ولایت": "کندهار",
    "Province": "کندهار",
    "PC_Code": "2701042",
    "District": "KANDAHAR",
    "د_مرکز_نوم__نام_مرکز": "شهيد عظيم الله ښوونځي",
    "Polling_Center_Name": "Shaheed Azeemullah School",
    "د_مرکز_ځای__موقعیت_مرکز": "نهمه ناحيه",
    "Polling_Center_Location": "D09 - Nahia 9",
    "Map_Accuracy": "Building",
    "Map_Accuracy_Dari": "تعمیر",
    "Status": "Open",
    "Status_Dari": null,
    "PS_Male": 6,
    "PS_Female": 4,
    "PS_Total": 10,
    "ولسوالي": "کندهار",
    "Region": "Southern Region"
   },
   "geometry": {
    "x": 7313860.9741452876,
    "y": 3716225.1743518333
   }
  },
  {
   "attributes": {
    "OBJECTID": 2363,
    "ولایت": "کندهار",
    "Province": "کندهار",
    "PC_Code": "2702102",
    "District": "ARGHANDAB",
    "د_مرکز_نوم__نام_مرکز": "مكتب شين اوليا",
    "Polling_Center_Name": "Sheen Awliya School",
    "د_مرکز_ځای__موقعیت_مرکز": "شين اوليا",
    "Polling_Center_Location": "Sheen Awliya",
    "Map_Accuracy": "Building",
    "Map_Accuracy_Dari": "تعمیر",
    "Status": "Open",
    "Status_Dari": null,
    "PS_Male": 3,
    "PS_Female": 0,
    "PS_Total": 3,
    "ولسوالي": "ارغنداب",
    "Region": "Southern Region"
   },
   "geometry": {
    "x": 7313738.9479458705,
    "y": 3729213.5616143397
   }
  },
  {
   "attributes": {
    "OBJECTID": 2364,
    "ولایت": "کندهار",
    "Province": "کندهار",
    "PC_Code": "2702103",
    "District": "ARGHANDAB",
    "د_مرکز_نوم__نام_مرکز": "د جلا اور مكتب",
    "Polling_Center_Name": "Jala Oar School",
    "د_مرکز_ځای__موقعیت_مرکز": "دوراهي",
    "Polling_Center_Location": "Doraahi",
    "Map_Accuracy": "Building",
    "Map_Accuracy_Dari": "تعمیر",
    "Status": "Open",
    "Status_Dari": null,
    "PS_Male": 3,
    "PS_Female": 0,
    "PS_Total": 3,
    "ولسوالي": "ارغنداب",
    "Region": "Southern Region"
   },
   "geometry": {
    "x": 7308634.97378329,
    "y": 3725550.7449780214
   }
  },
  {
   "attributes": {
    "OBJECTID": 2365,
    "ولایت": "کندهار",
    "Province": "کندهار",
    "PC_Code": "2702107",
    "District": "ARGHANDAB",
    "د_مرکز_نوم__نام_مرکز": "مكتب مناره",
    "Polling_Center_Name": "Manara School",
    "د_مرکز_ځای__موقعیت_مرکز": "مناره",
    "Polling_Center_Location": "Manara",
    "Map_Accuracy": "Building",
    "Map_Accuracy_Dari": "تعمیر",
    "Status": "Open",
    "Status_Dari": null,
    "PS_Male": 2,
    "PS_Female": 1,
    "PS_Total": 3,
    "ولسوالي": "ارغنداب",
    "Region": "Southern Region"
   },
   "geometry": {
    "x": 7303619.7646694677,
    "y": 3722339.1216400694
   }
  },
  {
   "attributes": {
    "OBJECTID": 2366,
    "ولایت": "کندهار",
    "Province": "کندهار",
    "PC_Code": "2702108",
    "District": "ARGHANDAB",
    "د_مرکز_نوم__نام_مرکز": "خوشحال خان مكتب",
    "Polling_Center_Name": "Khushal Khan School",
    "د_مرکز_ځای__موقعیت_مرکز": "ناګهان",
    "Polling_Center_Location": "Nagahan",
    "Map_Accuracy": "Building",
    "Map_Accuracy_Dari": "تعمیر",
    "Status": "Open",
    "Status_Dari": null,
    "PS_Male": 1,
    "PS_Female": 2,
    "PS_Total": 3,
    "ولسوالي": "ارغنداب",
    "Region": "Southern Region"
   },
   "geometry": {
    "x": 7300933.6576392772,
    "y": 3717333.594305485
   }
  },
  {
   "attributes": {
    "OBJECTID": 2367,
    "ولایت": "کندهار",
    "Province": "کندهار",
    "PC_Code": "2703074",
    "District": "DAMAN",
    "د_مرکز_نوم__نام_مرکز": "د سيد محمد كور",
    "Polling_Center_Name": "Sayed Mohammad Kor ",
    "د_مرکز_ځای__موقعیت_مرکز": "نوي ده",
    "Polling_Center_Location": "Nawe Ada",
    "Map_Accuracy": "Village",
    "Map_Accuracy_Dari": "قریه",
    "Status": "Open",
    "Status_Dari": null,
    "PS_Male": 3,
    "PS_Female": 0,
    "PS_Total": 3,
    "ولسوالي": "دامان",
    "Region": "Southern Region"
   },
   "geometry": {
    "x": 7343857.3701505214,
    "y": 3694477.078711811
   }
  },
  {
   "attributes": {
    "OBJECTID": 2368,
    "ولایت": "کندهار",
    "Province": "کندهار",
    "PC_Code": "2703075",
    "District": "DAMAN",
    "د_مرکز_نوم__نام_مرکز": "پخواني مكتب د حاجی سلطان محمد اکا کور",
    "Polling_Center_Name": "Haji Sultan Mohammad Aka Private House",
    "د_مرکز_ځای__موقعیت_مرکز": "مدزي",
    "Polling_Center_Location": "Madzi",
    "Map_Accuracy": "Building",
    "Map_Accuracy_Dari": "تعمیر",
    "Status": "Open",
    "Status_Dari": null,
    "PS_Male": 3,
    "PS_Female": 0,
    "PS_Total": 3,
    "ولسوالي": "دامان",
    "Region": "Southern Region"
   },
   "geometry": {
    "x": 7351577.891133084,
    "y": 3707381.4697001707
   }
  },
  {
   "attributes": {
    "OBJECTID": 2369,
    "ولایت": "کندهار",
    "Province": "کندهار",
    "PC_Code": "2704185",
    "District": "PANJWAYEE",
    "د_مرکز_نوم__نام_مرکز": "د نجوني مكتب",
    "Polling_Center_Name": "Girls School",
    "د_مرکز_ځای__موقعیت_مرکز": "ټي بي سي",
    "Polling_Center_Location": "TBC",
    "Map_Accuracy": "Building",
    "Map_Accuracy_Dari": "تعمیر",
    "Status": "Open",
    "Status_Dari": null,
    "PS_Male": 2,
    "PS_Female": 2,
    "PS_Total": 4,
    "ولسوالي": "پنجوایې",
    "Region": "Southern Region"
   },
   "geometry": {
    "x": 7286475.0881040515,
    "y": 3703478.6546940147
   }
  },
  {
   "attributes": {
    "OBJECTID": 2370,
    "ولایت": "کندهار",
    "Province": "کندهار",
    "PC_Code": "2704186",
    "District": "PANJWAYEE",
    "د_مرکز_نوم__نام_مرکز": "مكتب چهل غور",
    "Polling_Center_Name": "Chehl Ghor School",
    "د_مرکز_ځای__موقعیت_مرکز": "چهل غور",
    "Polling_Center_Location": "Chehl Ghor",
    "Map_Accuracy": "Building",
    "Map_Accuracy_Dari": "تعمیر",
    "Status": "Open",
    "Status_Dari": null,
    "PS_Male": 4,
    "PS_Female": 0,
    "PS_Total": 4,
    "ولسوالي": "پنجوایې",
    "Region": "Southern Region"
   },
   "geometry": {
    "x": 7287418.0866425112,
    "y": 3704423.3119149935
   }
  },
  {
   "attributes": {
    "OBJECTID": 2371,
    "ولایت": "کندهار",
    "Province": "کندهار",
    "PC_Code": "2704189",
    "District": "PANJWAYEE",
    "د_مرکز_نوم__نام_مرکز": "د ټالکان کلی مكتب",
    "Polling_Center_Name": "Talgaan Village School",
    "د_مرکز_ځای__موقعیت_مرکز": "ټالكان کلی",
    "Polling_Center_Location": "Talgan Village",
    "Map_Accuracy": "Village",
    "Map_Accuracy_Dari": "قریه",
    "Status": "Open",
    "Status_Dari": null,
    "PS_Male": 2,
    "PS_Female": 2,
    "PS_Total": 4,
    "ولسوالي": "پنجوایې",
    "Region": "Southern Region"
   },
   "geometry": {
    "x": 7270889.7092871657,
    "y": 3689922.6333508557
   }
  },
  {
   "attributes": {
    "OBJECTID": 2372,
    "ولایت": "کابل",
    "Province": "KABUL",
    "PC_Code": "0101260",
    "District": "KABUL-D13",
    "د_مرکز_نوم__نام_مرکز": " مسجد سنايي",
    "Polling_Center_Name": "Sanaie Mosque",
    "د_مرکز_ځای__موقعیت_مرکز": "قریه ده قابل",
    "Polling_Center_Location": "Deh Qabil Village",
    "Map_Accuracy": "Building",
    "Map_Accuracy_Dari": "تعمیر",
    "Status": "Open",
    "Status_Dari": null,
    "PS_Male": 2,
    "PS_Female": 2,
    "PS_Total": 4,
    "ولسوالي": "کابل - ناحیه 13",
    "Region": "Central Region"
   },
   "geometry": {
    "x": 7691955.5362709947,
    "y": 4095701.9085759283
   }
  },
  {
   "attributes": {
    "OBJECTID": 2373,
    "ولایت": "کابل",
    "Province": "KABUL",
    "PC_Code": "0101280",
    "District": "KABUL-D13",
    "د_مرکز_نوم__نام_مرکز": "مسجد میرسیدعلی یخ سوز",
    "Polling_Center_Name": "Mir Sayed Ali Yakhsuz Mosque",
    "د_مرکز_ځای__موقعیت_مرکز": "قلعه سلطان جان",
    "Polling_Center_Location": "Qala-e-Sultan Jan",
    "Map_Accuracy": "Building",
    "Map_Accuracy_Dari": "تعمیر",
    "Status": "Open",
    "Status_Dari": null,
    "PS_Male": 2,
    "PS_Female": 2,
    "PS_Total": 4,
    "ولسوالي": "کابل - ناحیه 13",
    "Region": "Central Region"
   },
   "geometry": {
    "x": 7690728.8567081746,
    "y": 4095797.7861058139
   }
  },
  {
   "attributes": {
    "OBJECTID": 2374,
    "ولایت": "کابل",
    "Province": "KABUL",
    "PC_Code": "0101296",
    "District": "KABUL-D15",
    "د_مرکز_نوم__نام_مرکز": " متوسطه نمبر ۲ خواجه بغرا",
    "Polling_Center_Name": "Khwaja Bughra No.2 Secondary School",
    "د_مرکز_ځای__موقعیت_مرکز": "جکشن برق خير خانه",
    "Polling_Center_Location": "Khair Khana Electricity Junction",
    "Map_Accuracy": "Building",
    "Map_Accuracy_Dari": "تعمیر",
    "Status": "Open",
    "Status_Dari": null,
    "PS_Male": 4,
    "PS_Female": 4,
    "PS_Total": 8,
    "ولسوالي": "کابل - ناحیه 15",
    "Region": "Central Region"
   },
   "geometry": {
    "x": 7699134.2819897933,
    "y": 4105523.2139902837
   }
  },
  {
   "attributes": {
    "OBJECTID": 2375,
    "ولایت": "کابل",
    "Province": "KABUL",
    "PC_Code": "0101313",
    "District": "KABUL-D16",
    "د_مرکز_نوم__نام_مرکز": "مکتب متوسطه هالو خيل",
    "Polling_Center_Name": "Halo Khel Secondary School",
    "د_مرکز_ځای__موقعیت_مرکز": "هالو خيل",
    "Polling_Center_Location": "Halo Khel",
    "Map_Accuracy": "Building",
    "Map_Accuracy_Dari": "تعمیر",
    "Status": "Open",
    "Status_Dari": null,
    "PS_Male": 4,
    "PS_Female": 3,
    "PS_Total": 7,
    "ولسوالي": "کابل - ناحیه 16",
    "Region": "Central Region"
   },
   "geometry": {
    "x": 7711032.7948938394,
    "y": 4100188.750461021
   }
  },
  {
   "attributes": {
    "OBJECTID": 2376,
    "ولایت": "کابل",
    "Province": "KABUL",
    "PC_Code": "0101508",
    "District": "KABUL-D18",
    "د_مرکز_نوم__نام_مرکز": " لیسه شهرک محمدیه",
    "Polling_Center_Name": "Shahrak-e-Mohammadia High School",
    "د_مرکز_ځای__موقعیت_مرکز": "شهرک محمدیه",
    "Polling_Center_Location": "Shahrak-e-Mohammadia",
    "Map_Accuracy": "Building",
    "Map_Accuracy_Dari": "تعمیر",
    "Status": "Open",
    "Status_Dari": null,
    "PS_Male": 2,
    "PS_Female": 3,
    "PS_Total": 5,
    "ولسوالي": "کابل - ناحیه 18",
    "Region": "Central Region"
   },
   "geometry": {
    "x": 7711412.6790013816,
    "y": 4118251.5813157069
   }
  },
  {
   "attributes": {
    "OBJECTID": 2377,
    "ولایت": "کابل",
    "Province": "KABUL",
    "PC_Code": "0102409",
    "District": "PAGHMAN",
    "د_مرکز_نوم__نام_مرکز": " ليسه حضرت خالد بن وليد",
    "Polling_Center_Name": "Hazrat-e-Khalid Ibne Walid High School",
    "د_مرکز_ځای__موقعیت_مرکز": "کاريزک",
    "Polling_Center_Location": "Karezak",
    "Map_Accuracy": "Building",
    "Map_Accuracy_Dari": "تعمیر",
    "Status": "Open",
    "Status_Dari": null,
    "PS_Male": 2,
    "PS_Female": 2,
    "PS_Total": 4,
    "ولسوالي": "پغمان",
    "Region": "Central Region"
   },
   "geometry": {
    "x": 7678865.33931245,
    "y": 4100617.8907311903
   }
  },
  {
   "attributes": {
    "OBJECTID": 2378,
    "ولایت": "کابل",
    "Province": "KABUL",
    "PC_Code": "0103494",
    "District": "CHAHAR ASYAB",
    "د_مرکز_نوم__نام_مرکز": " مکتب ابتدائیه ریشخور علیا",
    "Polling_Center_Name": "Reshkhur-e-Ulya Primary School",
    "د_مرکز_ځای__موقعیت_مرکز": "ریشخور",
    "Polling_Center_Location": "Reshkhur",
    "Map_Accuracy": "Building",
    "Map_Accuracy_Dari": "تعمیر",
    "Status": "Open",
    "Status_Dari": null,
    "PS_Male": 3,
    "PS_Female": 1,
    "PS_Total": 4,
    "ولسوالي": "چهار آسیاب",
    "Region": "Central Region"
   },
   "geometry": {
    "x": 7695014.1595055889,
    "y": 4085916.828988011
   }
  },
  {
   "attributes": {
    "OBJECTID": 2379,
    "ولایت": "کابل",
    "Province": "KABUL",
    "PC_Code": "0105470",
    "District": "DEHSABZ",
    "د_مرکز_نوم__نام_مرکز": " لیسه صلح",
    "Polling_Center_Name": "Sulh High School",
    "د_مرکز_ځای__موقعیت_مرکز": "پل چرخي ٢",
    "Polling_Center_Location": "Pul-e-Charkhi 2",
    "Map_Accuracy": "Building",
    "Map_Accuracy_Dari": "تعمیر",
    "Status": "Open",
    "Status_Dari": null,
    "PS_Male": 3,
    "PS_Female": 2,
    "PS_Total": 5,
    "ولسوالي": "ده سبز",
    "Region": "Central Region"
   },
   "geometry": {
    "x": 7725478.0450519919,
    "y": 4105991.7046155254
   }
  },
  {
   "attributes": {
    "OBJECTID": 2380,
    "ولایت": "کابل",
    "Province": "KABUL",
    "PC_Code": "0107435",
    "District": "MUSAHI",
    "د_مرکز_نوم__نام_مرکز": "مسجد قلعه جانان",
    "Polling_Center_Name": "Qala-e- Janan Mosque",
    "د_مرکز_ځای__موقعیت_مرکز": "قلعه جانان، ده کلان",
    "Polling_Center_Location": "Qala-e-Janan, Deh Kalan",
    "Map_Accuracy": "Village",
    "Map_Accuracy_Dari": "قریه",
    "Status": "Open",
    "Status_Dari": null,
    "PS_Male": 1,
    "PS_Female": 2,
    "PS_Total": 3,
    "ولسوالي": "موسهی",
    "Region": "Central Region"
   },
   "geometry": {
    "x": 7700603.0057478342,
    "y": 4076528.1491499846
   }
  },
  {
   "attributes": {
    "OBJECTID": 2381,
    "ولایت": "کابل",
    "Province": "KABUL",
    "PC_Code": "0109445",
    "District": "KHAK-E-JABAR",
    "د_مرکز_نوم__نام_مرکز": " مکتب متوسطه ولي خان",
    "Polling_Center_Name": "Wali Khan Secondary School",
    "د_مرکز_ځای__موقعیت_مرکز": "زندان",
    "Polling_Center_Location": "Zendan ",
    "Map_Accuracy": "Building",
    "Map_Accuracy_Dari": "تعمیر",
    "Status": "Open",
    "Status_Dari": null,
    "PS_Male": 2,
    "PS_Female": 2,
    "PS_Total": 4,
    "ولسوالي": "خاک جبار",
    "Region": "Central Region"
   },
   "geometry": {
    "x": 7728081.1845524982,
    "y": 4078422.6566590006
   }
  },
  {
   "attributes": {
    "OBJECTID": 2382,
    "ولایت": "کابل",
    "Province": "KABUL",
    "PC_Code": "0113375",
    "District": "ESTALEF",
    "د_مرکز_نوم__نام_مرکز": " لسیه شهید احمد شاه مسعود",
    "Polling_Center_Name": "Shaheed Ahmad Shah Masoud High School",
    "د_مرکز_ځای__موقعیت_مرکز": "قبر ملک",
    "Polling_Center_Location": "Qabr Malak",
    "Map_Accuracy": "Building",
    "Map_Accuracy_Dari": "تعمیر",
    "Status": "Open",
    "Status_Dari": null,
    "PS_Male": 2,
    "PS_Female": 1,
    "PS_Total": 3,
    "ولسوالي": "استالف",
    "Region": "Central Region"
   },
   "geometry": {
    "x": 7690795.3856886551,
    "y": 4139576.4646465778
   }
  },
  {
   "attributes": {
    "OBJECTID": 2383,
    "ولایت": "کابل",
    "Province": "KABUL",
    "PC_Code": "0115476",
    "District": "SURUBI",
    "د_مرکز_نوم__نام_مرکز": "مسجد جامع دره حصاره",
    "Polling_Center_Name": "Dar-e-Hesara Mosque",
    "د_مرکز_ځای__موقعیت_مرکز": "دره حصاره",
    "Polling_Center_Location": "Dara-e-Hesar",
    "Map_Accuracy": "Building",
    "Map_Accuracy_Dari": "تعمیر",
    "Status": "Open",
    "Status_Dari": null,
    "PS_Male": 3,
    "PS_Female": 1,
    "PS_Total": 4,
    "ولسوالي": "سروبی",
    "Region": "Central Region"
   },
   "geometry": {
    "x": 7762931.5522946967,
    "y": 4106544.2498496827
   }
  },
  {
   "attributes": {
    "OBJECTID": 2384,
    "ولایت": "کاپيسا",
    "Province": "KAPISA",
    "PC_Code": "0201007",
    "District": "MAHMUDI RAQI",
    "د_مرکز_نوم__نام_مرکز": "لیسه نسوان",
    "Polling_Center_Name": "Girls High School ",
    "د_مرکز_ځای__موقعیت_مرکز": "کره تاز",
    "Polling_Center_Location": "Karataz",
    "Map_Accuracy": "Building",
    "Map_Accuracy_Dari": "تعمیر",
    "Status": "Open",
    "Status_Dari": null,
    "PS_Male": 4,
    "PS_Female": 2,
    "PS_Total": 6,
    "ولسوالي": "محمود راقی ",
    "Region": "Central Region"
   },
   "geometry": {
    "x": 7722285.8350888621,
    "y": 4169121.7558922363
   }
  },
  {
   "attributes": {
    "OBJECTID": 2385,
    "ولایت": "کاپيسا",
    "Province": "KAPISA",
    "PC_Code": "0201008",
    "District": "MAHMUDI RAQI",
    "د_مرکز_نوم__نام_مرکز": "منزل مولوی غلام ایشان",
    "Polling_Center_Name": "Mawlawi Ghulam Eshan House",
    "د_مرکز_ځای__موقعیت_مرکز": "ده بابی ",
    "Polling_Center_Location": "Deh Babi",
    "Map_Accuracy": "Building",
    "Map_Accuracy_Dari": "تعمیر",
    "Status": "Open",
    "Status_Dari": null,
    "PS_Male": 3,
    "PS_Female": 2,
    "PS_Total": 5,
    "ولسوالي": "محمود راقی ",
    "Region": "Central Region"
   },
   "geometry": {
    "x": 7714382.5642378461,
    "y": 4166143.7261205092
   }
  },
  {
   "attributes": {
    "OBJECTID": 2386,
    "ولایت": "کاپيسا",
    "Province": "KAPISA",
    "PC_Code": "0203068",
    "District": "KOH BAND",
    "د_مرکز_نوم__نام_مرکز": "مسجد محمد عمر خیل ",
    "Polling_Center_Name": "Mohammad OmarKhel Mosque",
    "د_مرکز_ځای__موقعیت_مرکز": "آرام کوت ",
    "Polling_Center_Location": "Aram Kot",
    "Map_Accuracy": "Building",
    "Map_Accuracy_Dari": "تعمیر",
    "Status": "Open",
    "Status_Dari": null,
    "PS_Male": 1,
    "PS_Female": 1,
    "PS_Total": 2,
    "ولسوالي": "کوه بند",
    "Region": "Central Region"
   },
   "geometry": {
    "x": 7726701.5542357191,
    "y": 4179701.0015766835
   }
  },
  {
   "attributes": {
    "OBJECTID": 2387,
    "ولایت": "کاپيسا",
    "Province": "KAPISA",
    "PC_Code": "0204037",
    "District": "HISSA-E-AWALI KOHISTAN",
    "د_مرکز_نوم__نام_مرکز": "مسجد ملاخلیل ",
    "Polling_Center_Name": "Molla khalil Mosque ",
    "د_مرکز_ځای__موقعیت_مرکز": "ملاخلیل ",
    "Polling_Center_Location": "Molla Khalil",
    "Map_Accuracy": "Building",
    "Map_Accuracy_Dari": "تعمیر",
    "Status": "Open",
    "Status_Dari": null,
    "PS_Male": 2,
    "PS_Female": 1,
    "PS_Total": 3,
    "ولسوالي": "حصه اول کوهستان ",
    "Region": "Central Region"
   },
   "geometry": {
    "x": 7717591.2728627101,
    "y": 4176179.3605319178
   }
  },
  {
   "attributes": {
    "OBJECTID": 2388,
    "ولایت": "کندهار",
    "Province": "کندهار",
    "PC_Code": "2704190",
    "District": "PANJWAYEE",
    "د_مرکز_نوم__نام_مرکز": "د بازار مدرسه",
    "Polling_Center_Name": "Bazar Madrassa",
    "د_مرکز_ځای__موقعیت_مرکز": "موشان",
    "Polling_Center_Location": "Moshan",
    "Map_Accuracy": "Village",
    "Map_Accuracy_Dari": "قریه",
    "Status": "Open",
    "Status_Dari": null,
    "PS_Male": 2,
    "PS_Female": 0,
    "PS_Total": 2,
    "ولسوالي": "پنجوایې",
    "Region": "Southern Region"
   },
   "geometry": {
    "x": 7265890.5335196089,
    "y": 3692156.740085497
   }
  },
  {
   "attributes": {
    "OBJECTID": 2389,
    "ولایت": "کندهار",
    "Province": "کندهار",
    "PC_Code": "2705149",
    "District": "ZHIRE",
    "د_مرکز_نوم__نام_مرکز": "اول كمپ خیمه ",
    "Polling_Center_Name": "Awal Camp Tent",
    "د_مرکز_ځای__موقعیت_مرکز": "ژړي دښت کلی",
    "Polling_Center_Location": "Zharee Dasht Village",
    "Map_Accuracy": "Building",
    "Map_Accuracy_Dari": "تعمیر",
    "Status": "Open",
    "Status_Dari": null,
    "PS_Male": 2,
    "PS_Female": 2,
    "PS_Total": 4,
    "ولسوالي": "ژیړی",
    "Region": "Southern Region"
   },
   "geometry": {
    "x": 7276323.6845142329,
    "y": 3720145.7390584801
   }
  },
  {
   "attributes": {
    "OBJECTID": 2390,
    "ولایت": "کندهار",
    "Province": "کندهار",
    "PC_Code": "2705150",
    "District": "ZHIRE",
    "د_مرکز_نوم__نام_مرکز": "مكتب عاشقه",
    "Polling_Center_Name": "Aashoqa School",
    "د_مرکز_ځای__موقعیت_مرکز": "عاشقه",
    "Polling_Center_Location": "Aashoqa",
    "Map_Accuracy": "Village",
    "Map_Accuracy_Dari": "قریه",
    "Status": "Open",
    "Status_Dari": null,
    "PS_Male": 2,
    "PS_Female": 1,
    "PS_Total": 3,
    "ولسوالي": "ژیړی",
    "Region": "Southern Region"
   },
   "geometry": {
    "x": 7292498.7182210721,
    "y": 3710623.0120418463
   }
  },
  {
   "attributes": {
    "OBJECTID": 2391,
    "ولایت": "کندهار",
    "Province": "کندهار",
    "PC_Code": "2705160",
    "District": "ZHIRE",
    "د_مرکز_نوم__نام_مرکز": "د امان الله مكتب",
    "Polling_Center_Name": "Amanullah School",
    "د_مرکز_ځای__موقعیت_مرکز": "سبلاغي",
    "Polling_Center_Location": "Sablaghi",
    "Map_Accuracy": "Village",
    "Map_Accuracy_Dari": "قریه",
    "Status": "Open",
    "Status_Dari": null,
    "PS_Male": 2,
    "PS_Female": 0,
    "PS_Total": 2,
    "ولسوالي": "ژیړی",
    "Region": "Southern Region"
   },
   "geometry": {
    "x": 7279535.9653815543,
    "y": 3701901.339064416
   }
  },
  {
   "attributes": {
    "OBJECTID": 2392,
    "ولایت": "کندهار",
    "Province": "کندهار",
    "PC_Code": "2705161",
    "District": "ZHIRE",
    "د_مرکز_نوم__نام_مرکز": "د جاجي لالا د تیلو پمپ",
    "Polling_Center_Name": "Haji Lala Oil Station",
    "د_مرکز_ځای__موقعیت_مرکز": "سنځري",
    "Polling_Center_Location": "Senzari",
    "Map_Accuracy": "Building",
    "Map_Accuracy_Dari": "تعمیر",
    "Status": "Open",
    "Status_Dari": null,
    "PS_Male": 2,
    "PS_Female": 1,
    "PS_Total": 3,
    "ولسوالي": "ژیړی",
    "Region": "Southern Region"
   },
   "geometry": {
    "x": 7294447.3191532195,
    "y": 3713811.4197927066
   }
  },
  {
   "attributes": {
    "OBJECTID": 2393,
    "ولایت": "کندهار",
    "Province": "کندهار",
    "PC_Code": "2707121",
    "District": "KHAKREZ",
    "د_مرکز_نوم__نام_مرکز": "د حاجي قيوم ميلمستون",
    "Polling_Center_Name": "Haji Qayoom Guest House ",
    "د_مرکز_ځای__موقعیت_مرکز": "اروق شاه خان",
    "Polling_Center_Location": "Aroq Shah Khan",
    "Map_Accuracy": "Building",
    "Map_Accuracy_Dari": "تعمیر",
    "Status": "Open",
    "Status_Dari": null,
    "PS_Male": 1,
    "PS_Female": 1,
    "PS_Total": 2,
    "ولسوالي": "خاک ریز",
    "Region": "Southern Region"
   },
   "geometry": {
    "x": 7290704.6098178243,
    "y": 3750697.2259662431
   }
  },
  {
   "attributes": {
    "OBJECTID": 2394,
    "ولایت": "کندهار",
    "Province": "کندهار",
    "PC_Code": "2709130",
    "District": "GHORAK",
    "د_مرکز_نوم__نام_مرکز": "مسجد پيرخادم",
    "Polling_Center_Name": "Pir Khadim Mosque",
    "د_مرکز_ځای__موقعیت_مرکز": "پيرخادم",
    "Polling_Center_Location": "Pir Khadim",
    "Map_Accuracy": "Building",
    "Map_Accuracy_Dari": "تعمیر",
    "Status": "Open",
    "Status_Dari": null,
    "PS_Male": 2,
    "PS_Female": 0,
    "PS_Total": 2,
    "ولسوالي": "غورك",
    "Region": "Southern Region"
   },
   "geometry": {
    "x": 7255319.47437381,
    "y": 3773607.6578811216
   }
  },
  {
   "attributes": {
    "OBJECTID": 2395,
    "ولایت": "کندهار",
    "Province": "کندهار",
    "PC_Code": "2712263",
    "District": "NISH",
    "د_مرکز_نوم__نام_مرکز": "د ولسوالي مركز",
    "Polling_Center_Name": "District Building Office",
    "د_مرکز_ځای__موقعیت_مرکز": "نيازو خيل",
    "Polling_Center_Location": "Niazo Khel",
    "Map_Accuracy": "Village",
    "Map_Accuracy_Dari": "قریه",
    "Status": "Open",
    "Status_Dari": null,
    "PS_Male": 3,
    "PS_Female": 3,
    "PS_Total": 6,
    "ولسوالي": "نيش",
    "Region": "Southern Region"
   },
   "geometry": {
    "x": 7308969.976432492,
    "y": 3818749.1701201415
   }
  },
  {
   "attributes": {
    "OBJECTID": 2396,
    "ولایت": "کندهار",
    "Province": "کندهار",
    "PC_Code": "2712264",
    "District": "NISH",
    "د_مرکز_نوم__نام_مرکز": "د حاجي اغالالا كور",
    "Polling_Center_Name": "Haji Agha Lala Private House",
    "د_مرکز_ځای__موقعیت_مرکز": "چوپاني",
    "Polling_Center_Location": "Chopani ",
    "Map_Accuracy": "Village",
    "Map_Accuracy_Dari": "قریه",
    "Status": "Open",
    "Status_Dari": null,
    "PS_Male": 3,
    "PS_Female": 0,
    "PS_Total": 3,
    "ولسوالي": "نيش",
    "Region": "Southern Region"
   },
   "geometry": {
    "x": 7310528.0852888599,
    "y": 3818519.2005962925
   }
  },
  {
   "attributes": {
    "OBJECTID": 2397,
    "ولایت": "کندهار",
    "Province": "کندهار",
    "PC_Code": "2715254",
    "District": "MARUF",
    "د_مرکز_نوم__نام_مرکز": "د ولسوالي مركز",
    "Polling_Center_Name": "District Building Office",
    "د_مرکز_ځای__موقعیت_مرکز": "د ولسوالي مركز",
    "Polling_Center_Location": "District Compound",
    "Map_Accuracy": "Village",
    "Map_Accuracy_Dari": "قریه",
    "Status": "Open",
    "Status_Dari": null,
    "PS_Male": 4,
    "PS_Female": 2,
    "PS_Total": 6,
    "ولسوالي": "معروف",
    "Region": "Southern Region"
   },
   "geometry": {
    "x": 7478217.7758273529,
    "y": 3717377.5205020891
   }
  },
  {
   "attributes": {
    "OBJECTID": 2398,
    "ولایت": "کندهار",
    "Province": "کندهار",
    "PC_Code": "2715255",
    "District": "MARUF",
    "د_مرکز_نوم__نام_مرکز": "د حاجي منان كور",
    "Polling_Center_Name": "Haji Manan Private House",
    "د_مرکز_ځای__موقعیت_مرکز": "ساليسون",
    "Polling_Center_Location": "Salisoon",
    "Map_Accuracy": "Village",
    "Map_Accuracy_Dari": "قریه",
    "Status": "Open",
    "Status_Dari": null,
    "PS_Male": 3,
    "PS_Female": 2,
    "PS_Total": 5,
    "ولسوالي": "معروف",
    "Region": "Southern Region"
   },
   "geometry": {
    "x": 7494474.1295354106,
    "y": 3677190.9086516262
   }
  },
  {
   "attributes": {
    "OBJECTID": 2399,
    "ولایت": "کندهار",
    "Province": "کندهار",
    "PC_Code": "2715257",
    "District": "MARUF",
    "د_مرکز_نوم__نام_مرکز": "د اوبتو مكتب",
    "Polling_Center_Name": "Obto School",
    "د_مرکز_ځای__موقعیت_مرکز": "اوبتو كلي",
    "Polling_Center_Location": "Obto Village",
    "Map_Accuracy": "Village",
    "Map_Accuracy_Dari": "قریه",
    "Status": "Open",
    "Status_Dari": null,
    "PS_Male": 3,
    "PS_Female": 2,
    "PS_Total": 5,
    "ولسوالي": "معروف",
    "Region": "Southern Region"
   },
   "geometry": {
    "x": 7462326.7771408642,
    "y": 3696070.3268165346
   }
  },
  {
   "attributes": {
    "OBJECTID": 2400,
    "ولایت": "کندهار",
    "Province": "کندهار",
    "PC_Code": "2715258",
    "District": "MARUF",
    "د_مرکز_نوم__نام_مرکز": "مسجد اعلي جرګه ",
    "Polling_Center_Name": "Aala Jirga Mosque",
    "د_مرکز_ځای__موقعیت_مرکز": "اعلي جرګه کلی",
    "Polling_Center_Location": "Aala Jirga Village",
    "Map_Accuracy": "Village",
    "Map_Accuracy_Dari": "قریه",
    "Status": "Open",
    "Status_Dari": null,
    "PS_Male": 5,
    "PS_Female": 2,
    "PS_Total": 7,
    "ولسوالي": "معروف",
    "Region": "Southern Region"
   },
   "geometry": {
    "x": 7543653.2337775286,
    "y": 3680697.9680347294
   }
  }
 ]
}