{
 "displayFieldName": "Polling_Center_Name",
 "fieldAliases": {
  "OBJECTID": "OBJECTID",
  "ولایت": "ولایت",
  "Province": "Province",
  "PC_Code": "PC_Code",
  "District": "District",
  "د_مرکز_نوم__نام_مرکز": "د_مرکز_نوم__نام_مرکز",
  "Polling_Center_Name": "Polling_Center_Name",
  "د_مرکز_ځای__موقعیت_مرکز": "د_مرکز_ځای__موقعیت_مرکز",
  "Polling_Center_Location": "Polling_Center_Location",
  "Map_Accuracy": "Map_Accuracy",
  "Map_Accuracy_Dari": "Map_Accuracy_Dari",
  "Status": "Status",
  "Status_Dari": "Status_Dari",
  "PS_Male": "PS_Male",
  "PS_Female": "PS_Female",
  "PS_Total": "PS_Total",
  "ولسوالي": "ولسوالي",
  "Region": "Region"
 },
 "geometryType": "esriGeometryPoint",
 "spatialReference": {
  "wkid": 102100,
  "latestWkid": 3857
 },
 "fields": [
  {
   "name": "OBJECTID",
   "type": "esriFieldTypeOID",
   "alias": "OBJECTID"
  },
  {
   "name": "ولایت",
   "type": "esriFieldTypeString",
   "alias": "ولایت",
   "length": 255
  },
  {
   "name": "Province",
   "type": "esriFieldTypeString",
   "alias": "Province",
   "length": 255
  },
  {
   "name": "PC_Code",
   "type": "esriFieldTypeString",
   "alias": "PC_Code",
   "length": 255
  },
  {
   "name": "District",
   "type": "esriFieldTypeString",
   "alias": "District",
   "length": 255
  },
  {
   "name": "د_مرکز_نوم__نام_مرکز",
   "type": "esriFieldTypeString",
   "alias": "د_مرکز_نوم__نام_مرکز",
   "length": 255
  },
  {
   "name": "Polling_Center_Name",
   "type": "esriFieldTypeString",
   "alias": "Polling_Center_Name",
   "length": 255
  },
  {
   "name": "د_مرکز_ځای__موقعیت_مرکز",
   "type": "esriFieldTypeString",
   "alias": "د_مرکز_ځای__موقعیت_مرکز",
   "length": 255
  },
  {
   "name": "Polling_Center_Location",
   "type": "esriFieldTypeString",
   "alias": "Polling_Center_Location",
   "length": 255
  },
  {
   "name": "Map_Accuracy",
   "type": "esriFieldTypeString",
   "alias": "Map_Accuracy",
   "length": 10
  },
  {
   "name": "Map_Accuracy_Dari",
   "type": "esriFieldTypeString",
   "alias": "Map_Accuracy_Dari",
   "length": 50
  },
  {
   "name": "Status",
   "type": "esriFieldTypeString",
   "alias": "Status",
   "length": 6
  },
  {
   "name": "Status_Dari",
   "type": "esriFieldTypeString",
   "alias": "Status_Dari",
   "length": 8
  },
  {
   "name": "PS_Male",
   "type": "esriFieldTypeSmallInteger",
   "alias": "PS_Male"
  },
  {
   "name": "PS_Female",
   "type": "esriFieldTypeSmallInteger",
   "alias": "PS_Female"
  },
  {
   "name": "PS_Total",
   "type": "esriFieldTypeSmallInteger",
   "alias": "PS_Total"
  },
  {
   "name": "ولسوالي",
   "type": "esriFieldTypeString",
   "alias": "ولسوالي",
   "length": 255
  },
  {
   "name": "Region",
   "type": "esriFieldTypeString",
   "alias": "Region",
   "length": 50
  }
 ],
 "features": [
  {
   "attributes": {
    "OBJECTID": 2001,
    "ولایت": "تخار",
    "Province": "TAKHAR",
    "PC_Code": "1811071",
    "District": "ESHKAMESH",
    "د_مرکز_نوم__نام_مرکز": "مسجد جامع قشلاق سای",
    "Polling_Center_Name": "Qashlaq Say Mosque",
    "د_مرکز_ځای__موقعیت_مرکز": "قشلاق سای",
    "Polling_Center_Location": "Qashlaq Say",
    "Map_Accuracy": "Building",
    "Map_Accuracy_Dari": "تعمیر",
    "Status": "Open",
    "Status_Dari": null,
    "PS_Male": 1,
    "PS_Female": 1,
    "PS_Total": 2,
    "ولسوالي": "اشکمش",
    "Region": "North Eastern Region"
   },
   "geometry": {
    "x": 7705035.751210806,
    "y": 4370819.0355736297
   }
  },
  {
   "attributes": {
    "OBJECTID": 2002,
    "ولایت": "تخار",
    "Province": "TAKHAR",
    "PC_Code": "1811072",
    "District": "ESHKAMESH",
    "د_مرکز_نوم__نام_مرکز": "مسجد جامع بویرک",
    "Polling_Center_Name": "Boyerak Mosque",
    "د_مرکز_ځای__موقعیت_مرکز": "بویرک",
    "Polling_Center_Location": "Boyerak",
    "Map_Accuracy": "Building",
    "Map_Accuracy_Dari": "تعمیر",
    "Status": "Open",
    "Status_Dari": null,
    "PS_Male": 1,
    "PS_Female": 1,
    "PS_Total": 2,
    "ولسوالي": "اشکمش",
    "Region": "North Eastern Region"
   },
   "geometry": {
    "x": 7705621.6791242063,
    "y": 4361013.9700840851
   }
  },
  {
   "attributes": {
    "OBJECTID": 2003,
    "ولایت": "تخار",
    "Province": "TAKHAR",
    "PC_Code": "1811074",
    "District": "ESHKAMESH",
    "د_مرکز_نوم__نام_مرکز": "مکتب ابتدائیه دره کلان",
    "Polling_Center_Name": "Dara-e-Kalan Primary School",
    "د_مرکز_ځای__موقعیت_مرکز": "دره کلان",
    "Polling_Center_Location": "Dara-e-Kalan",
    "Map_Accuracy": "Building",
    "Map_Accuracy_Dari": "تعمیر",
    "Status": "Open",
    "Status_Dari": null,
    "PS_Male": 2,
    "PS_Female": 1,
    "PS_Total": 3,
    "ولسوالي": "اشکمش",
    "Region": "North Eastern Region"
   },
   "geometry": {
    "x": 7724613.4599628504,
    "y": 4344157.6761902152
   }
  },
  {
   "attributes": {
    "OBJECTID": 2004,
    "ولایت": "تخار",
    "Province": "TAKHAR",
    "PC_Code": "1811075",
    "District": "ESHKAMESH",
    "د_مرکز_نوم__نام_مرکز": "مسجد قندهاری فخرک",
    "Polling_Center_Name": "Qandahari Fakhrak Mosque",
    "د_مرکز_ځای__موقعیت_مرکز": "فخرک",
    "Polling_Center_Location": "Fakhrak",
    "Map_Accuracy": "Building",
    "Map_Accuracy_Dari": "تعمیر",
    "Status": "Open",
    "Status_Dari": null,
    "PS_Male": 2,
    "PS_Female": 1,
    "PS_Total": 3,
    "ولسوالي": "اشکمش",
    "Region": "North Eastern Region"
   },
   "geometry": {
    "x": 7723170.2027647132,
    "y": 4361129.7328098239
   }
  },
  {
   "attributes": {
    "OBJECTID": 2005,
    "ولایت": "تخار",
    "Province": "TAKHAR",
    "PC_Code": "1812174",
    "District": "DASHT-E-QALA",
    "د_مرکز_نوم__نام_مرکز": "متوسطه نوآباد",
    "Polling_Center_Name": "Nawabad Secondary School",
    "د_مرکز_ځای__موقعیت_مرکز": "نوآباد",
    "Polling_Center_Location": "Nawabad",
    "Map_Accuracy": "Building",
    "Map_Accuracy_Dari": "تعمیر",
    "Status": "Open",
    "Status_Dari": null,
    "PS_Male": 2,
    "PS_Female": 2,
    "PS_Total": 4,
    "ولسوالي": "دشت قلعه",
    "Region": "North Eastern Region"
   },
   "geometry": {
    "x": 7738086.6638746187,
    "y": 4462717.2937089512
   }
  },
  {
   "attributes": {
    "OBJECTID": 2006,
    "ولایت": "تخار",
    "Province": "TAKHAR",
    "PC_Code": "1801028",
    "District": "TALUQAN",
    "د_مرکز_نوم__نام_مرکز": "مکتب چینزه یی",
    "Polling_Center_Name": "Chenza Yee School",
    "د_مرکز_ځای__موقعیت_مرکز": "چینزه یی",
    "Polling_Center_Location": "Chenza Yee",
    "Map_Accuracy": "Building",
    "Map_Accuracy_Dari": "تعمیر",
    "Status": "Open",
    "Status_Dari": null,
    "PS_Male": 2,
    "PS_Female": 2,
    "PS_Total": 4,
    "ولسوالي": "تالقان",
    "Region": "North Eastern Region"
   },
   "geometry": {
    "x": 7714844.6436517686,
    "y": 4401074.083244008
   }
  },
  {
   "attributes": {
    "OBJECTID": 2007,
    "ولایت": "تخار",
    "Province": "TAKHAR",
    "PC_Code": "1801029",
    "District": "TALUQAN",
    "د_مرکز_نوم__نام_مرکز": "مکتب ترمه بایی",
    "Polling_Center_Name": "Tarma Baay School",
    "د_مرکز_ځای__موقعیت_مرکز": "ترمه بای",
    "Polling_Center_Location": "Tarma Baay",
    "Map_Accuracy": "Building",
    "Map_Accuracy_Dari": "تعمیر",
    "Status": "Open",
    "Status_Dari": null,
    "PS_Male": 2,
    "PS_Female": 1,
    "PS_Total": 3,
    "ولسوالي": "تالقان",
    "Region": "North Eastern Region"
   },
   "geometry": {
    "x": 7736412.2027732749,
    "y": 4410909.6980750849
   }
  },
  {
   "attributes": {
    "OBJECTID": 2008,
    "ولایت": "تخار",
    "Province": "TAKHAR",
    "PC_Code": "1801030",
    "District": "TALUQAN",
    "د_مرکز_نوم__نام_مرکز": "لیسه عبدالرحمن تالقانی",
    "Polling_Center_Name": "Abdul Rahman Taloqani High School",
    "د_مرکز_ځای__موقعیت_مرکز": "قزاق",
    "Polling_Center_Location": "Qazaq",
    "Map_Accuracy": "Building",
    "Map_Accuracy_Dari": "تعمیر",
    "Status": "Open",
    "Status_Dari": null,
    "PS_Male": 2,
    "PS_Female": 1,
    "PS_Total": 3,
    "ولسوالي": "تالقان",
    "Region": "North Eastern Region"
   },
   "geometry": {
    "x": 7740538.2007001927,
    "y": 4405909.7241874915
   }
  },
  {
   "attributes": {
    "OBJECTID": 2009,
    "ولایت": "تخار",
    "Province": "TAKHAR",
    "PC_Code": "1806082",
    "District": "NAMAK AB",
    "د_مرکز_نوم__نام_مرکز": "مکتب صد برگان",
    "Polling_Center_Name": "Sad Bargan School",
    "د_مرکز_ځای__موقعیت_مرکز": "صد برگان",
    "Polling_Center_Location": "Sad Bargan",
    "Map_Accuracy": "Building",
    "Map_Accuracy_Dari": "تعمیر",
    "Status": "Open",
    "Status_Dari": null,
    "PS_Male": 2,
    "PS_Female": 1,
    "PS_Total": 3,
    "ولسوالي": "نمک آب",
    "Region": "North Eastern Region"
   },
   "geometry": {
    "x": 7759326.5383789204,
    "y": 4380283.0658116555
   }
  },
  {
   "attributes": {
    "OBJECTID": 2010,
    "ولایت": "تخار",
    "Province": "TAKHAR",
    "PC_Code": "1807100",
    "District": "KALAFGAN",
    "د_مرکز_نوم__نام_مرکز": "لیسه محمد حسین شهید",
    "Polling_Center_Name": "Mohammad Hussain Shaheed High School",
    "د_مرکز_ځای__موقعیت_مرکز": "زردالو دره سفلا",
    "Polling_Center_Location": "Zardaalo Dara Sufla",
    "Map_Accuracy": "Building",
    "Map_Accuracy_Dari": "تعمیر",
    "Status": "Open",
    "Status_Dari": null,
    "PS_Male": 3,
    "PS_Female": 1,
    "PS_Total": 4,
    "ولسوالي": "کلفگان",
    "Region": "North Eastern Region"
   },
   "geometry": {
    "x": 7786410.6362787476,
    "y": 4404395.5995488018
   }
  },
  {
   "attributes": {
    "OBJECTID": 2011,
    "ولایت": "تخار",
    "Province": "TAKHAR",
    "PC_Code": "1809054",
    "District": "KHWAJA GHAR",
    "د_مرکز_نوم__نام_مرکز": "مکتب متوسطه حاجی میزا محمد",
    "Polling_Center_Name": "Haji Mirza Mohammad Secondary School",
    "د_مرکز_ځای__موقعیت_مرکز": "جلوم خور",
    "Polling_Center_Location": "Jalom Khor",
    "Map_Accuracy": "Building",
    "Map_Accuracy_Dari": "تعمیر",
    "Status": "Open",
    "Status_Dari": null,
    "PS_Male": 2,
    "PS_Female": 1,
    "PS_Total": 3,
    "ولسوالي": "خواجه غار",
    "Region": "North Eastern Region"
   },
   "geometry": {
    "x": 7727420.4688656004,
    "y": 4458194.7886081105
   }
  },
  {
   "attributes": {
    "OBJECTID": 2012,
    "ولایت": "تخار",
    "Province": "TAKHAR",
    "PC_Code": "1809055",
    "District": "KHWAJA GHAR",
    "د_مرکز_نوم__نام_مرکز": "مکتب ابتدائیه هموارسای",
    "Polling_Center_Name": "Hamwar Say Primary School",
    "د_مرکز_ځای__موقعیت_مرکز": "هموارسای",
    "Polling_Center_Location": "Hamwar Say",
    "Map_Accuracy": "Building",
    "Map_Accuracy_Dari": "تعمیر",
    "Status": "Open",
    "Status_Dari": null,
    "PS_Male": 2,
    "PS_Female": 2,
    "PS_Total": 4,
    "ولسوالي": "خواجه غار",
    "Region": "North Eastern Region"
   },
   "geometry": {
    "x": 7723804.2941690013,
    "y": 4428748.6075926423
   }
  },
  {
   "attributes": {
    "OBJECTID": 2013,
    "ولایت": "تخار",
    "Province": "TAKHAR",
    "PC_Code": "1809190",
    "District": "KHWAJA GHAR",
    "د_مرکز_نوم__نام_مرکز": "لیسه حسام الدین شهید",
    "Polling_Center_Name": "Hasamuddin Shaheed High School",
    "د_مرکز_ځای__موقعیت_مرکز": "کشوری",
    "Polling_Center_Location": "Keshwari",
    "Map_Accuracy": "Building",
    "Map_Accuracy_Dari": "تعمیر",
    "Status": "Open",
    "Status_Dari": null,
    "PS_Male": 3,
    "PS_Female": 1,
    "PS_Total": 4,
    "ولسوالي": "خواجه غار",
    "Region": "North Eastern Region"
   },
   "geometry": {
    "x": 7721875.1908456609,
    "y": 4440491.2411245266
   }
  },
  {
   "attributes": {
    "OBJECTID": 2014,
    "ولایت": "تخار",
    "Province": "TAKHAR",
    "PC_Code": "1810101",
    "District": "RUSTAQ",
    "د_مرکز_نوم__نام_مرکز": "لیسه حضرت عمرفاروق",
    "Polling_Center_Name": "Hazrat Omar Farooq High School",
    "د_مرکز_ځای__موقعیت_مرکز": "شهرجدید رستاق",
    "Polling_Center_Location": "Shahr Jadid Rostaq",
    "Map_Accuracy": "Building",
    "Map_Accuracy_Dari": "تعمیر",
    "Status": "Open",
    "Status_Dari": null,
    "PS_Male": 5,
    "PS_Female": 2,
    "PS_Total": 7,
    "ولسوالي": "رستاق",
    "Region": "North Eastern Region"
   },
   "geometry": {
    "x": 7769770.2503649602,
    "y": 4458819.5537486095
   }
  },
  {
   "attributes": {
    "OBJECTID": 2015,
    "ولایت": "تخار",
    "Province": "TAKHAR",
    "PC_Code": "1810116",
    "District": "RUSTAQ",
    "د_مرکز_نوم__نام_مرکز": "کلینیک قدق جوازخانه",
    "Polling_Center_Name": "Qadaq Jawaz Khana Clinic",
    "د_مرکز_ځای__موقعیت_مرکز": "قدق جوازخانه",
    "Polling_Center_Location": "Qadaq Jawaz Khana",
    "Map_Accuracy": "Building",
    "Map_Accuracy_Dari": "تعمیر",
    "Status": "Open",
    "Status_Dari": null,
    "PS_Male": 3,
    "PS_Female": 1,
    "PS_Total": 4,
    "ولسوالي": "رستاق",
    "Region": "North Eastern Region"
   },
   "geometry": {
    "x": 7767187.2040325422,
    "y": 4434302.6017731447
   }
  },
  {
   "attributes": {
    "OBJECTID": 2016,
    "ولایت": "تخار",
    "Province": "TAKHAR",
    "PC_Code": "1810117",
    "District": "RUSTAQ",
    "د_مرکز_نوم__نام_مرکز": "مسجد قریه چنار",
    "Polling_Center_Name": "Chenar Village Mosque",
    "د_مرکز_ځای__موقعیت_مرکز": "قریه چنار",
    "Polling_Center_Location": "Chenar Village",
    "Map_Accuracy": "Building",
    "Map_Accuracy_Dari": "تعمیر",
    "Status": "Open",
    "Status_Dari": null,
    "PS_Male": 1,
    "PS_Female": 1,
    "PS_Total": 2,
    "ولسوالي": "رستاق",
    "Region": "North Eastern Region"
   },
   "geometry": {
    "x": 7769223.4846484242,
    "y": 4429975.8646736536
   }
  },
  {
   "attributes": {
    "OBJECTID": 2017,
    "ولایت": "تخار",
    "Province": "TAKHAR",
    "PC_Code": "1810126",
    "District": "RUSTAQ",
    "د_مرکز_نوم__نام_مرکز": "مکتب متوسطۀ ابوهریره",
    "Polling_Center_Name": "Abu Huraira Secondary School",
    "د_مرکز_ځای__موقعیت_مرکز": "شینگر آب",
    "Polling_Center_Location": "Shingar Aab",
    "Map_Accuracy": "Building",
    "Map_Accuracy_Dari": "تعمیر",
    "Status": "Open",
    "Status_Dari": null,
    "PS_Male": 1,
    "PS_Female": 1,
    "PS_Total": 2,
    "ولسوالي": "رستاق",
    "Region": "North Eastern Region"
   },
   "geometry": {
    "x": 7789085.6380765345,
    "y": 4433507.3968967162
   }
  },
  {
   "attributes": {
    "OBJECTID": 2018,
    "ولایت": "تخار",
    "Province": "TAKHAR",
    "PC_Code": "1810127",
    "District": "RUSTAQ",
    "د_مرکز_نوم__نام_مرکز": "مکتب متوسطه مولوی عبدالقدوس شهید",
    "Polling_Center_Name": "Mawlawi Abdul Qudoos Shaheed Secondary School",
    "د_مرکز_ځای__موقعیت_مرکز": "غنج",
    "Polling_Center_Location": "Ghenj",
    "Map_Accuracy": "Building",
    "Map_Accuracy_Dari": "تعمیر",
    "Status": "Open",
    "Status_Dari": null,
    "PS_Male": 3,
    "PS_Female": 1,
    "PS_Total": 4,
    "ولسوالي": "رستاق",
    "Region": "North Eastern Region"
   },
   "geometry": {
    "x": 7786734.8676540237,
    "y": 4450670.9499050351
   }
  },
  {
   "attributes": {
    "OBJECTID": 2019,
    "ولایت": "تخار",
    "Province": "TAKHAR",
    "PC_Code": "1810197",
    "District": "RUSTAQ",
    "د_مرکز_نوم__نام_مرکز": "مکتب متوسطۀ آبزان",
    "Polling_Center_Name": "Aabzan Secondary School",
    "د_مرکز_ځای__موقعیت_مرکز": "آبزان",
    "Polling_Center_Location": "Aabzan",
    "Map_Accuracy": "Building",
    "Map_Accuracy_Dari": "تعمیر",
    "Status": "Open",
    "Status_Dari": null,
    "PS_Male": 1,
    "PS_Female": 1,
    "PS_Total": 2,
    "ولسوالي": "رستاق",
    "Region": "North Eastern Region"
   },
   "geometry": {
    "x": 7786323.0810502097,
    "y": 4429883.9437345844
   }
  },
  {
   "attributes": {
    "OBJECTID": 2020,
    "ولایت": "تخار",
    "Province": "TAKHAR",
    "PC_Code": "1812201",
    "District": "DASHT-E-QALA",
    "د_مرکز_نوم__نام_مرکز": "مکتب متوسطۀ عربکاکل",
    "Polling_Center_Name": "Arabkakul Secondary School",
    "د_مرکز_ځای__موقعیت_مرکز": "عربکاکل",
    "Polling_Center_Location": "Arabkakul",
    "Map_Accuracy": "Building",
    "Map_Accuracy_Dari": "تعمیر",
    "Status": "Open",
    "Status_Dari": null,
    "PS_Male": 1,
    "PS_Female": 1,
    "PS_Total": 2,
    "ولسوالي": "دشت قلعه",
    "Region": "North Eastern Region"
   },
   "geometry": {
    "x": 7734028.4884606525,
    "y": 4473323.0572785148
   }
  },
  {
   "attributes": {
    "OBJECTID": 2021,
    "ولایت": "تخار",
    "Province": "TAKHAR",
    "PC_Code": "1814155",
    "District": "KHWAJA BAHAWUDIN",
    "د_مرکز_نوم__نام_مرکز": "لیسه ذکورخواجه بهاوالدین",
    "Polling_Center_Name": "Khwaja Bahauddin Boys High School",
    "د_مرکز_ځای__موقعیت_مرکز": "مرکز شهر",
    "Polling_Center_Location": "Markaz Shahr",
    "Map_Accuracy": "Building",
    "Map_Accuracy_Dari": "تعمیر",
    "Status": "Open",
    "Status_Dari": null,
    "PS_Male": 3,
    "PS_Female": 1,
    "PS_Total": 4,
    "ولسوالي": "خواجه بهاوالدین",
    "Region": "North Eastern Region"
   },
   "geometry": {
    "x": 7741149.2267059898,
    "y": 4486364.0062697232
   }
  },
  {
   "attributes": {
    "OBJECTID": 2022,
    "ولایت": "تخار",
    "Province": "TAKHAR",
    "PC_Code": "1814156",
    "District": "KHWAJA BAHAWUDIN",
    "د_مرکز_نوم__نام_مرکز": "لیسه امام ابو حنیفه",
    "Polling_Center_Name": "Imam Abu Hanifa High School",
    "د_مرکز_ځای__موقعیت_مرکز": "افغانیه",
    "Polling_Center_Location": "Afghania",
    "Map_Accuracy": "Building",
    "Map_Accuracy_Dari": "تعمیر",
    "Status": "Open",
    "Status_Dari": null,
    "PS_Male": 2,
    "PS_Female": 1,
    "PS_Total": 3,
    "ولسوالي": "خواجه بهاوالدین",
    "Region": "North Eastern Region"
   },
   "geometry": {
    "x": 7740093.9669138473,
    "y": 4486167.9108435167
   }
  },
  {
   "attributes": {
    "OBJECTID": 2023,
    "ولایت": "تخار",
    "Province": "TAKHAR",
    "PC_Code": "1810210",
    "District": "RUSTAQ",
    "د_مرکز_نوم__نام_مرکز": "مکتب متوسطه",
    "Polling_Center_Name": "Secondary School",
    "د_مرکز_ځای__موقعیت_مرکز": "خواجه خیراب",
    "Polling_Center_Location": "Khwaja khirab",
    "Map_Accuracy": "Building",
    "Map_Accuracy_Dari": "تعمیر",
    "Status": "Open",
    "Status_Dari": null,
    "PS_Male": 2,
    "PS_Female": 1,
    "PS_Total": 3,
    "ولسوالي": "رستاق",
    "Region": "North Eastern Region"
   },
   "geometry": {
    "x": 7785551.10386997,
    "y": 4444532.9318947541
   }
  },
  {
   "attributes": {
    "OBJECTID": 2024,
    "ولایت": "تخار",
    "Province": "TAKHAR",
    "PC_Code": "1810211",
    "District": "RUSTAQ",
    "د_مرکز_نوم__نام_مرکز": "مکتب ابتدایه",
    "Polling_Center_Name": "Primary School",
    "د_مرکز_ځای__موقعیت_مرکز": "دشتک سفلا",
    "Polling_Center_Location": "Dashtak sufla",
    "Map_Accuracy": "Building",
    "Map_Accuracy_Dari": "تعمیر",
    "Status": "Open",
    "Status_Dari": null,
    "PS_Male": 2,
    "PS_Female": 1,
    "PS_Total": 3,
    "ولسوالي": "رستاق",
    "Region": "North Eastern Region"
   },
   "geometry": {
    "x": 7766236.9825289249,
    "y": 4442650.4238659516
   }
  },
  {
   "attributes": {
    "OBJECTID": 2025,
    "ولایت": "کندز",
    "Province": "KUNDUZ",
    "PC_Code": "1901003",
    "District": "KUNDUZ",
    "د_مرکز_نوم__نام_مرکز": "لیسه غازی خان",
    "Polling_Center_Name": "Ghazi Khan High School",
    "د_مرکز_ځای__موقعیت_مرکز": "ناحیه پنجم",
    "Polling_Center_Location": "D05 - Nahia 5",
    "Map_Accuracy": "Building",
    "Map_Accuracy_Dari": "تعمیر",
    "Status": "Open",
    "Status_Dari": null,
    "PS_Male": 7,
    "PS_Female": 3,
    "PS_Total": 10,
    "ولسوالي": "کندز",
    "Region": "North Eastern Region"
   },
   "geometry": {
    "x": 7667555.8367584981,
    "y": 4398190.9767261939
   }
  },
  {
   "attributes": {
    "OBJECTID": 2026,
    "ولایت": "کندز",
    "Province": "KUNDUZ",
    "PC_Code": "1901004",
    "District": "KUNDUZ",
    "د_مرکز_نوم__نام_مرکز": "لیسه فاطمه زهرا",
    "Polling_Center_Name": "Fatima Zahra High School",
    "د_مرکز_ځای__موقعیت_مرکز": "ناحیه اول",
    "Polling_Center_Location": "D01 - Nahia 1",
    "Map_Accuracy": "Building",
    "Map_Accuracy_Dari": "تعمیر",
    "Status": "Open",
    "Status_Dari": null,
    "PS_Male": 3,
    "PS_Female": 3,
    "PS_Total": 6,
    "ولسوالي": "کندز",
    "Region": "North Eastern Region"
   },
   "geometry": {
    "x": 7666996.0733782165,
    "y": 4400510.6683834698
   }
  },
  {
   "attributes": {
    "OBJECTID": 2027,
    "ولایت": "کندز",
    "Province": "KUNDUZ",
    "PC_Code": "1901006",
    "District": "KUNDUZ",
    "د_مرکز_نوم__نام_مرکز": "لیسه خواجه مشهد",
    "Polling_Center_Name": "Khwaja Mashhad High School",
    "د_مرکز_ځای__موقعیت_مرکز": "ناحیه چهار",
    "Polling_Center_Location": "D04 - Nahia 4",
    "Map_Accuracy": "Building",
    "Map_Accuracy_Dari": "تعمیر",
    "Status": "Open",
    "Status_Dari": null,
    "PS_Male": 4,
    "PS_Female": 1,
    "PS_Total": 5,
    "ولسوالي": "کندز",
    "Region": "North Eastern Region"
   },
   "geometry": {
    "x": 7668163.0834675794,
    "y": 4400703.4939461276
   }
  },
  {
   "attributes": {
    "OBJECTID": 2028,
    "ولایت": "کندز",
    "Province": "KUNDUZ",
    "PC_Code": "1901007",
    "District": "KUNDUZ",
    "د_مرکز_نوم__نام_مرکز": "لیسه عالی شیر خان",
    "Polling_Center_Name": "Sher Khan High School",
    "د_مرکز_ځای__موقعیت_مرکز": "ناحیه دوم",
    "Polling_Center_Location": "D02 - Nahia 2",
    "Map_Accuracy": "Building",
    "Map_Accuracy_Dari": "تعمیر",
    "Status": "Open",
    "Status_Dari": null,
    "PS_Male": 6,
    "PS_Female": 2,
    "PS_Total": 8,
    "ولسوالي": "کندز",
    "Region": "North Eastern Region"
   },
   "geometry": {
    "x": 7666392.5747963842,
    "y": 4400697.7205170542
   }
  },
  {
   "attributes": {
    "OBJECTID": 2029,
    "ولایت": "کندز",
    "Province": "KUNDUZ",
    "PC_Code": "1901028",
    "District": "KUNDUZ",
    "د_مرکز_نوم__نام_مرکز": "مکتب قوچی کلان",
    "Polling_Center_Name": "Qochi Kalan School",
    "د_مرکز_ځای__موقعیت_مرکز": "قوچی کلان",
    "Polling_Center_Location": "Qochi Kalan",
    "Map_Accuracy": "Building",
    "Map_Accuracy_Dari": "تعمیر",
    "Status": "Open",
    "Status_Dari": null,
    "PS_Male": 5,
    "PS_Female": 3,
    "PS_Total": 8,
    "ولسوالي": "کندز",
    "Region": "North Eastern Region"
   },
   "geometry": {
    "x": 7677236.8219913449,
    "y": 4401781.8078022264
   }
  },
  {
   "attributes": {
    "OBJECTID": 2030,
    "ولایت": "کندز",
    "Province": "KUNDUZ",
    "PC_Code": "1901029",
    "District": "KUNDUZ",
    "د_مرکز_نوم__نام_مرکز": "مکتب نسوان ملرغی",
    "Polling_Center_Name": "Malraghi Girls High School",
    "د_مرکز_ځای__موقعیت_مرکز": "ملرغی",
    "Polling_Center_Location": "Malraghi",
    "Map_Accuracy": "Building",
    "Map_Accuracy_Dari": "تعمیر",
    "Status": "Open",
    "Status_Dari": null,
    "PS_Male": 3,
    "PS_Female": 1,
    "PS_Total": 4,
    "ولسوالي": "کندز",
    "Region": "North Eastern Region"
   },
   "geometry": {
    "x": 7679194.1436924022,
    "y": 4391756.8083211416
   }
  },
  {
   "attributes": {
    "OBJECTID": 2031,
    "ولایت": "کندز",
    "Province": "KUNDUZ",
    "PC_Code": "1901038",
    "District": "KUNDUZ",
    "د_مرکز_نوم__نام_مرکز": "مکتب متوسطه کته خیل",
    "Polling_Center_Name": "Kata Khel Secondary School",
    "د_مرکز_ځای__موقعیت_مرکز": "کته خیل",
    "Polling_Center_Location": "Kata Khel",
    "Map_Accuracy": "Building",
    "Map_Accuracy_Dari": "تعمیر",
    "Status": "Open",
    "Status_Dari": null,
    "PS_Male": 3,
    "PS_Female": 1,
    "PS_Total": 4,
    "ولسوالي": "کندز",
    "Region": "North Eastern Region"
   },
   "geometry": {
    "x": 7674815.9158368502,
    "y": 4394253.6023464054
   }
  },
  {
   "attributes": {
    "OBJECTID": 2032,
    "ولایت": "کندز",
    "Province": "KUNDUZ",
    "PC_Code": "1901048",
    "District": "KUNDUZ",
    "د_مرکز_نوم__نام_مرکز": "مکتب چقر قشلاق",
    "Polling_Center_Name": "Choqor Qishlaq School",
    "د_مرکز_ځای__موقعیت_مرکز": "قریه چقر قشلاق",
    "Polling_Center_Location": "Choqor Qishlaq Village",
    "Map_Accuracy": "Building",
    "Map_Accuracy_Dari": "تعمیر",
    "Status": "Open",
    "Status_Dari": null,
    "PS_Male": 2,
    "PS_Female": 2,
    "PS_Total": 4,
    "ولسوالي": "کندز",
    "Region": "North Eastern Region"
   },
   "geometry": {
    "x": 7679662.8844646495,
    "y": 4404285.8863935443
   }
  },
  {
   "attributes": {
    "OBJECTID": 2033,
    "ولایت": "کندز",
    "Province": "KUNDUZ",
    "PC_Code": "1901049",
    "District": "KUNDUZ",
    "د_مرکز_نوم__نام_مرکز": "مرکز میدیوتیک",
    "Polling_Center_Name": "Medyoteek Markaz",
    "د_مرکز_ځای__موقعیت_مرکز": "ناحیه پنجم",
    "Polling_Center_Location": "D05 - Nahia 5",
    "Map_Accuracy": "Building",
    "Map_Accuracy_Dari": "تعمیر",
    "Status": "Open",
    "Status_Dari": null,
    "PS_Male": 2,
    "PS_Female": 1,
    "PS_Total": 3,
    "ولسوالي": "کندز",
    "Region": "North Eastern Region"
   },
   "geometry": {
    "x": 7668066.8666921062,
    "y": 4397102.778109692
   }
  },
  {
   "attributes": {
    "OBJECTID": 2034,
    "ولایت": "کندز",
    "Province": "KUNDUZ",
    "PC_Code": "1902114",
    "District": "CHAR DARA",
    "د_مرکز_نوم__نام_مرکز": "لیسه جمعیت",
    "Polling_Center_Name": "Jamiyat High School",
    "د_مرکز_ځای__موقعیت_مرکز": "مرکز چاردره",
    "Polling_Center_Location": "Chardara Markaz",
    "Map_Accuracy": "Building",
    "Map_Accuracy_Dari": "تعمیر",
    "Status": "Open",
    "Status_Dari": null,
    "PS_Male": 3,
    "PS_Female": 2,
    "PS_Total": 5,
    "ولسوالي": "چاردره",
    "Region": "North Eastern Region"
   },
   "geometry": {
    "x": 7658430.9113064818,
    "y": 4396262.5266351001
   }
  },
  {
   "attributes": {
    "OBJECTID": 2035,
    "ولایت": "کندز",
    "Province": "KUNDUZ",
    "PC_Code": "1902122",
    "District": "CHAR DARA",
    "د_مرکز_نوم__نام_مرکز": "لیسه عین المجر",
    "Polling_Center_Name": "Ainul Majar High School",
    "د_مرکز_ځای__موقعیت_مرکز": "عین المجر",
    "Polling_Center_Location": "Ainul Majar",
    "Map_Accuracy": "Building",
    "Map_Accuracy_Dari": "تعمیر",
    "Status": "Open",
    "Status_Dari": null,
    "PS_Male": 2,
    "PS_Female": 2,
    "PS_Total": 4,
    "ولسوالي": "چاردره",
    "Region": "North Eastern Region"
   },
   "geometry": {
    "x": 7646182.7494478235,
    "y": 4408583.511795192
   }
  },
  {
   "attributes": {
    "OBJECTID": 2036,
    "ولایت": "کندز",
    "Province": "KUNDUZ",
    "PC_Code": "1902125",
    "District": "CHAR DARA",
    "د_مرکز_نوم__نام_مرکز": "مسجد  جمعه بازار",
    "Polling_Center_Name": "Juma Bazar Mosque",
    "د_مرکز_ځای__موقعیت_مرکز": "جمعه بازار",
    "Polling_Center_Location": "Juma Bazar",
    "Map_Accuracy": "Building",
    "Map_Accuracy_Dari": "تعمیر",
    "Status": "Open",
    "Status_Dari": null,
    "PS_Male": 2,
    "PS_Female": 1,
    "PS_Total": 3,
    "ولسوالي": "چاردره",
    "Region": "North Eastern Region"
   },
   "geometry": {
    "x": 7641802.2695989758,
    "y": 4408823.2591711497
   }
  },
  {
   "attributes": {
    "OBJECTID": 2037,
    "ولایت": "کندز",
    "Province": "KUNDUZ",
    "PC_Code": "1903139",
    "District": "ALI ABAD",
    "د_مرکز_نوم__نام_مرکز": "مکتب زنگی سای",
    "Polling_Center_Name": "Zangi Say School",
    "د_مرکز_ځای__موقعیت_مرکز": "قریه زنگی سای",
    "Polling_Center_Location": "Zangi Say Village",
    "Map_Accuracy": "Village",
    "Map_Accuracy_Dari": "قریه",
    "Status": "Open",
    "Status_Dari": null,
    "PS_Male": 2,
    "PS_Female": 2,
    "PS_Total": 4,
    "ولسوالي": "علی آباد",
    "Region": "North Eastern Region"
   },
   "geometry": {
    "x": 7686058.6479583485,
    "y": 4361204.6890136013
   }
  },
  {
   "attributes": {
    "OBJECTID": 2038,
    "ولایت": "کندز",
    "Province": "KUNDUZ",
    "PC_Code": "1903140",
    "District": "ALI ABAD",
    "د_مرکز_نوم__نام_مرکز": "لیسه پل خشتی",
    "Polling_Center_Name": "Pul Kheshti High School",
    "د_مرکز_ځای__موقعیت_مرکز": "قریه پل خشتی",
    "Polling_Center_Location": "Pul Kheshti Village",
    "Map_Accuracy": "Building",
    "Map_Accuracy_Dari": "تعمیر",
    "Status": "Open",
    "Status_Dari": null,
    "PS_Male": 2,
    "PS_Female": 2,
    "PS_Total": 4,
    "ولسوالي": "علی آباد",
    "Region": "North Eastern Region"
   },
   "geometry": {
    "x": 7670406.6175982207,
    "y": 4380184.5715180421
   }
  },
  {
   "attributes": {
    "OBJECTID": 2039,
    "ولایت": "کندز",
    "Province": "KUNDUZ",
    "PC_Code": "1903209",
    "District": "ALI ABAD",
    "د_مرکز_نوم__نام_مرکز": "مکتب متوسطه میرشیخ",
    "Polling_Center_Name": "Mir Shekh Secondary School",
    "د_مرکز_ځای__موقعیت_مرکز": "قریه میر شیخ",
    "Polling_Center_Location": "Mir Shekh Village",
    "Map_Accuracy": "Building",
    "Map_Accuracy_Dari": "تعمیر",
    "Status": "Open",
    "Status_Dari": null,
    "PS_Male": 1,
    "PS_Female": 1,
    "PS_Total": 2,
    "ولسوالي": "علی آباد",
    "Region": "North Eastern Region"
   },
   "geometry": {
    "x": 7665086.6925290627,
    "y": 4380307.2977527902
   }
  },
  {
   "attributes": {
    "OBJECTID": 2040,
    "ولایت": "کندز",
    "Province": "KUNDUZ",
    "PC_Code": "1903217",
    "District": "ALI ABAD",
    "د_مرکز_نوم__نام_مرکز": "مکتب متوسطه چیپ",
    "Polling_Center_Name": "Cheep Secondary School",
    "د_مرکز_ځای__موقعیت_مرکز": "قریه چیپ",
    "Polling_Center_Location": "Cheep Village",
    "Map_Accuracy": "Building",
    "Map_Accuracy_Dari": "تعمیر",
    "Status": "Open",
    "Status_Dari": null,
    "PS_Male": 2,
    "PS_Female": 2,
    "PS_Total": 4,
    "ولسوالي": "علی آباد",
    "Region": "North Eastern Region"
   },
   "geometry": {
    "x": 7672124.555639891,
    "y": 4367272.1640120419
   }
  },
  {
   "attributes": {
    "OBJECTID": 2041,
    "ولایت": "کندز",
    "Province": "KUNDUZ",
    "PC_Code": "1904150",
    "District": "KHAN ABAD",
    "د_مرکز_نوم__نام_مرکز": "مکتب متوسطه چونی",
    "Polling_Center_Name": "Chonai Secondary School",
    "د_مرکز_ځای__موقعیت_مرکز": "قریه چونی",
    "Polling_Center_Location": "Chonai Village",
    "Map_Accuracy": "Building",
    "Map_Accuracy_Dari": "تعمیر",
    "Status": "Open",
    "Status_Dari": null,
    "PS_Male": 1,
    "PS_Female": 1,
    "PS_Total": 2,
    "ولسوالي": "خان آباد",
    "Region": "North Eastern Region"
   },
   "geometry": {
    "x": 7694173.6917841304,
    "y": 4367909.9028368574
   }
  },
  {
   "attributes": {
    "OBJECTID": 2042,
    "ولایت": "کندز",
    "Province": "KUNDUZ",
    "PC_Code": "1904151",
    "District": "KHAN ABAD",
    "د_مرکز_نوم__نام_مرکز": "لیسه چهار توت",
    "Polling_Center_Name": "Chahar Toot High School",
    "د_مرکز_ځای__موقعیت_مرکز": "چهار توت اوریا خیل",
    "Polling_Center_Location": "Chahar Toot Oryakhel",
    "Map_Accuracy": "Building",
    "Map_Accuracy_Dari": "تعمیر",
    "Status": "Open",
    "Status_Dari": null,
    "PS_Male": 1,
    "PS_Female": 1,
    "PS_Total": 2,
    "ولسوالي": "خان آباد",
    "Region": "North Eastern Region"
   },
   "geometry": {
    "x": 7693034.0996853439,
    "y": 4392577.1929700216
   }
  },
  {
   "attributes": {
    "OBJECTID": 2043,
    "ولایت": "کندز",
    "Province": "KUNDUZ",
    "PC_Code": "1904160",
    "District": "KHAN ABAD",
    "د_مرکز_نوم__نام_مرکز": "مکتب متوسطه کهنه قلعه",
    "Polling_Center_Name": "Kuhna Qala Secondary School",
    "د_مرکز_ځای__موقعیت_مرکز": "بندی برق",
    "Polling_Center_Location": "Band-e-Barq",
    "Map_Accuracy": "Building",
    "Map_Accuracy_Dari": "تعمیر",
    "Status": "Open",
    "Status_Dari": null,
    "PS_Male": 1,
    "PS_Female": 1,
    "PS_Total": 2,
    "ولسوالي": "خان آباد",
    "Region": "North Eastern Region"
   },
   "geometry": {
    "x": 7696087.7001845147,
    "y": 4398083.8030804414
   }
  },
  {
   "attributes": {
    "OBJECTID": 2044,
    "ولایت": "کندز",
    "Province": "KUNDUZ",
    "PC_Code": "1904161",
    "District": "KHAN ABAD",
    "د_مرکز_نوم__نام_مرکز": "لیسه ذکور جنگل باشی ",
    "Polling_Center_Name": "Jangal Bashi Boys High School",
    "د_مرکز_ځای__موقعیت_مرکز": "جنگل باشی",
    "Polling_Center_Location": "Jangal Bashi",
    "Map_Accuracy": "Building",
    "Map_Accuracy_Dari": "تعمیر",
    "Status": "Open",
    "Status_Dari": null,
    "PS_Male": 1,
    "PS_Female": 1,
    "PS_Total": 2,
    "ولسوالي": "خان آباد",
    "Region": "North Eastern Region"
   },
   "geometry": {
    "x": 7687559.0954335593,
    "y": 4396766.0423333673
   }
  },
  {
   "attributes": {
    "OBJECTID": 2045,
    "ولایت": "کندز",
    "Province": "KUNDUZ",
    "PC_Code": "1905073",
    "District": "HAZRAT-E-IMAM SAHIB",
    "د_مرکز_نوم__نام_مرکز": "لیسه نسوان مرکزی",
    "Polling_Center_Name": "Naswan Markazi High School",
    "د_مرکز_ځای__موقعیت_مرکز": "ناحیه سوم مرکز شهر",
    "Polling_Center_Location": "D03 - Nahia 3",
    "Map_Accuracy": "Building",
    "Map_Accuracy_Dari": "تعمیر",
    "Status": "Open",
    "Status_Dari": null,
    "PS_Male": 2,
    "PS_Female": 3,
    "PS_Total": 5,
    "ولسوالي": "حضرت امام صاحب",
    "Region": "North Eastern Region"
   },
   "geometry": {
    "x": 7670303.0403780127,
    "y": 4465070.0577183105
   }
  },
  {
   "attributes": {
    "OBJECTID": 2046,
    "ولایت": "کندز",
    "Province": "KUNDUZ",
    "PC_Code": "1905074",
    "District": "HAZRAT-E-IMAM SAHIB",
    "د_مرکز_نوم__نام_مرکز": "مکتب الف بردی",
    "Polling_Center_Name": "Alef Berdy School",
    "د_مرکز_ځای__موقعیت_مرکز": "قریه الف بیردی",
    "Polling_Center_Location": "Alef Berdy Village",
    "Map_Accuracy": "Building",
    "Map_Accuracy_Dari": "تعمیر",
    "Status": "Open",
    "Status_Dari": null,
    "PS_Male": 5,
    "PS_Female": 2,
    "PS_Total": 7,
    "ولسوالي": "حضرت امام صاحب",
    "Region": "North Eastern Region"
   },
   "geometry": {
    "x": 7678667.4266161555,
    "y": 4467033.1146353167
   }
  },
  {
   "attributes": {
    "OBJECTID": 2047,
    "ولایت": "کندز",
    "Province": "KUNDUZ",
    "PC_Code": "1905200",
    "District": "HAZRAT-E-IMAM SAHIB",
    "د_مرکز_نوم__نام_مرکز": "مکتب متوسطه مراد شیخ ",
    "Polling_Center_Name": "Murad Shaikh Secondary School",
    "د_مرکز_ځای__موقعیت_مرکز": "مراد شیخ ",
    "Polling_Center_Location": "Murad Shaikh",
    "Map_Accuracy": "Building",
    "Map_Accuracy_Dari": "تعمیر",
    "Status": "Open",
    "Status_Dari": null,
    "PS_Male": 3,
    "PS_Female": 1,
    "PS_Total": 4,
    "ولسوالي": "حضرت امام صاحب",
    "Region": "North Eastern Region"
   },
   "geometry": {
    "x": 7655093.5663308352,
    "y": 4466149.7430843068
   }
  },
  {
   "attributes": {
    "OBJECTID": 2048,
    "ولایت": "کندز",
    "Province": "KUNDUZ",
    "PC_Code": "1905201",
    "District": "HAZRAT-E-IMAM SAHIB",
    "د_مرکز_نوم__نام_مرکز": "مسجد جمعه خوانی پائین ",
    "Polling_Center_Name": "Juma Khowani Payeen Mosque",
    "د_مرکز_ځای__موقعیت_مرکز": "قریه چغر",
    "Polling_Center_Location": "Qarya Chaghar ",
    "Map_Accuracy": "Building",
    "Map_Accuracy_Dari": "تعمیر",
    "Status": "Open",
    "Status_Dari": null,
    "PS_Male": 2,
    "PS_Female": 1,
    "PS_Total": 3,
    "ولسوالي": "حضرت امام صاحب",
    "Region": "North Eastern Region"
   },
   "geometry": {
    "x": 7685746.7361997962,
    "y": 4457267.0721193226
   }
  },
  {
   "attributes": {
    "OBJECTID": 2049,
    "ولایت": "کندز",
    "Province": "KUNDUZ",
    "PC_Code": "1906178",
    "District": "DASHT-E-ARCHI",
    "د_مرکز_نوم__نام_مرکز": "لیسه جمهوریت",
    "Polling_Center_Name": "Jamhoriat High School",
    "د_مرکز_ځای__موقعیت_مرکز": "مرکز ارچی",
    "Polling_Center_Location": "Markaz Archi",
    "Map_Accuracy": "Building",
    "Map_Accuracy_Dari": "تعمیر",
    "Status": "Open",
    "Status_Dari": null,
    "PS_Male": 4,
    "PS_Female": 2,
    "PS_Total": 6,
    "ولسوالي": "دشت ارچی",
    "Region": "North Eastern Region"
   },
   "geometry": {
    "x": 7707809.5601886213,
    "y": 4443838.0660853405
   }
  },
  {
   "attributes": {
    "OBJECTID": 2050,
    "ولایت": "کندز",
    "Province": "KUNDUZ",
    "PC_Code": "1906179",
    "District": "DASHT-E-ARCHI",
    "د_مرکز_نوم__نام_مرکز": "مکتب متوسطه قشقری",
    "Polling_Center_Name": "Qashqari Secondary School",
    "د_مرکز_ځای__موقعیت_مرکز": "قریه تاجک قشلاق",
    "Polling_Center_Location": "Tajik Qashlaq Village",
    "Map_Accuracy": "Building",
    "Map_Accuracy_Dari": "تعمیر",
    "Status": "Open",
    "Status_Dari": null,
    "PS_Male": 3,
    "PS_Female": 1,
    "PS_Total": 4,
    "ولسوالي": "دشت ارچی",
    "Region": "North Eastern Region"
   },
   "geometry": {
    "x": 7710626.9284831835,
    "y": 4446173.9556095246
   }
  },
  {
   "attributes": {
    "OBJECTID": 2051,
    "ولایت": "کندز",
    "Province": "KUNDUZ",
    "PC_Code": "1906189",
    "District": "DASHT-E-ARCHI",
    "د_مرکز_نوم__نام_مرکز": "مسجد جامع",
    "Polling_Center_Name": "Jaame Mosque",
    "د_مرکز_ځای__موقعیت_مرکز": "قریه قره غوشی اوزبکیه",
    "Polling_Center_Location": "Qara Ghoshi Uzbekya Village",
    "Map_Accuracy": "Building",
    "Map_Accuracy_Dari": "تعمیر",
    "Status": "Open",
    "Status_Dari": null,
    "PS_Male": 3,
    "PS_Female": 2,
    "PS_Total": 5,
    "ولسوالي": "دشت ارچی",
    "Region": "North Eastern Region"
   },
   "geometry": {
    "x": 7712141.382288049,
    "y": 4427617.1165846074
   }
  },
  {
   "attributes": {
    "OBJECTID": 2052,
    "ولایت": "کندز",
    "Province": "KUNDUZ",
    "PC_Code": "1906190",
    "District": "DASHT-E-ARCHI",
    "د_مرکز_نوم__نام_مرکز": "مکتب متوسطه گل بلاق",
    "Polling_Center_Name": "Gul Balaq Secondary School",
    "د_مرکز_ځای__موقعیت_مرکز": "گل بلاق",
    "Polling_Center_Location": "Gul Balaq ",
    "Map_Accuracy": "Building",
    "Map_Accuracy_Dari": "تعمیر",
    "Status": "Open",
    "Status_Dari": null,
    "PS_Male": 4,
    "PS_Female": 1,
    "PS_Total": 5,
    "ولسوالي": "دشت ارچی",
    "Region": "North Eastern Region"
   },
   "geometry": {
    "x": 7705442.3857259443,
    "y": 4422122.9065643428
   }
  },
  {
   "attributes": {
    "OBJECTID": 2053,
    "ولایت": "کندز",
    "Province": "KUNDUZ",
    "PC_Code": "1907109",
    "District": "QALA-E-ZAL",
    "د_مرکز_نوم__نام_مرکز": "لیسه اتحاد",
    "Polling_Center_Name": "Etihaad High School",
    "د_مرکز_ځای__موقعیت_مرکز": "قوق مسجد",
    "Polling_Center_Location": "Qoq Masjid",
    "Map_Accuracy": "Building",
    "Map_Accuracy_Dari": "تعمیر",
    "Status": "Open",
    "Status_Dari": null,
    "PS_Male": 3,
    "PS_Female": 1,
    "PS_Total": 4,
    "ولسوالي": "قلعه ذال",
    "Region": "North Eastern Region"
   },
   "geometry": {
    "x": 7627950.5070608398,
    "y": 4440660.3899142127
   }
  },
  {
   "attributes": {
    "OBJECTID": 2054,
    "ولایت": "کندز",
    "Province": "KUNDUZ",
    "PC_Code": "1907110",
    "District": "QALA-E-ZAL",
    "د_مرکز_نوم__نام_مرکز": "مکتب حلقه کول",
    "Polling_Center_Name": "Halqa Kol School",
    "د_مرکز_ځای__موقعیت_مرکز": "حلقه کول",
    "Polling_Center_Location": "Halqa Kol",
    "Map_Accuracy": "Building",
    "Map_Accuracy_Dari": "تعمیر",
    "Status": "Open",
    "Status_Dari": null,
    "PS_Male": 2,
    "PS_Female": 1,
    "PS_Total": 3,
    "ولسوالي": "قلعه ذال",
    "Region": "North Eastern Region"
   },
   "geometry": {
    "x": 7613936.0555396928,
    "y": 4444285.2338699484
   }
  },
  {
   "attributes": {
    "OBJECTID": 2055,
    "ولایت": "کندز",
    "Province": "KUNDUZ",
    "PC_Code": "1907112",
    "District": "QALA-E-ZAL",
    "د_مرکز_نوم__نام_مرکز": "مکتب متوسطه باغیچه",
    "Polling_Center_Name": "Baghicha Secondary School",
    "د_مرکز_ځای__موقعیت_مرکز": "باغیچه",
    "Polling_Center_Location": "Baghicha",
    "Map_Accuracy": "Building",
    "Map_Accuracy_Dari": "تعمیر",
    "Status": "Open",
    "Status_Dari": null,
    "PS_Male": 1,
    "PS_Female": 1,
    "PS_Total": 2,
    "ولسوالي": "قلعه ذال",
    "Region": "North Eastern Region"
   },
   "geometry": {
    "x": 7584505.596693703,
    "y": 4431829.5150239551
   }
  },
  {
   "attributes": {
    "OBJECTID": 2056,
    "ولایت": "کندز",
    "Province": "KUNDUZ",
    "PC_Code": "1907113",
    "District": "QALA-E-ZAL",
    "د_مرکز_نوم__نام_مرکز": "مکتب ظلم آباد",
    "Polling_Center_Name": "Zulm Aabad School",
    "د_مرکز_ځای__موقعیت_مرکز": "ظلم آباد",
    "Polling_Center_Location": "Zulm Abad",
    "Map_Accuracy": "Building",
    "Map_Accuracy_Dari": "تعمیر",
    "Status": "Open",
    "Status_Dari": null,
    "PS_Male": 1,
    "PS_Female": 1,
    "PS_Total": 2,
    "ولسوالي": "قلعه ذال",
    "Region": "North Eastern Region"
   },
   "geometry": {
    "x": 7630825.7893204903,
    "y": 4428444.6463820376
   }
  },
  {
   "attributes": {
    "OBJECTID": 2057,
    "ولایت": "کندز",
    "Province": "KUNDUZ",
    "PC_Code": "1901010",
    "District": "KUNDUZ",
    "د_مرکز_نوم__نام_مرکز": "لیسه حضرت علی",
    "Polling_Center_Name": "Hazrat Ali High School",
    "د_مرکز_ځای__موقعیت_مرکز": "ناحیه دوم",
    "Polling_Center_Location": "D02 - Nahia 2",
    "Map_Accuracy": "Building",
    "Map_Accuracy_Dari": "تعمیر",
    "Status": "Open",
    "Status_Dari": null,
    "PS_Male": 5,
    "PS_Female": 2,
    "PS_Total": 7,
    "ولسوالي": "کندز",
    "Region": "North Eastern Region"
   },
   "geometry": {
    "x": 7665799.4356063697,
    "y": 4399162.4826006098
   }
  },
  {
   "attributes": {
    "OBJECTID": 2058,
    "ولایت": "کندز",
    "Province": "KUNDUZ",
    "PC_Code": "1901011",
    "District": "KUNDUZ",
    "د_مرکز_نوم__نام_مرکز": "ریاست حقوق",
    "Polling_Center_Name": "Law Department",
    "د_مرکز_ځای__موقعیت_مرکز": "ناحیه دوم",
    "Polling_Center_Location": "D02 - Nahia 2",
    "Map_Accuracy": "Building",
    "Map_Accuracy_Dari": "تعمیر",
    "Status": "Open",
    "Status_Dari": null,
    "PS_Male": 5,
    "PS_Female": 2,
    "PS_Total": 7,
    "ولسوالي": "کندز",
    "Region": "North Eastern Region"
   },
   "geometry": {
    "x": 7666401.9133884721,
    "y": 4400524.3302181726
   }
  },
  {
   "attributes": {
    "OBJECTID": 2059,
    "ولایت": "کندز",
    "Province": "KUNDUZ",
    "PC_Code": "1901014",
    "District": "KUNDUZ",
    "د_مرکز_نوم__نام_مرکز": "لیسه بی بی عایشه صدیقه",
    "Polling_Center_Name": "Bibi Ayesha Sediqa High School",
    "د_مرکز_ځای__موقعیت_مرکز": "ناحیه سوم",
    "Polling_Center_Location": "D03 - Nahia 3",
    "Map_Accuracy": "Building",
    "Map_Accuracy_Dari": "تعمیر",
    "Status": "Open",
    "Status_Dari": null,
    "PS_Male": 3,
    "PS_Female": 5,
    "PS_Total": 8,
    "ولسوالي": "کندز",
    "Region": "North Eastern Region"
   },
   "geometry": {
    "x": 7666168.8237330867,
    "y": 4402632.8998138262
   }
  },
  {
   "attributes": {
    "OBJECTID": 2060,
    "ولایت": "کندز",
    "Province": "KUNDUZ",
    "PC_Code": "1901015",
    "District": "KUNDUZ",
    "د_مرکز_نوم__نام_مرکز": "ریاست شاروالی",
    "Polling_Center_Name": "Municipality Office",
    "د_مرکز_ځای__موقعیت_مرکز": "ناحیه اول",
    "Polling_Center_Location": "D01 - Nahia 1",
    "Map_Accuracy": "Building",
    "Map_Accuracy_Dari": "تعمیر",
    "Status": "Open",
    "Status_Dari": null,
    "PS_Male": 3,
    "PS_Female": 2,
    "PS_Total": 5,
    "ولسوالي": "کندز",
    "Region": "North Eastern Region"
   },
   "geometry": {
    "x": 7666684.1172031881,
    "y": 4400496.6260299822
   }
  },
  {
   "attributes": {
    "OBJECTID": 2061,
    "ولایت": "کندز",
    "Province": "KUNDUZ",
    "PC_Code": "1901020",
    "District": "KUNDUZ",
    "د_مرکز_نوم__نام_مرکز": "لیسه کهندژ",
    "Polling_Center_Name": "Kuhan Duzh High School",
    "د_مرکز_ځای__موقعیت_مرکز": "ناحیه سوم",
    "Polling_Center_Location": "D03 - Nahia 3",
    "Map_Accuracy": "Building",
    "Map_Accuracy_Dari": "تعمیر",
    "Status": "Open",
    "Status_Dari": null,
    "PS_Male": 4,
    "PS_Female": 2,
    "PS_Total": 6,
    "ولسوالي": "کندز",
    "Region": "North Eastern Region"
   },
   "geometry": {
    "x": 7666265.7574060857,
    "y": 4403908.3127723578
   }
  },
  {
   "attributes": {
    "OBJECTID": 2062,
    "ولایت": "کندز",
    "Province": "KUNDUZ",
    "PC_Code": "1901021",
    "District": "KUNDUZ",
    "د_مرکز_نوم__نام_مرکز": "ذاخیل خمدان",
    "Polling_Center_Name": "Zakhil Khamdan",
    "د_مرکز_ځای__موقعیت_مرکز": "ناحیه سوم",
    "Polling_Center_Location": "D03 - Nahia 3",
    "Map_Accuracy": "Building",
    "Map_Accuracy_Dari": "تعمیر",
    "Status": "Open",
    "Status_Dari": null,
    "PS_Male": 4,
    "PS_Female": 1,
    "PS_Total": 5,
    "ولسوالي": "کندز",
    "Region": "North Eastern Region"
   },
   "geometry": {
    "x": 7664189.5843374887,
    "y": 4397812.898185052
   }
  },
  {
   "attributes": {
    "OBJECTID": 2063,
    "ولایت": "کندز",
    "Province": "KUNDUZ",
    "PC_Code": "1901043",
    "District": "KUNDUZ",
    "د_مرکز_نوم__نام_مرکز": "مسجد جامع قزاق ",
    "Polling_Center_Name": "Qazaq Mosque",
    "د_مرکز_ځای__موقعیت_مرکز": "قریه قراق",
    "Polling_Center_Location": "Qaraq Village",
    "Map_Accuracy": "Building",
    "Map_Accuracy_Dari": "تعمیر",
    "Status": "Open",
    "Status_Dari": null,
    "PS_Male": 2,
    "PS_Female": 2,
    "PS_Total": 4,
    "ولسوالي": "کندز",
    "Region": "North Eastern Region"
   },
   "geometry": {
    "x": 7669094.3267791318,
    "y": 4391243.4137320397
   }
  },
  {
   "attributes": {
    "OBJECTID": 2064,
    "ولایت": "کندز",
    "Province": "KUNDUZ",
    "PC_Code": "1901044",
    "District": "KUNDUZ",
    "د_مرکز_نوم__نام_مرکز": "مکتب متوسطه خزانی",
    "Polling_Center_Name": "Khazani Secondary School",
    "د_مرکز_ځای__موقعیت_مرکز": "قریه خزانی",
    "Polling_Center_Location": "Khazani Village",
    "Map_Accuracy": "Building",
    "Map_Accuracy_Dari": "تعمیر",
    "Status": "Open",
    "Status_Dari": null,
    "PS_Male": 2,
    "PS_Female": 2,
    "PS_Total": 4,
    "ولسوالي": "کندز",
    "Region": "North Eastern Region"
   },
   "geometry": {
    "x": 7672046.5384879597,
    "y": 4401654.5399508215
   }
  },
  {
   "attributes": {
    "OBJECTID": 2065,
    "ولایت": "بلخ",
    "Province": "BALKH",
    "PC_Code": "2107262",
    "District": "SHOLGARA",
    "د_مرکز_نوم__نام_مرکز": "مسجد زوار ها",
    "Polling_Center_Name": "Zowarha Mosque",
    "د_مرکز_ځای__موقعیت_مرکز": "قریه زوار ها",
    "Polling_Center_Location": "Zowarha Village",
    "Map_Accuracy": "Building",
    "Map_Accuracy_Dari": "تعمیر",
    "Status": "Open",
    "Status_Dari": null,
    "PS_Male": 2,
    "PS_Female": 1,
    "PS_Total": 3,
    "ولسوالي": "شولگره",
    "Region": "Northern Region"
   },
   "geometry": {
    "x": 7448810.217627015,
    "y": 4350151.4917390924
   }
  },
  {
   "attributes": {
    "OBJECTID": 2066,
    "ولایت": "بلخ",
    "Province": "BALKH",
    "PC_Code": "2108213",
    "District": "CHIMTAL",
    "د_مرکز_نوم__نام_مرکز": "مکتب چمتال",
    "Polling_Center_Name": "Chamtal School",
    "د_مرکز_ځای__موقعیت_مرکز": "قریه چمتال",
    "Polling_Center_Location": "Chamtaal Village",
    "Map_Accuracy": "Village",
    "Map_Accuracy_Dari": "قریه",
    "Status": "Open",
    "Status_Dari": null,
    "PS_Male": 2,
    "PS_Female": 1,
    "PS_Total": 3,
    "ولسوالي": "چمتال",
    "Region": "Northern Region"
   },
   "geometry": {
    "x": 7436967.4446183955,
    "y": 4394492.2352313036
   }
  },
  {
   "attributes": {
    "OBJECTID": 2067,
    "ولایت": "بلخ",
    "Province": "BALKH",
    "PC_Code": "2108214",
    "District": "CHIMTAL",
    "د_مرکز_نوم__نام_مرکز": "مکتب سر آسیاب",
    "Polling_Center_Name": "Sar Asyab School",
    "د_مرکز_ځای__موقعیت_مرکز": "قریه سر آسیا ب",
    "Polling_Center_Location": "Sar Asyab Village",
    "Map_Accuracy": "Building",
    "Map_Accuracy_Dari": "تعمیر",
    "Status": "Open",
    "Status_Dari": null,
    "PS_Male": 2,
    "PS_Female": 1,
    "PS_Total": 3,
    "ولسوالي": "چمتال",
    "Region": "Northern Region"
   },
   "geometry": {
    "x": 7444567.3030653037,
    "y": 4389773.7437370503
   }
  },
  {
   "attributes": {
    "OBJECTID": 2068,
    "ولایت": "بلخ",
    "Province": "BALKH",
    "PC_Code": "2108221",
    "District": "CHIMTAL",
    "د_مرکز_نوم__نام_مرکز": "مکتب قلعه رزاق",
    "Polling_Center_Name": "Qala-e-Raziq School",
    "د_مرکز_ځای__موقعیت_مرکز": "قریه قلعه رزاق",
    "Polling_Center_Location": "Qala-e-Raziq Village",
    "Map_Accuracy": "Village",
    "Map_Accuracy_Dari": "قریه",
    "Status": "Open",
    "Status_Dari": null,
    "PS_Male": 2,
    "PS_Female": 1,
    "PS_Total": 3,
    "ولسوالي": "چمتال",
    "Region": "Northern Region"
   },
   "geometry": {
    "x": 7422569.7122980841,
    "y": 4395940.1632791059
   }
  },
  {
   "attributes": {
    "OBJECTID": 2069,
    "ولایت": "بلخ",
    "Province": "BALKH",
    "PC_Code": "2108222",
    "District": "CHIMTAL",
    "د_مرکز_نوم__نام_مرکز": "مسجد نوشار علی زائی",
    "Polling_Center_Name": "Nawshahr Alizai Mosque",
    "د_مرکز_ځای__موقعیت_مرکز": "قریه علی زایئ",
    "Polling_Center_Location": "Alizai Village",
    "Map_Accuracy": "Village",
    "Map_Accuracy_Dari": "قریه",
    "Status": "Open",
    "Status_Dari": null,
    "PS_Male": 1,
    "PS_Female": 1,
    "PS_Total": 2,
    "ولسوالي": "چمتال",
    "Region": "Northern Region"
   },
   "geometry": {
    "x": 7419059.2610614756,
    "y": 4399976.3289640294
   }
  },
  {
   "attributes": {
    "OBJECTID": 2070,
    "ولایت": "بلخ",
    "Province": "BALKH",
    "PC_Code": "2109118",
    "District": "DAWLAT ABAD",
    "د_مرکز_نوم__نام_مرکز": "تعمیر شاروالی دولت آباد",
    "Polling_Center_Name": "Dawlat Abad Municipality Building",
    "د_مرکز_ځای__موقعیت_مرکز": "مرکز دولت آباد",
    "Polling_Center_Location": "Dawlat Abad Center",
    "Map_Accuracy": "Building",
    "Map_Accuracy_Dari": "تعمیر",
    "Status": "Open",
    "Status_Dari": null,
    "PS_Male": 3,
    "PS_Female": 1,
    "PS_Total": 4,
    "ولسوالي": "دولت آباد",
    "Region": "Northern Region"
   },
   "geometry": {
    "x": 7438557.4743387541,
    "y": 4437440.0590171833
   }
  },
  {
   "attributes": {
    "OBJECTID": 2071,
    "ولایت": "بلخ",
    "Province": "BALKH",
    "PC_Code": "2109119",
    "District": "DAWLAT ABAD",
    "د_مرکز_نوم__نام_مرکز": "مکتب رابعه بلخی",
    "Polling_Center_Name": "Rabia Balkhi School",
    "د_مرکز_ځای__موقعیت_مرکز": "مرکز دولت آباد",
    "Polling_Center_Location": "Dawlat Abad Center",
    "Map_Accuracy": "Building",
    "Map_Accuracy_Dari": "تعمیر",
    "Status": "Open",
    "Status_Dari": null,
    "PS_Male": 1,
    "PS_Female": 1,
    "PS_Total": 2,
    "ولسوالي": "دولت آباد",
    "Region": "Northern Region"
   },
   "geometry": {
    "x": 7438387.879094529,
    "y": 4437284.5355766276
   }
  },
  {
   "attributes": {
    "OBJECTID": 2072,
    "ولایت": "بلخ",
    "Province": "BALKH",
    "PC_Code": "2109122",
    "District": "DAWLAT ABAD",
    "د_مرکز_نوم__نام_مرکز": "لیسه ذکور مولانا واعظی ",
    "Polling_Center_Name": "Maulana Wayezi Boys High School",
    "د_مرکز_ځای__موقعیت_مرکز": "قریه قره غجله",
    "Polling_Center_Location": "Qara Ghajla Village",
    "Map_Accuracy": "Building",
    "Map_Accuracy_Dari": "تعمیر",
    "Status": "Open",
    "Status_Dari": null,
    "PS_Male": 2,
    "PS_Female": 0,
    "PS_Total": 2,
    "ولسوالي": "دولت آباد",
    "Region": "Northern Region"
   },
   "geometry": {
    "x": 7459094.1470706249,
    "y": 4435321.4836316183
   }
  },
  {
   "attributes": {
    "OBJECTID": 2073,
    "ولایت": "بلخ",
    "Province": "BALKH",
    "PC_Code": "2109123",
    "District": "DAWLAT ABAD",
    "د_مرکز_نوم__نام_مرکز": "مکتب آناث واعظی",
    "Polling_Center_Name": "Wazyezi Girls High School",
    "د_مرکز_ځای__موقعیت_مرکز": "قریه قره غجله",
    "Polling_Center_Location": "Qara Ghajla Village",
    "Map_Accuracy": "Building",
    "Map_Accuracy_Dari": "تعمیر",
    "Status": "Open",
    "Status_Dari": null,
    "PS_Male": 1,
    "PS_Female": 1,
    "PS_Total": 2,
    "ولسوالي": "دولت آباد",
    "Region": "Northern Region"
   },
   "geometry": {
    "x": 7458757.660532604,
    "y": 4436454.7134927241
   }
  },
  {
   "attributes": {
    "OBJECTID": 2074,
    "ولایت": "بلخ",
    "Province": "BALKH",
    "PC_Code": "2109125",
    "District": "DAWLAT ABAD",
    "د_مرکز_نوم__نام_مرکز": "مکتب صدر آباد",
    "Polling_Center_Name": "Sadr Abad School",
    "د_مرکز_ځای__موقعیت_مرکز": "قریه صدر آباد",
    "Polling_Center_Location": "Sadr Abad Village",
    "Map_Accuracy": "Building",
    "Map_Accuracy_Dari": "تعمیر",
    "Status": "Open",
    "Status_Dari": null,
    "PS_Male": 1,
    "PS_Female": 1,
    "PS_Total": 2,
    "ولسوالي": "دولت آباد",
    "Region": "Northern Region"
   },
   "geometry": {
    "x": 7428565.2754318854,
    "y": 4434844.7000716906
   }
  },
  {
   "attributes": {
    "OBJECTID": 2075,
    "ولایت": "بلخ",
    "Province": "BALKH",
    "PC_Code": "2109126",
    "District": "DAWLAT ABAD",
    "د_مرکز_نوم__نام_مرکز": "مکتب دلبرجین ",
    "Polling_Center_Name": "Delbar Jeen School",
    "د_مرکز_ځای__موقعیت_مرکز": "قریه دلبرجین",
    "Polling_Center_Location": "Delbar Jeen Village",
    "Map_Accuracy": "Building",
    "Map_Accuracy_Dari": "تعمیر",
    "Status": "Open",
    "Status_Dari": null,
    "PS_Male": 2,
    "PS_Female": 1,
    "PS_Total": 3,
    "ولسوالي": "دولت آباد",
    "Region": "Northern Region"
   },
   "geometry": {
    "x": 7408561.9020977542,
    "y": 4438472.7830640022
   }
  },
  {
   "attributes": {
    "OBJECTID": 2076,
    "ولایت": "بلخ",
    "Province": "BALKH",
    "PC_Code": "2109129",
    "District": "DAWLAT ABAD",
    "د_مرکز_نوم__نام_مرکز": "مکتب خواله بچگان",
    "Polling_Center_Name": "Khowala Bachgan School",
    "د_مرکز_ځای__موقعیت_مرکز": "قریه خواله بچگان",
    "Polling_Center_Location": "Khowala Bachgan Village",
    "Map_Accuracy": "Building",
    "Map_Accuracy_Dari": "تعمیر",
    "Status": "Open",
    "Status_Dari": null,
    "PS_Male": 1,
    "PS_Female": 1,
    "PS_Total": 2,
    "ولسوالي": "دولت آباد",
    "Region": "Northern Region"
   },
   "geometry": {
    "x": 7432098.6161821876,
    "y": 4426506.5374760358
   }
  },
  {
   "attributes": {
    "OBJECTID": 2077,
    "ولایت": "بلخ",
    "Province": "BALKH",
    "PC_Code": "2109130",
    "District": "DAWLAT ABAD",
    "د_مرکز_نوم__نام_مرکز": "مکتب حیاتان",
    "Polling_Center_Name": "Hayatan School",
    "د_مرکز_ځای__موقعیت_مرکز": "قریه حیاتان",
    "Polling_Center_Location": "Hayatan Village",
    "Map_Accuracy": "Building",
    "Map_Accuracy_Dari": "تعمیر",
    "Status": "Open",
    "Status_Dari": null,
    "PS_Male": 1,
    "PS_Female": 1,
    "PS_Total": 2,
    "ولسوالي": "دولت آباد",
    "Region": "Northern Region"
   },
   "geometry": {
    "x": 7431304.378332057,
    "y": 4439150.171575468
   }
  },
  {
   "attributes": {
    "OBJECTID": 2078,
    "ولایت": "بلخ",
    "Province": "BALKH",
    "PC_Code": "2109144",
    "District": "DAWLAT ABAD",
    "د_مرکز_نوم__نام_مرکز": "مسجد یخدان",
    "Polling_Center_Name": "Yakhdan Mosque",
    "د_مرکز_ځای__موقعیت_مرکز": "قریه یخدان",
    "Polling_Center_Location": "Yakhdan Village",
    "Map_Accuracy": "Building",
    "Map_Accuracy_Dari": "تعمیر",
    "Status": "Open",
    "Status_Dari": null,
    "PS_Male": 1,
    "PS_Female": 1,
    "PS_Total": 2,
    "ولسوالي": "دولت آباد",
    "Region": "Northern Region"
   },
   "geometry": {
    "x": 7437983.1748593617,
    "y": 4433504.826562684
   }
  },
  {
   "attributes": {
    "OBJECTID": 2079,
    "ولایت": "بلخ",
    "Province": "BALKH",
    "PC_Code": "2109145",
    "District": "DAWLAT ABAD",
    "د_مرکز_نوم__نام_مرکز": "مسجد جامع افغانیه ",
    "Polling_Center_Name": "Afghania Mosque",
    "د_مرکز_ځای__موقعیت_مرکز": "پای مشهد افغانیه",
    "Polling_Center_Location": "Pay Mashhad Afghania ",
    "Map_Accuracy": "Building",
    "Map_Accuracy_Dari": "تعمیر",
    "Status": "Open",
    "Status_Dari": null,
    "PS_Male": 1,
    "PS_Female": 1,
    "PS_Total": 2,
    "ولسوالي": "دولت آباد",
    "Region": "Northern Region"
   },
   "geometry": {
    "x": 7441111.2848333037,
    "y": 4433136.644140319
   }
  },
  {
   "attributes": {
    "OBJECTID": 2080,
    "ولایت": "بلخ",
    "Province": "BALKH",
    "PC_Code": "2110083",
    "District": "KHULM",
    "د_مرکز_نوم__نام_مرکز": "لیسه شهید احمد شاه مسعود ",
    "Polling_Center_Name": "Shahee Ahmad Shah Masood High School",
    "د_مرکز_ځای__موقعیت_مرکز": "قریه امین حسین ",
    "Polling_Center_Location": "Ameen Hussain Village",
    "Map_Accuracy": "Building",
    "Map_Accuracy_Dari": "تعمیر",
    "Status": "Open",
    "Status_Dari": null,
    "PS_Male": 2,
    "PS_Female": 1,
    "PS_Total": 3,
    "ولسوالي": "خلم",
    "Region": "Northern Region"
   },
   "geometry": {
    "x": 7534854.2117195316,
    "y": 4399412.498540028
   }
  },
  {
   "attributes": {
    "OBJECTID": 2081,
    "ولایت": "بلخ",
    "Province": "BALKH",
    "PC_Code": "2110084",
    "District": "KHULM",
    "د_مرکز_نوم__نام_مرکز": "مکتب متوسطه غازی آباد ",
    "Polling_Center_Name": "Ghazi Abad Secondary School",
    "د_مرکز_ځای__موقعیت_مرکز": "قریه غازی آباد",
    "Polling_Center_Location": "Ghazi Abad Village",
    "Map_Accuracy": "Building",
    "Map_Accuracy_Dari": "تعمیر",
    "Status": "Open",
    "Status_Dari": null,
    "PS_Male": 1,
    "PS_Female": 1,
    "PS_Total": 2,
    "ولسوالي": "خلم",
    "Region": "Northern Region"
   },
   "geometry": {
    "x": 7544564.2992068585,
    "y": 4401899.0305222692
   }
  },
  {
   "attributes": {
    "OBJECTID": 2082,
    "ولایت": "بلخ",
    "Province": "BALKH",
    "PC_Code": "2110094",
    "District": "KHULM",
    "د_مرکز_نوم__نام_مرکز": "مسجد قریه ده ورده",
    "Polling_Center_Name": "Deh Warda Village Mosque",
    "د_مرکز_ځای__موقعیت_مرکز": "قریه ده ورده",
    "Polling_Center_Location": "Deh Warda Village",
    "Map_Accuracy": "Building",
    "Map_Accuracy_Dari": "تعمیر",
    "Status": "Open",
    "Status_Dari": null,
    "PS_Male": 1,
    "PS_Female": 1,
    "PS_Total": 2,
    "ولسوالي": "خلم",
    "Region": "Northern Region"
   },
   "geometry": {
    "x": 7535086.570005863,
    "y": 4409189.5106907412
   }
  },
  {
   "attributes": {
    "OBJECTID": 2083,
    "ولایت": "بلخ",
    "Province": "BALKH",
    "PC_Code": "2110096",
    "District": "KHULM",
    "د_مرکز_نوم__نام_مرکز": "مکتب متوسطه خوشتوت ",
    "Polling_Center_Name": "Khoshtoot Secondary School",
    "د_مرکز_ځای__موقعیت_مرکز": "قریه خوشتوت",
    "Polling_Center_Location": "Khoshtoot Village",
    "Map_Accuracy": "Building",
    "Map_Accuracy_Dari": "تعمیر",
    "Status": "Open",
    "Status_Dari": null,
    "PS_Male": 1,
    "PS_Female": 1,
    "PS_Total": 2,
    "ولسوالي": "خلم",
    "Region": "Northern Region"
   },
   "geometry": {
    "x": 7576956.9997591134,
    "y": 4381600.689248425
   }
  },
  {
   "attributes": {
    "OBJECTID": 2084,
    "ولایت": "بلخ",
    "Province": "BALKH",
    "PC_Code": "2111195",
    "District": "CHAR BOLAK",
    "د_مرکز_نوم__نام_مرکز": "مکتب سکندر خیل ژنگوره",
    "Polling_Center_Name": "Sikandar Khel Zhangora School",
    "د_مرکز_ځای__موقعیت_مرکز": "ژنگورۀ وطنی",
    "Polling_Center_Location": "Zhangora Watani",
    "Map_Accuracy": "Building",
    "Map_Accuracy_Dari": "تعمیر",
    "Status": "Open",
    "Status_Dari": null,
    "PS_Male": 1,
    "PS_Female": 1,
    "PS_Total": 2,
    "ولسوالي": "چار بولک",
    "Region": "Northern Region"
   },
   "geometry": {
    "x": 7430499.4471316366,
    "y": 4404888.644004575
   }
  },
  {
   "attributes": {
    "OBJECTID": 2085,
    "ولایت": "بلخ",
    "Province": "BALKH",
    "PC_Code": "2112114",
    "District": "SHORTEPA",
    "د_مرکز_نوم__نام_مرکز": "مکتب اسلام علیا",
    "Polling_Center_Name": "Islam Ulya School",
    "د_مرکز_ځای__موقعیت_مرکز": "قریه اسلام علیا",
    "Polling_Center_Location": "Islam Ulya Village",
    "Map_Accuracy": "Building",
    "Map_Accuracy_Dari": "تعمیر",
    "Status": "Open",
    "Status_Dari": null,
    "PS_Male": 2,
    "PS_Female": 1,
    "PS_Total": 3,
    "ولسوالي": "شور تیپه",
    "Region": "Northern Region"
   },
   "geometry": {
    "x": 7399832.5805125339,
    "y": 4480806.866244562
   }
  },
  {
   "attributes": {
    "OBJECTID": 2086,
    "ولایت": "بلخ",
    "Province": "BALKH",
    "PC_Code": "2112115",
    "District": "SHORTEPA",
    "د_مرکز_نوم__نام_مرکز": "کلینیک جوی وکیل",
    "Polling_Center_Name": "Joy Wakil Clinic",
    "د_مرکز_ځای__موقعیت_مرکز": "قریه جوی وکیل",
    "Polling_Center_Location": "Joy Wakeel Village",
    "Map_Accuracy": "Building",
    "Map_Accuracy_Dari": "تعمیر",
    "Status": "Open",
    "Status_Dari": null,
    "PS_Male": 2,
    "PS_Female": 1,
    "PS_Total": 3,
    "ولسوالي": "شور تیپه",
    "Region": "Northern Region"
   },
   "geometry": {
    "x": 7455318.2066408386,
    "y": 4487786.5324974926
   }
  },
  {
   "attributes": {
    "OBJECTID": 2087,
    "ولایت": "بلخ",
    "Province": "BALKH",
    "PC_Code": "2114295",
    "District": "KISHINDEH",
    "د_مرکز_نوم__نام_مرکز": "مکتب واخشک",
    "Polling_Center_Name": "Qara Bay School",
    "د_مرکز_ځای__موقعیت_مرکز": "قریه واخشک",
    "Polling_Center_Location": "Wakheshk Village",
    "Map_Accuracy": "Building",
    "Map_Accuracy_Dari": "تعمیر",
    "Status": "Open",
    "Status_Dari": null,
    "PS_Male": 1,
    "PS_Female": 1,
    "PS_Total": 2,
    "ولسوالي": "کشنده",
    "Region": "Northern Region"
   },
   "geometry": {
    "x": 7453870.2643392934,
    "y": 4269555.9466682123
   }
  },
  {
   "attributes": {
    "OBJECTID": 2088,
    "ولایت": "بلخ",
    "Province": "BALKH",
    "PC_Code": "2114296",
    "District": "KISHINDEH",
    "د_مرکز_نوم__نام_مرکز": "مسجد قره بای ",
    "Polling_Center_Name": "Qara Bay Mosque",
    "د_مرکز_ځای__موقعیت_مرکز": "قریه قره بای ",
    "Polling_Center_Location": "Qara Bay Village",
    "Map_Accuracy": "Building",
    "Map_Accuracy_Dari": "تعمیر",
    "Status": "Open",
    "Status_Dari": null,
    "PS_Male": 2,
    "PS_Female": 1,
    "PS_Total": 3,
    "ولسوالي": "کشنده",
    "Region": "Northern Region"
   },
   "geometry": {
    "x": 7445426.8353627566,
    "y": 4296033.9875473334
   }
  },
  {
   "attributes": {
    "OBJECTID": 2089,
    "ولایت": "بلخ",
    "Province": "BALKH",
    "PC_Code": "2115306",
    "District": "ZARI",
    "د_مرکز_نوم__نام_مرکز": "مسجد بخت گان",
    "Polling_Center_Name": "Bakhtgaan Mosque",
    "د_مرکز_ځای__موقعیت_مرکز": "قریه بخت گان",
    "Polling_Center_Location": "Bakhtgaan Village",
    "Map_Accuracy": "Building",
    "Map_Accuracy_Dari": "تعمیر",
    "Status": "Open",
    "Status_Dari": null,
    "PS_Male": 1,
    "PS_Female": 1,
    "PS_Total": 2,
    "ولسوالي": "زاری",
    "Region": "Northern Region"
   },
   "geometry": {
    "x": 7419360.1899277419,
    "y": 4275823.783848553
   }
  },
  {
   "attributes": {
    "OBJECTID": 2090,
    "ولایت": "بلخ",
    "Province": "BALKH",
    "PC_Code": "2115307",
    "District": "ZARI",
    "د_مرکز_نوم__نام_مرکز": "مکتب بازار کهنه",
    "Polling_Center_Name": "Bazar Kuhna Mosque",
    "د_مرکز_ځای__موقعیت_مرکز": "قریه بازار کهنه همرخ",
    "Polling_Center_Location": "Bazar Kuhna Hamrukh Village",
    "Map_Accuracy": "Building",
    "Map_Accuracy_Dari": "تعمیر",
    "Status": "Open",
    "Status_Dari": null,
    "PS_Male": 2,
    "PS_Female": 1,
    "PS_Total": 3,
    "ولسوالي": "زاری",
    "Region": "Northern Region"
   },
   "geometry": {
    "x": 7420173.9665748999,
    "y": 4272951.0403215559
   }
  },
  {
   "attributes": {
    "OBJECTID": 2091,
    "ولایت": "بلخ",
    "Province": "BALKH",
    "PC_Code": "2115308",
    "District": "ZARI",
    "د_مرکز_نوم__نام_مرکز": "مکتب میرهاشم",
    "Polling_Center_Name": "Mir Hashim School",
    "د_مرکز_ځای__موقعیت_مرکز": "قریه نوآباد بلوچ",
    "Polling_Center_Location": "Naw Abad Baloch Village",
    "Map_Accuracy": "Building",
    "Map_Accuracy_Dari": "تعمیر",
    "Status": "Open",
    "Status_Dari": null,
    "PS_Male": 1,
    "PS_Female": 1,
    "PS_Total": 2,
    "ولسوالي": "زاری",
    "Region": "Northern Region"
   },
   "geometry": {
    "x": 7426390.1626017429,
    "y": 4297498.0764426244
   }
  },
  {
   "attributes": {
    "OBJECTID": 2092,
    "ولایت": "بلخ",
    "Province": "BALKH",
    "PC_Code": "2115309",
    "District": "ZARI",
    "د_مرکز_نوم__نام_مرکز": "مکتب امام حسن ",
    "Polling_Center_Name": "Imam Hassan School",
    "د_مرکز_ځای__موقعیت_مرکز": "قریه مرغزار",
    "Polling_Center_Location": "Murghzar Village",
    "Map_Accuracy": "Building",
    "Map_Accuracy_Dari": "تعمیر",
    "Status": "Open",
    "Status_Dari": null,
    "PS_Male": 2,
    "PS_Female": 1,
    "PS_Total": 3,
    "ولسوالي": "زاری",
    "Region": "Northern Region"
   },
   "geometry": {
    "x": 7421085.3851096518,
    "y": 4264581.810022898
   }
  },
  {
   "attributes": {
    "OBJECTID": 2093,
    "ولایت": "بلخ",
    "Province": "BALKH",
    "PC_Code": "2115317",
    "District": "ZARI",
    "د_مرکز_نوم__نام_مرکز": "مسجد هزار پیمانه",
    "Polling_Center_Name": "Hazar Paimana Mosque",
    "د_مرکز_ځای__موقعیت_مرکز": "قریه فولاد",
    "Polling_Center_Location": "Folad Village",
    "Map_Accuracy": "Building",
    "Map_Accuracy_Dari": "تعمیر",
    "Status": "Open",
    "Status_Dari": null,
    "PS_Male": 1,
    "PS_Female": 1,
    "PS_Total": 2,
    "ولسوالي": "زاری",
    "Region": "Northern Region"
   },
   "geometry": {
    "x": 7435714.8209350482,
    "y": 4282244.9146685349
   }
  },
  {
   "attributes": {
    "OBJECTID": 2094,
    "ولایت": "بلخ",
    "Province": "BALKH",
    "PC_Code": "2115318",
    "District": "ZARI",
    "د_مرکز_نوم__نام_مرکز": "لیسه خاتم الانبیا",
    "Polling_Center_Name": "Khatimul Anbiya High School",
    "د_مرکز_ځای__موقعیت_مرکز": "قریه بام شاخ",
    "Polling_Center_Location": "Baam Shakh Village",
    "Map_Accuracy": "Building",
    "Map_Accuracy_Dari": "تعمیر",
    "Status": "Open",
    "Status_Dari": null,
    "PS_Male": 1,
    "PS_Female": 2,
    "PS_Total": 3,
    "ولسوالي": "زاری",
    "Region": "Northern Region"
   },
   "geometry": {
    "x": 7428681.6521671433,
    "y": 4260951.9306368586
   }
  },
  {
   "attributes": {
    "OBJECTID": 2095,
    "ولایت": "غور",
    "Province": "GHOR",
    "PC_Code": "2301018",
    "District": "CHIGHCHERAN",
    "د_مرکز_نوم__نام_مرکز": "لیسه تحت غلمین",
    "Polling_Center_Name": "That Ghelmeen High School",
    "د_مرکز_ځای__موقعیت_مرکز": "کاشکک",
    "Polling_Center_Location": "Kashkak",
    "Map_Accuracy": "Building",
    "Map_Accuracy_Dari": "تعمیر",
    "Status": "Open",
    "Status_Dari": null,
    "PS_Male": 4,
    "PS_Female": 2,
    "PS_Total": 6,
    "ولسوالي": "چغچران",
    "Region": "Western Region"
   },
   "geometry": {
    "x": 7269555.8346206881,
    "y": 4146711.8651858368
   }
  },
  {
   "attributes": {
    "OBJECTID": 2096,
    "ولایت": "غور",
    "Province": "GHOR",
    "PC_Code": "2301023",
    "District": "CHIGHCHERAN",
    "د_مرکز_نوم__نام_مرکز": "زمین زراعتی عبدالحق",
    "Polling_Center_Name": "Abdul Haq Open Space",
    "د_مرکز_ځای__موقعیت_مرکز": " آب ریم",
    "Polling_Center_Location": "Aab Reem",
    "Map_Accuracy": "Village",
    "Map_Accuracy_Dari": "قریه",
    "Status": "Open",
    "Status_Dari": null,
    "PS_Male": 2,
    "PS_Female": 2,
    "PS_Total": 4,
    "ولسوالي": "چغچران",
    "Region": "Western Region"
   },
   "geometry": {
    "x": 7330608.520653693,
    "y": 4169318.0214638039
   }
  },
  {
   "attributes": {
    "OBJECTID": 2097,
    "ولایت": "غور",
    "Province": "GHOR",
    "PC_Code": "2301024",
    "District": "CHIGHCHERAN",
    "د_مرکز_نوم__نام_مرکز": "قلعه نادر خان پهلو سنگ",
    "Polling_Center_Name": "Nadir Khan Pahlo Sang Qala",
    "د_مرکز_ځای__موقعیت_مرکز": " پهلو سنگ",
    "Polling_Center_Location": "Pahlo Sang",
    "Map_Accuracy": "Village",
    "Map_Accuracy_Dari": "قریه",
    "Status": "Open",
    "Status_Dari": null,
    "PS_Male": 3,
    "PS_Female": 1,
    "PS_Total": 4,
    "ولسوالي": "چغچران",
    "Region": "Western Region"
   },
   "geometry": {
    "x": 7297143.7755564656,
    "y": 4066739.3408152177
   }
  },
  {
   "attributes": {
    "OBJECTID": 2098,
    "ولایت": "غور",
    "Province": "GHOR",
    "PC_Code": "2301028",
    "District": "CHIGHCHERAN",
    "د_مرکز_نوم__نام_مرکز": "مکتب متوسطه قطس سفلی",
    "Polling_Center_Name": "Qots Sufla Secondary school",
    "د_مرکز_ځای__موقعیت_مرکز": " قطس سفلی",
    "Polling_Center_Location": "Qots Sufla",
    "Map_Accuracy": "Building",
    "Map_Accuracy_Dari": "تعمیر",
    "Status": "Open",
    "Status_Dari": null,
    "PS_Male": 2,
    "PS_Female": 2,
    "PS_Total": 4,
    "ولسوالي": "چغچران",
    "Region": "Western Region"
   },
   "geometry": {
    "x": 7276019.0642936518,
    "y": 4104820.2625492769
   }
  },
  {
   "attributes": {
    "OBJECTID": 2099,
    "ولایت": "غور",
    "Province": "GHOR",
    "PC_Code": "2301029",
    "District": "CHIGHCHERAN",
    "د_مرکز_نوم__نام_مرکز": "مکتب ابتدائیه صد من غلمین",
    "Polling_Center_Name": "Sadmen Ghelmeen Primary School",
    "د_مرکز_ځای__موقعیت_مرکز": "دربند ",
    "Polling_Center_Location": "Darband",
    "Map_Accuracy": "Building",
    "Map_Accuracy_Dari": "تعمیر",
    "Status": "Open",
    "Status_Dari": null,
    "PS_Male": 3,
    "PS_Female": 2,
    "PS_Total": 5,
    "ولسوالي": "چغچران",
    "Region": "Western Region"
   },
   "geometry": {
    "x": 7263479.5626296643,
    "y": 4146702.7036254215
   }
  },
  {
   "attributes": {
    "OBJECTID": 2100,
    "ولایت": "غور",
    "Province": "GHOR",
    "PC_Code": "2301045",
    "District": "CHIGHCHERAN",
    "د_مرکز_نوم__نام_مرکز": "تعمیر حسن",
    "Polling_Center_Name": "Tameer Hassan",
    "د_مرکز_ځای__موقعیت_مرکز": " غار سیا گک",
    "Polling_Center_Location": "Ghaar Siyagak",
    "Map_Accuracy": "Village",
    "Map_Accuracy_Dari": "قریه",
    "Status": "Open",
    "Status_Dari": null,
    "PS_Male": 3,
    "PS_Female": 2,
    "PS_Total": 5,
    "ولسوالي": "چغچران",
    "Region": "Western Region"
   },
   "geometry": {
    "x": 7284858.7168525849,
    "y": 4148077.6500912081
   }
  },
  {
   "attributes": {
    "OBJECTID": 2101,
    "ولایت": "غور",
    "Province": "GHOR",
    "PC_Code": "2301235",
    "District": "CHIGHCHERAN",
    "د_مرکز_نوم__نام_مرکز": "میدان بره خانه ",
    "Polling_Center_Name": "Maidan Bara Khana",
    "د_مرکز_ځای__موقعیت_مرکز": "بره خانه",
    "Polling_Center_Location": "Bara Khana",
    "Map_Accuracy": "Building",
    "Map_Accuracy_Dari": "تعمیر",
    "Status": "Open",
    "Status_Dari": null,
    "PS_Male": 2,
    "PS_Female": 2,
    "PS_Total": 4,
    "ولسوالي": "چغچران",
    "Region": "Western Region"
   },
   "geometry": {
    "x": 7215672.8440318685,
    "y": 4110269.5703405477
   }
  },
  {
   "attributes": {
    "OBJECTID": 2102,
    "ولایت": "غور",
    "Province": "GHOR",
    "PC_Code": "2302100",
    "District": "DULEENA",
    "د_مرکز_نوم__نام_مرکز": "منزل محمد یعقوب ",
    "Polling_Center_Name": "Mohammad Yaqoob Private House",
    "د_مرکز_ځای__موقعیت_مرکز": " چشمه سفید",
    "Polling_Center_Location": "Chashma Safid",
    "Map_Accuracy": "Village",
    "Map_Accuracy_Dari": "قریه",
    "Status": "Open",
    "Status_Dari": null,
    "PS_Male": 1,
    "PS_Female": 1,
    "PS_Total": 2,
    "ولسوالي": "دولینه",
    "Region": "Western Region"
   },
   "geometry": {
    "x": 7225154.3213601233,
    "y": 4013199.1883239453
   }
  },
  {
   "attributes": {
    "OBJECTID": 2103,
    "ولایت": "غور",
    "Province": "GHOR",
    "PC_Code": "2302101",
    "District": "DULEENA",
    "د_مرکز_نوم__نام_مرکز": "بازار گله آسیاب",
    "Polling_Center_Name": "Gala Asyaab Bazar",
    "د_مرکز_ځای__موقعیت_مرکز": " گله اسیاب",
    "Polling_Center_Location": "Gala Asyaab",
    "Map_Accuracy": "Village",
    "Map_Accuracy_Dari": "قریه",
    "Status": "Open",
    "Status_Dari": null,
    "PS_Male": 1,
    "PS_Female": 2,
    "PS_Total": 3,
    "ولسوالي": "دولینه",
    "Region": "Western Region"
   },
   "geometry": {
    "x": 7222602.5468990561,
    "y": 4065466.0996040683
   }
  },
  {
   "attributes": {
    "OBJECTID": 2104,
    "ولایت": "غور",
    "Province": "GHOR",
    "PC_Code": "2302108",
    "District": "DULEENA",
    "د_مرکز_نوم__نام_مرکز": "مکتب سلمین",
    "Polling_Center_Name": "Salmeen School",
    "د_مرکز_ځای__موقعیت_مرکز": "سلمین",
    "Polling_Center_Location": "Salmeen",
    "Map_Accuracy": "Building",
    "Map_Accuracy_Dari": "تعمیر",
    "Status": "Open",
    "Status_Dari": null,
    "PS_Male": 1,
    "PS_Female": 2,
    "PS_Total": 3,
    "ولسوالي": "دولینه",
    "Region": "Western Region"
   },
   "geometry": {
    "x": 7213544.6224221559,
    "y": 4083645.4744267729
   }
  },
  {
   "attributes": {
    "OBJECTID": 2105,
    "ولایت": "غور",
    "Province": "GHOR",
    "PC_Code": "2303046",
    "District": "DAWLATYAR",
    "د_مرکز_نوم__نام_مرکز": "مکتب دولت یار",
    "Polling_Center_Name": "Dawlatyar School",
    "د_مرکز_ځای__موقعیت_مرکز": " مرکز دولت یار",
    "Polling_Center_Location": "Markaz Dawlat Yar",
    "Map_Accuracy": "Building",
    "Map_Accuracy_Dari": "تعمیر",
    "Status": "Open",
    "Status_Dari": null,
    "PS_Male": 3,
    "PS_Female": 1,
    "PS_Total": 4,
    "ولسوالي": "دولت یار ",
    "Region": "Western Region"
   },
   "geometry": {
    "x": 7323354.1856610617,
    "y": 4103642.2031603577
   }
  },
  {
   "attributes": {
    "OBJECTID": 2106,
    "ولایت": "غور",
    "Province": "GHOR",
    "PC_Code": "2303047",
    "District": "DAWLATYAR",
    "د_مرکز_نوم__نام_مرکز": "مکتب پشته نور",
    "Polling_Center_Name": "Poshta Noor School",
    "د_مرکز_ځای__موقعیت_مرکز": "جوی نشر",
    "Polling_Center_Location": "Joy Nashr",
    "Map_Accuracy": "Village",
    "Map_Accuracy_Dari": "قریه",
    "Status": "Open",
    "Status_Dari": null,
    "PS_Male": 2,
    "PS_Female": 2,
    "PS_Total": 4,
    "ولسوالي": "دولت یار ",
    "Region": "Western Region"
   },
   "geometry": {
    "x": 7337866.5770568931,
    "y": 4114332.3356687943
   }
  },
  {
   "attributes": {
    "OBJECTID": 2107,
    "ولایت": "غور",
    "Province": "GHOR",
    "PC_Code": "2303049",
    "District": "DAWLATYAR",
    "د_مرکز_نوم__نام_مرکز": "مسجد جامع شینیه",
    "Polling_Center_Name": "Shiniya Mosque",
    "د_مرکز_ځای__موقعیت_مرکز": " شینیه",
    "Polling_Center_Location": "Shiniya",
    "Map_Accuracy": "Building",
    "Map_Accuracy_Dari": "تعمیر",
    "Status": "Open",
    "Status_Dari": null,
    "PS_Male": 2,
    "PS_Female": 1,
    "PS_Total": 3,
    "ولسوالي": "دولت یار ",
    "Region": "Western Region"
   },
   "geometry": {
    "x": 7309293.8460194208,
    "y": 4099487.01464066
   }
  },
  {
   "attributes": {
    "OBJECTID": 2108,
    "ولایت": "غور",
    "Province": "GHOR",
    "PC_Code": "2303050",
    "District": "DAWLATYAR",
    "د_مرکز_نوم__نام_مرکز": "مسجد جامع خیرالله",
    "Polling_Center_Name": "Khairullah Mosque",
    "د_مرکز_ځای__موقعیت_مرکز": " شرشر",
    "Polling_Center_Location": "Sharshar",
    "Map_Accuracy": "Building",
    "Map_Accuracy_Dari": "تعمیر",
    "Status": "Open",
    "Status_Dari": null,
    "PS_Male": 2,
    "PS_Female": 1,
    "PS_Total": 3,
    "ولسوالي": "دولت یار ",
    "Region": "Western Region"
   },
   "geometry": {
    "x": 7315538.8494154131,
    "y": 4107250.1228270493
   }
  },
  {
   "attributes": {
    "OBJECTID": 2109,
    "ولایت": "غور",
    "Province": "GHOR",
    "PC_Code": "2303052",
    "District": "DAWLATYAR",
    "د_مرکز_نوم__نام_مرکز": "خیمه بازار سمک",
    "Polling_Center_Name": "Bazar Samak Tent",
    "د_مرکز_ځای__موقعیت_مرکز": "قریه سمک",
    "Polling_Center_Location": "Samak Village",
    "Map_Accuracy": "Building",
    "Map_Accuracy_Dari": "تعمیر",
    "Status": "Open",
    "Status_Dari": null,
    "PS_Male": 1,
    "PS_Female": 1,
    "PS_Total": 2,
    "ولسوالي": "دولت یار ",
    "Region": "Western Region"
   },
   "geometry": {
    "x": 7329078.7125514634,
    "y": 4118687.9302825462
   }
  },
  {
   "attributes": {
    "OBJECTID": 2110,
    "ولایت": "غور",
    "Province": "GHOR",
    "PC_Code": "2303053",
    "District": "DAWLATYAR",
    "د_مرکز_نوم__نام_مرکز": "مسجد نرم ته",
    "Polling_Center_Name": "Narm Tih Mosque",
    "د_مرکز_ځای__موقعیت_مرکز": " نرم ته",
    "Polling_Center_Location": "Narm Tih",
    "Map_Accuracy": "Building",
    "Map_Accuracy_Dari": "تعمیر",
    "Status": "Open",
    "Status_Dari": null,
    "PS_Male": 1,
    "PS_Female": 1,
    "PS_Total": 2,
    "ولسوالي": "دولت یار ",
    "Region": "Western Region"
   },
   "geometry": {
    "x": 7332396.3951654527,
    "y": 4087374.7606781819
   }
  },
  {
   "attributes": {
    "OBJECTID": 2111,
    "ولایت": "غور",
    "Province": "GHOR",
    "PC_Code": "2303057",
    "District": "DAWLATYAR",
    "د_مرکز_نوم__نام_مرکز": "مسجد لوکه مزار",
    "Polling_Center_Name": "Loka Mazar Mosque",
    "د_مرکز_ځای__موقعیت_مرکز": " لوکه مزار",
    "Polling_Center_Location": "Loka Mazar",
    "Map_Accuracy": "Building",
    "Map_Accuracy_Dari": "تعمیر",
    "Status": "Open",
    "Status_Dari": null,
    "PS_Male": 2,
    "PS_Female": 1,
    "PS_Total": 3,
    "ولسوالي": "دولت یار ",
    "Region": "Western Region"
   },
   "geometry": {
    "x": 7310434.7884236313,
    "y": 4088200.7446160424
   }
  },
  {
   "attributes": {
    "OBJECTID": 2112,
    "ولایت": "غور",
    "Province": "GHOR",
    "PC_Code": "2303058",
    "District": "DAWLATYAR",
    "د_مرکز_نوم__نام_مرکز": "مکتب جیره",
    "Polling_Center_Name": "Jira School",
    "د_مرکز_ځای__موقعیت_مرکز": "اولاد قدم ",
    "Polling_Center_Location": "Awlad Qadam",
    "Map_Accuracy": "Building",
    "Map_Accuracy_Dari": "تعمیر",
    "Status": "Open",
    "Status_Dari": null,
    "PS_Male": 1,
    "PS_Female": 2,
    "PS_Total": 3,
    "ولسوالي": "دولت یار ",
    "Region": "Western Region"
   },
   "geometry": {
    "x": 7317691.5891429782,
    "y": 4119110.1954989275
   }
  },
  {
   "attributes": {
    "OBJECTID": 2113,
    "ولایت": "غور",
    "Province": "GHOR",
    "PC_Code": "2304059",
    "District": "CHAR SADA",
    "د_مرکز_نوم__نام_مرکز": "منزل محمد ابراهیم",
    "Polling_Center_Name": "Mohammad Ibrahim Private House",
    "د_مرکز_ځای__موقعیت_مرکز": " مالمنج",
    "Polling_Center_Location": "Malmanj",
    "Map_Accuracy": "Building",
    "Map_Accuracy_Dari": "تعمیر",
    "Status": "Open",
    "Status_Dari": null,
    "PS_Male": 2,
    "PS_Female": 2,
    "PS_Total": 4,
    "ولسوالي": "چار صده",
    "Region": "Western Region"
   },
   "geometry": {
    "x": 7230420.0471956059,
    "y": 4183064.2528690207
   }
  },
  {
   "attributes": {
    "OBJECTID": 2114,
    "ولایت": "غور",
    "Province": "GHOR",
    "PC_Code": "2304060",
    "District": "CHAR SADA",
    "د_مرکز_نوم__نام_مرکز": "مسجد جامع خفک",
    "Polling_Center_Name": "Khafak Mosque",
    "د_مرکز_ځای__موقعیت_مرکز": "خفک",
    "Polling_Center_Location": "Khafak",
    "Map_Accuracy": "Building",
    "Map_Accuracy_Dari": "تعمیر",
    "Status": "Open",
    "Status_Dari": null,
    "PS_Male": 3,
    "PS_Female": 1,
    "PS_Total": 4,
    "ولسوالي": "چار صده",
    "Region": "Western Region"
   },
   "geometry": {
    "x": 7243807.0742367748,
    "y": 4168088.9490357973
   }
  },
  {
   "attributes": {
    "OBJECTID": 2115,
    "ولایت": "غور",
    "Province": "GHOR",
    "PC_Code": "2304063",
    "District": "CHAR SADA",
    "د_مرکز_نوم__نام_مرکز": "مکتب ده حاجی",
    "Polling_Center_Name": "Deh Haji School",
    "د_مرکز_ځای__موقعیت_مرکز": " ده حاجی",
    "Polling_Center_Location": "Deh Haji",
    "Map_Accuracy": "Building",
    "Map_Accuracy_Dari": "تعمیر",
    "Status": "Open",
    "Status_Dari": null,
    "PS_Male": 2,
    "PS_Female": 1,
    "PS_Total": 3,
    "ولسوالي": "چار صده",
    "Region": "Western Region"
   },
   "geometry": {
    "x": 7256654.1204843633,
    "y": 4169225.6598031702
   }
  },
  {
   "attributes": {
    "OBJECTID": 2116,
    "ولایت": "غور",
    "Province": "GHOR",
    "PC_Code": "2304064",
    "District": "CHAR SADA",
    "د_مرکز_نوم__نام_مرکز": "لیسه قلعه گوهر",
    "Polling_Center_Name": "Qala Gawhar High School",
    "د_مرکز_ځای__موقعیت_مرکز": " قله گوهر",
    "Polling_Center_Location": "Gawhar Qala",
    "Map_Accuracy": "Building",
    "Map_Accuracy_Dari": "تعمیر",
    "Status": "Open",
    "Status_Dari": null,
    "PS_Male": 3,
    "PS_Female": 1,
    "PS_Total": 4,
    "ولسوالي": "چار صده",
    "Region": "Western Region"
   },
   "geometry": {
    "x": 7250408.3311727624,
    "y": 4187971.4211667571
   }
  },
  {
   "attributes": {
    "OBJECTID": 2117,
    "ولایت": "غور",
    "Province": "GHOR",
    "PC_Code": "2304071",
    "District": "CHAR SADA",
    "د_مرکز_نوم__نام_مرکز": "باغ حبیب الله",
    "Polling_Center_Name": "Bagh Habibullah",
    "د_مرکز_ځای__موقعیت_مرکز": " کنداخ",
    "Polling_Center_Location": "Kandakh",
    "Map_Accuracy": "Building",
    "Map_Accuracy_Dari": "تعمیر",
    "Status": "Open",
    "Status_Dari": null,
    "PS_Male": 2,
    "PS_Female": 1,
    "PS_Total": 3,
    "ولسوالي": "چار صده",
    "Region": "Western Region"
   },
   "geometry": {
    "x": 7224503.1201501014,
    "y": 4188301.635714123
   }
  },
  {
   "attributes": {
    "OBJECTID": 2118,
    "ولایت": "غور",
    "Province": "GHOR",
    "PC_Code": "2305111",
    "District": "PASABAND",
    "د_مرکز_نوم__نام_مرکز": "مکتب سنگان ",
    "Polling_Center_Name": "Sangan School",
    "د_مرکز_ځای__موقعیت_مرکز": "بازار سنگان",
    "Polling_Center_Location": "Bazar Sangan",
    "Map_Accuracy": "Building",
    "Map_Accuracy_Dari": "تعمیر",
    "Status": "Open",
    "Status_Dari": null,
    "PS_Male": 2,
    "PS_Female": 1,
    "PS_Total": 3,
    "ولسوالي": "پسابند ",
    "Region": "Western Region"
   },
   "geometry": {
    "x": 7242834.8320680819,
    "y": 3972491.3369793701
   }
  },
  {
   "attributes": {
    "OBJECTID": 2119,
    "ولایت": "غور",
    "Province": "GHOR",
    "PC_Code": "2305114",
    "District": "PASABAND",
    "د_مرکز_نوم__نام_مرکز": "خیمه بازارکله گی",
    "Polling_Center_Name": "Bazar Kalagi Tent",
    "د_مرکز_ځای__موقعیت_مرکز": "قریه کله گی",
    "Polling_Center_Location": "Kalagi Village",
    "Map_Accuracy": "Village",
    "Map_Accuracy_Dari": "قریه",
    "Status": "Open",
    "Status_Dari": null,
    "PS_Male": 2,
    "PS_Female": 2,
    "PS_Total": 4,
    "ولسوالي": "پسابند ",
    "Region": "Western Region"
   },
   "geometry": {
    "x": 7247393.2550097741,
    "y": 3988798.0950352605
   }
  },
  {
   "attributes": {
    "OBJECTID": 2120,
    "ولایت": "غور",
    "Province": "GHOR",
    "PC_Code": "2305118",
    "District": "PASABAND",
    "د_مرکز_نوم__نام_مرکز": "خیمه بازار کهنه شینکوت",
    "Polling_Center_Name": "Kuhna Shenkot Bazar Tent",
    "د_مرکز_ځای__موقعیت_مرکز": "قریه شینکوت",
    "Polling_Center_Location": "Shinkot Village",
    "Map_Accuracy": "Village",
    "Map_Accuracy_Dari": "قریه",
    "Status": "Open",
    "Status_Dari": null,
    "PS_Male": 1,
    "PS_Female": 1,
    "PS_Total": 2,
    "ولسوالي": "پسابند ",
    "Region": "Western Region"
   },
   "geometry": {
    "x": 7218927.2682320168,
    "y": 3987541.722851451
   }
  },
  {
   "attributes": {
    "OBJECTID": 2121,
    "ولایت": " فراه",
    "Province": "FARAH",
    "PC_Code": "3309099",
    "District": "LASH-E-JUWAYN",
    "د_مرکز_نوم__نام_مرکز": "مکتب متوسطه دیوالکها",
    "Polling_Center_Name": "Dewalak ha Secondary School ",
    "د_مرکز_ځای__موقعیت_مرکز": "دیوالکها",
    "Polling_Center_Location": "Dewalak ha",
    "Map_Accuracy": "Building",
    "Map_Accuracy_Dari": "تعمیر",
    "Status": "Open",
    "Status_Dari": null,
    "PS_Male": 1,
    "PS_Female": 1,
    "PS_Total": 2,
    "ولسوالي": "لاش جوین ",
    "Region": "Western Region"
   },
   "geometry": {
    "x": 6864971.4452364724,
    "y": 3706487.0470129889
   }
  },
  {
   "attributes": {
    "OBJECTID": 2122,
    "ولایت": " فراه",
    "Province": "FARAH",
    "PC_Code": "3309100",
    "District": "LASH-E-JUWAYN",
    "د_مرکز_نوم__نام_مرکز": "مکتب ابتدایی دومبلی علیا",
    "Polling_Center_Name": "Dombalai Ulya Primary School ",
    "د_مرکز_ځای__موقعیت_مرکز": "دومبلی علیا",
    "Polling_Center_Location": "Dombalai Ulya",
    "Map_Accuracy": "Building",
    "Map_Accuracy_Dari": "تعمیر",
    "Status": "Open",
    "Status_Dari": null,
    "PS_Male": 2,
    "PS_Female": 1,
    "PS_Total": 3,
    "ولسوالي": "لاش جوین ",
    "Region": "Western Region"
   },
   "geometry": {
    "x": 6845316.8043635832,
    "y": 3708533.8868003618
   }
  },
  {
   "attributes": {
    "OBJECTID": 2123,
    "ولایت": " فراه",
    "Province": "FARAH",
    "PC_Code": "3309103",
    "District": "LASH-E-JUWAYN",
    "د_مرکز_نوم__نام_مرکز": "مکتب متوسطه قوچ ",
    "Polling_Center_Name": "Qoch Secondary School ",
    "د_مرکز_ځای__موقعیت_مرکز": "قوچ",
    "Polling_Center_Location": "Qoch ",
    "Map_Accuracy": "Building",
    "Map_Accuracy_Dari": "تعمیر",
    "Status": "Open",
    "Status_Dari": null,
    "PS_Male": 1,
    "PS_Female": 1,
    "PS_Total": 2,
    "ولسوالي": "لاش جوین ",
    "Region": "Western Region"
   },
   "geometry": {
    "x": 6842553.4315880258,
    "y": 3702262.0785514386
   }
  },
  {
   "attributes": {
    "OBJECTID": 2124,
    "ولایت": " فراه",
    "Province": "FARAH",
    "PC_Code": "3309104",
    "District": "LASH-E-JUWAYN",
    "د_مرکز_نوم__نام_مرکز": "مسجد علیا چار گاواک",
    "Polling_Center_Name": "Char Gawak Ulya Mosque ",
    "د_مرکز_ځای__موقعیت_مرکز": " چار گاواک",
    "Polling_Center_Location": "Char Gawak  ",
    "Map_Accuracy": "Building",
    "Map_Accuracy_Dari": "تعمیر",
    "Status": "Open",
    "Status_Dari": null,
    "PS_Male": 1,
    "PS_Female": 1,
    "PS_Total": 2,
    "ولسوالي": "لاش جوین ",
    "Region": "Western Region"
   },
   "geometry": {
    "x": 6859553.9093378512,
    "y": 3734504.3166974573
   }
  },
  {
   "attributes": {
    "OBJECTID": 2125,
    "ولایت": " فراه",
    "Province": "FARAH",
    "PC_Code": "3301034",
    "District": "FARAH",
    "د_مرکز_نوم__نام_مرکز": "لیسه اناث ",
    "Polling_Center_Name": "Girls High School",
    "د_مرکز_ځای__موقعیت_مرکز": "باغ پل ",
    "Polling_Center_Location": "Bagh-e-Pul",
    "Map_Accuracy": "Building",
    "Map_Accuracy_Dari": "تعمیر",
    "Status": "Open",
    "Status_Dari": null,
    "PS_Male": 4,
    "PS_Female": 1,
    "PS_Total": 5,
    "ولسوالي": "فراه",
    "Region": "Western Region"
   },
   "geometry": {
    "x": 6910295.0854102094,
    "y": 3811755.1343065095
   }
  },
  {
   "attributes": {
    "OBJECTID": 2126,
    "ولایت": " فراه",
    "Province": "FARAH",
    "PC_Code": "3301035",
    "District": "FARAH",
    "د_مرکز_نوم__نام_مرکز": "مسجد قلعه محمد",
    "Polling_Center_Name": "Qala-e-Mohammad Mosque",
    "د_مرکز_ځای__موقعیت_مرکز": "قلعه محمد",
    "Polling_Center_Location": "Qala-e-Mohammad",
    "Map_Accuracy": "Building",
    "Map_Accuracy_Dari": "تعمیر",
    "Status": "Open",
    "Status_Dari": null,
    "PS_Male": 3,
    "PS_Female": 1,
    "PS_Total": 4,
    "ولسوالي": "فراه",
    "Region": "Western Region"
   },
   "geometry": {
    "x": 6913455.3355475357,
    "y": 3810095.6378250774
   }
  },
  {
   "attributes": {
    "OBJECTID": 2127,
    "ولایت": " فراه",
    "Province": "FARAH",
    "PC_Code": "3302042",
    "District": "PUSHTRUD",
    "د_مرکز_نوم__نام_مرکز": "لیسه خواجه عبدالله بیدار",
    "Polling_Center_Name": "Khwaja Abdullah Bedar High School",
    "د_مرکز_ځای__موقعیت_مرکز": "چین فارسی ",
    "Polling_Center_Location": "Chin Farsi ",
    "Map_Accuracy": "Building",
    "Map_Accuracy_Dari": "تعمیر",
    "Status": "Open",
    "Status_Dari": null,
    "PS_Male": 1,
    "PS_Female": 1,
    "PS_Total": 2,
    "ولسوالي": "پشت رود",
    "Region": "Western Region"
   },
   "geometry": {
    "x": 6917341.0280896788,
    "y": 3828027.3426046111
   }
  },
  {
   "attributes": {
    "OBJECTID": 2128,
    "ولایت": " فراه",
    "Province": "FARAH",
    "PC_Code": "3302043",
    "District": "PUSHTRUD",
    "د_مرکز_نوم__نام_مرکز": "مکتب ابتدائیه  دوکین",
    "Polling_Center_Name": "Dokeen Primary School ",
    "د_مرکز_ځای__موقعیت_مرکز": "قریه دوکین",
    "Polling_Center_Location": "Dokeen Village ",
    "Map_Accuracy": "Building",
    "Map_Accuracy_Dari": "تعمیر",
    "Status": "Open",
    "Status_Dari": null,
    "PS_Male": 2,
    "PS_Female": 1,
    "PS_Total": 3,
    "ولسوالي": "پشت رود",
    "Region": "Western Region"
   },
   "geometry": {
    "x": 6915910.5937836915,
    "y": 3830966.6874372661
   }
  },
  {
   "attributes": {
    "OBJECTID": 2129,
    "ولایت": " فراه",
    "Province": "FARAH",
    "PC_Code": "3302234",
    "District": "PUSHTRUD",
    "د_مرکز_نوم__نام_مرکز": "مسجد شهر کهنه ",
    "Polling_Center_Name": "Shahr-e-Kohna Mosque",
    "د_مرکز_ځای__موقعیت_مرکز": "شهر کهنه",
    "Polling_Center_Location": "Shahr-e-Kohna",
    "Map_Accuracy": "Building",
    "Map_Accuracy_Dari": "تعمیر",
    "Status": "Open",
    "Status_Dari": null,
    "PS_Male": 1,
    "PS_Female": 1,
    "PS_Total": 2,
    "ولسوالي": "پشت رود",
    "Region": "Western Region"
   },
   "geometry": {
    "x": 6908680.2069531223,
    "y": 3821319.5805144245
   }
  },
  {
   "attributes": {
    "OBJECTID": 2130,
    "ولایت": " فراه",
    "Province": "FARAH",
    "PC_Code": "3305240",
    "District": "SHIB KOH",
    "د_مرکز_نوم__نام_مرکز": "مکتب حوضک محمد اسلم",
    "Polling_Center_Name": "Hawzak-e- Mohammad Aslam School ",
    "د_مرکز_ځای__موقعیت_مرکز": "حوضک محمد اسلم",
    "Polling_Center_Location": "Hawzak Mohammad Aslam ",
    "Map_Accuracy": "Building",
    "Map_Accuracy_Dari": "تعمیر",
    "Status": "Open",
    "Status_Dari": null,
    "PS_Male": 1,
    "PS_Female": 1,
    "PS_Total": 2,
    "ولسوالي": "شیب کوه ",
    "Region": "Western Region"
   },
   "geometry": {
    "x": 6873587.595753815,
    "y": 3784825.6409730609
   }
  },
  {
   "attributes": {
    "OBJECTID": 2131,
    "ولایت": " فراه",
    "Province": "FARAH",
    "PC_Code": "3306127",
    "District": "BALA BULUK",
    "د_مرکز_نوم__نام_مرکز": "مکتب ابتدائیه گرانی ",
    "Polling_Center_Name": "Grani Primary School ",
    "د_مرکز_ځای__موقعیت_مرکز": "گرانی",
    "Polling_Center_Location": "Grani ",
    "Map_Accuracy": "Building",
    "Map_Accuracy_Dari": "تعمیر",
    "Status": "Open",
    "Status_Dari": null,
    "PS_Male": 2,
    "PS_Female": 1,
    "PS_Total": 3,
    "ولسوالي": "بالا بلوک ",
    "Region": "Western Region"
   },
   "geometry": {
    "x": 6948822.8557953322,
    "y": 3845088.2030312731
   }
  },
  {
   "attributes": {
    "OBJECTID": 2132,
    "ولایت": "غور",
    "Province": "GHOR",
    "PC_Code": "2305119",
    "District": "PASABAND",
    "د_مرکز_نوم__نام_مرکز": "مکتب ابتدائیه نورک",
    "Polling_Center_Name": "Norak Primary School",
    "د_مرکز_ځای__موقعیت_مرکز": " مرکز نو رک",
    "Polling_Center_Location": "Norak Markaz",
    "Map_Accuracy": "Building",
    "Map_Accuracy_Dari": "تعمیر",
    "Status": "Open",
    "Status_Dari": null,
    "PS_Male": 1,
    "PS_Female": 1,
    "PS_Total": 2,
    "ولسوالي": "پسابند ",
    "Region": "Western Region"
   },
   "geometry": {
    "x": 7222571.6568535585,
    "y": 4000176.8676532349
   }
  },
  {
   "attributes": {
    "OBJECTID": 2133,
    "ولایت": "غور",
    "Province": "GHOR",
    "PC_Code": "2306089",
    "District": "SHAHRAK",
    "د_مرکز_نوم__نام_مرکز": "مکتب یک سنگ",
    "Polling_Center_Name": "Yak Sang School",
    "د_مرکز_ځای__موقعیت_مرکز": "قریه یکه سنگ",
    "Polling_Center_Location": "Yaka Sang Village",
    "Map_Accuracy": "Building",
    "Map_Accuracy_Dari": "تعمیر",
    "Status": "Open",
    "Status_Dari": null,
    "PS_Male": 1,
    "PS_Female": 1,
    "PS_Total": 2,
    "ولسوالي": "شهرک ",
    "Region": "Western Region"
   },
   "geometry": {
    "x": 7168108.7507170411,
    "y": 4067964.907533823
   }
  },
  {
   "attributes": {
    "OBJECTID": 2134,
    "ولایت": "غور",
    "Province": "GHOR",
    "PC_Code": "2306090",
    "District": "SHAHRAK",
    "د_مرکز_نوم__نام_مرکز": "مکتب بیدان",
    "Polling_Center_Name": "Bedan School",
    "د_مرکز_ځای__موقعیت_مرکز": "پله سرخک ",
    "Polling_Center_Location": "Pala Surkhak",
    "Map_Accuracy": "Building",
    "Map_Accuracy_Dari": "تعمیر",
    "Status": "Open",
    "Status_Dari": null,
    "PS_Male": 1,
    "PS_Female": 1,
    "PS_Total": 2,
    "ولسوالي": "شهرک ",
    "Region": "Western Region"
   },
   "geometry": {
    "x": 7185153.256438667,
    "y": 4090761.4147642772
   }
  },
  {
   "attributes": {
    "OBJECTID": 2135,
    "ولایت": "غور",
    "Province": "GHOR",
    "PC_Code": "2307137",
    "District": "LAL WA SARJANGAL",
    "د_مرکز_نوم__نام_مرکز": "مکتب قزل",
    "Polling_Center_Name": "Qazal School",
    "د_مرکز_ځای__موقعیت_مرکز": "قریه دهن باریکی ",
    "Polling_Center_Location": "Dahan Bareeki Village",
    "Map_Accuracy": "Building",
    "Map_Accuracy_Dari": "تعمیر",
    "Status": "Open",
    "Status_Dari": null,
    "PS_Male": 3,
    "PS_Female": 1,
    "PS_Total": 4,
    "ولسوالي": "لعل و سرجنگل ",
    "Region": "Western Region"
   },
   "geometry": {
    "x": 7351925.6153736906,
    "y": 4090709.0871962458
   }
  },
  {
   "attributes": {
    "OBJECTID": 2136,
    "ولایت": "غور",
    "Province": "GHOR",
    "PC_Code": "2307138",
    "District": "LAL WA SARJANGAL",
    "د_مرکز_نوم__نام_مرکز": "مکتب گرم آب سفلی",
    "Polling_Center_Name": "Garm Aab Sufla School",
    "د_مرکز_ځای__موقعیت_مرکز": "قریه سری نوده ",
    "Polling_Center_Location": "Sare Nodah Village",
    "Map_Accuracy": "Building",
    "Map_Accuracy_Dari": "تعمیر",
    "Status": "Open",
    "Status_Dari": null,
    "PS_Male": 2,
    "PS_Female": 2,
    "PS_Total": 4,
    "ولسوالي": "لعل و سرجنگل ",
    "Region": "Western Region"
   },
   "geometry": {
    "x": 7341467.5588693907,
    "y": 4089962.134201352
   }
  },
  {
   "attributes": {
    "OBJECTID": 2137,
    "ولایت": "غور",
    "Province": "GHOR",
    "PC_Code": "2307153",
    "District": "LAL WA SARJANGAL",
    "د_مرکز_نوم__نام_مرکز": "مکتب بیخ سنگ",
    "Polling_Center_Name": "Bekh Sang School",
    "د_مرکز_ځای__موقعیت_مرکز": "قریه دیوکان ",
    "Polling_Center_Location": "Diwkan Village",
    "Map_Accuracy": "Building",
    "Map_Accuracy_Dari": "تعمیر",
    "Status": "Open",
    "Status_Dari": null,
    "PS_Male": 3,
    "PS_Female": 1,
    "PS_Total": 4,
    "ولسوالي": "لعل و سرجنگل ",
    "Region": "Western Region"
   },
   "geometry": {
    "x": 7360963.0025177374,
    "y": 4103623.336722658
   }
  },
  {
   "attributes": {
    "OBJECTID": 2138,
    "ولایت": "غور",
    "Province": "GHOR",
    "PC_Code": "2307154",
    "District": "LAL WA SARJANGAL",
    "د_مرکز_نوم__نام_مرکز": "مکتب سری دیوالک",
    "Polling_Center_Name": "Sare Diwalak School",
    "د_مرکز_ځای__موقعیت_مرکز": "قریه اسد آباد",
    "Polling_Center_Location": "Asad Abad Village",
    "Map_Accuracy": "Building",
    "Map_Accuracy_Dari": "تعمیر",
    "Status": "Open",
    "Status_Dari": null,
    "PS_Male": 1,
    "PS_Female": 1,
    "PS_Total": 2,
    "ولسوالي": "لعل و سرجنگل ",
    "Region": "Western Region"
   },
   "geometry": {
    "x": 7387007.6968623633,
    "y": 4085392.6931920727
   }
  },
  {
   "attributes": {
    "OBJECTID": 2139,
    "ولایت": "غور",
    "Province": "GHOR",
    "PC_Code": "2307158",
    "District": "LAL WA SARJANGAL",
    "د_مرکز_نوم__نام_مرکز": "مکتب سنگ زرد",
    "Polling_Center_Name": "Sang Zard School",
    "د_مرکز_ځای__موقعیت_مرکز": " سنگ زرد",
    "Polling_Center_Location": "Sang Zard",
    "Map_Accuracy": "Building",
    "Map_Accuracy_Dari": "تعمیر",
    "Status": "Open",
    "Status_Dari": null,
    "PS_Male": 1,
    "PS_Female": 1,
    "PS_Total": 2,
    "ولسوالي": "لعل و سرجنگل ",
    "Region": "Western Region"
   },
   "geometry": {
    "x": 7351936.3643837254,
    "y": 4107605.8288909881
   }
  },
  {
   "attributes": {
    "OBJECTID": 2140,
    "ولایت": "غور",
    "Province": "GHOR",
    "PC_Code": "2307159",
    "District": "LAL WA SARJANGAL",
    "د_مرکز_نوم__نام_مرکز": "مسجد قلعه شکرکی",
    "Polling_Center_Name": "Qala Shakraki Mosque",
    "د_مرکز_ځای__موقعیت_مرکز": " قلعه شکرکی",
    "Polling_Center_Location": "Qala-e-Shakarki",
    "Map_Accuracy": "Building",
    "Map_Accuracy_Dari": "تعمیر",
    "Status": "Open",
    "Status_Dari": null,
    "PS_Male": 1,
    "PS_Female": 1,
    "PS_Total": 2,
    "ولسوالي": "لعل و سرجنگل ",
    "Region": "Western Region"
   },
   "geometry": {
    "x": 7385098.0532992138,
    "y": 4094325.6900389721
   }
  },
  {
   "attributes": {
    "OBJECTID": 2141,
    "ولایت": "غور",
    "Province": "GHOR",
    "PC_Code": "2307172",
    "District": "LAL WA SARJANGAL",
    "د_مرکز_نوم__نام_مرکز": "مکتب غیغانک",
    "Polling_Center_Name": "Ghighanak School",
    "د_مرکز_ځای__موقعیت_مرکز": "قریه سنگ پولک ",
    "Polling_Center_Location": "Sang Polak Village",
    "Map_Accuracy": "Village",
    "Map_Accuracy_Dari": "قریه",
    "Status": "Open",
    "Status_Dari": null,
    "PS_Male": 1,
    "PS_Female": 1,
    "PS_Total": 2,
    "ولسوالي": "لعل و سرجنگل ",
    "Region": "Western Region"
   },
   "geometry": {
    "x": 7370030.3524159212,
    "y": 4127257.5896776314
   }
  },
  {
   "attributes": {
    "OBJECTID": 2142,
    "ولایت": "غور",
    "Province": "GHOR",
    "PC_Code": "2307173",
    "District": "LAL WA SARJANGAL",
    "د_مرکز_نوم__نام_مرکز": "مسجد شنیه هیگل",
    "Polling_Center_Name": "Shinya Haigal Mosque",
    "د_مرکز_ځای__موقعیت_مرکز": "شینیه هیگل ",
    "Polling_Center_Location": "Shinya Haigal",
    "Map_Accuracy": "Village",
    "Map_Accuracy_Dari": "قریه",
    "Status": "Open",
    "Status_Dari": null,
    "PS_Male": 1,
    "PS_Female": 1,
    "PS_Total": 2,
    "ولسوالي": "لعل و سرجنگل ",
    "Region": "Western Region"
   },
   "geometry": {
    "x": 7370933.1557126455,
    "y": 4105896.9028350338
   }
  },
  {
   "attributes": {
    "OBJECTID": 2143,
    "ولایت": "غور",
    "Province": "GHOR",
    "PC_Code": "2307177",
    "District": "LAL WA SARJANGAL",
    "د_مرکز_نوم__نام_مرکز": "مسجد سر سوخته",
    "Polling_Center_Name": "Sar Sokhta Mosque",
    "د_مرکز_ځای__موقعیت_مرکز": " قریه سرسوخته",
    "Polling_Center_Location": "Sar Sokhta Village",
    "Map_Accuracy": "Building",
    "Map_Accuracy_Dari": "تعمیر",
    "Status": "Open",
    "Status_Dari": null,
    "PS_Male": 1,
    "PS_Female": 1,
    "PS_Total": 2,
    "ولسوالي": "لعل و سرجنگل ",
    "Region": "Western Region"
   },
   "geometry": {
    "x": 7348777.2652899297,
    "y": 4098789.5541441706
   }
  },
  {
   "attributes": {
    "OBJECTID": 2144,
    "ولایت": "غور",
    "Province": "GHOR",
    "PC_Code": "2308209",
    "District": "TAYWARA",
    "د_مرکز_نوم__نام_مرکز": "لیسه پس قلعه",
    "Polling_Center_Name": "Pas Qala High School",
    "د_مرکز_ځای__موقعیت_مرکز": " پس قلعه",
    "Polling_Center_Location": "Pas Qala",
    "Map_Accuracy": "Village",
    "Map_Accuracy_Dari": "قریه",
    "Status": "Open",
    "Status_Dari": null,
    "PS_Male": 3,
    "PS_Female": 1,
    "PS_Total": 4,
    "ولسوالي": "تیوره",
    "Region": "Western Region"
   },
   "geometry": {
    "x": 7170995.3831119724,
    "y": 3965132.0502305622
   }
  },
  {
   "attributes": {
    "OBJECTID": 2145,
    "ولایت": "سرپل",
    "Province": "SAR-E-PUL",
    "PC_Code": "2204047",
    "District": "SOZMA QALA",
    "د_مرکز_نوم__نام_مرکز": "مسجد جامع قریه باغ اسحق",
    "Polling_Center_Name": "Bagh Ishaaq Village Mosque",
    "د_مرکز_ځای__موقعیت_مرکز": "قریه باغ اسحق",
    "Polling_Center_Location": "Bagh Ishaaq Village",
    "Map_Accuracy": "Building",
    "Map_Accuracy_Dari": "تعمیر",
    "Status": "Open",
    "Status_Dari": null,
    "PS_Male": 1,
    "PS_Female": 1,
    "PS_Total": 2,
    "ولسوالي": "سوزمه قلعه",
    "Region": "Northern Region"
   },
   "geometry": {
    "x": 7379391.0102480352,
    "y": 4310243.6257897215
   }
  },
  {
   "attributes": {
    "OBJECTID": 2146,
    "ولایت": "سرپل",
    "Province": "SAR-E-PUL",
    "PC_Code": "2205106",
    "District": "SANG CHARAK",
    "د_مرکز_نوم__نام_مرکز": "مکتب متوسطه عرفان",
    "Polling_Center_Name": "Irfan Secondary School",
    "د_مرکز_ځای__موقعیت_مرکز": "قریه گل خانه تفایخور",
    "Polling_Center_Location": "Khulkhana Tafaikhor Village",
    "Map_Accuracy": "Building",
    "Map_Accuracy_Dari": "تعمیر",
    "Status": "Open",
    "Status_Dari": null,
    "PS_Male": 2,
    "PS_Female": 2,
    "PS_Total": 4,
    "ولسوالي": "سنگ چارک",
    "Region": "Northern Region"
   },
   "geometry": {
    "x": 7388127.526411945,
    "y": 4295789.8961041626
   }
  },
  {
   "attributes": {
    "OBJECTID": 2147,
    "ولایت": "سرپل",
    "Province": "SAR-E-PUL",
    "PC_Code": "2205111",
    "District": "SANG CHARAK",
    "د_مرکز_نوم__نام_مرکز": "مسجد جامع چنار",
    "Polling_Center_Name": "Chinar Mosque",
    "د_مرکز_ځای__موقعیت_مرکز": "قریه فرشقان کلان",
    "Polling_Center_Location": "Farshaqan Kalan Village",
    "Map_Accuracy": "Building",
    "Map_Accuracy_Dari": "تعمیر",
    "Status": "Open",
    "Status_Dari": null,
    "PS_Male": 2,
    "PS_Female": 2,
    "PS_Total": 4,
    "ولسوالي": "سنگ چارک",
    "Region": "Northern Region"
   },
   "geometry": {
    "x": 7396307.2525391756,
    "y": 4295075.0382364895
   }
  },
  {
   "attributes": {
    "OBJECTID": 2148,
    "ولایت": "سرپل",
    "Province": "SAR-E-PUL",
    "PC_Code": "2205116",
    "District": "SANG CHARAK",
    "د_مرکز_نوم__نام_مرکز": "مکتب ابتدائیه ارچه تو",
    "Polling_Center_Name": "Archatoo Primary School",
    "د_مرکز_ځای__موقعیت_مرکز": "ارچه تو",
    "Polling_Center_Location": "Archatoo",
    "Map_Accuracy": "Building",
    "Map_Accuracy_Dari": "تعمیر",
    "Status": "Open",
    "Status_Dari": null,
    "PS_Male": 2,
    "PS_Female": 2,
    "PS_Total": 4,
    "ولسوالي": "سنگ چارک",
    "Region": "Northern Region"
   },
   "geometry": {
    "x": 7391338.2410140354,
    "y": 4302096.9695374165
   }
  },
  {
   "attributes": {
    "OBJECTID": 2149,
    "ولایت": "سرپل",
    "Province": "SAR-E-PUL",
    "PC_Code": "2205121",
    "District": "SANG CHARAK",
    "د_مرکز_نوم__نام_مرکز": "مسجد کبود آب ",
    "Polling_Center_Name": "Kabood Aab Mosque",
    "د_مرکز_ځای__موقعیت_مرکز": "قریه پشته کبود آب ",
    "Polling_Center_Location": "Pushta Kabood Aab Village",
    "Map_Accuracy": "Building",
    "Map_Accuracy_Dari": "تعمیر",
    "Status": "Open",
    "Status_Dari": null,
    "PS_Male": 1,
    "PS_Female": 1,
    "PS_Total": 2,
    "ولسوالي": "سنگ چارک",
    "Region": "Northern Region"
   },
   "geometry": {
    "x": 7388118.6063811528,
    "y": 4263589.145490272
   }
  },
  {
   "attributes": {
    "OBJECTID": 2150,
    "ولایت": "سرپل",
    "Province": "SAR-E-PUL",
    "PC_Code": "2206124",
    "District": "GOSFANDI",
    "د_مرکز_نوم__نام_مرکز": "مسجد جامع قریه شیکیار",
    "Polling_Center_Name": "Shekyar Village Mosque",
    "د_مرکز_ځای__موقعیت_مرکز": "مسجد جامع قریه شیکیار",
    "Polling_Center_Location": "Shekyar Village",
    "Map_Accuracy": "Building",
    "Map_Accuracy_Dari": "تعمیر",
    "Status": "Open",
    "Status_Dari": null,
    "PS_Male": 1,
    "PS_Female": 1,
    "PS_Total": 2,
    "ولسوالي": "گوسفندی ",
    "Region": "Northern Region"
   },
   "geometry": {
    "x": 7411154.934901691,
    "y": 4309777.5892020809
   }
  },
  {
   "attributes": {
    "OBJECTID": 2151,
    "ولایت": "سرپل",
    "Province": "SAR-E-PUL",
    "PC_Code": "2206132",
    "District": "GOSFANDI",
    "د_مرکز_نوم__نام_مرکز": "مسجد قریه آبدره",
    "Polling_Center_Name": "Aabdara Village Mosque",
    "د_مرکز_ځای__موقعیت_مرکز": "قریه آبدره",
    "Polling_Center_Location": "Aabdara Village",
    "Map_Accuracy": "Building",
    "Map_Accuracy_Dari": "تعمیر",
    "Status": "Open",
    "Status_Dari": null,
    "PS_Male": 1,
    "PS_Female": 1,
    "PS_Total": 2,
    "ولسوالي": "گوسفندی ",
    "Region": "Northern Region"
   },
   "geometry": {
    "x": 7409815.6389760086,
    "y": 4268776.9177578548
   }
  },
  {
   "attributes": {
    "OBJECTID": 2152,
    "ولایت": "غور",
    "Province": "GHOR",
    "PC_Code": "2301005",
    "District": "CHIGHCHERAN",
    "د_مرکز_نوم__نام_مرکز": "مکتب زرتلی",
    "Polling_Center_Name": "Zartali School",
    "د_مرکز_ځای__موقعیت_مرکز": "گنجک",
    "Polling_Center_Location": "Kanjak",
    "Map_Accuracy": "Building",
    "Map_Accuracy_Dari": "تعمیر",
    "Status": "Open",
    "Status_Dari": null,
    "PS_Male": 4,
    "PS_Female": 2,
    "PS_Total": 6,
    "ولسوالي": "چغچران",
    "Region": "Western Region"
   },
   "geometry": {
    "x": 7281254.9476000471,
    "y": 4073030.2830451694
   }
  },
  {
   "attributes": {
    "OBJECTID": 2153,
    "ولایت": "غور",
    "Province": "GHOR",
    "PC_Code": "2301006",
    "District": "CHIGHCHERAN",
    "د_مرکز_نوم__نام_مرکز": "بازار قیبی ",
    "Polling_Center_Name": "Bazaar Qibi",
    "د_مرکز_ځای__موقعیت_مرکز": "قیبی دهنه شور قل",
    "Polling_Center_Location": "Qebi Dahna Shor Qol",
    "Map_Accuracy": "Building",
    "Map_Accuracy_Dari": "تعمیر",
    "Status": "Open",
    "Status_Dari": null,
    "PS_Male": 4,
    "PS_Female": 1,
    "PS_Total": 5,
    "ولسوالي": "چغچران",
    "Region": "Western Region"
   },
   "geometry": {
    "x": 7280583.4417149024,
    "y": 4056464.2908715932
   }
  },
  {
   "attributes": {
    "OBJECTID": 2154,
    "ولایت": "غور",
    "Province": "GHOR",
    "PC_Code": "2308211",
    "District": "TAYWARA",
    "د_مرکز_نوم__نام_مرکز": "مکتب عا شقان",
    "Polling_Center_Name": "Aashoqan School",
    "د_مرکز_ځای__موقعیت_مرکز": "عاشقان",
    "Polling_Center_Location": "Aashoqan ",
    "Map_Accuracy": "Building",
    "Map_Accuracy_Dari": "تعمیر",
    "Status": "Open",
    "Status_Dari": null,
    "PS_Male": 2,
    "PS_Female": 1,
    "PS_Total": 3,
    "ولسوالي": "تیوره",
    "Region": "Western Region"
   },
   "geometry": {
    "x": 7153672.7612273265,
    "y": 3973865.3473713077
   }
  },
  {
   "attributes": {
    "OBJECTID": 2155,
    "ولایت": "غور",
    "Province": "GHOR",
    "PC_Code": "2308212",
    "District": "TAYWARA",
    "د_مرکز_نوم__نام_مرکز": "منزل عبدالله لارقه",
    "Polling_Center_Name": "Abdullah Larqa Private House",
    "د_مرکز_ځای__موقعیت_مرکز": " لارقه",
    "Polling_Center_Location": "Larqa",
    "Map_Accuracy": "Building",
    "Map_Accuracy_Dari": "تعمیر",
    "Status": "Open",
    "Status_Dari": null,
    "PS_Male": 1,
    "PS_Female": 2,
    "PS_Total": 3,
    "ولسوالي": "تیوره",
    "Region": "Western Region"
   },
   "geometry": {
    "x": 7141752.9284143979,
    "y": 3972475.3509471985
   }
  },
  {
   "attributes": {
    "OBJECTID": 2156,
    "ولایت": "غور",
    "Province": "GHOR",
    "PC_Code": "2301012",
    "District": "CHIGHCHERAN",
    "د_مرکز_نوم__نام_مرکز": "منزل لعل محمد",
    "Polling_Center_Name": "Lal Mohammad Private House",
    "د_مرکز_ځای__موقعیت_مرکز": "شوره زار",
    "Polling_Center_Location": "Shora Bazar",
    "Map_Accuracy": "Village",
    "Map_Accuracy_Dari": "قریه",
    "Status": "Open",
    "Status_Dari": null,
    "PS_Male": 4,
    "PS_Female": 2,
    "PS_Total": 6,
    "ولسوالي": "چغچران",
    "Region": "Western Region"
   },
   "geometry": {
    "x": 7235882.959924303,
    "y": 4119802.4513666518
   }
  },
  {
   "attributes": {
    "OBJECTID": 2157,
    "ولایت": "غور",
    "Province": "GHOR",
    "PC_Code": "2301013",
    "District": "CHIGHCHERAN",
    "د_مرکز_نوم__نام_مرکز": "لیسه نسوان بادگاه ",
    "Polling_Center_Name": "Badgah Girls High School",
    "د_مرکز_ځای__موقعیت_مرکز": " باد گاه",
    "Polling_Center_Location": "Badgah",
    "Map_Accuracy": "Building",
    "Map_Accuracy_Dari": "تعمیر",
    "Status": "Open",
    "Status_Dari": null,
    "PS_Male": 4,
    "PS_Female": 1,
    "PS_Total": 5,
    "ولسوالي": "چغچران",
    "Region": "Western Region"
   },
   "geometry": {
    "x": 7290101.1279339241,
    "y": 4098939.5705044265
   }
  },
  {
   "attributes": {
    "OBJECTID": 2158,
    "ولایت": "غور",
    "Province": "GHOR",
    "PC_Code": "2301034",
    "District": "CHIGHCHERAN",
    "د_مرکز_نوم__نام_مرکز": "مسجد سنمای رخنه سفید",
    "Polling_Center_Name": "Sanmay Rakhna Safid Mosque",
    "د_مرکز_ځای__موقعیت_مرکز": " سنمای رخنه سفید",
    "Polling_Center_Location": "Sanmay Rakhna Safid",
    "Map_Accuracy": "Village",
    "Map_Accuracy_Dari": "قریه",
    "Status": "Open",
    "Status_Dari": null,
    "PS_Male": 1,
    "PS_Female": 2,
    "PS_Total": 3,
    "ولسوالي": "چغچران",
    "Region": "Western Region"
   },
   "geometry": {
    "x": 7215448.9226497486,
    "y": 4124982.9727886096
   }
  },
  {
   "attributes": {
    "OBJECTID": 2159,
    "ولایت": "غور",
    "Province": "GHOR",
    "PC_Code": "2301035",
    "District": "CHIGHCHERAN",
    "د_مرکز_نوم__نام_مرکز": "مکتب غلامان",
    "Polling_Center_Name": "Ghulaman School",
    "د_مرکز_ځای__موقعیت_مرکز": " غلامان",
    "Polling_Center_Location": "Ghulaman ",
    "Map_Accuracy": "Building",
    "Map_Accuracy_Dari": "تعمیر",
    "Status": "Open",
    "Status_Dari": null,
    "PS_Male": 4,
    "PS_Female": 1,
    "PS_Total": 5,
    "ولسوالي": "چغچران",
    "Region": "Western Region"
   },
   "geometry": {
    "x": 7196914.619277278,
    "y": 4103514.4234700538
   }
  },
  {
   "attributes": {
    "OBJECTID": 2160,
    "ولایت": "غور",
    "Province": "GHOR",
    "PC_Code": "2304069",
    "District": "CHAR SADA",
    "د_مرکز_نوم__نام_مرکز": "مسجد جامع مسین",
    "Polling_Center_Name": "Maseen Mosque",
    "د_مرکز_ځای__موقعیت_مرکز": " مسین",
    "Polling_Center_Location": "Maseen",
    "Map_Accuracy": "Building",
    "Map_Accuracy_Dari": "تعمیر",
    "Status": "Open",
    "Status_Dari": null,
    "PS_Male": 2,
    "PS_Female": 1,
    "PS_Total": 3,
    "ولسوالي": "چار صده",
    "Region": "Western Region"
   },
   "geometry": {
    "x": 7242355.7497151392,
    "y": 4187711.2741707386
   }
  },
  {
   "attributes": {
    "OBJECTID": 2161,
    "ولایت": "غور",
    "Province": "GHOR",
    "PC_Code": "2306083",
    "District": "SHAHRAK",
    "د_مرکز_نوم__نام_مرکز": "مکتب ابتدائیه ناسفنج",
    "Polling_Center_Name": "Nasfanj Primary School",
    "د_مرکز_ځای__موقعیت_مرکز": " ناسفنجی",
    "Polling_Center_Location": "Nasfanji",
    "Map_Accuracy": "Village",
    "Map_Accuracy_Dari": "قریه",
    "Status": "Open",
    "Status_Dari": null,
    "PS_Male": 1,
    "PS_Female": 1,
    "PS_Total": 2,
    "ولسوالي": "شهرک ",
    "Region": "Western Region"
   },
   "geometry": {
    "x": 7137303.5674042301,
    "y": 4064847.3544124286
   }
  },
  {
   "attributes": {
    "OBJECTID": 2162,
    "ولایت": "غور",
    "Province": "GHOR",
    "PC_Code": "2307143",
    "District": "LAL WA SARJANGAL",
    "د_مرکز_نوم__نام_مرکز": "مکتب جو قل",
    "Polling_Center_Name": "Joqal School",
    "د_مرکز_ځای__موقعیت_مرکز": "قریه پیشبند بالا",
    "Polling_Center_Location": "Peshband Bala Village",
    "Map_Accuracy": "Village",
    "Map_Accuracy_Dari": "قریه",
    "Status": "Open",
    "Status_Dari": null,
    "PS_Male": 2,
    "PS_Female": 1,
    "PS_Total": 3,
    "ولسوالي": "لعل و سرجنگل ",
    "Region": "Western Region"
   },
   "geometry": {
    "x": 7365085.3157695103,
    "y": 4078141.5460244138
   }
  },
  {
   "attributes": {
    "OBJECTID": 2163,
    "ولایت": "غور",
    "Province": "GHOR",
    "PC_Code": "2307144",
    "District": "LAL WA SARJANGAL",
    "د_مرکز_نوم__نام_مرکز": "مکتب قولانی",
    "Polling_Center_Name": "Qolani School",
    "د_مرکز_ځای__موقعیت_مرکز": "قریه قولانی ",
    "Polling_Center_Location": "Qolani Village",
    "Map_Accuracy": "Village",
    "Map_Accuracy_Dari": "قریه",
    "Status": "Open",
    "Status_Dari": null,
    "PS_Male": 1,
    "PS_Female": 1,
    "PS_Total": 2,
    "ولسوالي": "لعل و سرجنگل ",
    "Region": "Western Region"
   },
   "geometry": {
    "x": 7373333.3430835092,
    "y": 4084105.5469910633
   }
  },
  {
   "attributes": {
    "OBJECTID": 2164,
    "ولایت": "غور",
    "Province": "GHOR",
    "PC_Code": "2307147",
    "District": "LAL WA SARJANGAL",
    "د_مرکز_نوم__نام_مرکز": "مسجد جامع رشک",
    "Polling_Center_Name": "Rashk Mosque",
    "د_مرکز_ځای__موقعیت_مرکز": "قریه رشک ",
    "Polling_Center_Location": "Rashk Village",
    "Map_Accuracy": "Building",
    "Map_Accuracy_Dari": "تعمیر",
    "Status": "Open",
    "Status_Dari": null,
    "PS_Male": 1,
    "PS_Female": 1,
    "PS_Total": 2,
    "ولسوالي": "لعل و سرجنگل ",
    "Region": "Western Region"
   },
   "geometry": {
    "x": 7385060.1445598155,
    "y": 4098773.0588707072
   }
  },
  {
   "attributes": {
    "OBJECTID": 2165,
    "ولایت": "غور",
    "Province": "GHOR",
    "PC_Code": "2307148",
    "District": "LAL WA SARJANGAL",
    "د_مرکز_نوم__نام_مرکز": "مکتب سرای کرمان ",
    "Polling_Center_Name": "Sray Karman School",
    "د_مرکز_ځای__موقعیت_مرکز": "قریه سیا سنگ ",
    "Polling_Center_Location": "Siyasang Village",
    "Map_Accuracy": "Building",
    "Map_Accuracy_Dari": "تعمیر",
    "Status": "Open",
    "Status_Dari": null,
    "PS_Male": 2,
    "PS_Female": 1,
    "PS_Total": 3,
    "ولسوالي": "لعل و سرجنگل ",
    "Region": "Western Region"
   },
   "geometry": {
    "x": 7405089.7169361077,
    "y": 4090866.2164426893
   }
  },
  {
   "attributes": {
    "OBJECTID": 2166,
    "ولایت": "غور",
    "Province": "GHOR",
    "PC_Code": "2308215",
    "District": "TAYWARA",
    "د_مرکز_نوم__نام_مرکز": "مکتب نیلی",
    "Polling_Center_Name": "Nili School",
    "د_مرکز_ځای__موقعیت_مرکز": "درز آب",
    "Polling_Center_Location": "Darz Aab",
    "Map_Accuracy": "Village",
    "Map_Accuracy_Dari": "قریه",
    "Status": "Open",
    "Status_Dari": null,
    "PS_Male": 3,
    "PS_Female": 2,
    "PS_Total": 5,
    "ولسوالي": "تیوره",
    "Region": "Western Region"
   },
   "geometry": {
    "x": 7170361.4653660888,
    "y": 3927644.3518174388
   }
  },
  {
   "attributes": {
    "OBJECTID": 2167,
    "ولایت": "غور",
    "Province": "GHOR",
    "PC_Code": "2308216",
    "District": "TAYWARA",
    "د_مرکز_نوم__نام_مرکز": "مکتب خم پای حصار",
    "Polling_Center_Name": "Khum Paay Hisar School",
    "د_مرکز_ځای__موقعیت_مرکز": " خم پای حصار",
    "Polling_Center_Location": "Khum Paay Hisar",
    "Map_Accuracy": "Village",
    "Map_Accuracy_Dari": "قریه",
    "Status": "Open",
    "Status_Dari": null,
    "PS_Male": 1,
    "PS_Female": 1,
    "PS_Total": 2,
    "ولسوالي": "تیوره",
    "Region": "Western Region"
   },
   "geometry": {
    "x": 7177090.5760768391,
    "y": 3977867.2773787929
   }
  },
  {
   "attributes": {
    "OBJECTID": 2168,
    "ولایت": "غور",
    "Province": "GHOR",
    "PC_Code": "2308223",
    "District": "TAYWARA",
    "د_مرکز_نوم__نام_مرکز": "منزل سید علاوالدین",
    "Polling_Center_Name": "Sayed Alauddin Private House",
    "د_مرکز_ځای__موقعیت_مرکز": " یگین",
    "Polling_Center_Location": "Yageen",
    "Map_Accuracy": "Building",
    "Map_Accuracy_Dari": "تعمیر",
    "Status": "Open",
    "Status_Dari": null,
    "PS_Male": 2,
    "PS_Female": 1,
    "PS_Total": 3,
    "ولسوالي": "تیوره",
    "Region": "Western Region"
   },
   "geometry": {
    "x": 7150265.8571546664,
    "y": 3957219.0476047047
   }
  },
  {
   "attributes": {
    "OBJECTID": 2169,
    "ولایت": "غور",
    "Province": "GHOR",
    "PC_Code": "2308227",
    "District": "TAYWARA",
    "د_مرکز_نوم__نام_مرکز": "مکتب متوسطه زرنی ",
    "Polling_Center_Name": "Zarni Secondary School",
    "د_مرکز_ځای__موقعیت_مرکز": "زرنی",
    "Polling_Center_Location": "Zarni",
    "Map_Accuracy": "Building",
    "Map_Accuracy_Dari": "تعمیر",
    "Status": "Open",
    "Status_Dari": null,
    "PS_Male": 1,
    "PS_Female": 2,
    "PS_Total": 3,
    "ولسوالي": "تیوره",
    "Region": "Western Region"
   },
   "geometry": {
    "x": 7161713.2956896536,
    "y": 3919095.3889954509
   }
  },
  {
   "attributes": {
    "OBJECTID": 2170,
    "ولایت": "غور",
    "Province": "GHOR",
    "PC_Code": "2301031",
    "District": "CHIGHCHERAN",
    "د_مرکز_نوم__نام_مرکز": "حوض صا لح",
    "Polling_Center_Name": "Hawz Saaleh",
    "د_مرکز_ځای__موقعیت_مرکز": " حوض صا لح",
    "Polling_Center_Location": "Hawz Saaleh",
    "Map_Accuracy": "Village",
    "Map_Accuracy_Dari": "قریه",
    "Status": "Open",
    "Status_Dari": null,
    "PS_Male": 2,
    "PS_Female": 2,
    "PS_Total": 4,
    "ولسوالي": "چغچران",
    "Region": "Western Region"
   },
   "geometry": {
    "x": 7210118.133688841,
    "y": 4193281.7307726806
   }
  },
  {
   "attributes": {
    "OBJECTID": 2171,
    "ولایت": "غور",
    "Province": "GHOR",
    "PC_Code": "2302104",
    "District": "DULEENA",
    "د_مرکز_نوم__نام_مرکز": "باغ فضل احمد",
    "Polling_Center_Name": "Fazal Ahmad Bagh",
    "د_مرکز_ځای__موقعیت_مرکز": " خواجه گان",
    "Polling_Center_Location": "Khwaja Gan",
    "Map_Accuracy": "Village",
    "Map_Accuracy_Dari": "قریه",
    "Status": "Open",
    "Status_Dari": null,
    "PS_Male": 2,
    "PS_Female": 2,
    "PS_Total": 4,
    "ولسوالي": "دولینه",
    "Region": "Western Region"
   },
   "geometry": {
    "x": 7220143.4609422106,
    "y": 4088624.6839322299
   }
  },
  {
   "attributes": {
    "OBJECTID": 2172,
    "ولایت": "غور",
    "Province": "GHOR",
    "PC_Code": "2302105",
    "District": "DULEENA",
    "د_مرکز_نوم__نام_مرکز": "منزل ارباب سخی",
    "Polling_Center_Name": "Arbab Sakhi Private House",
    "د_مرکز_ځای__موقعیت_مرکز": "رزقان",
    "Polling_Center_Location": "Razqan",
    "Map_Accuracy": "Village",
    "Map_Accuracy_Dari": "قریه",
    "Status": "Open",
    "Status_Dari": null,
    "PS_Male": 1,
    "PS_Female": 2,
    "PS_Total": 3,
    "ولسوالي": "دولینه",
    "Region": "Western Region"
   },
   "geometry": {
    "x": 7201655.512675494,
    "y": 4081766.3533868431
   }
  },
  {
   "attributes": {
    "OBJECTID": 2173,
    "ولایت": "غور",
    "Province": "GHOR",
    "PC_Code": "2302110",
    "District": "DULEENA",
    "د_مرکز_نوم__نام_مرکز": "مسجد سرچهل گزی",
    "Polling_Center_Name": "Sar Chehl Gazai Mosque",
    "د_مرکز_ځای__موقعیت_مرکز": "چهل گزی",
    "Polling_Center_Location": "Chehl Gazai",
    "Map_Accuracy": "Village",
    "Map_Accuracy_Dari": "قریه",
    "Status": "Open",
    "Status_Dari": null,
    "PS_Male": 2,
    "PS_Female": 1,
    "PS_Total": 3,
    "ولسوالي": "دولینه",
    "Region": "Western Region"
   },
   "geometry": {
    "x": 7219620.2008927455,
    "y": 4029763.983299497
   }
  },
  {
   "attributes": {
    "OBJECTID": 2174,
    "ولایت": "غور",
    "Province": "GHOR",
    "PC_Code": "2304066",
    "District": "CHAR SADA",
    "د_مرکز_نوم__نام_مرکز": "منزل نجیب الله",
    "Polling_Center_Name": "Najibullah Private House",
    "د_مرکز_ځای__موقعیت_مرکز": " پس ارچه",
    "Polling_Center_Location": "Pas Archa",
    "Map_Accuracy": "Village",
    "Map_Accuracy_Dari": "قریه",
    "Status": "Open",
    "Status_Dari": null,
    "PS_Male": 2,
    "PS_Female": 1,
    "PS_Total": 3,
    "ولسوالي": "چار صده",
    "Region": "Western Region"
   },
   "geometry": {
    "x": 7222369.7043729471,
    "y": 4189983.6846199292
   }
  },
  {
   "attributes": {
    "OBJECTID": 2175,
    "ولایت": "غور",
    "Province": "GHOR",
    "PC_Code": "2305129",
    "District": "PASABAND",
    "د_مرکز_نوم__نام_مرکز": "مکتب دهنه دیوالک",
    "Polling_Center_Name": "Dahna Dewalak School",
    "د_مرکز_ځای__موقعیت_مرکز": "بازار دهن پشته روق ",
    "Polling_Center_Location": "Bazar Dahan Pushta Roq",
    "Map_Accuracy": "Building",
    "Map_Accuracy_Dari": "تعمیر",
    "Status": "Open",
    "Status_Dari": null,
    "PS_Male": 1,
    "PS_Female": 2,
    "PS_Total": 3,
    "ولسوالي": "پسابند ",
    "Region": "Western Region"
   },
   "geometry": {
    "x": 7257387.9819822712,
    "y": 3988932.9722103835
   }
  },
  {
   "attributes": {
    "OBJECTID": 2176,
    "ولایت": "غور",
    "Province": "GHOR",
    "PC_Code": "2306078",
    "District": "SHAHRAK",
    "د_مرکز_نوم__نام_مرکز": "مکتب دهن حصار",
    "Polling_Center_Name": "Dahn Hisar School",
    "د_مرکز_ځای__موقعیت_مرکز": "دهنه حصار",
    "Polling_Center_Location": "Dahn Hisar",
    "Map_Accuracy": "Village",
    "Map_Accuracy_Dari": "قریه",
    "Status": "Open",
    "Status_Dari": null,
    "PS_Male": 1,
    "PS_Female": 2,
    "PS_Total": 3,
    "ولسوالي": "شهرک ",
    "Region": "Western Region"
   },
   "geometry": {
    "x": 7132343.0540090203,
    "y": 4049377.9960373435
   }
  },
  {
   "attributes": {
    "OBJECTID": 2177,
    "ولایت": "غور",
    "Province": "GHOR",
    "PC_Code": "2306079",
    "District": "SHAHRAK",
    "د_مرکز_نوم__نام_مرکز": "مکتب اناث",
    "Polling_Center_Name": "Girls School",
    "د_مرکز_ځای__موقعیت_مرکز": "کمنج",
    "Polling_Center_Location": "Kamanj",
    "Map_Accuracy": "Village",
    "Map_Accuracy_Dari": "قریه",
    "Status": "Open",
    "Status_Dari": null,
    "PS_Male": 1,
    "PS_Female": 1,
    "PS_Total": 2,
    "ولسوالي": "شهرک ",
    "Region": "Western Region"
   },
   "geometry": {
    "x": 7163146.146741787,
    "y": 4080533.402033974
   }
  },
  {
   "attributes": {
    "OBJECTID": 2178,
    "ولایت": "غور",
    "Province": "GHOR",
    "PC_Code": "2306086",
    "District": "SHAHRAK",
    "د_مرکز_نوم__نام_مرکز": "مکتب ابتدائیه برزو",
    "Polling_Center_Name": "Barzo Primary School",
    "د_مرکز_ځای__موقعیت_مرکز": "برزو",
    "Polling_Center_Location": "Barzo",
    "Map_Accuracy": "Village",
    "Map_Accuracy_Dari": "قریه",
    "Status": "Open",
    "Status_Dari": null,
    "PS_Male": 2,
    "PS_Female": 1,
    "PS_Total": 3,
    "ولسوالي": "شهرک ",
    "Region": "Western Region"
   },
   "geometry": {
    "x": 7134942.4186655916,
    "y": 4096895.071481172
   }
  },
  {
   "attributes": {
    "OBJECTID": 2179,
    "ولایت": "غور",
    "Province": "GHOR",
    "PC_Code": "2306087",
    "District": "SHAHRAK",
    "د_مرکز_نوم__نام_مرکز": "مکتب ابتدائیه مرغه",
    "Polling_Center_Name": "Margha Primary School",
    "د_مرکز_ځای__موقعیت_مرکز": " مرغه",
    "Polling_Center_Location": "Margha",
    "Map_Accuracy": "Village",
    "Map_Accuracy_Dari": "قریه",
    "Status": "Open",
    "Status_Dari": null,
    "PS_Male": 1,
    "PS_Female": 1,
    "PS_Total": 2,
    "ولسوالي": "شهرک ",
    "Region": "Western Region"
   },
   "geometry": {
    "x": 7153941.2070661783,
    "y": 4076093.0236797435
   }
  },
  {
   "attributes": {
    "OBJECTID": 2180,
    "ولایت": "غور",
    "Province": "GHOR",
    "PC_Code": "2307140",
    "District": "LAL WA SARJANGAL",
    "د_مرکز_نوم__نام_مرکز": "مکتب سنگ شانده",
    "Polling_Center_Name": "Sang Shanda School",
    "د_مرکز_ځای__موقعیت_مرکز": "قریه قلعه سنگ شانده",
    "Polling_Center_Location": "Qala-e-Sang Shanda Village",
    "Map_Accuracy": "Building",
    "Map_Accuracy_Dari": "تعمیر",
    "Status": "Open",
    "Status_Dari": null,
    "PS_Male": 1,
    "PS_Female": 2,
    "PS_Total": 3,
    "ولسوالي": "لعل و سرجنگل ",
    "Region": "Western Region"
   },
   "geometry": {
    "x": 7347023.7094639894,
    "y": 4081629.5186730819
   }
  },
  {
   "attributes": {
    "OBJECTID": 2181,
    "ولایت": "غور",
    "Province": "GHOR",
    "PC_Code": "2307156",
    "District": "LAL WA SARJANGAL",
    "د_مرکز_نوم__نام_مرکز": "مسجد دهن لکه سنگ",
    "Polling_Center_Name": "Dahn Laka Sang Mosque",
    "د_مرکز_ځای__موقعیت_مرکز": "قریه دهن لکه سنگ",
    "Polling_Center_Location": "Dahan Laka Sang Village",
    "Map_Accuracy": "Building",
    "Map_Accuracy_Dari": "تعمیر",
    "Status": "Open",
    "Status_Dari": null,
    "PS_Male": 1,
    "PS_Female": 1,
    "PS_Total": 2,
    "ولسوالي": "لعل و سرجنگل ",
    "Region": "Western Region"
   },
   "geometry": {
    "x": 7339519.8841154007,
    "y": 4106812.9389182157
   }
  },
  {
   "attributes": {
    "OBJECTID": 2182,
    "ولایت": "غور",
    "Province": "GHOR",
    "PC_Code": "2307161",
    "District": "LAL WA SARJANGAL",
    "د_مرکز_نوم__نام_مرکز": "مکتب کته چشمه",
    "Polling_Center_Name": "Kata Chashma School",
    "د_مرکز_ځای__موقعیت_مرکز": " قریه کته چشمه",
    "Polling_Center_Location": "kata Chashma Village",
    "Map_Accuracy": "Building",
    "Map_Accuracy_Dari": "تعمیر",
    "Status": "Open",
    "Status_Dari": null,
    "PS_Male": 2,
    "PS_Female": 1,
    "PS_Total": 3,
    "ولسوالي": "لعل و سرجنگل ",
    "Region": "Western Region"
   },
   "geometry": {
    "x": 7350028.2136149416,
    "y": 4118388.9335554605
   }
  },
  {
   "attributes": {
    "OBJECTID": 2183,
    "ولایت": "غور",
    "Province": "GHOR",
    "PC_Code": "2307168",
    "District": "LAL WA SARJANGAL",
    "د_مرکز_نوم__نام_مرکز": "مسجد شنیه سفید اب",
    "Polling_Center_Name": "Safid Aab Shinya Mosque",
    "د_مرکز_ځای__موقعیت_مرکز": "شنیه سفید اب",
    "Polling_Center_Location": "Safid Aab Shinya",
    "Map_Accuracy": "Village",
    "Map_Accuracy_Dari": "قریه",
    "Status": "Open",
    "Status_Dari": null,
    "PS_Male": 1,
    "PS_Female": 1,
    "PS_Total": 2,
    "ولسوالي": "لعل و سرجنگل ",
    "Region": "Western Region"
   },
   "geometry": {
    "x": 7413076.6588559849,
    "y": 4105627.4434520938
   }
  },
  {
   "attributes": {
    "OBJECTID": 2184,
    "ولایت": "غور",
    "Province": "GHOR",
    "PC_Code": "2307169",
    "District": "LAL WA SARJANGAL",
    "د_مرکز_نوم__نام_مرکز": "مسجد تگاب سعید",
    "Polling_Center_Name": "Tagab Sayeed Mosque",
    "د_مرکز_ځای__موقعیت_مرکز": " تگاب سعید",
    "Polling_Center_Location": "Tagab Sayeed",
    "Map_Accuracy": "Village",
    "Map_Accuracy_Dari": "قریه",
    "Status": "Open",
    "Status_Dari": null,
    "PS_Male": 2,
    "PS_Female": 1,
    "PS_Total": 3,
    "ولسوالي": "لعل و سرجنگل ",
    "Region": "Western Region"
   },
   "geometry": {
    "x": 7409094.7205952909,
    "y": 4111057.1615776084
   }
  },
  {
   "attributes": {
    "OBJECTID": 2185,
    "ولایت": "غور",
    "Province": "GHOR",
    "PC_Code": "2307175",
    "District": "LAL WA SARJANGAL",
    "د_مرکز_نوم__نام_مرکز": "مکتب تالتو کرمان",
    "Polling_Center_Name": "Talto Karman School",
    "د_مرکز_ځای__موقعیت_مرکز": " قریه تالتو",
    "Polling_Center_Location": "Talto Village",
    "Map_Accuracy": "Village",
    "Map_Accuracy_Dari": "قریه",
    "Status": "Open",
    "Status_Dari": null,
    "PS_Male": 1,
    "PS_Female": 1,
    "PS_Total": 2,
    "ولسوالي": "لعل و سرجنگل ",
    "Region": "Western Region"
   },
   "geometry": {
    "x": 7399371.2102037659,
    "y": 4091956.644290545
   }
  },
  {
   "attributes": {
    "OBJECTID": 2186,
    "ولایت": "غور",
    "Province": "GHOR",
    "PC_Code": "2309181",
    "District": "TULAK",
    "د_مرکز_نوم__نام_مرکز": "مسجد دهن گلدان",
    "Polling_Center_Name": "Dahan Guldan Mosque",
    "د_مرکز_ځای__موقعیت_مرکز": " دهن گلدان",
    "Polling_Center_Location": "Dahan Guldan",
    "Map_Accuracy": "Village",
    "Map_Accuracy_Dari": "قریه",
    "Status": "Open",
    "Status_Dari": null,
    "PS_Male": 1,
    "PS_Female": 1,
    "PS_Total": 2,
    "ولسوالي": "تولک ",
    "Region": "Western Region"
   },
   "geometry": {
    "x": 7113360.9546264885,
    "y": 4027619.5480133621
   }
  },
  {
   "attributes": {
    "OBJECTID": 2187,
    "ولایت": "غور",
    "Province": "GHOR",
    "PC_Code": "2309182",
    "District": "TULAK",
    "د_مرکز_نوم__نام_مرکز": "مکتب ابتدائیه کبوتر خان",
    "Polling_Center_Name": "Kabotar Khan Primary School",
    "د_مرکز_ځای__موقعیت_مرکز": " کبوتر خان",
    "Polling_Center_Location": "Kabotar Khan",
    "Map_Accuracy": "Building",
    "Map_Accuracy_Dari": "تعمیر",
    "Status": "Open",
    "Status_Dari": null,
    "PS_Male": 2,
    "PS_Female": 2,
    "PS_Total": 4,
    "ولسوالي": "تولک ",
    "Region": "Western Region"
   },
   "geometry": {
    "x": 7093962.0995607171,
    "y": 4025655.7953350293
   }
  },
  {
   "attributes": {
    "OBJECTID": 2188,
    "ولایت": "غور",
    "Province": "GHOR",
    "PC_Code": "2310199",
    "District": "SAGHAR",
    "د_مرکز_نوم__نام_مرکز": "باغ دیله ",
    "Polling_Center_Name": "Dila Bagh",
    "د_مرکز_ځای__موقعیت_مرکز": " دیله ",
    "Polling_Center_Location": "Dila",
    "Map_Accuracy": "Village",
    "Map_Accuracy_Dari": "قریه",
    "Status": "Open",
    "Status_Dari": null,
    "PS_Male": 1,
    "PS_Female": 2,
    "PS_Total": 3,
    "ولسوالي": "ساغر ",
    "Region": "Western Region"
   },
   "geometry": {
    "x": 7065259.1291717933,
    "y": 3967599.3170505506
   }
  },
  {
   "attributes": {
    "OBJECTID": 2189,
    "ولایت": "غور",
    "Province": "GHOR",
    "PC_Code": "2310200",
    "District": "SAGHAR",
    "د_مرکز_نوم__نام_مرکز": "مکتب دهن دوتایی  ",
    "Polling_Center_Name": "Dahn Dotayee School",
    "د_مرکز_ځای__موقعیت_مرکز": "دهن دوتائی ",
    "Polling_Center_Location": "Dahan Dotayee",
    "Map_Accuracy": "Village",
    "Map_Accuracy_Dari": "قریه",
    "Status": "Open",
    "Status_Dari": null,
    "PS_Male": 1,
    "PS_Female": 1,
    "PS_Total": 2,
    "ولسوالي": "ساغر ",
    "Region": "Western Region"
   },
   "geometry": {
    "x": 7121368.0671928227,
    "y": 4009152.0177220535
   }
  },
  {
   "attributes": {
    "OBJECTID": 2190,
    "ولایت": "غور",
    "Province": "GHOR",
    "PC_Code": "2310201",
    "District": "SAGHAR",
    "د_مرکز_نوم__نام_مرکز": "مکتب متوسطه مناک سفلی",
    "Polling_Center_Name": "Manak Sufla Secondary School",
    "د_مرکز_ځای__موقعیت_مرکز": " مناک سفلی",
    "Polling_Center_Location": "Manak Sufla ",
    "Map_Accuracy": "Village",
    "Map_Accuracy_Dari": "قریه",
    "Status": "Open",
    "Status_Dari": null,
    "PS_Male": 2,
    "PS_Female": 1,
    "PS_Total": 3,
    "ولسوالي": "ساغر ",
    "Region": "Western Region"
   },
   "geometry": {
    "x": 7113185.6164097339,
    "y": 3985050.8204888953
   }
  },
  {
   "attributes": {
    "OBJECTID": 2191,
    "ولایت": "غور",
    "Province": "GHOR",
    "PC_Code": "2310204",
    "District": "SAGHAR",
    "د_مرکز_نوم__نام_مرکز": "مکتب متوسطه آخری",
    "Polling_Center_Name": "Akheri Secondary School",
    "د_مرکز_ځای__موقعیت_مرکز": " آخری",
    "Polling_Center_Location": "Akheri",
    "Map_Accuracy": "Building",
    "Map_Accuracy_Dari": "تعمیر",
    "Status": "Open",
    "Status_Dari": null,
    "PS_Male": 2,
    "PS_Female": 2,
    "PS_Total": 4,
    "ولسوالي": "ساغر ",
    "Region": "Western Region"
   },
   "geometry": {
    "x": 7079587.2923763394,
    "y": 3980905.6693866085
   }
  },
  {
   "attributes": {
    "OBJECTID": 2192,
    "ولایت": "غور",
    "Province": "GHOR",
    "PC_Code": "2310205",
    "District": "SAGHAR",
    "د_مرکز_نوم__نام_مرکز": "مسجد زیرتنگی",
    "Polling_Center_Name": "Zer Tangi Mosque",
    "د_مرکز_ځای__موقعیت_مرکز": " زیرتنگی",
    "Polling_Center_Location": "Zer Tangi",
    "Map_Accuracy": "Village",
    "Map_Accuracy_Dari": "قریه",
    "Status": "Open",
    "Status_Dari": null,
    "PS_Male": 1,
    "PS_Female": 1,
    "PS_Total": 2,
    "ولسوالي": "ساغر ",
    "Region": "Western Region"
   },
   "geometry": {
    "x": 7122984.266344348,
    "y": 4000611.9985292372
   }
  },
  {
   "attributes": {
    "OBJECTID": 2193,
    "ولایت": "دایکندی",
    "Province": "DAYKUNDI",
    "PC_Code": "2402015",
    "District": "SHAHRISTAN",
    "د_مرکز_نوم__نام_مرکز": "مسجد شینیه",
    "Polling_Center_Name": "Shiniya Mosque",
    "د_مرکز_ځای__موقعیت_مرکز": "شینیه حیدر بیگ",
    "Polling_Center_Location": "Shiniya Haidar Beg",
    "Map_Accuracy": "Building",
    "Map_Accuracy_Dari": "تعمیر",
    "Status": "Open",
    "Status_Dari": null,
    "PS_Male": 2,
    "PS_Female": 2,
    "PS_Total": 4,
    "ولسوالي": "شهرستان",
    "Region": "Central Highlands Region"
   },
   "geometry": {
    "x": 7383645.752505647,
    "y": 3994463.0214797161
   }
  },
  {
   "attributes": {
    "OBJECTID": 2194,
    "ولایت": "دایکندی",
    "Province": "DAYKUNDI",
    "PC_Code": "2402016",
    "District": "SHAHRISTAN",
    "د_مرکز_نوم__نام_مرکز": "مسجد پالیچ",
    "Polling_Center_Name": "Palich Mosque",
    "د_مرکز_ځای__موقعیت_مرکز": "پالیچ",
    "Polling_Center_Location": "Palich",
    "Map_Accuracy": "Building",
    "Map_Accuracy_Dari": "تعمیر",
    "Status": "Open",
    "Status_Dari": null,
    "PS_Male": 1,
    "PS_Female": 1,
    "PS_Total": 2,
    "ولسوالي": "شهرستان",
    "Region": "Central Highlands Region"
   },
   "geometry": {
    "x": 7414493.3752611252,
    "y": 3984666.0209598271
   }
  },
  {
   "attributes": {
    "OBJECTID": 2195,
    "ولایت": "دایکندی",
    "Province": "DAYKUNDI",
    "PC_Code": "2402024",
    "District": "SHAHRISTAN",
    "د_مرکز_نوم__نام_مرکز": "مسجد شالج",
    "Polling_Center_Name": "Shalij Mosque",
    "د_مرکز_ځای__موقعیت_مرکز": "شالج",
    "Polling_Center_Location": "Shalij",
    "Map_Accuracy": "Building",
    "Map_Accuracy_Dari": "تعمیر",
    "Status": "Open",
    "Status_Dari": null,
    "PS_Male": 3,
    "PS_Female": 2,
    "PS_Total": 5,
    "ولسوالي": "شهرستان",
    "Region": "Central Highlands Region"
   },
   "geometry": {
    "x": 7376056.4137506178,
    "y": 3981891.3953497573
   }
  },
  {
   "attributes": {
    "OBJECTID": 2196,
    "ولایت": "دایکندی",
    "Province": "DAYKUNDI",
    "PC_Code": "2402025",
    "District": "SHAHRISTAN",
    "د_مرکز_نوم__نام_مرکز": "مسجد اشکرآباد",
    "Polling_Center_Name": "Ashkar Abad Mosque",
    "د_مرکز_ځای__موقعیت_مرکز": "اشکرآباد",
    "Polling_Center_Location": "Ashkar Abad",
    "Map_Accuracy": "Building",
    "Map_Accuracy_Dari": "تعمیر",
    "Status": "Open",
    "Status_Dari": null,
    "PS_Male": 1,
    "PS_Female": 1,
    "PS_Total": 2,
    "ولسوالي": "شهرستان",
    "Region": "Central Highlands Region"
   },
   "geometry": {
    "x": 7412303.8756113127,
    "y": 3976477.6109436937
   }
  },
  {
   "attributes": {
    "OBJECTID": 2197,
    "ولایت": "سرپل",
    "Province": "SAR-E-PUL",
    "PC_Code": "2201027",
    "District": "SAR-E-PUL",
    "د_مرکز_نوم__نام_مرکز": "مکتب قریه قشقری",
    "Polling_Center_Name": "Qashqari Village School",
    "د_مرکز_ځای__موقعیت_مرکز": "قریه قشقری",
    "Polling_Center_Location": "Qashqari Village",
    "Map_Accuracy": "Building",
    "Map_Accuracy_Dari": "تعمیر",
    "Status": "Open",
    "Status_Dari": null,
    "PS_Male": 2,
    "PS_Female": 2,
    "PS_Total": 4,
    "ولسوالي": "سرپل",
    "Region": "Northern Region"
   },
   "geometry": {
    "x": 7350241.3314404832,
    "y": 4321171.9005318293
   }
  },
  {
   "attributes": {
    "OBJECTID": 2198,
    "ولایت": "سرپل",
    "Province": "SAR-E-PUL",
    "PC_Code": "2202051",
    "District": "SAYAD",
    "د_مرکز_نوم__نام_مرکز": "مکتب متوسطه تربلاق",
    "Polling_Center_Name": "Tarbalaq Secondary School",
    "د_مرکز_ځای__موقعیت_مرکز": "تربلاق",
    "Polling_Center_Location": "Tarbalaq ",
    "Map_Accuracy": "Building",
    "Map_Accuracy_Dari": "تعمیر",
    "Status": "Open",
    "Status_Dari": null,
    "PS_Male": 1,
    "PS_Female": 1,
    "PS_Total": 2,
    "ولسوالي": "صیاد",
    "Region": "Northern Region"
   },
   "geometry": {
    "x": 7336617.0736588789,
    "y": 4314850.341357721
   }
  },
  {
   "attributes": {
    "OBJECTID": 2199,
    "ولایت": "سرپل",
    "Province": "SAR-E-PUL",
    "PC_Code": "2202052",
    "District": "SAYAD",
    "د_مرکز_نوم__نام_مرکز": "ملکیت مسجد دره بند",
    "Polling_Center_Name": "Dara-e-Band Mosque Property",
    "د_مرکز_ځای__موقعیت_مرکز": "قریه دره بند",
    "Polling_Center_Location": "Dara-e-Band Village",
    "Map_Accuracy": "Village",
    "Map_Accuracy_Dari": "قریه",
    "Status": "Open",
    "Status_Dari": null,
    "PS_Male": 2,
    "PS_Female": 2,
    "PS_Total": 4,
    "ولسوالي": "صیاد",
    "Region": "Northern Region"
   },
   "geometry": {
    "x": 7314336.2204285786,
    "y": 4313975.0873292852
   }
  },
  {
   "attributes": {
    "OBJECTID": 2200,
    "ولایت": "سرپل",
    "Province": "SAR-E-PUL",
    "PC_Code": "2202057",
    "District": "SAYAD",
    "د_مرکز_نوم__نام_مرکز": "مکتب متوسطه میرزا ولنگ",
    "Polling_Center_Name": "Mirza Walang Secondary School",
    "د_مرکز_ځای__موقعیت_مرکز": "میرزا ولنگ",
    "Polling_Center_Location": "Mirza Walang ",
    "Map_Accuracy": "Building",
    "Map_Accuracy_Dari": "تعمیر",
    "Status": "Open",
    "Status_Dari": null,
    "PS_Male": 1,
    "PS_Female": 2,
    "PS_Total": 3,
    "ولسوالي": "صیاد",
    "Region": "Northern Region"
   },
   "geometry": {
    "x": 7324237.0794668561,
    "y": 4299614.910767097
   }
  }
 ]
}