{
 "displayFieldName": "Polling_Center_Name",
 "fieldAliases": {
  "OBJECTID": "OBJECTID",
  "ولایت": "ولایت",
  "Province": "Province",
  "PC_Code": "PC_Code",
  "District": "District",
  "د_مرکز_نوم__نام_مرکز": "د_مرکز_نوم__نام_مرکز",
  "Polling_Center_Name": "Polling_Center_Name",
  "د_مرکز_ځای__موقعیت_مرکز": "د_مرکز_ځای__موقعیت_مرکز",
  "Polling_Center_Location": "Polling_Center_Location",
  "Map_Accuracy": "Map_Accuracy",
  "Map_Accuracy_Dari": "Map_Accuracy_Dari",
  "Status": "Status",
  "Status_Dari": "Status_Dari",
  "PS_Male": "PS_Male",
  "PS_Female": "PS_Female",
  "PS_Total": "PS_Total",
  "ولسوالي": "ولسوالي",
  "Region": "Region"
 },
 "geometryType": "esriGeometryPoint",
 "spatialReference": {
  "wkid": 102100,
  "latestWkid": 3857
 },
 "fields": [
  {
   "name": "OBJECTID",
   "type": "esriFieldTypeOID",
   "alias": "OBJECTID"
  },
  {
   "name": "ولایت",
   "type": "esriFieldTypeString",
   "alias": "ولایت",
   "length": 255
  },
  {
   "name": "Province",
   "type": "esriFieldTypeString",
   "alias": "Province",
   "length": 255
  },
  {
   "name": "PC_Code",
   "type": "esriFieldTypeString",
   "alias": "PC_Code",
   "length": 255
  },
  {
   "name": "District",
   "type": "esriFieldTypeString",
   "alias": "District",
   "length": 255
  },
  {
   "name": "د_مرکز_نوم__نام_مرکز",
   "type": "esriFieldTypeString",
   "alias": "د_مرکز_نوم__نام_مرکز",
   "length": 255
  },
  {
   "name": "Polling_Center_Name",
   "type": "esriFieldTypeString",
   "alias": "Polling_Center_Name",
   "length": 255
  },
  {
   "name": "د_مرکز_ځای__موقعیت_مرکز",
   "type": "esriFieldTypeString",
   "alias": "د_مرکز_ځای__موقعیت_مرکز",
   "length": 255
  },
  {
   "name": "Polling_Center_Location",
   "type": "esriFieldTypeString",
   "alias": "Polling_Center_Location",
   "length": 255
  },
  {
   "name": "Map_Accuracy",
   "type": "esriFieldTypeString",
   "alias": "Map_Accuracy",
   "length": 10
  },
  {
   "name": "Map_Accuracy_Dari",
   "type": "esriFieldTypeString",
   "alias": "Map_Accuracy_Dari",
   "length": 50
  },
  {
   "name": "Status",
   "type": "esriFieldTypeString",
   "alias": "Status",
   "length": 6
  },
  {
   "name": "Status_Dari",
   "type": "esriFieldTypeString",
   "alias": "Status_Dari",
   "length": 8
  },
  {
   "name": "PS_Male",
   "type": "esriFieldTypeSmallInteger",
   "alias": "PS_Male"
  },
  {
   "name": "PS_Female",
   "type": "esriFieldTypeSmallInteger",
   "alias": "PS_Female"
  },
  {
   "name": "PS_Total",
   "type": "esriFieldTypeSmallInteger",
   "alias": "PS_Total"
  },
  {
   "name": "ولسوالي",
   "type": "esriFieldTypeString",
   "alias": "ولسوالي",
   "length": 255
  },
  {
   "name": "Region",
   "type": "esriFieldTypeString",
   "alias": "Region",
   "length": 50
  }
 ],
 "features": [
  {
   "attributes": {
    "OBJECTID": 5801,
    "ولایت": "هرات",
    "Province": "HERAT",
    "PC_Code": "3201001",
    "District": "HERAT",
    "د_مرکز_نوم__نام_مرکز": "لیسه سلطان",
    "Polling_Center_Name": "Sultan High School",
    "د_مرکز_ځای__موقعیت_مرکز": " ناحیه اول",
    "Polling_Center_Location": "D01 - Nahia 1",
    "Map_Accuracy": "Building",
    "Map_Accuracy_Dari": "تعمیر",
    "Status": "Open",
    "Status_Dari": null,
    "PS_Male": 6,
    "PS_Female": 6,
    "PS_Total": 12,
    "ولسوالي": "هرات",
    "Region": "Western Region"
   },
   "geometry": {
    "x": 6925685.9245113721,
    "y": 4075886.0860350584
   }
  },
  {
   "attributes": {
    "OBJECTID": 5802,
    "ولایت": "هرات",
    "Province": "HERAT",
    "PC_Code": "3201424",
    "District": "HERAT",
    "د_مرکز_نوم__نام_مرکز": "مسجد الرضا",
    "Polling_Center_Name": "Alreza Mosque",
    "د_مرکز_ځای__موقعیت_مرکز": "ناحیه سوم",
    "Polling_Center_Location": "D03 - Nahia 3",
    "Map_Accuracy": "Village",
    "Map_Accuracy_Dari": "قریه",
    "Status": "Open",
    "Status_Dari": null,
    "PS_Male": 4,
    "PS_Female": 5,
    "PS_Total": 9,
    "ولسوالي": "هرات",
    "Region": "Western Region"
   },
   "geometry": {
    "x": 6924500.4621032132,
    "y": 4074300.8259650934
   }
  },
  {
   "attributes": {
    "OBJECTID": 5803,
    "ولایت": "هرات",
    "Province": "HERAT",
    "PC_Code": "3202032",
    "District": "ENJIL",
    "د_مرکز_نوم__نام_مرکز": "مسجد شیخ محمد عمر",
    "Polling_Center_Name": "Shaikh Mohammad Umar Mosque",
    "د_مرکز_ځای__موقعیت_مرکز": " جغاره اول",
    "Polling_Center_Location": "First Cheghara ",
    "Map_Accuracy": "Building",
    "Map_Accuracy_Dari": "تعمیر",
    "Status": "Open",
    "Status_Dari": null,
    "PS_Male": 4,
    "PS_Female": 0,
    "PS_Total": 4,
    "ولسوالي": "انجیل",
    "Region": "Western Region"
   },
   "geometry": {
    "x": 6924605.990754093,
    "y": 4069584.7401784146
   }
  },
  {
   "attributes": {
    "OBJECTID": 5804,
    "ولایت": "هرات",
    "Province": "HERAT",
    "PC_Code": "3202045",
    "District": "ENJIL",
    "د_مرکز_نوم__نام_مرکز": "مسجد جامع بلند آب",
    "Polling_Center_Name": "Baland Aab Mosque ",
    "د_مرکز_ځای__موقعیت_مرکز": "قریه بلند آب",
    "Polling_Center_Location": "Baland Aab Village",
    "Map_Accuracy": "Building",
    "Map_Accuracy_Dari": "تعمیر",
    "Status": "Open",
    "Status_Dari": null,
    "PS_Male": 2,
    "PS_Female": 1,
    "PS_Total": 3,
    "ولسوالي": "انجیل",
    "Region": "Western Region"
   },
   "geometry": {
    "x": 6929943.1124581946,
    "y": 4068345.9899285939
   }
  },
  {
   "attributes": {
    "OBJECTID": 5805,
    "ولایت": "هرات",
    "Province": "HERAT",
    "PC_Code": "3202056",
    "District": "ENJIL",
    "د_مرکز_نوم__نام_مرکز": "مکتب و مسجد چا هک",
    "Polling_Center_Name": "Chahak School and Mosque ",
    "د_مرکز_ځای__موقعیت_مرکز": "قریه چا هک",
    "Polling_Center_Location": "Chahak Village ",
    "Map_Accuracy": "Village",
    "Map_Accuracy_Dari": "قریه",
    "Status": "Open",
    "Status_Dari": null,
    "PS_Male": 2,
    "PS_Female": 1,
    "PS_Total": 3,
    "ولسوالي": "انجیل",
    "Region": "Western Region"
   },
   "geometry": {
    "x": 6910790.977006265,
    "y": 4100363.4757593824
   }
  },
  {
   "attributes": {
    "OBJECTID": 5806,
    "ولایت": "هرات",
    "Province": "HERAT",
    "PC_Code": "3203093",
    "District": "GUZARA",
    "د_مرکز_نوم__نام_مرکز": "لیسه نشین بالا",
    "Polling_Center_Name": "Neshin Bala School ",
    "د_مرکز_ځای__موقعیت_مرکز": "قریه نشین",
    "Polling_Center_Location": "Neshin Bala Village ",
    "Map_Accuracy": "Building",
    "Map_Accuracy_Dari": "تعمیر",
    "Status": "Open",
    "Status_Dari": null,
    "PS_Male": 1,
    "PS_Female": 1,
    "PS_Total": 2,
    "ولسوالي": "گذره",
    "Region": "Western Region"
   },
   "geometry": {
    "x": 6943758.9388383105,
    "y": 4060116.0476992824
   }
  },
  {
   "attributes": {
    "OBJECTID": 5807,
    "ولایت": "هرات",
    "Province": "HERAT",
    "PC_Code": "3203104",
    "District": "GUZARA",
    "د_مرکز_نوم__نام_مرکز": "لیسه کلاته خلیل",
    "Polling_Center_Name": "Kalata Khalil High School ",
    "د_مرکز_ځای__موقعیت_مرکز": "قریه کلاته خلیل",
    "Polling_Center_Location": "Kalata Khalil Village ",
    "Map_Accuracy": "Building",
    "Map_Accuracy_Dari": "تعمیر",
    "Status": "Open",
    "Status_Dari": null,
    "PS_Male": 1,
    "PS_Female": 1,
    "PS_Total": 2,
    "ولسوالي": "گذره",
    "Region": "Western Region"
   },
   "geometry": {
    "x": 6911548.8846273758,
    "y": 4053833.8817690555
   }
  },
  {
   "attributes": {
    "OBJECTID": 5808,
    "ولایت": "هرات",
    "Province": "HERAT",
    "PC_Code": "3204154",
    "District": "KARRUKH",
    "د_مرکز_نوم__نام_مرکز": "مکتب سنجور ",
    "Polling_Center_Name": "Sanjoor School ",
    "د_مرکز_ځای__موقعیت_مرکز": "قریه سنجور ",
    "Polling_Center_Location": "Sanjoor Village ",
    "Map_Accuracy": "Building",
    "Map_Accuracy_Dari": "تعمیر",
    "Status": "Open",
    "Status_Dari": null,
    "PS_Male": 1,
    "PS_Female": 1,
    "PS_Total": 2,
    "ولسوالي": "کرخ ",
    "Region": "Western Region"
   },
   "geometry": {
    "x": 6978838.2796411216,
    "y": 4087019.946971768
   }
  },
  {
   "attributes": {
    "OBJECTID": 5809,
    "ولایت": "هرات",
    "Province": "HERAT",
    "PC_Code": "3205268",
    "District": "ZENDAJAN",
    "د_مرکز_نوم__نام_مرکز": "تعمیر پهلوی کلینیک ده کرنیل",
    "Polling_Center_Name": "Next to Clinic Building",
    "د_مرکز_ځای__موقعیت_مرکز": " ده کرنیل",
    "Polling_Center_Location": "Deh Karnail ",
    "Map_Accuracy": "Village",
    "Map_Accuracy_Dari": "قریه",
    "Status": "Open",
    "Status_Dari": null,
    "PS_Male": 2,
    "PS_Female": 2,
    "PS_Total": 4,
    "ولسوالي": "زنده جان ",
    "Region": "Western Region"
   },
   "geometry": {
    "x": 6904131.6881065248,
    "y": 4104557.2147258525
   }
  },
  {
   "attributes": {
    "OBJECTID": 5810,
    "ولایت": "هرات",
    "Province": "HERAT",
    "PC_Code": "3206121",
    "District": "PASHTUN ZARGHUN",
    "د_مرکز_نوم__نام_مرکز": " مکتب متوسطه بند آباد",
    "Polling_Center_Name": "Band Abad Secodary School ",
    "د_مرکز_ځای__موقعیت_مرکز": "قریه بند آباد",
    "Polling_Center_Location": "Band Abad Village ",
    "Map_Accuracy": "Village",
    "Map_Accuracy_Dari": "قریه",
    "Status": "Open",
    "Status_Dari": null,
    "PS_Male": 2,
    "PS_Female": 1,
    "PS_Total": 3,
    "ولسوالي": "پشتون زرغون",
    "Region": "Western Region"
   },
   "geometry": {
    "x": 6982399.946749053,
    "y": 4060943.5074806032
   }
  },
  {
   "attributes": {
    "OBJECTID": 5811,
    "ولایت": "هرات",
    "Province": "HERAT",
    "PC_Code": "3206142",
    "District": "PASHTUN ZARGHUN",
    "د_مرکز_نوم__نام_مرکز": "مکتب تاقجه ",
    "Polling_Center_Name": "Taqcha School ",
    "د_مرکز_ځای__موقعیت_مرکز": "قریه تاقجه ",
    "Polling_Center_Location": "Taqcha Village ",
    "Map_Accuracy": "Village",
    "Map_Accuracy_Dari": "قریه",
    "Status": "Open",
    "Status_Dari": null,
    "PS_Male": 1,
    "PS_Female": 1,
    "PS_Total": 2,
    "ولسوالي": "پشتون زرغون",
    "Region": "Western Region"
   },
   "geometry": {
    "x": 7007345.8286639592,
    "y": 4040651.1569286259
   }
  },
  {
   "attributes": {
    "OBJECTID": 5812,
    "ولایت": "هرات",
    "Province": "HERAT",
    "PC_Code": "3206147",
    "District": "PASHTUN ZARGHUN",
    "د_مرکز_نوم__نام_مرکز": "کلینیک و مسجد",
    "Polling_Center_Name": "Clinic and Mosque ",
    "د_مرکز_ځای__موقعیت_مرکز": "قریه  آب گرمی",
    "Polling_Center_Location": "Aabgarmi Village ",
    "Map_Accuracy": "Village",
    "Map_Accuracy_Dari": "قریه",
    "Status": "Open",
    "Status_Dari": null,
    "PS_Male": 2,
    "PS_Female": 1,
    "PS_Total": 3,
    "ولسوالي": "پشتون زرغون",
    "Region": "Western Region"
   },
   "geometry": {
    "x": 6969187.1157866623,
    "y": 4026317.7031834587
   }
  },
  {
   "attributes": {
    "OBJECTID": 5813,
    "ولایت": "وردک",
    "Province": "WARDAK",
    "PC_Code": "0408080",
    "District": "JAGHATU",
    "د_مرکز_نوم__نام_مرکز": "مکتب نور خیل",
    "Polling_Center_Name": "Noor Khel Mosque",
    "د_مرکز_ځای__موقعیت_مرکز": "نور خیل",
    "Polling_Center_Location": "Noor Khel",
    "Map_Accuracy": "Village",
    "Map_Accuracy_Dari": "قریه",
    "Status": "Open",
    "Status_Dari": null,
    "PS_Male": 1,
    "PS_Female": 1,
    "PS_Total": 2,
    "ولسوالي": "جغتو",
    "Region": "Central Region"
   },
   "geometry": {
    "x": 7602262.6807397977,
    "y": 3992371.8531997367
   }
  },
  {
   "attributes": {
    "OBJECTID": 5814,
    "ولایت": "هرات",
    "Province": "HERAT",
    "PC_Code": "3207167",
    "District": "KUSHK (RUBAT-E-SANGI)",
    "د_مرکز_نوم__نام_مرکز": "مكتب خواجه ملال",
    "Polling_Center_Name": "Khwaja Malal School ",
    "د_مرکز_ځای__موقعیت_مرکز": "قریه  خواجه ملال",
    "Polling_Center_Location": "Khwaja Malal Village ",
    "Map_Accuracy": "Building",
    "Map_Accuracy_Dari": "تعمیر",
    "Status": "Open",
    "Status_Dari": null,
    "PS_Male": 1,
    "PS_Female": 1,
    "PS_Total": 2,
    "ولسوالي": "کشک (رباط سنگی)",
    "Region": "Western Region"
   },
   "geometry": {
    "x": 6923274.516135836,
    "y": 4132909.6610294124
   }
  },
  {
   "attributes": {
    "OBJECTID": 5815,
    "ولایت": "هرات",
    "Province": "HERAT",
    "PC_Code": "3208200",
    "District": "GULRAN",
    "د_مرکز_نوم__نام_مرکز": "مکتب ابتدایی قشاوری",
    "Polling_Center_Name": "Qashawari Primari School ",
    "د_مرکز_ځای__موقعیت_مرکز": "قشاوری علیا ",
    "Polling_Center_Location": "Qashawari Ulya",
    "Map_Accuracy": "Building",
    "Map_Accuracy_Dari": "تعمیر",
    "Status": "Open",
    "Status_Dari": null,
    "PS_Male": 2,
    "PS_Female": 1,
    "PS_Total": 3,
    "ولسوالي": "گلران ",
    "Region": "Western Region"
   },
   "geometry": {
    "x": 6898511.6134075327,
    "y": 4142928.2190389312
   }
  },
  {
   "attributes": {
    "OBJECTID": 5816,
    "ولایت": "هرات",
    "Province": "HERAT",
    "PC_Code": "3208211",
    "District": "GULRAN",
    "د_مرکز_نوم__نام_مرکز": "مسجد بزان علیا",
    "Polling_Center_Name": "Buzan Ulya Mosque ",
    "د_مرکز_ځای__موقعیت_مرکز": "بزان ",
    "Polling_Center_Location": "Bazan",
    "Map_Accuracy": "Building",
    "Map_Accuracy_Dari": "تعمیر",
    "Status": "Open",
    "Status_Dari": null,
    "PS_Male": 1,
    "PS_Female": 1,
    "PS_Total": 2,
    "ولسوالي": "گلران ",
    "Region": "Western Region"
   },
   "geometry": {
    "x": 6881117.9240467679,
    "y": 4146404.5716683301
   }
  },
  {
   "attributes": {
    "OBJECTID": 5817,
    "ولایت": "هرات",
    "Province": "HERAT",
    "PC_Code": "3208223",
    "District": "GULRAN",
    "د_مرکز_نوم__نام_مرکز": "مسجد خواجه محمد شورآب",
    "Polling_Center_Name": "Khwaja Mohammad Shorab Mosque",
    "د_مرکز_ځای__موقعیت_مرکز": "خواجه محمد شورآب",
    "Polling_Center_Location": "Khwaja Mohammad Shorab",
    "Map_Accuracy": "Village",
    "Map_Accuracy_Dari": "قریه",
    "Status": "Open",
    "Status_Dari": null,
    "PS_Male": 2,
    "PS_Female": 1,
    "PS_Total": 3,
    "ولسوالي": "گلران ",
    "Region": "Western Region"
   },
   "geometry": {
    "x": 6884032.2249011332,
    "y": 4126411.8297157348
   }
  },
  {
   "attributes": {
    "OBJECTID": 5818,
    "ولایت": "هرات",
    "Province": "HERAT",
    "PC_Code": "3209290",
    "District": "ADRASKAN",
    "د_مرکز_نوم__نام_مرکز": "مکتب متوسطه تزربید",
    "Polling_Center_Name": "Tazrbed Secondary School ",
    "د_مرکز_ځای__موقعیت_مرکز": "قریه تزربید ",
    "Polling_Center_Location": "Tazrbed Villag ",
    "Map_Accuracy": "Building",
    "Map_Accuracy_Dari": "تعمیر",
    "Status": "Open",
    "Status_Dari": null,
    "PS_Male": 1,
    "PS_Female": 1,
    "PS_Total": 2,
    "ولسوالي": "ادرسکن ",
    "Region": "Western Region"
   },
   "geometry": {
    "x": 6974316.4273785455,
    "y": 3986869.1896562199
   }
  },
  {
   "attributes": {
    "OBJECTID": 5819,
    "ولایت": "هرات",
    "Province": "HERAT",
    "PC_Code": "3209461",
    "District": "ADRASKAN",
    "د_مرکز_نوم__نام_مرکز": "مسجدقلعه ملا عطا",
    "Polling_Center_Name": "Qala-e- Mullah Ata Mosque ",
    "د_مرکز_ځای__موقعیت_مرکز": "قلعه ملا عطا ",
    "Polling_Center_Location": "Qala-e- Mullah Ata",
    "Map_Accuracy": "Building",
    "Map_Accuracy_Dari": "تعمیر",
    "Status": "Open",
    "Status_Dari": null,
    "PS_Male": 1,
    "PS_Female": 1,
    "PS_Total": 2,
    "ولسوالي": "ادرسکن ",
    "Region": "Western Region"
   },
   "geometry": {
    "x": 7009731.9218740957,
    "y": 3978201.7434586477
   }
  },
  {
   "attributes": {
    "OBJECTID": 5820,
    "ولایت": "هرات",
    "Province": "HERAT",
    "PC_Code": "3211253",
    "District": "GHORYAN",
    "د_مرکز_نوم__نام_مرکز": "مسجد جامع روشنان",
    "Polling_Center_Name": "Roshnan  Mosque ",
    "د_مرکز_ځای__موقعیت_مرکز": "قریه روشنان",
    "Polling_Center_Location": "Roshnan Village ",
    "Map_Accuracy": "Building",
    "Map_Accuracy_Dari": "تعمیر",
    "Status": "Open",
    "Status_Dari": null,
    "PS_Male": 2,
    "PS_Female": 1,
    "PS_Total": 3,
    "ولسوالي": "غوریان ",
    "Region": "Western Region"
   },
   "geometry": {
    "x": 6841379.7924229857,
    "y": 4085403.6320068254
   }
  },
  {
   "attributes": {
    "OBJECTID": 5821,
    "ولایت": "هرات",
    "Province": "HERAT",
    "PC_Code": "3213231",
    "District": "KOHSAN",
    "د_مرکز_نوم__نام_مرکز": "مسجد قدوس آباد",
    "Polling_Center_Name": "Qodoos Abad Mosque",
    "د_مرکز_ځای__موقعیت_مرکز": "قدوس آباد اول",
    "Polling_Center_Location": "Qodoos Abad-e- Awal",
    "Map_Accuracy": "Building",
    "Map_Accuracy_Dari": "تعمیر",
    "Status": "Open",
    "Status_Dari": null,
    "PS_Male": 2,
    "PS_Female": 2,
    "PS_Total": 4,
    "ولسوالي": "کهسان ",
    "Region": "Western Region"
   },
   "geometry": {
    "x": 6803142.1484607421,
    "y": 4118030.7351071914
   }
  },
  {
   "attributes": {
    "OBJECTID": 5822,
    "ولایت": "هرات",
    "Province": "HERAT",
    "PC_Code": "3214303",
    "District": "SHINDAND",
    "د_مرکز_نوم__نام_مرکز": "مسجد خطیب نصرآبادی",
    "Polling_Center_Name": "Khatib Naseer Abadi Mosque ",
    "د_مرکز_ځای__موقعیت_مرکز": "نصرآباد ",
    "Polling_Center_Location": "Naseer Abad ",
    "Map_Accuracy": "Building",
    "Map_Accuracy_Dari": "تعمیر",
    "Status": "Open",
    "Status_Dari": null,
    "PS_Male": 2,
    "PS_Female": 2,
    "PS_Total": 4,
    "ولسوالي": "شیندند",
    "Region": "Western Region"
   },
   "geometry": {
    "x": 6917646.6357141472,
    "y": 3935168.5237309169
   }
  },
  {
   "attributes": {
    "OBJECTID": 5823,
    "ولایت": "هرات",
    "Province": "HERAT",
    "PC_Code": "3214325",
    "District": "SHINDAND",
    "د_مرکز_نوم__نام_مرکز": "مسجد بازار قنادی",
    "Polling_Center_Name": "Bazar Qanadi Mosque ",
    "د_مرکز_ځای__موقعیت_مرکز": "بازار قنادی ",
    "Polling_Center_Location": "Bazar Qanadi ",
    "Map_Accuracy": "Building",
    "Map_Accuracy_Dari": "تعمیر",
    "Status": "Open",
    "Status_Dari": null,
    "PS_Male": 1,
    "PS_Female": 1,
    "PS_Total": 2,
    "ولسوالي": "شیندند",
    "Region": "Western Region"
   },
   "geometry": {
    "x": 6928482.6274556648,
    "y": 3944885.9914992116
   }
  },
  {
   "attributes": {
    "OBJECTID": 5824,
    "ولایت": "هرات",
    "Province": "HERAT",
    "PC_Code": "3214347",
    "District": "SHINDAND",
    "د_مرکز_نوم__نام_مرکز": "مسجد کاریزک",
    "Polling_Center_Name": "Karizk  Mosque ",
    "د_مرکز_ځای__موقعیت_مرکز": "کاریزک اول ",
    "Polling_Center_Location": "Karizk Awal ",
    "Map_Accuracy": "Building",
    "Map_Accuracy_Dari": "تعمیر",
    "Status": "Open",
    "Status_Dari": null,
    "PS_Male": 1,
    "PS_Female": 1,
    "PS_Total": 2,
    "ولسوالي": "شیندند",
    "Region": "Western Region"
   },
   "geometry": {
    "x": 6762589.1414664285,
    "y": 3910908.8672868349
   }
  },
  {
   "attributes": {
    "OBJECTID": 5825,
    "ولایت": "هرات",
    "Province": "HERAT",
    "PC_Code": "3215354",
    "District": "FERSI",
    "د_مرکز_نوم__نام_مرکز": "مکتب دخترانه",
    "Polling_Center_Name": "Girls School ",
    "د_مرکز_ځای__موقعیت_مرکز": "مرکز ولسوالی ",
    "Polling_Center_Location": "District Center ",
    "Map_Accuracy": "Village",
    "Map_Accuracy_Dari": "قریه",
    "Status": "Open",
    "Status_Dari": null,
    "PS_Male": 2,
    "PS_Female": 2,
    "PS_Total": 4,
    "ولسوالي": "فرسی ",
    "Region": "Western Region"
   },
   "geometry": {
    "x": 7043569.0298887817,
    "y": 4000324.7106997781
   }
  },
  {
   "attributes": {
    "OBJECTID": 5826,
    "ولایت": " فراه",
    "Province": "FARAH",
    "PC_Code": "3301029",
    "District": "FARAH",
    "د_مرکز_نوم__نام_مرکز": "لیسه نسوان ملالی میوند",
    "Polling_Center_Name": "Malalai Maiwand Girls High School",
    "د_مرکز_ځای__موقعیت_مرکز": "ناحیه اول ",
    "Polling_Center_Location": "Nahia 1",
    "Map_Accuracy": "Building",
    "Map_Accuracy_Dari": "تعمیر",
    "Status": "Open",
    "Status_Dari": null,
    "PS_Male": 2,
    "PS_Female": 2,
    "PS_Total": 4,
    "ولسوالي": "فراه",
    "Region": "Western Region"
   },
   "geometry": {
    "x": 6915883.8960302155,
    "y": 3813166.0960828667
   }
  },
  {
   "attributes": {
    "OBJECTID": 5827,
    "ولایت": " فراه",
    "Province": "FARAH",
    "PC_Code": "3302039",
    "District": "PUSHTRUD",
    "د_مرکز_نوم__نام_مرکز": "مدرسه قلعه مساو",
    "Polling_Center_Name": "Qala Masaw Madrassa ",
    "د_مرکز_ځای__موقعیت_مرکز": "قلعه مساو",
    "Polling_Center_Location": "Qala-e-Masaw ",
    "Map_Accuracy": "Building",
    "Map_Accuracy_Dari": "تعمیر",
    "Status": "Open",
    "Status_Dari": null,
    "PS_Male": 2,
    "PS_Female": 1,
    "PS_Total": 3,
    "ولسوالي": "پشت رود",
    "Region": "Western Region"
   },
   "geometry": {
    "x": 6905656.6660560453,
    "y": 3825577.2066213461
   }
  },
  {
   "attributes": {
    "OBJECTID": 5828,
    "ولایت": " فراه",
    "Province": "FARAH",
    "PC_Code": "3304076",
    "District": "QALA-E-KAH",
    "د_مرکز_نوم__نام_مرکز": "مسجد دزد باد",
    "Polling_Center_Name": "Duzd Bad  Mosque ",
    "د_مرکز_ځای__موقعیت_مرکز": " دزد باد",
    "Polling_Center_Location": "Duzd Bad",
    "Map_Accuracy": "Building",
    "Map_Accuracy_Dari": "تعمیر",
    "Status": "Open",
    "Status_Dari": null,
    "PS_Male": 2,
    "PS_Female": 1,
    "PS_Total": 3,
    "ولسوالي": "قلعه کاه ",
    "Region": "Western Region"
   },
   "geometry": {
    "x": 6845146.2384134,
    "y": 3804605.7185928458
   }
  },
  {
   "attributes": {
    "OBJECTID": 5829,
    "ولایت": " فراه",
    "Province": "FARAH",
    "PC_Code": "3305087",
    "District": "SHIB KOH",
    "د_مرکز_نوم__نام_مرکز": "مکتب ابتدائیه شوشک",
    "Polling_Center_Name": "Shoshak Primary School ",
    "د_مرکز_ځای__موقعیت_مرکز": " شوشک",
    "Polling_Center_Location": "Shoshak ",
    "Map_Accuracy": "Building",
    "Map_Accuracy_Dari": "تعمیر",
    "Status": "Open",
    "Status_Dari": null,
    "PS_Male": 1,
    "PS_Female": 1,
    "PS_Total": 2,
    "ولسوالي": "شیب کوه ",
    "Region": "Western Region"
   },
   "geometry": {
    "x": 6846237.4699857952,
    "y": 3783123.1680937205
   }
  },
  {
   "attributes": {
    "OBJECTID": 5830,
    "ولایت": " فراه",
    "Province": "FARAH",
    "PC_Code": "3306129",
    "District": "BALA BULUK",
    "د_مرکز_نوم__نام_مرکز": "مکتب ابتدائیه کنسک",
    "Polling_Center_Name": "Kanisak Primary School ",
    "د_مرکز_ځای__موقعیت_مرکز": " کنسک",
    "Polling_Center_Location": "Kanisak ",
    "Map_Accuracy": "Building",
    "Map_Accuracy_Dari": "تعمیر",
    "Status": "Open",
    "Status_Dari": null,
    "PS_Male": 1,
    "PS_Female": 1,
    "PS_Total": 2,
    "ولسوالي": "بالا بلوک ",
    "Region": "Western Region"
   },
   "geometry": {
    "x": 6939003.2399478182,
    "y": 3835485.4855255438
   }
  },
  {
   "attributes": {
    "OBJECTID": 5831,
    "ولایت": " فراه",
    "Province": "FARAH",
    "PC_Code": "3307066",
    "District": "ANAR DARA",
    "د_مرکز_نوم__نام_مرکز": " مسجد  کلاته سادات",
    "Polling_Center_Name": "Kalata Sadat Mosque  ",
    "د_مرکز_ځای__موقعیت_مرکز": "کلاته سادات",
    "Polling_Center_Location": "Kalata Sadat ",
    "Map_Accuracy": "Village",
    "Map_Accuracy_Dari": "قریه",
    "Status": "Open",
    "Status_Dari": null,
    "PS_Male": 2,
    "PS_Female": 1,
    "PS_Total": 3,
    "ولسوالي": "انار دره ",
    "Region": "Western Region"
   },
   "geometry": {
    "x": 6878545.179220031,
    "y": 3863680.5513726841
   }
  },
  {
   "attributes": {
    "OBJECTID": 5832,
    "ولایت": " فراه",
    "Province": "FARAH",
    "PC_Code": "3309102",
    "District": "LASH-E-JUWAYN",
    "د_مرکز_نوم__نام_مرکز": "  مسجد کندوکروغ",
    "Polling_Center_Name": "Kando Karogh Mosque ",
    "د_مرکز_ځای__موقعیت_مرکز": "کندوکروغ ",
    "Polling_Center_Location": "Kando Karogh ",
    "Map_Accuracy": "Building",
    "Map_Accuracy_Dari": "تعمیر",
    "Status": "Open",
    "Status_Dari": null,
    "PS_Male": 1,
    "PS_Female": 1,
    "PS_Total": 2,
    "ولسوالي": "لاش جوین ",
    "Region": "Western Region"
   },
   "geometry": {
    "x": 6856613.7968331566,
    "y": 3697722.7383731287
   }
  },
  {
   "attributes": {
    "OBJECTID": 5833,
    "ولایت": " فراه",
    "Province": "FARAH",
    "PC_Code": "3311194",
    "District": "PUR CHAMAN",
    "د_مرکز_نوم__نام_مرکز": "لیسه تحت پرچمن",
    "Polling_Center_Name": "Takht-e-Parcham High School ",
    "د_مرکز_ځای__موقعیت_مرکز": " پرچمن",
    "Polling_Center_Location": "Purchaman  ",
    "Map_Accuracy": "Building",
    "Map_Accuracy_Dari": "تعمیر",
    "Status": "Open",
    "Status_Dari": null,
    "PS_Male": 1,
    "PS_Female": 1,
    "PS_Total": 2,
    "ولسوالي": "پرچمن",
    "Region": "Western Region"
   },
   "geometry": {
    "x": 7109542.9677118408,
    "y": 3914159.9051983166
   }
  },
  {
   "attributes": {
    "OBJECTID": 5834,
    "ولایت": " فراه",
    "Province": "FARAH",
    "PC_Code": "3311217",
    "District": "PUR CHAMAN",
    "د_مرکز_نوم__نام_مرکز": "مسجد کاوان مغل",
    "Polling_Center_Name": "Kawan Mughol Mosque",
    "د_مرکز_ځای__موقعیت_مرکز": " کاوان مغل",
    "Polling_Center_Location": "Kawan Mughol ",
    "Map_Accuracy": "Building",
    "Map_Accuracy_Dari": "تعمیر",
    "Status": "Open",
    "Status_Dari": null,
    "PS_Male": 1,
    "PS_Female": 1,
    "PS_Total": 2,
    "ولسوالي": "پرچمن",
    "Region": "Western Region"
   },
   "geometry": {
    "x": 7153774.2500938885,
    "y": 3922697.8046692875
   }
  },
  {
   "attributes": {
    "OBJECTID": 5835,
    "ولایت": "نيمروز",
    "Province": "NIMROZ",
    "PC_Code": "3402012",
    "District": "KANG",
    "د_مرکز_نوم__نام_مرکز": "مکتب دشت",
    "Polling_Center_Name": "Dasht School ",
    "د_مرکز_ځای__موقعیت_مرکز": "دشت ",
    "Polling_Center_Location": "Dasht ",
    "Map_Accuracy": "Building",
    "Map_Accuracy_Dari": "تعمیر",
    "Status": "Open",
    "Status_Dari": null,
    "PS_Male": 1,
    "PS_Female": 1,
    "PS_Total": 2,
    "ولسوالي": "کنگ",
    "Region": "Southern Region"
   },
   "geometry": {
    "x": 6890804.2592943404,
    "y": 3656179.0417381455
   }
  },
  {
   "attributes": {
    "OBJECTID": 5836,
    "ولایت": "نيمروز",
    "Province": "NIMROZ",
    "PC_Code": "3405044",
    "District": "KHASHROD",
    "د_مرکز_نوم__نام_مرکز": "مسجد قریه",
    "Polling_Center_Name": "Dehmazang Village Mosque",
    "د_مرکز_ځای__موقعیت_مرکز": "دهمزنگ",
    "Polling_Center_Location": "Dehmazang Village",
    "Map_Accuracy": "Village",
    "Map_Accuracy_Dari": "قریه",
    "Status": "Open",
    "Status_Dari": null,
    "PS_Male": 2,
    "PS_Female": 1,
    "PS_Total": 3,
    "ولسوالي": "خاشرود",
    "Region": "Southern Region"
   },
   "geometry": {
    "x": 7028320.0827294057,
    "y": 3759836.1333167097
   }
  },
  {
   "attributes": {
    "OBJECTID": 5837,
    "ولایت": "کابل",
    "Province": "KABUL",
    "PC_Code": "0101073",
    "District": "KABUL-D05",
    "د_مرکز_نوم__نام_مرکز": " ليسه قلعه کاشف",
    "Polling_Center_Name": "Qala- e- Kashif High School",
    "د_مرکز_ځای__موقعیت_مرکز": "بازار کمپني",
    "Polling_Center_Location": "Bazar Company ",
    "Map_Accuracy": "Building",
    "Map_Accuracy_Dari": "تعمیر",
    "Status": "Open",
    "Status_Dari": null,
    "PS_Male": 3,
    "PS_Female": 4,
    "PS_Total": 7,
    "ولسوالي": "کابل - ناحیه 05",
    "Region": "Central Region"
   },
   "geometry": {
    "x": 7687069.0915253712,
    "y": 4099498.8399958867
   }
  },
  {
   "attributes": {
    "OBJECTID": 5838,
    "ولایت": "کابل",
    "Province": "KABUL",
    "PC_Code": "0101074",
    "District": "KABUL-D05",
    "د_مرکز_نوم__نام_مرکز": " ليسه ابوذر غفاري",
    "Polling_Center_Name": "Abu Zar Ghafari High School",
    "د_مرکز_ځای__موقعیت_مرکز": "چهار راهي قمبر",
    "Polling_Center_Location": "Chahar Rahi-e-Qambar",
    "Map_Accuracy": "Building",
    "Map_Accuracy_Dari": "تعمیر",
    "Status": "Open",
    "Status_Dari": null,
    "PS_Male": 4,
    "PS_Female": 4,
    "PS_Total": 8,
    "ولسوالي": "کابل - ناحیه 05",
    "Region": "Central Region"
   },
   "geometry": {
    "x": 7690207.9894711711,
    "y": 4100849.5186637901
   }
  },
  {
   "attributes": {
    "OBJECTID": 5839,
    "ولایت": "کابل",
    "Province": "KABUL",
    "PC_Code": "0101112",
    "District": "KABUL-D06",
    "د_مرکز_نوم__نام_مرکز": " انستيتوت توبرکلوز",
    "Polling_Center_Name": "Tubercloses Institute",
    "د_مرکز_ځای__موقعیت_مرکز": "دارالامان",
    "Polling_Center_Location": "Darul Aman",
    "Map_Accuracy": "Building",
    "Map_Accuracy_Dari": "تعمیر",
    "Status": "Open",
    "Status_Dari": null,
    "PS_Male": 3,
    "PS_Female": 3,
    "PS_Total": 6,
    "ولسوالي": "کابل - ناحیه 06",
    "Region": "Central Region"
   },
   "geometry": {
    "x": 7694176.48701654,
    "y": 4092911.8116142047
   }
  },
  {
   "attributes": {
    "OBJECTID": 5840,
    "ولایت": "کابل",
    "Province": "KABUL",
    "PC_Code": "0101113",
    "District": "KABUL-D06",
    "د_مرکز_نوم__نام_مرکز": " مدرسه باقرالعلوم",
    "Polling_Center_Name": "Baqerul Ulum Madrassa",
    "د_مرکز_ځای__موقعیت_مرکز": "قلعه عين الله",
    "Polling_Center_Location": "Qala-e-Ainullah",
    "Map_Accuracy": "Building",
    "Map_Accuracy_Dari": "تعمیر",
    "Status": "Open",
    "Status_Dari": null,
    "PS_Male": 3,
    "PS_Female": 3,
    "PS_Total": 6,
    "ولسوالي": "کابل - ناحیه 06",
    "Region": "Central Region"
   },
   "geometry": {
    "x": 7693734.7067117672,
    "y": 4094229.9654944991
   }
  },
  {
   "attributes": {
    "OBJECTID": 5841,
    "ولایت": "کابل",
    "Province": "KABUL",
    "PC_Code": "0101207",
    "District": "KABUL-D10",
    "د_مرکز_نوم__نام_مرکز": " مسجد استانه",
    "Polling_Center_Name": "Astana Mosque",
    "د_مرکز_ځای__موقعیت_مرکز": "نو آباد چهار قلعه",
    "Polling_Center_Location": "Naw Abad Chahar Qala",
    "Map_Accuracy": "Building",
    "Map_Accuracy_Dari": "تعمیر",
    "Status": "Open",
    "Status_Dari": null,
    "PS_Male": 1,
    "PS_Female": 1,
    "PS_Total": 2,
    "ولسوالي": "کابل - ناحیه 10",
    "Region": "Central Region"
   },
   "geometry": {
    "x": 7700188.7046593651,
    "y": 4102815.7995996932
   }
  },
  {
   "attributes": {
    "OBJECTID": 5842,
    "ولایت": "کابل",
    "Province": "KABUL",
    "PC_Code": "0101246",
    "District": "KABUL-D11",
    "د_مرکز_نوم__نام_مرکز": " ليسه آزاد خان",
    "Polling_Center_Name": "Azad Khan High School",
    "د_مرکز_ځای__موقعیت_مرکز": "سرک اول خيرخانه",
    "Polling_Center_Location": "Sarak-e-Awal Khair Khana",
    "Map_Accuracy": "Building",
    "Map_Accuracy_Dari": "تعمیر",
    "Status": "Open",
    "Status_Dari": null,
    "PS_Male": 3,
    "PS_Female": 3,
    "PS_Total": 6,
    "ولسوالي": "کابل - ناحیه 11",
    "Region": "Central Region"
   },
   "geometry": {
    "x": 7694994.7420468153,
    "y": 4105226.9293237762
   }
  },
  {
   "attributes": {
    "OBJECTID": 5843,
    "ولایت": "کابل",
    "Province": "KABUL",
    "PC_Code": "0101247",
    "District": "KABUL-D11",
    "د_مرکز_نوم__نام_مرکز": " ليسه بي بي سروري سنگري",
    "Polling_Center_Name": "Bi Bi Sarwari Sangari High School",
    "د_مرکز_ځای__موقعیت_مرکز": "سرک اول خيرخانه",
    "Polling_Center_Location": "Sarak-e-Awal Khair Khana",
    "Map_Accuracy": "Building",
    "Map_Accuracy_Dari": "تعمیر",
    "Status": "Open",
    "Status_Dari": null,
    "PS_Male": 3,
    "PS_Female": 3,
    "PS_Total": 6,
    "ولسوالي": "کابل - ناحیه 11",
    "Region": "Central Region"
   },
   "geometry": {
    "x": 7694466.630137342,
    "y": 4105736.3596015214
   }
  },
  {
   "attributes": {
    "OBJECTID": 5844,
    "ولایت": "کابل",
    "Province": "KABUL",
    "PC_Code": "0101292",
    "District": "KABUL-D15",
    "د_مرکز_نوم__نام_مرکز": " مسجد حضرت خدر",
    "Polling_Center_Name": "Hazrat-e-Kheder Mosque",
    "د_مرکز_ځای__موقعیت_مرکز": "حصه سوم خير خانه",
    "Polling_Center_Location": "Hesa Sewom-e-Khair Khana",
    "Map_Accuracy": "Building",
    "Map_Accuracy_Dari": "تعمیر",
    "Status": "Open",
    "Status_Dari": null,
    "PS_Male": 3,
    "PS_Female": 3,
    "PS_Total": 6,
    "ولسوالي": "کابل - ناحیه 15",
    "Region": "Central Region"
   },
   "geometry": {
    "x": 7697526.3331709988,
    "y": 4104922.392887345
   }
  },
  {
   "attributes": {
    "OBJECTID": 5845,
    "ولایت": "کابل",
    "Province": "KABUL",
    "PC_Code": "0101310",
    "District": "KABUL-D15",
    "د_مرکز_نوم__نام_مرکز": " مسجد شهدا پنجصد فاميلي",
    "Polling_Center_Name": "Panjsad Family Shuhada Mosque",
    "د_مرکز_ځای__موقعیت_مرکز": "تپه پنجصد فاميلي",
    "Polling_Center_Location": "Tapa-e- 500 Families ",
    "Map_Accuracy": "Building",
    "Map_Accuracy_Dari": "تعمیر",
    "Status": "Open",
    "Status_Dari": null,
    "PS_Male": 2,
    "PS_Female": 2,
    "PS_Total": 4,
    "ولسوالي": "کابل - ناحیه 15",
    "Region": "Central Region"
   },
   "geometry": {
    "x": 7697643.8987984248,
    "y": 4108496.4685172676
   }
  },
  {
   "attributes": {
    "OBJECTID": 5846,
    "ولایت": "کاپيسا",
    "Province": "KAPISA",
    "PC_Code": "0205065",
    "District": "NIJRAB",
    "د_مرکز_نوم__نام_مرکز": "مکتب نسوان زرشوی (کوچی)",
    "Polling_Center_Name": "Zarshoy Girls School( Kuchi)",
    "د_مرکز_ځای__موقعیت_مرکز": "زرشوی ",
    "Polling_Center_Location": "Zarshoy",
    "Map_Accuracy": "Building",
    "Map_Accuracy_Dari": "تعمیر",
    "Status": "Open",
    "Status_Dari": null,
    "PS_Male": 1,
    "PS_Female": 1,
    "PS_Total": 2,
    "ولسوالي": "نجراب ",
    "Region": "Central Region"
   },
   "geometry": {
    "x": 7745485.0518543068,
    "y": 4159454.4068168742
   }
  },
  {
   "attributes": {
    "OBJECTID": 5847,
    "ولایت": "کاپيسا",
    "Province": "KAPISA",
    "PC_Code": "0205066",
    "District": "NIJRAB",
    "د_مرکز_نوم__نام_مرکز": "منزل سید اکبر",
    "Polling_Center_Name": "Sayed Akbar House ",
    "د_مرکز_ځای__موقعیت_مرکز": "سابات ",
    "Polling_Center_Location": "Sabat ",
    "Map_Accuracy": "Building",
    "Map_Accuracy_Dari": "تعمیر",
    "Status": "Open",
    "Status_Dari": null,
    "PS_Male": 1,
    "PS_Female": 1,
    "PS_Total": 2,
    "ولسوالي": "نجراب ",
    "Region": "Central Region"
   },
   "geometry": {
    "x": 7747700.7260559844,
    "y": 4160979.0340990899
   }
  },
  {
   "attributes": {
    "OBJECTID": 5848,
    "ولایت": "وردک",
    "Province": "WARDAK",
    "PC_Code": "0405121",
    "District": "SAYYD ABAD",
    "د_مرکز_نوم__نام_مرکز": "مکتب قریه موسی خیل ",
    "Polling_Center_Name": "Musa Khel Village School",
    "د_مرکز_ځای__موقعیت_مرکز": "موسی خیل",
    "Polling_Center_Location": "Musa Khel",
    "Map_Accuracy": "Village",
    "Map_Accuracy_Dari": "قریه",
    "Status": "Open",
    "Status_Dari": null,
    "PS_Male": 1,
    "PS_Female": 1,
    "PS_Total": 2,
    "ولسوالي": "سید آباد",
    "Region": "Central Region"
   },
   "geometry": {
    "x": 7638829.5404834729,
    "y": 4027413.8274556608
   }
  },
  {
   "attributes": {
    "OBJECTID": 5849,
    "ولایت": "ننگرهار",
    "Province": "NANGARHAR",
    "PC_Code": "0614488",
    "District": "GOSHTA",
    "د_مرکز_نوم__نام_مرکز": "ګوشتی انجونو متوسطه",
    "Polling_Center_Name": "Goshta Girls Secondary School",
    "د_مرکز_ځای__موقعیت_مرکز": "ګوشته",
    "Polling_Center_Location": "Goshta",
    "Map_Accuracy": "Village",
    "Map_Accuracy_Dari": "قریه",
    "Status": "Open",
    "Status_Dari": null,
    "PS_Male": 0,
    "PS_Female": 2,
    "PS_Total": 2,
    "ولسوالي": "ګوشته",
    "Region": "Eastern Region"
   },
   "geometry": {
    "x": 7879380.7721279394,
    "y": 4076204.9381072535
   }
  },
  {
   "attributes": {
    "OBJECTID": 5850,
    "ولایت": "ننگرهار",
    "Province": "NANGARHAR",
    "PC_Code": "0614489",
    "District": "GOSHTA",
    "د_مرکز_نوم__نام_مرکز": "ملا رحمت بابا د انجونو لیسه",
    "Polling_Center_Name": "Mula Rahmat Baba Girls High School",
    "د_مرکز_ځای__موقعیت_مرکز": "خونیرو کلی",
    "Polling_Center_Location": "Khonero Village",
    "Map_Accuracy": "Village",
    "Map_Accuracy_Dari": "قریه",
    "Status": "Open",
    "Status_Dari": null,
    "PS_Male": 0,
    "PS_Female": 2,
    "PS_Total": 2,
    "ولسوالي": "ګوشته",
    "Region": "Eastern Region"
   },
   "geometry": {
    "x": 7881088.4019847605,
    "y": 4075633.559149228
   }
  },
  {
   "attributes": {
    "OBJECTID": 5851,
    "ولایت": "ننگرهار",
    "Province": "NANGARHAR",
    "PC_Code": "0615366",
    "District": "ACHIN",
    "د_مرکز_نوم__نام_مرکز": "چهل ګزي لیسه",
    "Polling_Center_Name": "Chehl Gaze High School",
    "د_مرکز_ځای__موقعیت_مرکز": "چهل ګزي",
    "Polling_Center_Location": "Chehl Gaze",
    "Map_Accuracy": "Village",
    "Map_Accuracy_Dari": "قریه",
    "Status": "Open",
    "Status_Dari": null,
    "PS_Male": 2,
    "PS_Female": 1,
    "PS_Total": 3,
    "ولسوالي": "اچین",
    "Region": "Eastern Region"
   },
   "geometry": {
    "x": 7869379.4116269806,
    "y": 4051614.4193580206
   }
  },
  {
   "attributes": {
    "OBJECTID": 5852,
    "ولایت": "لغمان",
    "Province": "LAGHMAN",
    "PC_Code": "0701013",
    "District": "MEHTARLAM",
    "د_مرکز_نوم__نام_مرکز": "د چلمټيو ښوونځی",
    "Polling_Center_Name": "Chalmatayo School",
    "د_مرکز_ځای__موقعیت_مرکز": "چلمټیو کلی",
    "Polling_Center_Location": "Chalmatayo Village",
    "Map_Accuracy": "Village",
    "Map_Accuracy_Dari": "قریه",
    "Status": "Open",
    "Status_Dari": null,
    "PS_Male": 4,
    "PS_Female": 1,
    "PS_Total": 5,
    "ولسوالي": "مهترلام",
    "Region": "Eastern Region"
   },
   "geometry": {
    "x": 7817037.8564612083,
    "y": 4119996.2609439385
   }
  },
  {
   "attributes": {
    "OBJECTID": 5853,
    "ولایت": "لغمان",
    "Province": "LAGHMAN",
    "PC_Code": "0701014",
    "District": "MEHTARLAM",
    "د_مرکز_نوم__نام_مرکز": "دسه صدې دهلکانواونجونو ښوونځي",
    "Polling_Center_Name": "Se Sadi Boys & Girls School",
    "د_مرکز_ځای__موقعیت_مرکز": "پهلوان بابا سه صده ",
    "Polling_Center_Location": "Palawan BaBa se Sadda",
    "Map_Accuracy": "Building",
    "Map_Accuracy_Dari": "تعمیر",
    "Status": "Open",
    "Status_Dari": null,
    "PS_Male": 4,
    "PS_Female": 1,
    "PS_Total": 5,
    "ولسوالي": "مهترلام",
    "Region": "Eastern Region"
   },
   "geometry": {
    "x": 7817345.3119892208,
    "y": 4121240.3976442167
   }
  },
  {
   "attributes": {
    "OBJECTID": 5854,
    "ولایت": "غزنى",
    "Province": "GHAZNI",
    "PC_Code": "1104128",
    "District": "WAGHAZ",
    "د_مرکز_نوم__نام_مرکز": "مکتب مولانا عبد الحی",
    "Polling_Center_Name": "Mawlana Abdul Hai School",
    "د_مرکز_ځای__موقعیت_مرکز": "قریه زیارت",
    "Polling_Center_Location": "Ziarat Village",
    "Map_Accuracy": "Village",
    "Map_Accuracy_Dari": "قریه",
    "Status": "Open",
    "Status_Dari": null,
    "PS_Male": 3,
    "PS_Female": 1,
    "PS_Total": 4,
    "ولسوالي": "واغظ",
    "Region": "South Eastern Region"
   },
   "geometry": {
    "x": 7602952.1380060259,
    "y": 3950023.1478894763
   }
  },
  {
   "attributes": {
    "OBJECTID": 5855,
    "ولایت": "غزنى",
    "Province": "GHAZNI",
    "PC_Code": "1110273",
    "District": "NAWUR",
    "د_مرکز_نوم__نام_مرکز": "مسجد قریه ساه زمین",
    "Polling_Center_Name": "Sia Zameen Village Mosque",
    "د_مرکز_ځای__موقعیت_مرکز": "قریه سیاه زمین ",
    "Polling_Center_Location": "Sia Zameen Village",
    "Map_Accuracy": "Building",
    "Map_Accuracy_Dari": "تعمیر",
    "Status": "Open",
    "Status_Dari": null,
    "PS_Male": 3,
    "PS_Female": 1,
    "PS_Total": 4,
    "ولسوالي": "ناور",
    "Region": "South Eastern Region"
   },
   "geometry": {
    "x": 7530427.3695291579,
    "y": 4041504.832242805
   }
  },
  {
   "attributes": {
    "OBJECTID": 5856,
    "ولایت": "غزنى",
    "Province": "GHAZNI",
    "PC_Code": "1110274",
    "District": "NAWUR",
    "د_مرکز_نوم__نام_مرکز": "لیسه سید جمالدین شخل کار",
    "Polling_Center_Name": "Sayed Jamaluddin Shakhal Kar High School",
    "د_مرکز_ځای__موقعیت_مرکز": "قریه دامن ",
    "Polling_Center_Location": "Daaman Village",
    "Map_Accuracy": "Building",
    "Map_Accuracy_Dari": "تعمیر",
    "Status": "Open",
    "Status_Dari": null,
    "PS_Male": 2,
    "PS_Female": 1,
    "PS_Total": 3,
    "ولسوالي": "ناور",
    "Region": "South Eastern Region"
   },
   "geometry": {
    "x": 7520888.3979103053,
    "y": 4043373.9690026767
   }
  },
  {
   "attributes": {
    "OBJECTID": 5857,
    "ولایت": "غزنى",
    "Province": "GHAZNI",
    "PC_Code": "1114325",
    "District": "JAGHURI",
    "د_مرکز_نوم__نام_مرکز": "لیسه عالی پشت چوب",
    "Polling_Center_Name": "Pusht-e-Choob High School",
    "د_مرکز_ځای__موقعیت_مرکز": "قریه چاکه سیازمین ",
    "Polling_Center_Location": "Chakah Sya Zameen Village",
    "Map_Accuracy": "Building",
    "Map_Accuracy_Dari": "تعمیر",
    "Status": "Open",
    "Status_Dari": null,
    "PS_Male": 2,
    "PS_Female": 1,
    "PS_Total": 3,
    "ولسوالي": "جاغوری",
    "Region": "South Eastern Region"
   },
   "geometry": {
    "x": 7495572.1872189865,
    "y": 3913556.6738362024
   }
  },
  {
   "attributes": {
    "OBJECTID": 5858,
    "ولایت": "غزنى",
    "Province": "GHAZNI",
    "PC_Code": "1114326",
    "District": "JAGHURI",
    "د_مرکز_نوم__نام_مرکز": "مکتب متوسطه چهل باغتو اوقی",
    "Polling_Center_Name": "Chalbaghto Ooqi Secondary School",
    "د_مرکز_ځای__موقعیت_مرکز": "قریه چهل باغتو اوقی ",
    "Polling_Center_Location": "Chahel Baghto Ooqi Village",
    "Map_Accuracy": "Building",
    "Map_Accuracy_Dari": "تعمیر",
    "Status": "Open",
    "Status_Dari": null,
    "PS_Male": 2,
    "PS_Female": 1,
    "PS_Total": 3,
    "ولسوالي": "جاغوری",
    "Region": "South Eastern Region"
   },
   "geometry": {
    "x": 7489957.6684757769,
    "y": 3915073.8492112998
   }
  },
  {
   "attributes": {
    "OBJECTID": 5859,
    "ولایت": "غزنى",
    "Province": "GHAZNI",
    "PC_Code": "1114345",
    "District": "JAGHURI",
    "د_مرکز_نوم__نام_مرکز": "مکتب قریه شار زایده",
    "Polling_Center_Name": "Sharzayeda Village Mosque",
    "د_مرکز_ځای__موقعیت_مرکز": "قریه شار زایده",
    "Polling_Center_Location": "Sharzayeda Village",
    "Map_Accuracy": "Building",
    "Map_Accuracy_Dari": "تعمیر",
    "Status": "Open",
    "Status_Dari": null,
    "PS_Male": 1,
    "PS_Female": 1,
    "PS_Total": 2,
    "ولسوالي": "جاغوری",
    "Region": "South Eastern Region"
   },
   "geometry": {
    "x": 7533909.3318816787,
    "y": 3921872.2764600012
   }
  },
  {
   "attributes": {
    "OBJECTID": 5860,
    "ولایت": "غزنى",
    "Province": "GHAZNI",
    "PC_Code": "1114346",
    "District": "JAGHURI",
    "د_مرکز_نوم__نام_مرکز": "مکتب ابتدائیه ششپر",
    "Polling_Center_Name": "Shahshpar Primary School",
    "د_مرکز_ځای__موقعیت_مرکز": "قریه ششپر",
    "Polling_Center_Location": "Shashpar Village",
    "Map_Accuracy": "Building",
    "Map_Accuracy_Dari": "تعمیر",
    "Status": "Open",
    "Status_Dari": null,
    "PS_Male": 1,
    "PS_Female": 1,
    "PS_Total": 2,
    "ولسوالي": "جاغوری",
    "Region": "South Eastern Region"
   },
   "geometry": {
    "x": 7532125.8979044119,
    "y": 3944490.1327539464
   }
  },
  {
   "attributes": {
    "OBJECTID": 5861,
    "ولایت": "غزنى",
    "Province": "GHAZNI",
    "PC_Code": "1116310",
    "District": "MALISTAN",
    "د_مرکز_نوم__نام_مرکز": "لیسه عالی مرادینه",
    "Polling_Center_Name": "Meradeena High School",
    "د_مرکز_ځای__موقعیت_مرکز": "بازار مرادینه ",
    "Polling_Center_Location": "Muradeena Bazar",
    "Map_Accuracy": "Building",
    "Map_Accuracy_Dari": "تعمیر",
    "Status": "Open",
    "Status_Dari": null,
    "PS_Male": 3,
    "PS_Female": 2,
    "PS_Total": 5,
    "ولسوالي": "مالستان",
    "Region": "South Eastern Region"
   },
   "geometry": {
    "x": 7479173.6506913146,
    "y": 3934212.4098568186
   }
  },
  {
   "attributes": {
    "OBJECTID": 5862,
    "ولایت": "پکتيکا",
    "Province": "PAKTIKA",
    "PC_Code": "1201020",
    "District": "SHARAN",
    "د_مرکز_نوم__نام_مرکز": "زوړ ښوونځی کوتوال ",
    "Polling_Center_Name": "Old School",
    "د_مرکز_ځای__موقعیت_مرکز": "کوتوال",
    "Polling_Center_Location": "Kotwal",
    "Map_Accuracy": "Village",
    "Map_Accuracy_Dari": "قریه",
    "Status": "Open",
    "Status_Dari": null,
    "PS_Male": 0,
    "PS_Female": 4,
    "PS_Total": 4,
    "ولسوالي": "شرن",
    "Region": "South Eastern Region"
   },
   "geometry": {
    "x": 7653799.5407024743,
    "y": 3914759.2229956235
   }
  },
  {
   "attributes": {
    "OBJECTID": 5863,
    "ولایت": "پکتيکا",
    "Province": "PAKTIKA",
    "PC_Code": "1201021",
    "District": "SHARAN",
    "د_مرکز_نوم__نام_مرکز": "جینۍ  ښوونځی ",
    "Polling_Center_Name": "Jeni School",
    "د_مرکز_ځای__موقعیت_مرکز": "شاه بدین",
    "Polling_Center_Location": "Shah Baddin",
    "Map_Accuracy": "Village",
    "Map_Accuracy_Dari": "قریه",
    "Status": "Open",
    "Status_Dari": null,
    "PS_Male": 4,
    "PS_Female": 0,
    "PS_Total": 4,
    "ولسوالي": "شرن",
    "Region": "South Eastern Region"
   },
   "geometry": {
    "x": 7656757.2272151811,
    "y": 3920955.0004588412
   }
  },
  {
   "attributes": {
    "OBJECTID": 5864,
    "ولایت": "پکتيکا",
    "Province": "PAKTIKA",
    "PC_Code": "1210155",
    "District": "SURUBI",
    "د_مرکز_نوم__نام_مرکز": "مرکزی لیسه",
    "Polling_Center_Name": "Central High School",
    "د_مرکز_ځای__موقعیت_مرکز": "سوډان خیل ",
    "Polling_Center_Location": "Sodan Khel",
    "Map_Accuracy": "District",
    "Map_Accuracy_Dari": "ولسوالی",
    "Status": "Open",
    "Status_Dari": null,
    "PS_Male": 1,
    "PS_Female": 1,
    "PS_Total": 2,
    "ولسوالي": "سروبی",
    "Region": "South Eastern Region"
   },
   "geometry": {
    "x": 7686451.3919161037,
    "y": 3868238.9684152598
   }
  },
  {
   "attributes": {
    "OBJECTID": 5865,
    "ولایت": "پکتيکا",
    "Province": "PAKTIKA",
    "PC_Code": "1210156",
    "District": "SURUBI",
    "د_مرکز_نوم__نام_مرکز": "مرکزی کلینیک",
    "Polling_Center_Name": "Central Clinic",
    "د_مرکز_ځای__موقعیت_مرکز": "نوی لانجه خیل ",
    "Polling_Center_Location": "New Lanja Khel",
    "Map_Accuracy": "Village",
    "Map_Accuracy_Dari": "قریه",
    "Status": "Open",
    "Status_Dari": null,
    "PS_Male": 3,
    "PS_Female": 0,
    "PS_Total": 3,
    "ولسوالي": "سروبی",
    "Region": "South Eastern Region"
   },
   "geometry": {
    "x": 7691470.3191009136,
    "y": 3869515.5930319489
   }
  },
  {
   "attributes": {
    "OBJECTID": 5866,
    "ولایت": "پکتيا",
    "Province": "PAKTYA",
    "PC_Code": "1303100",
    "District": "ZURMAT",
    "د_مرکز_نوم__نام_مرکز": "د دولت زای هجره",
    "Polling_Center_Name": "Dawlat Zai Hojra",
    "د_مرکز_ځای__موقعیت_مرکز": "مکاوه دولت زای",
    "Polling_Center_Location": "Makawa Dawlat Zai",
    "Map_Accuracy": "Village",
    "Map_Accuracy_Dari": "قریه",
    "Status": "Open",
    "Status_Dari": null,
    "PS_Male": 1,
    "PS_Female": 1,
    "PS_Total": 2,
    "ولسوالي": "زرمت",
    "Region": "South Eastern Region"
   },
   "geometry": {
    "x": 7676218.5469868192,
    "y": 3957211.0798272034
   }
  },
  {
   "attributes": {
    "OBJECTID": 5867,
    "ولایت": "پکتيا",
    "Province": "PAKTYA",
    "PC_Code": "1305120",
    "District": "WUZA ZADRAN",
    "د_مرکز_نوم__نام_مرکز": "د حمیدالله هجره",
    "Polling_Center_Name": "Hamidullah Hojra",
    "د_مرکز_ځای__موقعیت_مرکز": "موتی",
    "Polling_Center_Location": "Moti",
    "Map_Accuracy": "Village",
    "Map_Accuracy_Dari": "قریه",
    "Status": "Open",
    "Status_Dari": null,
    "PS_Male": 0,
    "PS_Female": 2,
    "PS_Total": 2,
    "ولسوالي": "وزه ځدراڼ",
    "Region": "South Eastern Region"
   },
   "geometry": {
    "x": 7728529.559423903,
    "y": 3937931.5929275537
   }
  },
  {
   "attributes": {
    "OBJECTID": 5868,
    "ولایت": "پکتيا",
    "Province": "PAKTYA",
    "PC_Code": "1305121",
    "District": "WUZA ZADRAN",
    "د_مرکز_نوم__نام_مرکز": "مسجد شلم",
    "Polling_Center_Name": "Shelm Mosque",
    "د_مرکز_ځای__موقعیت_مرکز": "شلم",
    "Polling_Center_Location": "Shelm",
    "Map_Accuracy": "Village",
    "Map_Accuracy_Dari": "قریه",
    "Status": "Open",
    "Status_Dari": null,
    "PS_Male": 2,
    "PS_Female": 0,
    "PS_Total": 2,
    "ولسوالي": "وزه ځدراڼ",
    "Region": "South Eastern Region"
   },
   "geometry": {
    "x": 7735911.8060774291,
    "y": 3956638.4377134666
   }
  },
  {
   "attributes": {
    "OBJECTID": 5869,
    "ولایت": "پکتيا",
    "Province": "PAKTYA",
    "PC_Code": "1306019",
    "District": "SAYYID KARAM",
    "د_مرکز_نوم__نام_مرکز": "سید کرم ولوسوالی مرکز",
    "Polling_Center_Name": "Sayed Karam District Compound ",
    "د_مرکز_ځای__موقعیت_مرکز": " ولسوالی مرکز",
    "Polling_Center_Location": "District Center",
    "Map_Accuracy": "Building",
    "Map_Accuracy_Dari": "تعمیر",
    "Status": "Open",
    "Status_Dari": null,
    "PS_Male": 5,
    "PS_Female": 0,
    "PS_Total": 5,
    "ولسوالي": "سید کرم",
    "Region": "South Eastern Region"
   },
   "geometry": {
    "x": 7723529.7970026266,
    "y": 3987861.9961235309
   }
  },
  {
   "attributes": {
    "OBJECTID": 5870,
    "ولایت": "پکتيا",
    "Province": "PAKTYA",
    "PC_Code": "1306028",
    "District": "SAYYID KARAM",
    "د_مرکز_نوم__نام_مرکز": "د خوشحال خیلو کلینیک",
    "Polling_Center_Name": "Khushal Khel Clinic ",
    "د_مرکز_ځای__موقعیت_مرکز": "خوشحال خیل",
    "Polling_Center_Location": "Khushal Khel",
    "Map_Accuracy": "Village",
    "Map_Accuracy_Dari": "قریه",
    "Status": "Open",
    "Status_Dari": null,
    "PS_Male": 0,
    "PS_Female": 2,
    "PS_Total": 2,
    "ولسوالي": "سید کرم",
    "Region": "South Eastern Region"
   },
   "geometry": {
    "x": 7731952.4345039083,
    "y": 3985201.312286193
   }
  },
  {
   "attributes": {
    "OBJECTID": 5871,
    "ولایت": "پکتيا",
    "Province": "PAKTYA",
    "PC_Code": "1306029",
    "District": "SAYYID KARAM",
    "د_مرکز_نوم__نام_مرکز": "د سمین خیلو مدرسه",
    "Polling_Center_Name": "Samin Khel Madrassa",
    "د_مرکز_ځای__موقعیت_مرکز": "سمین خیل",
    "Polling_Center_Location": "Samin Khel",
    "Map_Accuracy": "Village",
    "Map_Accuracy_Dari": "قریه",
    "Status": "Open",
    "Status_Dari": null,
    "PS_Male": 3,
    "PS_Female": 0,
    "PS_Total": 3,
    "ولسوالي": "سید کرم",
    "Region": "South Eastern Region"
   },
   "geometry": {
    "x": 7735218.3947428903,
    "y": 3992553.5263900701
   }
  },
  {
   "attributes": {
    "OBJECTID": 5872,
    "ولایت": "کندز",
    "Province": "KUNDUZ",
    "PC_Code": "1903131",
    "District": "ALI ABAD",
    "د_مرکز_نوم__نام_مرکز": "مکتب متوسطه لاله میدان",
    "Polling_Center_Name": "Lala Maidan Secondary School",
    "د_مرکز_ځای__موقعیت_مرکز": "قریه لاله میدان",
    "Polling_Center_Location": "Lala Maidan Village",
    "Map_Accuracy": "Building",
    "Map_Accuracy_Dari": "تعمیر",
    "Status": "Open",
    "Status_Dari": null,
    "PS_Male": 3,
    "PS_Female": 2,
    "PS_Total": 5,
    "ولسوالي": "علی آباد",
    "Region": "North Eastern Region"
   },
   "geometry": {
    "x": 7667055.5101939309,
    "y": 4372423.9033038169
   }
  },
  {
   "attributes": {
    "OBJECTID": 5873,
    "ولایت": "کندز",
    "Province": "KUNDUZ",
    "PC_Code": "1903132",
    "District": "ALI ABAD",
    "د_مرکز_نوم__نام_مرکز": "متوسطه سمع الله شهید",
    "Polling_Center_Name": "Samiullah  Shaheed Secondary School",
    "د_مرکز_ځای__موقعیت_مرکز": "قریه مدرسه",
    "Polling_Center_Location": "Madrassa Village",
    "Map_Accuracy": "Building",
    "Map_Accuracy_Dari": "تعمیر",
    "Status": "Open",
    "Status_Dari": null,
    "PS_Male": 3,
    "PS_Female": 2,
    "PS_Total": 5,
    "ولسوالي": "علی آباد",
    "Region": "North Eastern Region"
   },
   "geometry": {
    "x": 7670089.8991753841,
    "y": 4383715.1232606964
   }
  },
  {
   "attributes": {
    "OBJECTID": 5874,
    "ولایت": "کندز",
    "Province": "KUNDUZ",
    "PC_Code": "1905083",
    "District": "HAZRAT-E-IMAM SAHIB",
    "د_مرکز_نوم__نام_مرکز": "مکتب خاتون قلعه",
    "Polling_Center_Name": "Khatoon Qala School",
    "د_مرکز_ځای__موقعیت_مرکز": "قریه خاتون قلعه",
    "Polling_Center_Location": "Khatoon Qala Village",
    "Map_Accuracy": "Building",
    "Map_Accuracy_Dari": "تعمیر",
    "Status": "Open",
    "Status_Dari": null,
    "PS_Male": 2,
    "PS_Female": 1,
    "PS_Total": 3,
    "ولسوالي": "حضرت امام صاحب",
    "Region": "North Eastern Region"
   },
   "geometry": {
    "x": 7690992.3733199732,
    "y": 4461045.3402114771
   }
  },
  {
   "attributes": {
    "OBJECTID": 5875,
    "ولایت": "کندز",
    "Province": "KUNDUZ",
    "PC_Code": "1905084",
    "District": "HAZRAT-E-IMAM SAHIB",
    "د_مرکز_نوم__نام_مرکز": "لیسه آفتاب لق",
    "Polling_Center_Name": "Aftab Laq High School",
    "د_مرکز_ځای__موقعیت_مرکز": "قریه افتاب لق",
    "Polling_Center_Location": "Aftab Laq Village",
    "Map_Accuracy": "Building",
    "Map_Accuracy_Dari": "تعمیر",
    "Status": "Open",
    "Status_Dari": null,
    "PS_Male": 3,
    "PS_Female": 1,
    "PS_Total": 4,
    "ولسوالي": "حضرت امام صاحب",
    "Region": "North Eastern Region"
   },
   "geometry": {
    "x": 7688262.8071605824,
    "y": 4459330.0276552355
   }
  },
  {
   "attributes": {
    "OBJECTID": 5876,
    "ولایت": "غور",
    "Province": "GHOR",
    "PC_Code": "2307166",
    "District": "LAL WA SARJANGAL",
    "د_مرکز_نوم__نام_مرکز": "مسجد قلعه سر آسیا گک",
    "Polling_Center_Name": "Qala-e-Sar Asyagak Mosque",
    "د_مرکز_ځای__موقعیت_مرکز": "قریه قلعه سر آسیا گک ",
    "Polling_Center_Location": "Qala Sar Asyagak Village",
    "Map_Accuracy": "Village",
    "Map_Accuracy_Dari": "قریه",
    "Status": "Open",
    "Status_Dari": null,
    "PS_Male": 1,
    "PS_Female": 1,
    "PS_Total": 2,
    "ولسوالي": "لعل و سرجنگل ",
    "Region": "Western Region"
   },
   "geometry": {
    "x": 7386304.2311514141,
    "y": 4128028.8344305628
   }
  },
  {
   "attributes": {
    "OBJECTID": 5877,
    "ولایت": "غور",
    "Province": "GHOR",
    "PC_Code": "2307167",
    "District": "LAL WA SARJANGAL",
    "د_مرکز_نوم__نام_مرکز": "مکتب قلعه دنگک",
    "Polling_Center_Name": "Qala Dangak School",
    "د_مرکز_ځای__موقعیت_مرکز": "قریه قلعه دنگک",
    "Polling_Center_Location": "Qala Dangak Village",
    "Map_Accuracy": "Village",
    "Map_Accuracy_Dari": "قریه",
    "Status": "Open",
    "Status_Dari": null,
    "PS_Male": 1,
    "PS_Female": 1,
    "PS_Total": 2,
    "ولسوالي": "لعل و سرجنگل ",
    "Region": "Western Region"
   },
   "geometry": {
    "x": 7375814.5020255893,
    "y": 4137701.2745129424
   }
  },
  {
   "attributes": {
    "OBJECTID": 5878,
    "ولایت": "دایکندی",
    "Province": "DAYKUNDI",
    "PC_Code": "2406142",
    "District": "KITI",
    "د_مرکز_نوم__نام_مرکز": "مسجد پنور علیا",
    "Polling_Center_Name": "Panor Ulya Mosque",
    "د_مرکز_ځای__موقعیت_مرکز": "پنورعلیا",
    "Polling_Center_Location": "Panor Ulya",
    "Map_Accuracy": "Building",
    "Map_Accuracy_Dari": "تعمیر",
    "Status": "Open",
    "Status_Dari": null,
    "PS_Male": 2,
    "PS_Female": 1,
    "PS_Total": 3,
    "ولسوالي": "کیتی",
    "Region": "Central Highlands Region"
   },
   "geometry": {
    "x": 7313140.6090224423,
    "y": 3984648.8810697203
   }
  },
  {
   "attributes": {
    "OBJECTID": 5879,
    "ولایت": "زابل",
    "Province": "ZABUL",
    "PC_Code": "2607023",
    "District": "DAICHOPAN",
    "د_مرکز_نوم__نام_مرکز": "مكتب دايچوپان",
    "Polling_Center_Name": "Daichopan School",
    "د_مرکز_ځای__موقعیت_مرکز": "دايچوپان",
    "Polling_Center_Location": "Daichopan",
    "Map_Accuracy": "Village",
    "Map_Accuracy_Dari": "قریه",
    "Status": "Open",
    "Status_Dari": null,
    "PS_Male": 3,
    "PS_Female": 2,
    "PS_Total": 5,
    "ولسوالي": "دایچوپان",
    "Region": "Southern Region"
   },
   "geometry": {
    "x": 7431930.0762467366,
    "y": 3846276.1391046192
   }
  },
  {
   "attributes": {
    "OBJECTID": 5880,
    "ولایت": "زابل",
    "Province": "ZABUL",
    "PC_Code": "2607024",
    "District": "DAICHOPAN",
    "د_مرکز_نوم__نام_مرکز": "كلينیك ولسوالي",
    "Polling_Center_Name": "District Clinic",
    "د_مرکز_ځای__موقعیت_مرکز": "دايچوپان",
    "Polling_Center_Location": "Daichopan",
    "Map_Accuracy": "Village",
    "Map_Accuracy_Dari": "قریه",
    "Status": "Open",
    "Status_Dari": null,
    "PS_Male": 4,
    "PS_Female": 0,
    "PS_Total": 4,
    "ولسوالي": "دایچوپان",
    "Region": "Southern Region"
   },
   "geometry": {
    "x": 7432053.1713359077,
    "y": 3846558.2374727959
   }
  },
  {
   "attributes": {
    "OBJECTID": 5881,
    "ولایت": "کندهار",
    "Province": "کندهار",
    "PC_Code": "2703066",
    "District": "DAMAN",
    "د_مرکز_نوم__نام_مرکز": "د سیمیلزی اخند صاحب کور",
    "Polling_Center_Name": "Semelzai Akhond Sahib Private House",
    "د_مرکز_ځای__موقعیت_مرکز": "د سیمیلزی کلی",
    "Polling_Center_Location": "Semelzai Village",
    "Map_Accuracy": "Building",
    "Map_Accuracy_Dari": "تعمیر",
    "Status": "Open",
    "Status_Dari": null,
    "PS_Male": 2,
    "PS_Female": 2,
    "PS_Total": 4,
    "ولسوالي": "دامان",
    "Region": "Southern Region"
   },
   "geometry": {
    "x": 7370717.0433928045,
    "y": 3725896.2647685017
   }
  },
  {
   "attributes": {
    "OBJECTID": 5882,
    "ولایت": "کندهار",
    "Province": "کندهار",
    "PC_Code": "2703068",
    "District": "DAMAN",
    "د_مرکز_نوم__نام_مرکز": "د محمد اشرف كور",
    "Polling_Center_Name": "Mohammad Ashraf Private House",
    "د_مرکز_ځای__موقعیت_مرکز": "مانجه",
    "Polling_Center_Location": "Manja",
    "Map_Accuracy": "Building",
    "Map_Accuracy_Dari": "تعمیر",
    "Status": "Open",
    "Status_Dari": null,
    "PS_Male": 3,
    "PS_Female": 1,
    "PS_Total": 4,
    "ولسوالي": "دامان",
    "Region": "Southern Region"
   },
   "geometry": {
    "x": 7357183.2115467666,
    "y": 3721845.1356602698
   }
  },
  {
   "attributes": {
    "OBJECTID": 5883,
    "ولایت": "کندهار",
    "Province": "کندهار",
    "PC_Code": "2710140",
    "District": "MAIWAND",
    "د_مرکز_نوم__نام_مرکز": "د قلع خان كور",
    "Polling_Center_Name": "Qala Khan Private House",
    "د_مرکز_ځای__موقعیت_مرکز": "چشمه محمد خان",
    "Polling_Center_Location": "Chashma Mohammad Khan",
    "Map_Accuracy": "Building",
    "Map_Accuracy_Dari": "تعمیر",
    "Status": "Open",
    "Status_Dari": null,
    "PS_Male": 0,
    "PS_Female": 2,
    "PS_Total": 2,
    "ولسوالي": "میوند",
    "Region": "Southern Region"
   },
   "geometry": {
    "x": 7238519.7813631417,
    "y": 3701765.5452076681
   }
  },
  {
   "attributes": {
    "OBJECTID": 5884,
    "ولایت": "کندهار",
    "Province": "کندهار",
    "PC_Code": "2710141",
    "District": "MAIWAND",
    "د_مرکز_نوم__نام_مرکز": "د عبدالكريم كور",
    "Polling_Center_Name": "Abdul Kareem Private House",
    "د_مرکز_ځای__موقعیت_مرکز": "صوفي كريم سراچه",
    "Polling_Center_Location": "Sufi Kareem Saracha",
    "Map_Accuracy": "Building",
    "Map_Accuracy_Dari": "تعمیر",
    "Status": "Open",
    "Status_Dari": null,
    "PS_Male": 2,
    "PS_Female": 0,
    "PS_Total": 2,
    "ولسوالي": "میوند",
    "Region": "Southern Region"
   },
   "geometry": {
    "x": 7224023.4956712388,
    "y": 3703924.335411313
   }
  },
  {
   "attributes": {
    "OBJECTID": 5885,
    "ولایت": "کندهار",
    "Province": "کندهار",
    "PC_Code": "2711221",
    "District": "SPIN BOLDAK",
    "د_مرکز_نوم__نام_مرکز": "ګیبا نيكه مكتب",
    "Polling_Center_Name": "Geeba Neeka School",
    "د_مرکز_ځای__موقعیت_مرکز": "خير آباد",
    "Polling_Center_Location": "Khair Abad",
    "Map_Accuracy": "Building",
    "Map_Accuracy_Dari": "تعمیر",
    "Status": "Open",
    "Status_Dari": null,
    "PS_Male": 5,
    "PS_Female": 2,
    "PS_Total": 7,
    "ولسوالي": "سپین بولدک",
    "Region": "Southern Region"
   },
   "geometry": {
    "x": 7391919.1996253673,
    "y": 3632652.9978144467
   }
  },
  {
   "attributes": {
    "OBJECTID": 5886,
    "ولایت": "کندهار",
    "Province": "کندهار",
    "PC_Code": "2711222",
    "District": "SPIN BOLDAK",
    "د_مرکز_نوم__نام_مرکز": "با ګل تعمير",
    "Polling_Center_Name": "Baagul Building",
    "د_مرکز_ځای__موقعیت_مرکز": "نوي كلي",
    "Polling_Center_Location": "Nawai Village",
    "Map_Accuracy": "Building",
    "Map_Accuracy_Dari": "تعمیر",
    "Status": "Open",
    "Status_Dari": null,
    "PS_Male": 4,
    "PS_Female": 1,
    "PS_Total": 5,
    "ولسوالي": "سپین بولدک",
    "Region": "Southern Region"
   },
   "geometry": {
    "x": 7397988.481865556,
    "y": 3628741.0425410843
   }
  },
  {
   "attributes": {
    "OBJECTID": 5887,
    "ولایت": "جوزجان",
    "Province": "JAWZJAN",
    "PC_Code": "2801014",
    "District": "SHEBERGHAN",
    "د_مرکز_نوم__نام_مرکز": "لیسه مولانا اذنب",
    "Polling_Center_Name": "Mawlana Aznab High School",
    "د_مرکز_ځای__موقعیت_مرکز": "ناحیه دوم",
    "Polling_Center_Location": "D02 - Nahia 2",
    "Map_Accuracy": "Building",
    "Map_Accuracy_Dari": "تعمیر",
    "Status": "Open",
    "Status_Dari": null,
    "PS_Male": 4,
    "PS_Female": 2,
    "PS_Total": 6,
    "ولسوالي": "شبرغان",
    "Region": "Northern Region"
   },
   "geometry": {
    "x": 7318445.259944276,
    "y": 4393228.9780130545
   }
  },
  {
   "attributes": {
    "OBJECTID": 5888,
    "ولایت": "جوزجان",
    "Province": "JAWZJAN",
    "PC_Code": "2801015",
    "District": "SHEBERGHAN",
    "د_مرکز_نوم__نام_مرکز": "انستیتوت تخنیکی نفت و گاز",
    "Polling_Center_Name": "Petrolium and Gas Technical Institute",
    "د_مرکز_ځای__موقعیت_مرکز": "ناحیه سوم",
    "Polling_Center_Location": "D03 - Nahia 3",
    "Map_Accuracy": "Building",
    "Map_Accuracy_Dari": "تعمیر",
    "Status": "Open",
    "Status_Dari": null,
    "PS_Male": 5,
    "PS_Female": 4,
    "PS_Total": 9,
    "ولسوالي": "شبرغان",
    "Region": "Northern Region"
   },
   "geometry": {
    "x": 7319125.725935231,
    "y": 4392390.0721462481
   }
  },
  {
   "attributes": {
    "OBJECTID": 5889,
    "ولایت": "فارياب",
    "Province": "FARYAB",
    "PC_Code": "2903055",
    "District": "KHWAJA SABZ POSH-E-WALI",
    "د_مرکز_نوم__نام_مرکز": "خواجه قشوری",
    "Polling_Center_Name": "Khwaja Qashori",
    "د_مرکز_ځای__موقعیت_مرکز": "خواجه قشوری",
    "Polling_Center_Location": "Khwaja Qashori",
    "Map_Accuracy": "Building",
    "Map_Accuracy_Dari": "تعمیر",
    "Status": "Open",
    "Status_Dari": null,
    "PS_Male": 2,
    "PS_Female": 1,
    "PS_Total": 3,
    "ولسوالي": "خواجه سبز پوش ولی",
    "Region": "Northern Region"
   },
   "geometry": {
    "x": 7224046.4965044232,
    "y": 4300450.7526739165
   }
  },
  {
   "attributes": {
    "OBJECTID": 5890,
    "ولایت": "فارياب",
    "Province": "FARYAB",
    "PC_Code": "2906152",
    "District": "SHIRIN TAGAB",
    "د_مرکز_نوم__نام_مرکز": "لیسه نسوان بلوچ",
    "Polling_Center_Name": "Baloch Girls High School",
    "د_مرکز_ځای__موقعیت_مرکز": "قریه تورکول بلوچ",
    "Polling_Center_Location": "Torkol Baloch Village",
    "Map_Accuracy": "Village",
    "Map_Accuracy_Dari": "قریه",
    "Status": "Open",
    "Status_Dari": null,
    "PS_Male": 2,
    "PS_Female": 2,
    "PS_Total": 4,
    "ولسوالي": "شیرین تگاب",
    "Region": "Northern Region"
   },
   "geometry": {
    "x": 7222729.2919316906,
    "y": 4339389.9325837055
   }
  },
  {
   "attributes": {
    "OBJECTID": 5891,
    "ولایت": "فارياب",
    "Province": "FARYAB",
    "PC_Code": "2906153",
    "District": "SHIRIN TAGAB",
    "د_مرکز_نوم__نام_مرکز": "لیسه نسوان کوه صیاد",
    "Polling_Center_Name": "Koh Sayad Girls High School",
    "د_مرکز_ځای__موقعیت_مرکز": "قریه کوه صیاد",
    "Polling_Center_Location": "Koh Sayad Village",
    "Map_Accuracy": "Village",
    "Map_Accuracy_Dari": "قریه",
    "Status": "Open",
    "Status_Dari": null,
    "PS_Male": 3,
    "PS_Female": 2,
    "PS_Total": 5,
    "ولسوالي": "شیرین تگاب",
    "Region": "Northern Region"
   },
   "geometry": {
    "x": 7220018.4552766187,
    "y": 4337135.1271471614
   }
  },
  {
   "attributes": {
    "OBJECTID": 5892,
    "ولایت": "هلمند",
    "Province": "HELMAND",
    "PC_Code": "3006112",
    "District": "GARM SER",
    "د_مرکز_نوم__نام_مرکز": "د مصطفی مسجد",
    "Polling_Center_Name": "Mustafa Mosque",
    "د_مرکز_ځای__موقعیت_مرکز": "بيرتاكه",
    "Polling_Center_Location": "Bir Taka",
    "Map_Accuracy": "Village",
    "Map_Accuracy_Dari": "قریه",
    "Status": "Open",
    "Status_Dari": null,
    "PS_Male": 2,
    "PS_Female": 1,
    "PS_Total": 3,
    "ولسوالي": "گرم سیر",
    "Region": "Southern Region"
   },
   "geometry": {
    "x": 7138455.6283991802,
    "y": 3625422.975316403
   }
  },
  {
   "attributes": {
    "OBJECTID": 5893,
    "ولایت": "هلمند",
    "Province": "HELMAND",
    "PC_Code": "3006113",
    "District": "GARM SER",
    "د_مرکز_نوم__نام_مرکز": "مكتب ده ذكر يا",
    "Polling_Center_Name": "Deh Zekriya School",
    "د_مرکز_ځای__موقعیت_مرکز": "ده ذكر يا",
    "Polling_Center_Location": "Deh Zekria",
    "Map_Accuracy": "Village",
    "Map_Accuracy_Dari": "قریه",
    "Status": "Open",
    "Status_Dari": null,
    "PS_Male": 5,
    "PS_Female": 0,
    "PS_Total": 5,
    "ولسوالي": "گرم سیر",
    "Region": "Southern Region"
   },
   "geometry": {
    "x": 7150258.2740709493,
    "y": 3644873.8984437454
   }
  },
  {
   "attributes": {
    "OBJECTID": 5894,
    "ولایت": "هرات",
    "Province": "HERAT",
    "PC_Code": "3207170",
    "District": "KUSHK (RUBAT-E-SANGI)",
    "د_مرکز_نوم__نام_مرکز": "مکتب باغچه",
    "Polling_Center_Name": "Baghcha School ",
    "د_مرکز_ځای__موقعیت_مرکز": "قریه باغچه",
    "Polling_Center_Location": "Baghcha Village ",
    "Map_Accuracy": "Village",
    "Map_Accuracy_Dari": "قریه",
    "Status": "Open",
    "Status_Dari": null,
    "PS_Male": 1,
    "PS_Female": 1,
    "PS_Total": 2,
    "ولسوالي": "کشک (رباط سنگی)",
    "Region": "Western Region"
   },
   "geometry": {
    "x": 6927490.6216245787,
    "y": 4133636.4275336429
   }
  },
  {
   "attributes": {
    "OBJECTID": 5895,
    "ولایت": "هرات",
    "Province": "HERAT",
    "PC_Code": "3207171",
    "District": "KUSHK (RUBAT-E-SANGI)",
    "د_مرکز_نوم__نام_مرکز": "مکتب و کلینیک یکه درخت",
    "Polling_Center_Name": "Yaka Darakht School and Mosque",
    "د_مرکز_ځای__موقعیت_مرکز": "قریه یکه درخت",
    "Polling_Center_Location": "Yaka Darakht Village ",
    "Map_Accuracy": "Building",
    "Map_Accuracy_Dari": "تعمیر",
    "Status": "Open",
    "Status_Dari": null,
    "PS_Male": 2,
    "PS_Female": 1,
    "PS_Total": 3,
    "ولسوالي": "کشک (رباط سنگی)",
    "Region": "Western Region"
   },
   "geometry": {
    "x": 6928254.0996730197,
    "y": 4146537.0057836822
   }
  },
  {
   "attributes": {
    "OBJECTID": 5896,
    "ولایت": "هرات",
    "Province": "HERAT",
    "PC_Code": "3214330",
    "District": "SHINDAND",
    "د_مرکز_نوم__نام_مرکز": "مکتب نایسک",
    "Polling_Center_Name": "Nanisik School ",
    "د_مرکز_ځای__موقعیت_مرکز": "قریه نایسک",
    "Polling_Center_Location": "Nanisik Village",
    "Map_Accuracy": "Building",
    "Map_Accuracy_Dari": "تعمیر",
    "Status": "Open",
    "Status_Dari": null,
    "PS_Male": 1,
    "PS_Female": 1,
    "PS_Total": 2,
    "ولسوالي": "شیندند",
    "Region": "Western Region"
   },
   "geometry": {
    "x": 6930745.3597456943,
    "y": 3936508.7357490379
   }
  },
  {
   "attributes": {
    "OBJECTID": 5897,
    "ولایت": "هرات",
    "Province": "HERAT",
    "PC_Code": "3214331",
    "District": "SHINDAND",
    "د_مرکز_نوم__نام_مرکز": "مسجد چلوسک",
    "Polling_Center_Name": "Chalosak Mosque ",
    "د_مرکز_ځای__موقعیت_مرکز": "چلوسک ",
    "Polling_Center_Location": "Chalosak ",
    "Map_Accuracy": "Building",
    "Map_Accuracy_Dari": "تعمیر",
    "Status": "Open",
    "Status_Dari": null,
    "PS_Male": 1,
    "PS_Female": 1,
    "PS_Total": 2,
    "ولسوالي": "شیندند",
    "Region": "Western Region"
   },
   "geometry": {
    "x": 6929633.625349476,
    "y": 3934819.2575380541
   }
  },
  {
   "attributes": {
    "OBJECTID": 5898,
    "ولایت": "باميان",
    "Province": "BAMYAN",
    "PC_Code": "1007138",
    "District": "WARAS",
    "د_مرکز_نوم__نام_مرکز": "مسجد سیب باریک",
    "Polling_Center_Name": "Seab Barik Mosque",
    "د_مرکز_ځای__موقعیت_مرکز": "سیب باریک",
    "Polling_Center_Location": "Seab Barik ",
    "Map_Accuracy": "Building",
    "Map_Accuracy_Dari": "تعمیر",
    "Status": "Open",
    "Status_Dari": null,
    "PS_Male": 1,
    "PS_Female": 1,
    "PS_Total": 2,
    "ولسوالي": "ورس",
    "Region": "Central Highlands Region"
   },
   "geometry": {
    "x": 7487443.6480200123,
    "y": 4066174.1517150039
   }
  },
  {
   "attributes": {
    "OBJECTID": 5899,
    "ولایت": "باميان",
    "Province": "BAMYAN",
    "PC_Code": "1007139",
    "District": "WARAS",
    "د_مرکز_نوم__نام_مرکز": "مسجد گرد بید تگاب گالقول",
    "Polling_Center_Name": "Girdbed Tagab Galeqol Mosque",
    "د_مرکز_ځای__موقعیت_مرکز": "تگاب گالقول",
    "Polling_Center_Location": "Tagab Galeqol ",
    "Map_Accuracy": "Building",
    "Map_Accuracy_Dari": "تعمیر",
    "Status": "Open",
    "Status_Dari": null,
    "PS_Male": 1,
    "PS_Female": 1,
    "PS_Total": 2,
    "ولسوالي": "ورس",
    "Region": "Central Highlands Region"
   },
   "geometry": {
    "x": 7501725.864104731,
    "y": 4067454.8990287315
   }
  },
  {
   "attributes": {
    "OBJECTID": 5900,
    "ولایت": "غزنى",
    "Province": "GHAZNI",
    "PC_Code": "1110286",
    "District": "NAWUR",
    "د_مرکز_نوم__نام_مرکز": "مکتب غلام سخی شهید",
    "Polling_Center_Name": "Ghulam Sakhi Shaheed School",
    "د_مرکز_ځای__موقعیت_مرکز": "قریه یخشی ",
    "Polling_Center_Location": "Yakhshi Village",
    "Map_Accuracy": "Building",
    "Map_Accuracy_Dari": "تعمیر",
    "Status": "Open",
    "Status_Dari": null,
    "PS_Male": 2,
    "PS_Female": 1,
    "PS_Total": 3,
    "ولسوالي": "ناور",
    "Region": "South Eastern Region"
   },
   "geometry": {
    "x": 7568792.9563217526,
    "y": 4025644.9099365724
   }
  },
  {
   "attributes": {
    "OBJECTID": 5901,
    "ولایت": "غزنى",
    "Province": "GHAZNI",
    "PC_Code": "1111132",
    "District": "QARA BAGH",
    "د_مرکز_نوم__نام_مرکز": "کلینیک مرکزی ولسوالی قره باغ",
    "Polling_Center_Name": "Qara Bagh District Central Clinic",
    "د_مرکز_ځای__موقعیت_مرکز": "بازار ولسوالی",
    "Polling_Center_Location": "District Bazar",
    "Map_Accuracy": "Building",
    "Map_Accuracy_Dari": "تعمیر",
    "Status": "Open",
    "Status_Dari": null,
    "PS_Male": 5,
    "PS_Female": 0,
    "PS_Total": 5,
    "ولسوالي": "قره باغ",
    "Region": "South Eastern Region"
   },
   "geometry": {
    "x": 7583435.9900455885,
    "y": 3918923.412285998
   }
  },
  {
   "attributes": {
    "OBJECTID": 5902,
    "ولایت": "پکتيکا",
    "Province": "PAKTIKA",
    "PC_Code": "1206070",
    "District": "OMNA",
    "د_مرکز_نوم__نام_مرکز": "مکت سپینه ",
    "Polling_Center_Name": "Speena School",
    "د_مرکز_ځای__موقعیت_مرکز": "سپینه",
    "Polling_Center_Location": "Speena",
    "Map_Accuracy": "Village",
    "Map_Accuracy_Dari": "قریه",
    "Status": "Open",
    "Status_Dari": null,
    "PS_Male": 2,
    "PS_Female": 1,
    "PS_Total": 3,
    "ولسوالي": "اومنه",
    "Region": "South Eastern Region"
   },
   "geometry": {
    "x": 7667106.112694866,
    "y": 3883576.7154924031
   }
  },
  {
   "attributes": {
    "OBJECTID": 5903,
    "ولایت": "پکتيکا",
    "Province": "PAKTIKA",
    "PC_Code": "1206071",
    "District": "OMNA",
    "د_مرکز_نوم__نام_مرکز": "د وکیل غمی کلی میلمستون ",
    "Polling_Center_Name": "Wakil Ghami Village Guest House",
    "د_مرکز_ځای__موقعیت_مرکز": " د وکیل غمی کلی",
    "Polling_Center_Location": "Wakil Ghami Village",
    "Map_Accuracy": "District",
    "Map_Accuracy_Dari": "ولسوالی",
    "Status": "Open",
    "Status_Dari": null,
    "PS_Male": 1,
    "PS_Female": 1,
    "PS_Total": 2,
    "ولسوالي": "اومنه",
    "Region": "South Eastern Region"
   },
   "geometry": {
    "x": 7659227.6805618303,
    "y": 3885513.6552721984
   }
  },
  {
   "attributes": {
    "OBJECTID": 5904,
    "ولایت": "پکتيکا",
    "Province": "PAKTIKA",
    "PC_Code": "1208146",
    "District": "GOMAL",
    "د_مرکز_نوم__نام_مرکز": "عیسی جی ښوونځی",
    "Polling_Center_Name": "Esa Jee School",
    "د_مرکز_ځای__موقعیت_مرکز": "مینزی",
    "Polling_Center_Location": "Menzi",
    "Map_Accuracy": "District",
    "Map_Accuracy_Dari": "ولسوالی",
    "Status": "Open",
    "Status_Dari": null,
    "PS_Male": 4,
    "PS_Female": 2,
    "PS_Total": 6,
    "ولسوالي": "گومل ",
    "Region": "South Eastern Region"
   },
   "geometry": {
    "x": 7657379.4185659029,
    "y": 3845863.8867470147
   }
  },
  {
   "attributes": {
    "OBJECTID": 5905,
    "ولایت": "پکتيکا",
    "Province": "PAKTIKA",
    "PC_Code": "1208291",
    "District": "GOMAL",
    "د_مرکز_نوم__نام_مرکز": "ابتدائيه ښوونځي شكين",
    "Polling_Center_Name": "Shekin Primary School",
    "د_مرکز_ځای__موقعیت_مرکز": "شكين",
    "Polling_Center_Location": "Shekin",
    "Map_Accuracy": "Village",
    "Map_Accuracy_Dari": "قریه",
    "Status": "Open",
    "Status_Dari": null,
    "PS_Male": 3,
    "PS_Female": 0,
    "PS_Total": 3,
    "ولسوالي": "گومل",
    "Region": "South Eastern Region"
   },
   "geometry": {
    "x": 7703134.1026134789,
    "y": 3827448.7343086149
   }
  },
  {
   "attributes": {
    "OBJECTID": 5906,
    "ولایت": "پکتيکا",
    "Province": "PAKTIKA",
    "PC_Code": "1209290",
    "District": "JANI KHEL",
    "د_مرکز_نوم__نام_مرکز": "بازار جومات",
    "Polling_Center_Name": "Bazaar Mosque",
    "د_مرکز_ځای__موقعیت_مرکز": "بازار جانی خیل ",
    "Polling_Center_Location": "Jani Khel Bazar",
    "Map_Accuracy": "Building",
    "Map_Accuracy_Dari": "تعمیر",
    "Status": "Open",
    "Status_Dari": null,
    "PS_Male": 0,
    "PS_Female": 3,
    "PS_Total": 3,
    "ولسوالي": "جانی خیل",
    "Region": "South Eastern Region"
   },
   "geometry": {
    "x": 7614324.9412752185,
    "y": 3864043.9886465729
   }
  },
  {
   "attributes": {
    "OBJECTID": 5907,
    "ولایت": "پکتيکا",
    "Province": "PAKTIKA",
    "PC_Code": "1210147",
    "District": "SURUBI",
    "د_مرکز_نوم__نام_مرکز": "نوی حالی جومات ",
    "Polling_Center_Name": "Nawi Hali Mosque",
    "د_مرکز_ځای__موقعیت_مرکز": "زاړه لانجه خیل ",
    "Polling_Center_Location": "Old Lanja Khel",
    "Map_Accuracy": "Village",
    "Map_Accuracy_Dari": "قریه",
    "Status": "Open",
    "Status_Dari": null,
    "PS_Male": 4,
    "PS_Female": 0,
    "PS_Total": 4,
    "ولسوالي": "سروبی",
    "Region": "South Eastern Region"
   },
   "geometry": {
    "x": 7691833.58799522,
    "y": 3868217.4065559194
   }
  },
  {
   "attributes": {
    "OBJECTID": 5908,
    "ولایت": "پکتيکا",
    "Province": "PAKTIKA",
    "PC_Code": "1214253",
    "District": "BARMAL",
    "د_مرکز_نوم__نام_مرکز": "مرغه مدرسه",
    "Polling_Center_Name": "Morgha Madrassa",
    "د_مرکز_ځای__موقعیت_مرکز": "مرغه",
    "Polling_Center_Location": "Margha Village",
    "Map_Accuracy": "Village",
    "Map_Accuracy_Dari": "قریه",
    "Status": "Open",
    "Status_Dari": null,
    "PS_Male": 4,
    "PS_Female": 0,
    "PS_Total": 4,
    "ولسوالي": "برمل",
    "Region": "South Eastern Region"
   },
   "geometry": {
    "x": 7716988.0492400229,
    "y": 3866942.7605594746
   }
  },
  {
   "attributes": {
    "OBJECTID": 5909,
    "ولایت": "پکتيکا",
    "Province": "PAKTIKA",
    "PC_Code": "1214256",
    "District": "BARMAL",
    "د_مرکز_نوم__نام_مرکز": "مرغه کلینیک",
    "Polling_Center_Name": "Margha Clinic",
    "د_مرکز_ځای__موقعیت_مرکز": "مرغه کلی ",
    "Polling_Center_Location": "Margha Village",
    "Map_Accuracy": "Village",
    "Map_Accuracy_Dari": "قریه",
    "Status": "Open",
    "Status_Dari": null,
    "PS_Male": 3,
    "PS_Female": 2,
    "PS_Total": 5,
    "ولسوالي": "برمل",
    "Region": "South Eastern Region"
   },
   "geometry": {
    "x": 7717676.81298583,
    "y": 3866017.6951904604
   }
  },
  {
   "attributes": {
    "OBJECTID": 5910,
    "ولایت": "پکتيکا",
    "Province": "PAKTIKA",
    "PC_Code": "1214303",
    "District": "BARMAL",
    "د_مرکز_نوم__نام_مرکز": "دکلی جومات زنګی اډه",
    "Polling_Center_Name": "Makhfirollah Guest House",
    "د_مرکز_ځای__موقعیت_مرکز": "زنګی اډه",
    "Polling_Center_Location": "Zangi Ada",
    "Map_Accuracy": "District",
    "Map_Accuracy_Dari": "ولسوالی",
    "Status": "Open",
    "Status_Dari": null,
    "PS_Male": 2,
    "PS_Female": 0,
    "PS_Total": 2,
    "ولسوالي": "برمل",
    "Region": "South Eastern Region"
   },
   "geometry": {
    "x": 7716227.9998319056,
    "y": 3867627.9866674864
   }
  },
  {
   "attributes": {
    "OBJECTID": 5911,
    "ولایت": "پکتيکا",
    "Province": "PAKTIKA",
    "PC_Code": "1218240",
    "District": "WOR MAMY",
    "د_مرکز_نوم__نام_مرکز": "عید گل میلمستون",
    "Polling_Center_Name": "Eid Gul Guest House",
    "د_مرکز_ځای__موقعیت_مرکز": "مامی",
    "Polling_Center_Location": "Mami",
    "Map_Accuracy": "Building",
    "Map_Accuracy_Dari": "تعمیر",
    "Status": "Open",
    "Status_Dari": null,
    "PS_Male": 1,
    "PS_Female": 3,
    "PS_Total": 4,
    "ولسوالي": "وړممی",
    "Region": "South Eastern Region"
   },
   "geometry": {
    "x": 7663697.3083984954,
    "y": 3766727.4304400068
   }
  },
  {
   "attributes": {
    "OBJECTID": 5912,
    "ولایت": "پکتيکا",
    "Province": "PAKTIKA",
    "PC_Code": "1218241",
    "District": "WOR MAMY",
    "د_مرکز_نوم__نام_مرکز": "د دو چینې د کلي دوکان",
    "Polling_Center_Name": "2 Cheena Village Shop",
    "د_مرکز_ځای__موقعیت_مرکز": "دوچینه کلی",
    "Polling_Center_Location": "Do Cheena Village ",
    "Map_Accuracy": "Building",
    "Map_Accuracy_Dari": "تعمیر",
    "Status": "Open",
    "Status_Dari": null,
    "PS_Male": 4,
    "PS_Female": 0,
    "PS_Total": 4,
    "ولسوالي": "وړممی",
    "Region": "South Eastern Region"
   },
   "geometry": {
    "x": 7668100.2402754454,
    "y": 3736780.0670579118
   }
  },
  {
   "attributes": {
    "OBJECTID": 5913,
    "ولایت": "پکتيا",
    "Province": "PAKTYA",
    "PC_Code": "1301001",
    "District": "GARDEZ",
    "د_مرکز_نوم__نام_مرکز": "عبدالحئ عالی لیسه",
    "Polling_Center_Name": "Abdul Hai High School",
    "د_مرکز_ځای__موقعیت_مرکز": "گردیز ښار",
    "Polling_Center_Location": "Gardez City ",
    "Map_Accuracy": "Building",
    "Map_Accuracy_Dari": "تعمیر",
    "Status": "Open",
    "Status_Dari": null,
    "PS_Male": 12,
    "PS_Female": 0,
    "PS_Total": 12,
    "ولسوالي": "گردیز",
    "Region": "South Eastern Region"
   },
   "geometry": {
    "x": 7705678.6914014174,
    "y": 3975428.8165630554
   }
  },
  {
   "attributes": {
    "OBJECTID": 5914,
    "ولایت": "پکتيا",
    "Province": "PAKTYA",
    "PC_Code": "1301002",
    "District": "GARDEZ",
    "د_مرکز_نوم__نام_مرکز": "نسوان شهری لیسه",
    "Polling_Center_Name": "City Girls High School",
    "د_مرکز_ځای__موقعیت_مرکز": "گردیز ښار",
    "Polling_Center_Location": "Gardez City ",
    "Map_Accuracy": "Building",
    "Map_Accuracy_Dari": "تعمیر",
    "Status": "Open",
    "Status_Dari": null,
    "PS_Male": 0,
    "PS_Female": 6,
    "PS_Total": 6,
    "ولسوالي": "گردیز",
    "Region": "South Eastern Region"
   },
   "geometry": {
    "x": 7705769.0984126693,
    "y": 3975745.8820648743
   }
  },
  {
   "attributes": {
    "OBJECTID": 5915,
    "ولایت": "پکتيا",
    "Province": "PAKTYA",
    "PC_Code": "1304113",
    "District": "SHWAK",
    "د_مرکز_نوم__نام_مرکز": "د شبک ابتدائیه مکتب",
    "Polling_Center_Name": "Shabak Primary School",
    "د_مرکز_ځای__موقعیت_مرکز": " شبک",
    "Polling_Center_Location": "Shabak",
    "Map_Accuracy": "Building",
    "Map_Accuracy_Dari": "تعمیر",
    "Status": "Open",
    "Status_Dari": null,
    "PS_Male": 3,
    "PS_Female": 3,
    "PS_Total": 6,
    "ولسوالي": "شواک",
    "Region": "South Eastern Region"
   },
   "geometry": {
    "x": 7723879.1754508698,
    "y": 3947721.4403839484
   }
  },
  {
   "attributes": {
    "OBJECTID": 5916,
    "ولایت": "پکتيا",
    "Province": "PAKTYA",
    "PC_Code": "1305114",
    "District": "WUZA ZADRAN",
    "د_مرکز_نوم__نام_مرکز": "وزی ابتدائیه مکتب",
    "Polling_Center_Name": "Waza Primary School",
    "د_مرکز_ځای__موقعیت_مرکز": "وزی کلی ",
    "Polling_Center_Location": "Waza Village",
    "Map_Accuracy": "Building",
    "Map_Accuracy_Dari": "تعمیر",
    "Status": "Open",
    "Status_Dari": null,
    "PS_Male": 3,
    "PS_Female": 0,
    "PS_Total": 3,
    "ولسوالي": "وزه ځدراڼ",
    "Region": "South Eastern Region"
   },
   "geometry": {
    "x": 7729887.1451419229,
    "y": 3944127.3355334317
   }
  },
  {
   "attributes": {
    "OBJECTID": 5917,
    "ولایت": "بدخشان",
    "Province": "BADAKHSHAN",
    "PC_Code": "1723202",
    "District": "ESHKASHIM",
    "د_مرکز_نوم__نام_مرکز": "مکتب خوش پاک ",
    "Polling_Center_Name": "Khosh Paak Schook",
    "د_مرکز_ځای__موقعیت_مرکز": "خوش پاک ",
    "Polling_Center_Location": "Khosh Paak",
    "Map_Accuracy": "Building",
    "Map_Accuracy_Dari": "تعمیر",
    "Status": "Open",
    "Status_Dari": null,
    "PS_Male": 1,
    "PS_Female": 1,
    "PS_Total": 2,
    "ولسوالي": "اشکاشم",
    "Region": "North Eastern Region"
   },
   "geometry": {
    "x": 7957464.7847680589,
    "y": 4392363.4493111782
   }
  },
  {
   "attributes": {
    "OBJECTID": 5918,
    "ولایت": "کندز",
    "Province": "KUNDUZ",
    "PC_Code": "1904213",
    "District": "KHAN ABAD",
    "د_مرکز_نوم__نام_مرکز": "مسجد نایمان",
    "Polling_Center_Name": "Nayman Mosque",
    "د_مرکز_ځای__موقعیت_مرکز": "قریه نایمان",
    "Polling_Center_Location": "Nayman Village",
    "Map_Accuracy": "Building",
    "Map_Accuracy_Dari": "تعمیر",
    "Status": "Open",
    "Status_Dari": null,
    "PS_Male": 1,
    "PS_Female": 1,
    "PS_Total": 2,
    "ولسوالي": "خان آباد",
    "Region": "North Eastern Region"
   },
   "geometry": {
    "x": 7695206.1934195748,
    "y": 4349350.3310024729
   }
  },
  {
   "attributes": {
    "OBJECTID": 5919,
    "ولایت": "کندز",
    "Province": "KUNDUZ",
    "PC_Code": "1905057",
    "District": "HAZRAT-E-IMAM SAHIB",
    "د_مرکز_نوم__نام_مرکز": "مکتب کلباد",
    "Polling_Center_Name": "Kulbad School",
    "د_مرکز_ځای__موقعیت_مرکز": "قریه کلباد",
    "Polling_Center_Location": "Kulbad Village",
    "Map_Accuracy": "Building",
    "Map_Accuracy_Dari": "تعمیر",
    "Status": "Open",
    "Status_Dari": null,
    "PS_Male": 4,
    "PS_Female": 2,
    "PS_Total": 6,
    "ولسوالي": "حضرت امام صاحب",
    "Region": "North Eastern Region"
   },
   "geometry": {
    "x": 7701878.6469622916,
    "y": 4454271.2304985607
   }
  },
  {
   "attributes": {
    "OBJECTID": 5920,
    "ولایت": "سمنگان",
    "Province": "SAMANGAN",
    "PC_Code": "2001017",
    "District": "AYBAK",
    "د_مرکز_نوم__نام_مرکز": "مکتب ابتدائیهء بابه لر",
    "Polling_Center_Name": "Baba Lar Primary School",
    "د_مرکز_ځای__موقعیت_مرکز": "قریه بابه لر",
    "Polling_Center_Location": "Baba Lar Village",
    "Map_Accuracy": "Building",
    "Map_Accuracy_Dari": "تعمیر",
    "Status": "Open",
    "Status_Dari": null,
    "PS_Male": 1,
    "PS_Female": 1,
    "PS_Total": 2,
    "ولسوالي": "ایبک",
    "Region": "North Eastern Region"
   },
   "geometry": {
    "x": 7616362.7809205661,
    "y": 4336853.9611274377
   }
  },
  {
   "attributes": {
    "OBJECTID": 5921,
    "ولایت": "سمنگان",
    "Province": "SAMANGAN",
    "PC_Code": "2001018",
    "District": "AYBAK",
    "د_مرکز_نوم__نام_مرکز": "مکتب متوسطه تیخونک",
    "Polling_Center_Name": "Tekhonak Secondary School",
    "د_مرکز_ځای__موقعیت_مرکز": "قریه تیخونک",
    "Polling_Center_Location": "Tekhonak Village",
    "Map_Accuracy": "Building",
    "Map_Accuracy_Dari": "تعمیر",
    "Status": "Open",
    "Status_Dari": null,
    "PS_Male": 2,
    "PS_Female": 2,
    "PS_Total": 4,
    "ولسوالي": "ایبک",
    "Region": "North Eastern Region"
   },
   "geometry": {
    "x": 7623135.2830782682,
    "y": 4332906.7105108732
   }
  },
  {
   "attributes": {
    "OBJECTID": 5922,
    "ولایت": "بلخ",
    "Province": "BALKH",
    "PC_Code": "2101019",
    "District": "MAZAR-E-SHARIF",
    "د_مرکز_نوم__نام_مرکز": "مکتب روشانه بلخی",
    "Polling_Center_Name": "Roshana Balkhi School",
    "د_مرکز_ځای__موقعیت_مرکز": "ناحیه پنجم مزار شاروالی ",
    "Polling_Center_Location": "D05 - Nahia 5",
    "Map_Accuracy": "Building",
    "Map_Accuracy_Dari": "تعمیر",
    "Status": "Open",
    "Status_Dari": null,
    "PS_Male": 2,
    "PS_Female": 3,
    "PS_Total": 5,
    "ولسوالي": "مزار شریف",
    "Region": "Northern Region"
   },
   "geometry": {
    "x": 7470036.5168307405,
    "y": 4396568.7661941405
   }
  },
  {
   "attributes": {
    "OBJECTID": 5923,
    "ولایت": "بلخ",
    "Province": "BALKH",
    "PC_Code": "2101020",
    "District": "MAZAR-E-SHARIF",
    "د_مرکز_نوم__نام_مرکز": "مکتب نهر توپ",
    "Polling_Center_Name": "Nahr Top School",
    "د_مرکز_ځای__موقعیت_مرکز": "ناحیه 5 شهرداری مزار",
    "Polling_Center_Location": "D05 - Nahia 5",
    "Map_Accuracy": "Building",
    "Map_Accuracy_Dari": "تعمیر",
    "Status": "Open",
    "Status_Dari": null,
    "PS_Male": 4,
    "PS_Female": 3,
    "PS_Total": 7,
    "ولسوالي": "مزار شریف",
    "Region": "Northern Region"
   },
   "geometry": {
    "x": 7470472.8491596319,
    "y": 4396240.758621837
   }
  },
  {
   "attributes": {
    "OBJECTID": 5924,
    "ولایت": "بلخ",
    "Province": "BALKH",
    "PC_Code": "2107264",
    "District": "SHOLGARA",
    "د_مرکز_نوم__نام_مرکز": "مسجد اغر سای",
    "Polling_Center_Name": "Aghar Say Mosque",
    "د_مرکز_ځای__موقعیت_مرکز": "قریه آغر سای",
    "Polling_Center_Location": "Aghar Say Village",
    "Map_Accuracy": "Building",
    "Map_Accuracy_Dari": "تعمیر",
    "Status": "Open",
    "Status_Dari": null,
    "PS_Male": 1,
    "PS_Female": 1,
    "PS_Total": 2,
    "ولسوالي": "شولگره",
    "Region": "Northern Region"
   },
   "geometry": {
    "x": 7455989.9897115147,
    "y": 4350026.1573268333
   }
  },
  {
   "attributes": {
    "OBJECTID": 5925,
    "ولایت": "بلخ",
    "Province": "BALKH",
    "PC_Code": "2107265",
    "District": "SHOLGARA",
    "د_مرکز_نوم__نام_مرکز": "مکتب متوسطه دالان",
    "Polling_Center_Name": "Dalan Secondary School",
    "د_مرکز_ځای__موقعیت_مرکز": "قریه دالان",
    "Polling_Center_Location": "Dalan Village",
    "Map_Accuracy": "Building",
    "Map_Accuracy_Dari": "تعمیر",
    "Status": "Open",
    "Status_Dari": null,
    "PS_Male": 2,
    "PS_Female": 1,
    "PS_Total": 3,
    "ولسوالي": "شولگره",
    "Region": "Northern Region"
   },
   "geometry": {
    "x": 7477758.803340422,
    "y": 4329380.1984961051
   }
  },
  {
   "attributes": {
    "OBJECTID": 5926,
    "ولایت": "بلخ",
    "Province": "BALKH",
    "PC_Code": "2108224",
    "District": "CHIMTAL",
    "د_مرکز_نوم__نام_مرکز": "مکتب بارگاه",
    "Polling_Center_Name": "Bargah School",
    "د_مرکز_ځای__موقعیت_مرکز": "قریه بارگای ترکمنیه",
    "Polling_Center_Location": "Bargaay Turkmania",
    "Map_Accuracy": "Village",
    "Map_Accuracy_Dari": "قریه",
    "Status": "Open",
    "Status_Dari": null,
    "PS_Male": 3,
    "PS_Female": 2,
    "PS_Total": 5,
    "ولسوالي": "چمتال",
    "Region": "Northern Region"
   },
   "geometry": {
    "x": 7395784.9559599096,
    "y": 4391054.8239159314
   }
  },
  {
   "attributes": {
    "OBJECTID": 5927,
    "ولایت": "بلخ",
    "Province": "BALKH",
    "PC_Code": "2108225",
    "District": "CHIMTAL",
    "د_مرکز_نوم__نام_مرکز": "مکتب ملا جمعه خان",
    "Polling_Center_Name": "Mula Juma Khan School",
    "د_مرکز_ځای__موقعیت_مرکز": "قریه ملا جمعه خان",
    "Polling_Center_Location": "Mula Juma khan Village",
    "Map_Accuracy": "Building",
    "Map_Accuracy_Dari": "تعمیر",
    "Status": "Open",
    "Status_Dari": null,
    "PS_Male": 4,
    "PS_Female": 3,
    "PS_Total": 7,
    "ولسوالي": "چمتال",
    "Region": "Northern Region"
   },
   "geometry": {
    "x": 7410412.9660052657,
    "y": 4379304.1970660966
   }
  },
  {
   "attributes": {
    "OBJECTID": 5928,
    "ولایت": "ارزگان",
    "Province": "UROZGAN",
    "PC_Code": "2501002",
    "District": "TIRINKOT",
    "د_مرکز_نوم__نام_مرکز": "مکتب متوسطه نچین",
    "Polling_Center_Name": "Nachin Secondary School",
    "د_مرکز_ځای__موقعیت_مرکز": "نچین",
    "Polling_Center_Location": "Nachin",
    "Map_Accuracy": "Building",
    "Map_Accuracy_Dari": "تعمیر",
    "Status": "Open",
    "Status_Dari": null,
    "PS_Male": 4,
    "PS_Female": 3,
    "PS_Total": 7,
    "ولسوالي": "ترینکوټ",
    "Region": "Southern Region"
   },
   "geometry": {
    "x": 7338735.7696597641,
    "y": 3846517.8116434724
   }
  },
  {
   "attributes": {
    "OBJECTID": 5929,
    "ولایت": "ارزگان",
    "Province": "UROZGAN",
    "PC_Code": "2501003",
    "District": "TIRINKOT",
    "د_مرکز_نوم__نام_مرکز": "مسجد حاجی ظاهر",
    "Polling_Center_Name": "Haji Zahir Mosque",
    "د_مرکز_ځای__موقعیت_مرکز": "مکتب ده جوز بارکزایی",
    "Polling_Center_Location": "Maktab Deh Joz Barakzai",
    "Map_Accuracy": "Building",
    "Map_Accuracy_Dari": "تعمیر",
    "Status": "Open",
    "Status_Dari": null,
    "PS_Male": 5,
    "PS_Female": 3,
    "PS_Total": 8,
    "ولسوالي": "ترینکوټ",
    "Region": "Southern Region"
   },
   "geometry": {
    "x": 7335164.1049483623,
    "y": 3852784.0761720985
   }
  },
  {
   "attributes": {
    "OBJECTID": 5930,
    "ولایت": "کندهار",
    "Province": "کندهار",
    "PC_Code": "2711224",
    "District": "SPIN BOLDAK",
    "د_مرکز_نوم__نام_مرکز": "د غازي عبدالله خان لیسه",
    "Polling_Center_Name": "Ghazi Abdullah Khan High School",
    "د_مرکز_ځای__موقعیت_مرکز": "سپين بولدك",
    "Polling_Center_Location": "Speen Boldak",
    "Map_Accuracy": "Building",
    "Map_Accuracy_Dari": "تعمیر",
    "Status": "Open",
    "Status_Dari": null,
    "PS_Male": 3,
    "PS_Female": 1,
    "PS_Total": 4,
    "ولسوالي": "سپین بولدک",
    "Region": "Southern Region"
   },
   "geometry": {
    "x": 7393173.9339262592,
    "y": 3633330.8430551505
   }
  },
  {
   "attributes": {
    "OBJECTID": 5931,
    "ولایت": "جوزجان",
    "Province": "JAWZJAN",
    "PC_Code": "2801007",
    "District": "SHEBERGHAN",
    "د_مرکز_نوم__نام_مرکز": "لیسه عید محله",
    "Polling_Center_Name": "Eid Mahalla High School",
    "د_مرکز_ځای__موقعیت_مرکز": "ناحیه دوم",
    "Polling_Center_Location": "D02 - Nahia 2",
    "Map_Accuracy": "Building",
    "Map_Accuracy_Dari": "تعمیر",
    "Status": "Open",
    "Status_Dari": null,
    "PS_Male": 5,
    "PS_Female": 3,
    "PS_Total": 8,
    "ولسوالي": "شبرغان",
    "Region": "Northern Region"
   },
   "geometry": {
    "x": 7315892.4123633197,
    "y": 4393382.7110577412
   }
  },
  {
   "attributes": {
    "OBJECTID": 5932,
    "ولایت": "جوزجان",
    "Province": "JAWZJAN",
    "PC_Code": "2801008",
    "District": "SHEBERGHAN",
    "د_مرکز_نوم__نام_مرکز": "لیسه غلام سرور شهید",
    "Polling_Center_Name": "Ghulam Sarwar Shaheed High School",
    "د_مرکز_ځای__موقعیت_مرکز": "ناحیه سوم",
    "Polling_Center_Location": "D03 - Nahia 3",
    "Map_Accuracy": "Building",
    "Map_Accuracy_Dari": "تعمیر",
    "Status": "Open",
    "Status_Dari": null,
    "PS_Male": 5,
    "PS_Female": 3,
    "PS_Total": 8,
    "ولسوالي": "شبرغان",
    "Region": "Northern Region"
   },
   "geometry": {
    "x": 7317911.3382705841,
    "y": 4391412.9948422126
   }
  },
  {
   "attributes": {
    "OBJECTID": 5933,
    "ولایت": "جوزجان",
    "Province": "JAWZJAN",
    "PC_Code": "2807034",
    "District": "AQCHAH",
    "د_مرکز_نوم__نام_مرکز": "لیسه نسوان حیدر آباد",
    "Polling_Center_Name": "Haidar Abad Girls High School",
    "د_مرکز_ځای__موقعیت_مرکز": "قریه حدرآباد",
    "Polling_Center_Location": "Haidar Abad Village",
    "Map_Accuracy": "Building",
    "Map_Accuracy_Dari": "تعمیر",
    "Status": "Open",
    "Status_Dari": null,
    "PS_Male": 2,
    "PS_Female": 1,
    "PS_Total": 3,
    "ولسوالي": "آقچه",
    "Region": "Northern Region"
   },
   "geometry": {
    "x": 7374799.8204142293,
    "y": 4428597.2525203265
   }
  },
  {
   "attributes": {
    "OBJECTID": 5934,
    "ولایت": "جوزجان",
    "Province": "JAWZJAN",
    "PC_Code": "2807035",
    "District": "AQCHAH",
    "د_مرکز_نوم__نام_مرکز": "مسجد بیش اریغ",
    "Polling_Center_Name": "Besh Areegh Mosque",
    "د_مرکز_ځای__موقعیت_مرکز": "قریه بیش اریغ",
    "Polling_Center_Location": "Besh Areegh Village",
    "Map_Accuracy": "Building",
    "Map_Accuracy_Dari": "تعمیر",
    "Status": "Open",
    "Status_Dari": null,
    "PS_Male": 2,
    "PS_Female": 1,
    "PS_Total": 3,
    "ولسوالي": "آقچه",
    "Region": "Northern Region"
   },
   "geometry": {
    "x": 7368648.5769725544,
    "y": 4429851.55832275
   }
  },
  {
   "attributes": {
    "OBJECTID": 5935,
    "ولایت": "هلمند",
    "Province": "HELMAND",
    "PC_Code": "3004051",
    "District": "NAHR-E-SARAJ",
    "د_مرکز_نوم__نام_مرکز": "مكتب يخچال ",
    "Polling_Center_Name": "Yakhchal School",
    "د_مرکز_ځای__موقعیت_مرکز": "یخچال",
    "Polling_Center_Location": "Yakhchal",
    "Map_Accuracy": "Village",
    "Map_Accuracy_Dari": "قریه",
    "Status": "Open",
    "Status_Dari": null,
    "PS_Male": 2,
    "PS_Female": 2,
    "PS_Total": 4,
    "ولسوالي": "نهرسراج",
    "Region": "Southern Region"
   },
   "geometry": {
    "x": 7200634.850981093,
    "y": 3736270.0298094461
   }
  },
  {
   "attributes": {
    "OBJECTID": 5936,
    "ولایت": "هلمند",
    "Province": "HELMAND",
    "PC_Code": "3006124",
    "District": "GARM SER",
    "د_مرکز_نوم__نام_مرکز": "مکتب عباس آباد",
    "Polling_Center_Name": "Abbas Abad School",
    "د_مرکز_ځای__موقعیت_مرکز": "عباس آباد",
    "Polling_Center_Location": "Abbas Abad ",
    "Map_Accuracy": "District",
    "Map_Accuracy_Dari": "ولسوالی",
    "Status": "Open",
    "Status_Dari": null,
    "PS_Male": 2,
    "PS_Female": 2,
    "PS_Total": 4,
    "ولسوالي": "گرم سیر",
    "Region": "Southern Region"
   },
   "geometry": {
    "x": 7164209.0786732407,
    "y": 3580351.3131226101
   }
  },
  {
   "attributes": {
    "OBJECTID": 5937,
    "ولایت": "هرات",
    "Province": "HERAT",
    "PC_Code": "3202042",
    "District": "ENJIL",
    "د_مرکز_نوم__نام_مرکز": "مکتب تریاک",
    "Polling_Center_Name": "Taryak School",
    "د_مرکز_ځای__موقعیت_مرکز": "قریه تریاک",
    "Polling_Center_Location": "Taryak Village ",
    "Map_Accuracy": "Village",
    "Map_Accuracy_Dari": "قریه",
    "Status": "Open",
    "Status_Dari": null,
    "PS_Male": 2,
    "PS_Female": 1,
    "PS_Total": 3,
    "ولسوالي": "انجیل",
    "Region": "Western Region"
   },
   "geometry": {
    "x": 6933149.9653871497,
    "y": 4064494.0620270791
   }
  },
  {
   "attributes": {
    "OBJECTID": 5938,
    "ولایت": "هرات",
    "Province": "HERAT",
    "PC_Code": "3202043",
    "District": "ENJIL",
    "د_مرکز_نوم__نام_مرکز": "مکتب اما م شش نور",
    "Polling_Center_Name": "Emam Shash Noor School",
    "د_مرکز_ځای__موقعیت_مرکز": "قریه خشت پاشان",
    "Polling_Center_Location": "Khesht Pashan Village ",
    "Map_Accuracy": "Building",
    "Map_Accuracy_Dari": "تعمیر",
    "Status": "Open",
    "Status_Dari": null,
    "PS_Male": 2,
    "PS_Female": 2,
    "PS_Total": 4,
    "ولسوالي": "انجیل",
    "Region": "Western Region"
   },
   "geometry": {
    "x": 6938114.6399049284,
    "y": 4066046.3456263477
   }
  },
  {
   "attributes": {
    "OBJECTID": 5939,
    "ولایت": "هرات",
    "Province": "HERAT",
    "PC_Code": "3206441",
    "District": "PASHTUN ZARGHUN",
    "د_مرکز_نوم__نام_مرکز": "مسجد جامع ده شیخ",
    "Polling_Center_Name": "Deh Shaikh Mosque",
    "د_مرکز_ځای__موقعیت_مرکز": "ده شیخ ",
    "Polling_Center_Location": "Deh Shaikh ",
    "Map_Accuracy": "Village",
    "Map_Accuracy_Dari": "قریه",
    "Status": "Open",
    "Status_Dari": null,
    "PS_Male": 1,
    "PS_Female": 1,
    "PS_Total": 2,
    "ولسوالي": "پشتون زرغون",
    "Region": "Western Region"
   },
   "geometry": {
    "x": 6962809.120108217,
    "y": 4058615.4855734617
   }
  },
  {
   "attributes": {
    "OBJECTID": 5940,
    "ولایت": "هرات",
    "Province": "HERAT",
    "PC_Code": "3207165",
    "District": "KUSHK (RUBAT-E-SANGI)",
    "د_مرکز_نوم__نام_مرکز": "مسجد جامع مرکز کشک رباط سنگی اول",
    "Polling_Center_Name": "Kashak Rubat Sangi Awal  Center Mosque",
    "د_مرکز_ځای__موقعیت_مرکز": "مرکز کشک رباط سنگی اول",
    "Polling_Center_Location": "Markaz-e-Kashak Rubat Sang Awal ",
    "Map_Accuracy": "Building",
    "Map_Accuracy_Dari": "تعمیر",
    "Status": "Open",
    "Status_Dari": null,
    "PS_Male": 3,
    "PS_Female": 1,
    "PS_Total": 4,
    "ولسوالي": "کشک (رباط سنگی)",
    "Region": "Western Region"
   },
   "geometry": {
    "x": 6917018.0946996706,
    "y": 4136553.6683173589
   }
  },
  {
   "attributes": {
    "OBJECTID": 5941,
    "ولایت": "هرات",
    "Province": "HERAT",
    "PC_Code": "3207182",
    "District": "KUSHK (RUBAT-E-SANGI)",
    "د_مرکز_نوم__نام_مرکز": "مکتب چپقل",
    "Polling_Center_Name": "Chapqal School ",
    "د_مرکز_ځای__موقعیت_مرکز": " چپقل",
    "Polling_Center_Location": "Chapqal ",
    "Map_Accuracy": "Village",
    "Map_Accuracy_Dari": "قریه",
    "Status": "Open",
    "Status_Dari": null,
    "PS_Male": 2,
    "PS_Female": 2,
    "PS_Total": 4,
    "ولسوالي": "کشک (رباط سنگی)",
    "Region": "Western Region"
   },
   "geometry": {
    "x": 6923841.2859648727,
    "y": 4177303.7728948286
   }
  },
  {
   "attributes": {
    "OBJECTID": 5942,
    "ولایت": "هرات",
    "Province": "HERAT",
    "PC_Code": "3207183",
    "District": "KUSHK (RUBAT-E-SANGI)",
    "د_مرکز_نوم__نام_مرکز": "مکتب جعفر بیک کاودانی",
    "Polling_Center_Name": "Jafar Big Kawdani School ",
    "د_مرکز_ځای__موقعیت_مرکز": "قریه جعفر بیک کاودانی",
    "Polling_Center_Location": "Jafar Big Kawdani  Village",
    "Map_Accuracy": "Building",
    "Map_Accuracy_Dari": "تعمیر",
    "Status": "Open",
    "Status_Dari": null,
    "PS_Male": 2,
    "PS_Female": 1,
    "PS_Total": 3,
    "ولسوالي": "کشک (رباط سنگی)",
    "Region": "Western Region"
   },
   "geometry": {
    "x": 6938342.6756554283,
    "y": 4127263.1431564679
   }
  },
  {
   "attributes": {
    "OBJECTID": 5943,
    "ولایت": "هرات",
    "Province": "HERAT",
    "PC_Code": "3214344",
    "District": "SHINDAND",
    "د_مرکز_نوم__نام_مرکز": "مسجد فجر",
    "Polling_Center_Name": "Fajer Mosque ",
    "د_مرکز_ځای__موقعیت_مرکز": "قریه فجر علیا",
    "Polling_Center_Location": "Fajer Ulya Village",
    "Map_Accuracy": "Building",
    "Map_Accuracy_Dari": "تعمیر",
    "Status": "Open",
    "Status_Dari": null,
    "PS_Male": 1,
    "PS_Female": 1,
    "PS_Total": 2,
    "ولسوالي": "شیندند",
    "Region": "Western Region"
   },
   "geometry": {
    "x": 6907416.4145852616,
    "y": 3942509.5197239164
   }
  },
  {
   "attributes": {
    "OBJECTID": 5944,
    "ولایت": "هرات",
    "Province": "HERAT",
    "PC_Code": "3214345",
    "District": "SHINDAND",
    "د_مرکز_نوم__نام_مرکز": "مسجد جامع کلاته نظر خان",
    "Polling_Center_Name": "Kalata Nazar Khan Mosque",
    "د_مرکز_ځای__موقعیت_مرکز": "کلاته نظر خان ",
    "Polling_Center_Location": "Kalata Nazar Khan ",
    "Map_Accuracy": "Building",
    "Map_Accuracy_Dari": "تعمیر",
    "Status": "Open",
    "Status_Dari": null,
    "PS_Male": 2,
    "PS_Female": 1,
    "PS_Total": 3,
    "ولسوالي": "شیندند",
    "Region": "Western Region"
   },
   "geometry": {
    "x": 6897466.7118940055,
    "y": 3934900.3413912728
   }
  },
  {
   "attributes": {
    "OBJECTID": 5945,
    "ولایت": " فراه",
    "Province": "FARAH",
    "PC_Code": "3310179",
    "District": "GULISTAN",
    "د_مرکز_نوم__نام_مرکز": " مسجد توت",
    "Polling_Center_Name": "Toot Mosque ",
    "د_مرکز_ځای__موقعیت_مرکز": "توت",
    "Polling_Center_Location": "Toot",
    "Map_Accuracy": "Village",
    "Map_Accuracy_Dari": "قریه",
    "Status": "Open",
    "Status_Dari": null,
    "PS_Male": 2,
    "PS_Female": 1,
    "PS_Total": 3,
    "ولسوالي": "گلستان",
    "Region": "Western Region"
   },
   "geometry": {
    "x": 7067585.4193250909,
    "y": 3870273.7250987687
   }
  },
  {
   "attributes": {
    "OBJECTID": 5946,
    "ولایت": "کابل",
    "Province": "KABUL",
    "PC_Code": "0101087",
    "District": "KABUL-D05",
    "د_مرکز_نوم__نام_مرکز": "  لیسه نسوان سپین کلی",
    "Polling_Center_Name": "Spin Kalai Girls High School",
    "د_مرکز_ځای__موقعیت_مرکز": "قسمت الف خوشحال مينه",
    "Polling_Center_Location": "Phase A of Khush-hal Mina",
    "Map_Accuracy": "Building",
    "Map_Accuracy_Dari": "تعمیر",
    "Status": "Open",
    "Status_Dari": null,
    "PS_Male": 3,
    "PS_Female": 6,
    "PS_Total": 9,
    "ولسوالي": "کابل - ناحیه 05",
    "Region": "Central Region"
   },
   "geometry": {
    "x": 7694045.386052236,
    "y": 4098655.9375848854
   }
  },
  {
   "attributes": {
    "OBJECTID": 5947,
    "ولایت": "کابل",
    "Province": "KABUL",
    "PC_Code": "0101105",
    "District": "KABUL-D06",
    "د_مرکز_نوم__نام_مرکز": " مسجد شاه ولايت ماب",
    "Polling_Center_Name": "Shah Wolayat Maab Mosque",
    "د_مرکز_ځای__موقعیت_مرکز": " افشار دارالامان",
    "Polling_Center_Location": "Afshar-e-Darul Aman",
    "Map_Accuracy": "Building",
    "Map_Accuracy_Dari": "تعمیر",
    "Status": "Open",
    "Status_Dari": null,
    "PS_Male": 2,
    "PS_Female": 1,
    "PS_Total": 3,
    "ولسوالي": "کابل - ناحیه 06",
    "Region": "Central Region"
   },
   "geometry": {
    "x": 7693370.6964296531,
    "y": 4091500.6530136596
   }
  },
  {
   "attributes": {
    "OBJECTID": 5948,
    "ولایت": "کابل",
    "Province": "KABUL",
    "PC_Code": "0101106",
    "District": "KABUL-D06",
    "د_مرکز_نوم__نام_مرکز": " مسجد قايم آل محمد",
    "Polling_Center_Name": "Qaeem Al-e- Mohammad Mosque",
    "د_مرکز_ځای__موقعیت_مرکز": "نو آباد قلعه جبار خان",
    "Polling_Center_Location": "Naw Abad Qala-e-Jabar Khan",
    "Map_Accuracy": "Building",
    "Map_Accuracy_Dari": "تعمیر",
    "Status": "Open",
    "Status_Dari": null,
    "PS_Male": 3,
    "PS_Female": 2,
    "PS_Total": 5,
    "ولسوالي": "کابل - ناحیه 06",
    "Region": "Central Region"
   },
   "geometry": {
    "x": 7690535.9678604994,
    "y": 4093581.7356763976
   }
  },
  {
   "attributes": {
    "OBJECTID": 5949,
    "ولایت": "کابل",
    "Province": "KABUL",
    "PC_Code": "0101126",
    "District": "KABUL-D07",
    "د_مرکز_نوم__نام_مرکز": " لیسه محراب الدین",
    "Polling_Center_Name": "Mehrabuddin High School",
    "د_مرکز_ځای__موقعیت_مرکز": "سرک چهلستون - ده دانا",
    "Polling_Center_Location": "Chehel Seton Road-Deh Dana",
    "Map_Accuracy": "Building",
    "Map_Accuracy_Dari": "تعمیر",
    "Status": "Open",
    "Status_Dari": null,
    "PS_Male": 4,
    "PS_Female": 5,
    "PS_Total": 9,
    "ولسوالي": "کابل - ناحیه 07",
    "Region": "Central Region"
   },
   "geometry": {
    "x": 7696670.0758929625,
    "y": 4092199.3257922181
   }
  },
  {
   "attributes": {
    "OBJECTID": 5950,
    "ولایت": "کابل",
    "Province": "KABUL",
    "PC_Code": "0101127",
    "District": "KABUL-D07",
    "د_مرکز_نوم__نام_مرکز": "انستیتوت تخنيکي",
    "Polling_Center_Name": "Technical Institute",
    "د_مرکز_ځای__موقعیت_مرکز": "تني کوت",
    "Polling_Center_Location": "Tani Kot",
    "Map_Accuracy": "Building",
    "Map_Accuracy_Dari": "تعمیر",
    "Status": "Open",
    "Status_Dari": null,
    "PS_Male": 4,
    "PS_Female": 4,
    "PS_Total": 8,
    "ولسوالي": "کابل - ناحیه 07",
    "Region": "Central Region"
   },
   "geometry": {
    "x": 7699369.9754080633,
    "y": 4093182.3387140627
   }
  },
  {
   "attributes": {
    "OBJECTID": 5951,
    "ولایت": "کابل",
    "Province": "KABUL",
    "PC_Code": "0101172",
    "District": "KABUL-D08",
    "د_مرکز_نوم__نام_مرکز": " مسجد حکيم سنايي",
    "Polling_Center_Name": "Hakim Sanie Mosque",
    "د_مرکز_ځای__موقعیت_مرکز": "سرک سه کارته نو",
    "Polling_Center_Location": "3rd Road of Kart-e-Naw",
    "Map_Accuracy": "Building",
    "Map_Accuracy_Dari": "تعمیر",
    "Status": "Open",
    "Status_Dari": null,
    "PS_Male": 3,
    "PS_Female": 1,
    "PS_Total": 4,
    "ولسوالي": "کابل - ناحیه 08",
    "Region": "Central Region"
   },
   "geometry": {
    "x": 7706166.8373872973,
    "y": 4097679.0745319729
   }
  },
  {
   "attributes": {
    "OBJECTID": 5952,
    "ولایت": "کابل",
    "Province": "KABUL",
    "PC_Code": "0101173",
    "District": "KABUL-D08",
    "د_مرکز_نوم__نام_مرکز": " مسجد رنگه",
    "Polling_Center_Name": "Ranga Mosque",
    "د_مرکز_ځای__موقعیت_مرکز": "قلعچه",
    "Polling_Center_Location": "Qalacha",
    "Map_Accuracy": "Building",
    "Map_Accuracy_Dari": "تعمیر",
    "Status": "Open",
    "Status_Dari": null,
    "PS_Male": 2,
    "PS_Female": 1,
    "PS_Total": 3,
    "ولسوالي": "کابل - ناحیه 08",
    "Region": "Central Region"
   },
   "geometry": {
    "x": 7704607.7188631445,
    "y": 4095261.5102347564
   }
  },
  {
   "attributes": {
    "OBJECTID": 5953,
    "ولایت": "کابل",
    "Province": "KABUL",
    "PC_Code": "0101178",
    "District": "KABUL-D09",
    "د_مرکز_نوم__نام_مرکز": " مسجد حضرت محمد مصطفي",
    "Polling_Center_Name": "Hazrat Mohammad Mustafa Mosque",
    "د_مرکز_ځای__موقعیت_مرکز": "مکروريان",
    "Polling_Center_Location": "Makrorian",
    "Map_Accuracy": "Building",
    "Map_Accuracy_Dari": "تعمیر",
    "Status": "Open",
    "Status_Dari": null,
    "PS_Male": 3,
    "PS_Female": 2,
    "PS_Total": 5,
    "ولسوالي": "کابل - ناحیه 09",
    "Region": "Central Region"
   },
   "geometry": {
    "x": 7703988.165784359,
    "y": 4101039.881179377
   }
  },
  {
   "attributes": {
    "OBJECTID": 5954,
    "ولایت": "کابل",
    "Province": "KABUL",
    "PC_Code": "0101179",
    "District": "KABUL-D09",
    "د_مرکز_نوم__نام_مرکز": " ریاست بنائی ",
    "Polling_Center_Name": "Reyasat Banaye",
    "د_مرکز_ځای__موقعیت_مرکز": "جوار مرکز تریننگ مخابرات",
    "Polling_Center_Location": "Near to Radio Training Center",
    "Map_Accuracy": "Building",
    "Map_Accuracy_Dari": "تعمیر",
    "Status": "Open",
    "Status_Dari": null,
    "PS_Male": 3,
    "PS_Female": 2,
    "PS_Total": 5,
    "ولسوالي": "کابل - ناحیه 09",
    "Region": "Central Region"
   },
   "geometry": {
    "x": 7704301.2897008406,
    "y": 4101275.2340791528
   }
  },
  {
   "attributes": {
    "OBJECTID": 5955,
    "ولایت": "کابل",
    "Province": "KABUL",
    "PC_Code": "0101193",
    "District": "KABUL-D10",
    "د_مرکز_نوم__نام_مرکز": " مسجد امام ابو حنيفه",
    "Polling_Center_Name": "Imam-e- Abu Hanifa Mosque",
    "د_مرکز_ځای__موقعیت_مرکز": "اخير تايمني",
    "Polling_Center_Location": "End of Taimani",
    "Map_Accuracy": "Building",
    "Map_Accuracy_Dari": "تعمیر",
    "Status": "Open",
    "Status_Dari": null,
    "PS_Male": 1,
    "PS_Female": 2,
    "PS_Total": 3,
    "ولسوالي": "کابل - ناحیه 10",
    "Region": "Central Region"
   },
   "geometry": {
    "x": 7699889.2685874701,
    "y": 4104037.0526064229
   }
  },
  {
   "attributes": {
    "OBJECTID": 5956,
    "ولایت": "کابل",
    "Province": "KABUL",
    "PC_Code": "0101194",
    "District": "KABUL-D10",
    "د_مرکز_نوم__نام_مرکز": " مکتب متوسطه عزيزه افغان",
    "Polling_Center_Name": "Aziza Afghan Secondary School",
    "د_مرکز_ځای__موقعیت_مرکز": "بلاک هاي شاروالي",
    "Polling_Center_Location": "Bolak Haie Sharwali",
    "Map_Accuracy": "Building",
    "Map_Accuracy_Dari": "تعمیر",
    "Status": "Open",
    "Status_Dari": null,
    "PS_Male": 3,
    "PS_Female": 3,
    "PS_Total": 6,
    "ولسوالي": "کابل - ناحیه 10",
    "Region": "Central Region"
   },
   "geometry": {
    "x": 7703291.4326762129,
    "y": 4103146.9919617032
   }
  },
  {
   "attributes": {
    "OBJECTID": 5957,
    "ولایت": "کابل",
    "Province": "KABUL",
    "PC_Code": "0101233",
    "District": "KABUL-D11",
    "د_مرکز_نوم__نام_مرکز": " لیسه مخفی بدخشی",
    "Polling_Center_Name": "Makhfi Badakhshi High School",
    "د_مرکز_ځای__موقعیت_مرکز": "گولايي پارک",
    "Polling_Center_Location": "Hesa-e-Awal, Khair Khana",
    "Map_Accuracy": "Building",
    "Map_Accuracy_Dari": "تعمیر",
    "Status": "Open",
    "Status_Dari": null,
    "PS_Male": 3,
    "PS_Female": 4,
    "PS_Total": 7,
    "ولسوالي": "کابل - ناحیه 11",
    "Region": "Central Region"
   },
   "geometry": {
    "x": 7696767.6897280514,
    "y": 4106855.2078272523
   }
  },
  {
   "attributes": {
    "OBJECTID": 5958,
    "ولایت": "کابل",
    "Province": "KABUL",
    "PC_Code": "0101234",
    "District": "KABUL-D11",
    "د_مرکز_نوم__نام_مرکز": " ليسه خليل الله خليلي",
    "Polling_Center_Name": "Khalilullah Khalili High School",
    "د_مرکز_ځای__موقعیت_مرکز": "حصه اول خير خانه",
    "Polling_Center_Location": "Hesa-e-Awal, Khair Khana",
    "Map_Accuracy": "Building",
    "Map_Accuracy_Dari": "تعمیر",
    "Status": "Open",
    "Status_Dari": null,
    "PS_Male": 3,
    "PS_Female": 3,
    "PS_Total": 6,
    "ولسوالي": "کابل - ناحیه 11",
    "Region": "Central Region"
   },
   "geometry": {
    "x": 7694762.2089888826,
    "y": 4107018.2724194899
   }
  },
  {
   "attributes": {
    "OBJECTID": 5959,
    "ولایت": "کابل",
    "Province": "KABUL",
    "PC_Code": "0101294",
    "District": "KABUL-D15",
    "د_مرکز_نوم__نام_مرکز": "لیسه بی بی ساره",
    "Polling_Center_Name": "Bi Bi Sara High School",
    "د_مرکز_ځای__موقعیت_مرکز": "حصه سوم خير خانه",
    "Polling_Center_Location": "Hesa Sewom-e-Khair Khana",
    "Map_Accuracy": "Building",
    "Map_Accuracy_Dari": "تعمیر",
    "Status": "Open",
    "Status_Dari": null,
    "PS_Male": 4,
    "PS_Female": 5,
    "PS_Total": 9,
    "ولسوالي": "کابل - ناحیه 15",
    "Region": "Central Region"
   },
   "geometry": {
    "x": 7698083.5284106303,
    "y": 4106131.7517360831
   }
  },
  {
   "attributes": {
    "OBJECTID": 5960,
    "ولایت": "کابل",
    "Province": "KABUL",
    "PC_Code": "0101295",
    "District": "KABUL-D15",
    "د_مرکز_نوم__نام_مرکز": " مسجد سرور کاينات",
    "Polling_Center_Name": "Sarwar-e-Kaienat Mosque",
    "د_مرکز_ځای__موقعیت_مرکز": "حصه سوم خير خانه",
    "Polling_Center_Location": "Hesa Sewom-e-Khair Khana",
    "Map_Accuracy": "Building",
    "Map_Accuracy_Dari": "تعمیر",
    "Status": "Open",
    "Status_Dari": null,
    "PS_Male": 3,
    "PS_Female": 3,
    "PS_Total": 6,
    "ولسوالي": "کابل - ناحیه 15",
    "Region": "Central Region"
   },
   "geometry": {
    "x": 7694897.9564287355,
    "y": 4106124.0672085709
   }
  },
  {
   "attributes": {
    "OBJECTID": 5961,
    "ولایت": "کابل",
    "Province": "KABUL",
    "PC_Code": "0101303",
    "District": "KABUL-D15",
    "د_مرکز_نوم__نام_مرکز": " لیسه محمد انور بسمل ",
    "Polling_Center_Name": "Mohammad Anwer Bismel High School",
    "د_مرکز_ځای__موقعیت_مرکز": "پنجصد فاميلي",
    "Polling_Center_Location": "500 Family",
    "Map_Accuracy": "Building",
    "Map_Accuracy_Dari": "تعمیر",
    "Status": "Open",
    "Status_Dari": null,
    "PS_Male": 4,
    "PS_Female": 4,
    "PS_Total": 8,
    "ولسوالي": "کابل - ناحیه 15",
    "Region": "Central Region"
   },
   "geometry": {
    "x": 7698173.8382399688,
    "y": 4108075.4482085705
   }
  },
  {
   "attributes": {
    "OBJECTID": 5962,
    "ولایت": "کابل",
    "Province": "KABUL",
    "PC_Code": "0101504",
    "District": "KABUL-D15",
    "د_مرکز_نوم__نام_مرکز": "مسجدم جامع ام زفر",
    "Polling_Center_Name": "Im-e-Zafra Mosque",
    "د_مرکز_ځای__موقعیت_مرکز": "۵۰۰ فامیلی، سر تپه شهدا",
    "Polling_Center_Location": "Family, Sar-e-Tapa-e-Shohada 500",
    "Map_Accuracy": "Building",
    "Map_Accuracy_Dari": "تعمیر",
    "Status": "Open",
    "Status_Dari": null,
    "PS_Male": 3,
    "PS_Female": 2,
    "PS_Total": 5,
    "ولسوالي": "کابل - ناحیه 15",
    "Region": "Central Region"
   },
   "geometry": {
    "x": 7697289.3462202437,
    "y": 4108780.1279897438
   }
  },
  {
   "attributes": {
    "OBJECTID": 5963,
    "ولایت": "کابل",
    "Province": "KABUL",
    "PC_Code": "0101312",
    "District": "KABUL-D16",
    "د_مرکز_نوم__نام_مرکز": " مکتب متوسطه قلعه زمان خان",
    "Polling_Center_Name": "Qala Zaman Khan Secondary School",
    "د_مرکز_ځای__موقعیت_مرکز": "قلعه زمان خان",
    "Polling_Center_Location": "Qala-e-Zaman Khan",
    "Map_Accuracy": "Building",
    "Map_Accuracy_Dari": "تعمیر",
    "Status": "Open",
    "Status_Dari": null,
    "PS_Male": 5,
    "PS_Female": 4,
    "PS_Total": 9,
    "ولسوالي": "کابل - ناحیه 16",
    "Region": "Central Region"
   },
   "geometry": {
    "x": 7704707.8051041244,
    "y": 4099864.226896971
   }
  },
  {
   "attributes": {
    "OBJECTID": 5964,
    "ولایت": "کابل",
    "Province": "KABUL",
    "PC_Code": "0101320",
    "District": "KABUL-D16",
    "د_مرکز_نوم__نام_مرکز": "مسجد ابو ايوب انصاري",
    "Polling_Center_Name": "Abu Ayub Ansari Mosque",
    "د_مرکز_ځای__موقعیت_مرکز": "قلعه زمان خان",
    "Polling_Center_Location": "Qala-e-Zaman Khan",
    "Map_Accuracy": "Building",
    "Map_Accuracy_Dari": "تعمیر",
    "Status": "Open",
    "Status_Dari": null,
    "PS_Male": 1,
    "PS_Female": 2,
    "PS_Total": 3,
    "ولسوالي": "کابل - ناحیه 16",
    "Region": "Central Region"
   },
   "geometry": {
    "x": 7704859.6203992795,
    "y": 4100868.1669399845
   }
  },
  {
   "attributes": {
    "OBJECTID": 5965,
    "ولایت": "کابل",
    "Province": "KABUL",
    "PC_Code": "0101321",
    "District": "KABUL-D16",
    "د_مرکز_نوم__نام_مرکز": "مسجد حضرت بلال",
    "Polling_Center_Name": "Hazrat-e-Bilal Mosque",
    "د_مرکز_ځای__موقعیت_مرکز": "قلعه زمان خان",
    "Polling_Center_Location": "Qala-e-Zaman Khan",
    "Map_Accuracy": "Village",
    "Map_Accuracy_Dari": "قریه",
    "Status": "Open",
    "Status_Dari": null,
    "PS_Male": 3,
    "PS_Female": 2,
    "PS_Total": 5,
    "ولسوالي": "کابل - ناحیه 16",
    "Region": "Central Region"
   },
   "geometry": {
    "x": 7705485.0021666074,
    "y": 4100133.7887502448
   }
  },
  {
   "attributes": {
    "OBJECTID": 5966,
    "ولایت": "کابل",
    "Province": "KABUL",
    "PC_Code": "0101510",
    "District": "KABUL-D21",
    "د_مرکز_نوم__نام_مرکز": " مسجد شریف قول باهو",
    "Polling_Center_Name": "Sharif Qul Bahu Mosque",
    "د_مرکز_ځای__موقعیت_مرکز": "بت خاک",
    "Polling_Center_Location": "Bot Khak",
    "Map_Accuracy": "Building",
    "Map_Accuracy_Dari": "تعمیر",
    "Status": "Open",
    "Status_Dari": null,
    "PS_Male": 2,
    "PS_Female": 3,
    "PS_Total": 5,
    "ولسوالي": "کابل - ناحیه 21",
    "Region": "Central Region"
   },
   "geometry": {
    "x": 7720479.6242532171,
    "y": 4096752.7352268565
   }
  },
  {
   "attributes": {
    "OBJECTID": 5967,
    "ولایت": "پروان",
    "Province": "PARWAN",
    "PC_Code": "0302119",
    "District": "BAGRAM",
    "د_مرکز_نوم__نام_مرکز": "مسجد باریک آب ",
    "Polling_Center_Name": "Barik Aab Mosque",
    "د_مرکز_ځای__موقعیت_مرکز": "باریک آب ",
    "Polling_Center_Location": "Barik Aab",
    "Map_Accuracy": "Building",
    "Map_Accuracy_Dari": "تعمیر",
    "Status": "Open",
    "Status_Dari": null,
    "PS_Male": 3,
    "PS_Female": 2,
    "PS_Total": 5,
    "ولسوالي": "بگرام ",
    "Region": "Central Region"
   },
   "geometry": {
    "x": 7712678.1526275063,
    "y": 4151985.5039489171
   }
  },
  {
   "attributes": {
    "OBJECTID": 5968,
    "ولایت": "پروان",
    "Province": "PARWAN",
    "PC_Code": "0302120",
    "District": "BAGRAM",
    "د_مرکز_نوم__نام_مرکز": "لیسه قلعه ملک ",
    "Polling_Center_Name": "Qala-e-Malik High School",
    "د_مرکز_ځای__موقعیت_مرکز": "قلعه ملک ",
    "Polling_Center_Location": "Qala-e-Malak",
    "Map_Accuracy": "Building",
    "Map_Accuracy_Dari": "تعمیر",
    "Status": "Open",
    "Status_Dari": null,
    "PS_Male": 2,
    "PS_Female": 1,
    "PS_Total": 3,
    "ولسوالي": "بگرام ",
    "Region": "Central Region"
   },
   "geometry": {
    "x": 7704413.9851005403,
    "y": 4159762.2248335266
   }
  },
  {
   "attributes": {
    "OBJECTID": 5969,
    "ولایت": "پروان",
    "Province": "PARWAN",
    "PC_Code": "0308149",
    "District": "KOHI SAFI",
    "د_مرکز_نوم__نام_مرکز": "مسجد شمال خیل ",
    "Polling_Center_Name": "Shamal Khel Mosque",
    "د_مرکز_ځای__موقعیت_مرکز": "شمال خیل ",
    "Polling_Center_Location": "Shamal Khel ",
    "Map_Accuracy": "Building",
    "Map_Accuracy_Dari": "تعمیر",
    "Status": "Open",
    "Status_Dari": null,
    "PS_Male": 2,
    "PS_Female": 1,
    "PS_Total": 3,
    "ولسوالي": "کوه صافی",
    "Region": "Central Region"
   },
   "geometry": {
    "x": 7731567.0909545822,
    "y": 4139990.8712535831
   }
  },
  {
   "attributes": {
    "OBJECTID": 5970,
    "ولایت": "وردک",
    "Province": "WARDAK",
    "PC_Code": "0407031",
    "District": "HISSA-E-AWALI BIHSUD",
    "د_مرکز_نوم__نام_مرکز": "مسجد گردی",
    "Polling_Center_Name": "Girdi Mosque",
    "د_مرکز_ځای__موقعیت_مرکز": "سیاه سنگ",
    "Polling_Center_Location": "Sia Sang",
    "Map_Accuracy": "Village",
    "Map_Accuracy_Dari": "قریه",
    "Status": "Open",
    "Status_Dari": null,
    "PS_Male": 1,
    "PS_Female": 1,
    "PS_Total": 2,
    "ولسوالي": "حصه اول بهسود",
    "Region": "Central Region"
   },
   "geometry": {
    "x": 7584653.8542179335,
    "y": 4110971.4886184102
   }
  },
  {
   "attributes": {
    "OBJECTID": 5971,
    "ولایت": "وردک",
    "Province": "WARDAK",
    "PC_Code": "0407032",
    "District": "HISSA-E-AWALI BIHSUD",
    "د_مرکز_نوم__نام_مرکز": "دوکان حاجی میرزا",
    "Polling_Center_Name": "Haji Merza Shop",
    "د_مرکز_ځای__موقعیت_مرکز": "قریه دهن سیاه سنگ",
    "Polling_Center_Location": "Dahan-e-Sia Sang Village ",
    "Map_Accuracy": "Building",
    "Map_Accuracy_Dari": "تعمیر",
    "Status": "Open",
    "Status_Dari": null,
    "PS_Male": 3,
    "PS_Female": 2,
    "PS_Total": 5,
    "ولسوالي": "حصه اول بهسود",
    "Region": "Central Region"
   },
   "geometry": {
    "x": 7596789.4787505688,
    "y": 4096913.432229423
   }
  },
  {
   "attributes": {
    "OBJECTID": 5972,
    "ولایت": "لوگر",
    "Province": "LOGAR",
    "PC_Code": "0505066",
    "District": "MOHAMMAD AGHA",
    "د_مرکز_نوم__نام_مرکز": "متوسطه اناث سرخ آباد",
    "Polling_Center_Name": "Surkh Abad Girls Secondary School",
    "د_مرکز_ځای__موقعیت_مرکز": "سرخ آباد",
    "Polling_Center_Location": "Surkh Abad",
    "Map_Accuracy": "Building",
    "Map_Accuracy_Dari": "تعمیر",
    "Status": "Open",
    "Status_Dari": null,
    "PS_Male": 2,
    "PS_Female": 1,
    "PS_Total": 3,
    "ولسوالي": "محمد آغه",
    "Region": "Central Region"
   },
   "geometry": {
    "x": 7689097.7779255854,
    "y": 4052754.5071817241
   }
  },
  {
   "attributes": {
    "OBJECTID": 5973,
    "ولایت": "لوگر",
    "Province": "LOGAR",
    "PC_Code": "0505067",
    "District": "MOHAMMAD AGHA",
    "د_مرکز_نوم__نام_مرکز": "لیسه عالی محمد آغه",
    "Polling_Center_Name": "Mohammad Agha High School",
    "د_مرکز_ځای__موقعیت_مرکز": "پل قندهاری",
    "Polling_Center_Location": "Pul-e-Qandahari",
    "Map_Accuracy": "Building",
    "Map_Accuracy_Dari": "تعمیر",
    "Status": "Open",
    "Status_Dari": null,
    "PS_Male": 3,
    "PS_Female": 1,
    "PS_Total": 4,
    "ولسوالي": "محمد آغه",
    "Region": "Central Region"
   },
   "geometry": {
    "x": 7692707.9836710868,
    "y": 4059099.6438180311
   }
  },
  {
   "attributes": {
    "OBJECTID": 5974,
    "ولایت": "ننگرهار",
    "Province": "NANGARHAR",
    "PC_Code": "0602064",
    "District": "BEHSUD",
    "د_مرکز_نوم__نام_مرکز": "محمدی صاحبزاده لیسه",
    "Polling_Center_Name": "Mohammady Sahebzada High School",
    "د_مرکز_ځای__موقعیت_مرکز": "بلندغر",
    "Polling_Center_Location": "Baland Ghar",
    "Map_Accuracy": "Building",
    "Map_Accuracy_Dari": "تعمیر",
    "Status": "Open",
    "Status_Dari": null,
    "PS_Male": 4,
    "PS_Female": 3,
    "PS_Total": 7,
    "ولسوالي": "بهسود",
    "Region": "Eastern Region"
   },
   "geometry": {
    "x": 7850101.1255884944,
    "y": 4089451.6474296073
   }
  },
  {
   "attributes": {
    "OBJECTID": 5975,
    "ولایت": "ننگرهار",
    "Province": "NANGARHAR",
    "PC_Code": "0602066",
    "District": "BEHSUD",
    "د_مرکز_نوم__نام_مرکز": "حاجی مزدور تحویلدار دیره",
    "Polling_Center_Name": "Haji Mazdoor Khan Tahwildar Dera",
    "د_مرکز_ځای__موقعیت_مرکز": "ولايتي کلی",
    "Polling_Center_Location": "Walayaty Kelae",
    "Map_Accuracy": "Village",
    "Map_Accuracy_Dari": "قریه",
    "Status": "Open",
    "Status_Dari": null,
    "PS_Male": 4,
    "PS_Female": 2,
    "PS_Total": 6,
    "ولسوالي": "بهسود",
    "Region": "Eastern Region"
   },
   "geometry": {
    "x": 7847660.082851314,
    "y": 4088543.1620187657
   }
  },
  {
   "attributes": {
    "OBJECTID": 5976,
    "ولایت": "ننگرهار",
    "Province": "NANGARHAR",
    "PC_Code": "0614497",
    "District": "GOSHTA",
    "د_مرکز_نوم__نام_مرکز": "معلم غني کور",
    "Polling_Center_Name": "Malem Ghani House",
    "د_مرکز_ځای__موقعیت_مرکز": "خوګاخيل",
    "Polling_Center_Location": "KhogaKhel",
    "Map_Accuracy": "Village",
    "Map_Accuracy_Dari": "قریه",
    "Status": "Open",
    "Status_Dari": null,
    "PS_Male": 0,
    "PS_Female": 2,
    "PS_Total": 2,
    "ولسوالي": "ګوشته",
    "Region": "Eastern Region"
   },
   "geometry": {
    "x": 7894098.4444571584,
    "y": 4095364.958542157
   }
  },
  {
   "attributes": {
    "OBJECTID": 5977,
    "ولایت": "ننگرهار",
    "Province": "NANGARHAR",
    "PC_Code": "0614498",
    "District": "GOSHTA",
    "د_مرکز_نوم__نام_مرکز": "تش ميدان",
    "Polling_Center_Name": "Open Space",
    "د_مرکز_ځای__موقعیت_مرکز": "علي خيل کلی",
    "Polling_Center_Location": "Ali Khel Village",
    "Map_Accuracy": "Village",
    "Map_Accuracy_Dari": "قریه",
    "Status": "Open",
    "Status_Dari": null,
    "PS_Male": 2,
    "PS_Female": 0,
    "PS_Total": 2,
    "ولسوالي": "ګوشته",
    "Region": "Eastern Region"
   },
   "geometry": {
    "x": 7894788.3180582821,
    "y": 4093373.6519761533
   }
  },
  {
   "attributes": {
    "OBJECTID": 5978,
    "ولایت": "پنجشیر",
    "Province": "PANJSHIR",
    "PC_Code": "0806087",
    "District": "SHUTUL",
    "د_مرکز_نوم__نام_مرکز": "مسجد روی دره ",
    "Polling_Center_Name": "Roye Dara Mosque",
    "د_مرکز_ځای__موقعیت_مرکز": "روی دره",
    "Polling_Center_Location": "Roye Dara",
    "Map_Accuracy": "Village",
    "Map_Accuracy_Dari": "قریه",
    "Status": "Open",
    "Status_Dari": null,
    "PS_Male": 2,
    "PS_Female": 1,
    "PS_Total": 3,
    "ولسوالي": "شتل",
    "Region": "Central Region"
   },
   "geometry": {
    "x": 7714265.3470404306,
    "y": 4197104.8006342631
   }
  },
  {
   "attributes": {
    "OBJECTID": 5979,
    "ولایت": "پنجشیر",
    "Province": "PANJSHIR",
    "PC_Code": "0806088",
    "District": "SHUTUL",
    "د_مرکز_نوم__نام_مرکز": "مسجد جانان جوی ",
    "Polling_Center_Name": "Janan Joy Mosque",
    "د_مرکز_ځای__موقعیت_مرکز": "جانان جوی",
    "Polling_Center_Location": "Janan Joy",
    "Map_Accuracy": "Village",
    "Map_Accuracy_Dari": "قریه",
    "Status": "Open",
    "Status_Dari": null,
    "PS_Male": 2,
    "PS_Female": 1,
    "PS_Total": 3,
    "ولسوالي": "شتل",
    "Region": "Central Region"
   },
   "geometry": {
    "x": 7710206.8610450923,
    "y": 4189534.0769605325
   }
  },
  {
   "attributes": {
    "OBJECTID": 5980,
    "ولایت": "بغلان",
    "Province": "BAGHLAN",
    "PC_Code": "0901027",
    "District": "PUL-E-KHUMRI",
    "د_مرکز_نوم__نام_مرکز": "لوگری نزدیک نهر جوی نو",
    "Polling_Center_Name": "Loogari near to Joy-e-Naw River",
    "د_مرکز_ځای__موقعیت_مرکز": "لوگری",
    "Polling_Center_Location": "Logari",
    "Map_Accuracy": "Building",
    "Map_Accuracy_Dari": "تعمیر",
    "Status": "Open",
    "Status_Dari": null,
    "PS_Male": 3,
    "PS_Female": 1,
    "PS_Total": 4,
    "ولسوالي": "پلخمری",
    "Region": "North Eastern Region"
   },
   "geometry": {
    "x": 7639208.5109919524,
    "y": 4294055.4301661756
   }
  },
  {
   "attributes": {
    "OBJECTID": 5981,
    "ولایت": "بغلان",
    "Province": "BAGHLAN",
    "PC_Code": "0901028",
    "District": "PUL-E-KHUMRI",
    "د_مرکز_نوم__نام_مرکز": "نزدیک قریه شهر نو خروتی گورگان",
    "Polling_Center_Name": "Near to Shahr-e-Naw Kharoti Gorgan ",
    "د_مرکز_ځای__موقعیت_مرکز": "شهر نو خروتی گورگان",
    "Polling_Center_Location": "Shahr-e-Naw Kharoti Gorgan ",
    "Map_Accuracy": "Building",
    "Map_Accuracy_Dari": "تعمیر",
    "Status": "Open",
    "Status_Dari": null,
    "PS_Male": 3,
    "PS_Female": 1,
    "PS_Total": 4,
    "ولسوالي": "پلخمری",
    "Region": "North Eastern Region"
   },
   "geometry": {
    "x": 7633986.5982816545,
    "y": 4293145.8707320336
   }
  },
  {
   "attributes": {
    "OBJECTID": 5982,
    "ولایت": "بغلان",
    "Province": "BAGHLAN",
    "PC_Code": "0905060",
    "District": "BAGLAN-E-JADEED",
    "د_مرکز_نوم__نام_مرکز": "مکتب زرینه",
    "Polling_Center_Name": "Zeerina School",
    "د_مرکز_ځای__موقعیت_مرکز": "باغ زراعت",
    "Polling_Center_Location": "Bagh-e-Zaraut",
    "Map_Accuracy": "Building",
    "Map_Accuracy_Dari": "تعمیر",
    "Status": "Open",
    "Status_Dari": null,
    "PS_Male": 2,
    "PS_Female": 2,
    "PS_Total": 4,
    "ولسوالي": "بغلان جدید",
    "Region": "North Eastern Region"
   },
   "geometry": {
    "x": 7646163.9353406876,
    "y": 4316157.837769581
   }
  },
  {
   "attributes": {
    "OBJECTID": 5983,
    "ولایت": "بغلان",
    "Province": "BAGHLAN",
    "PC_Code": "0905061",
    "District": "BAGLAN-E-JADEED",
    "د_مرکز_نوم__نام_مرکز": "مکتب خواجه خان بابا",
    "Polling_Center_Name": "Khwaja Khan Baba School",
    "د_مرکز_ځای__موقعیت_مرکز": "سرک دوازده خواجه خان",
    "Polling_Center_Location": "Khawaja Khan Street 12",
    "Map_Accuracy": "Building",
    "Map_Accuracy_Dari": "تعمیر",
    "Status": "Open",
    "Status_Dari": null,
    "PS_Male": 2,
    "PS_Female": 1,
    "PS_Total": 3,
    "ولسوالي": "بغلان جدید",
    "Region": "North Eastern Region"
   },
   "geometry": {
    "x": 7649800.7765007513,
    "y": 4322307.6627130229
   }
  },
  {
   "attributes": {
    "OBJECTID": 5984,
    "ولایت": "بغلان",
    "Province": "BAGHLAN",
    "PC_Code": "0905237",
    "District": "BAGLAN-E-JADEED",
    "د_مرکز_نوم__نام_مرکز": "مسجد تورانی ها",
    "Polling_Center_Name": "Torani Ha Mosque",
    "د_مرکز_ځای__موقعیت_مرکز": "قشلاق تورانی ها",
    "Polling_Center_Location": "Torani Ha Village",
    "Map_Accuracy": "Building",
    "Map_Accuracy_Dari": "تعمیر",
    "Status": "Open",
    "Status_Dari": null,
    "PS_Male": 2,
    "PS_Female": 1,
    "PS_Total": 3,
    "ولسوالي": "بغلان جدید",
    "Region": "North Eastern Region"
   },
   "geometry": {
    "x": 7653705.2575465525,
    "y": 4321796.4632841162
   }
  },
  {
   "attributes": {
    "OBJECTID": 5985,
    "ولایت": "بغلان",
    "Province": "BAGHLAN",
    "PC_Code": "0906112",
    "District": "KHINJAN",
    "د_مرکز_نوم__نام_مرکز": "لیسه زکور خنجان ",
    "Polling_Center_Name": "Khenjan Boys High School",
    "د_مرکز_ځای__موقعیت_مرکز": "مرکز شهر خنجان",
    "Polling_Center_Location": "Khenjan City Capital  ",
    "Map_Accuracy": "Building",
    "Map_Accuracy_Dari": "تعمیر",
    "Status": "Open",
    "Status_Dari": null,
    "PS_Male": 3,
    "PS_Female": 2,
    "PS_Total": 5,
    "ولسوالي": "خنجان",
    "Region": "North Eastern Region"
   },
   "geometry": {
    "x": 7670063.2459497005,
    "y": 4245616.9357980527
   }
  },
  {
   "attributes": {
    "OBJECTID": 5986,
    "ولایت": "باميان",
    "Province": "BAMYAN",
    "PC_Code": "1003046",
    "District": "SAIGHAN",
    "د_مرکز_نوم__نام_مرکز": "مسجد جو دره",
    "Polling_Center_Name": "Jawdarah Mosque",
    "د_مرکز_ځای__موقعیت_مرکز": "جو دره",
    "Polling_Center_Location": "Jawdarah",
    "Map_Accuracy": "Building",
    "Map_Accuracy_Dari": "تعمیر",
    "Status": "Open",
    "Status_Dari": null,
    "PS_Male": 1,
    "PS_Female": 1,
    "PS_Total": 2,
    "ولسوالي": "سیغان",
    "Region": "Central Highlands Region"
   },
   "geometry": {
    "x": 7555857.1650629053,
    "y": 4173651.9102191739
   }
  },
  {
   "attributes": {
    "OBJECTID": 5987,
    "ولایت": "باميان",
    "Province": "BAMYAN",
    "PC_Code": "1003047",
    "District": "SAIGHAN",
    "د_مرکز_نوم__نام_مرکز": "مسجد چراغدان",
    "Polling_Center_Name": "Cheraaghdan Mosque",
    "د_مرکز_ځای__موقعیت_مرکز": "چراغدان",
    "Polling_Center_Location": "Cheraaghdan",
    "Map_Accuracy": "Building",
    "Map_Accuracy_Dari": "تعمیر",
    "Status": "Open",
    "Status_Dari": null,
    "PS_Male": 1,
    "PS_Female": 1,
    "PS_Total": 2,
    "ولسوالي": "سیغان",
    "Region": "Central Highlands Region"
   },
   "geometry": {
    "x": 7543531.4981219796,
    "y": 4189245.217530949
   }
  },
  {
   "attributes": {
    "OBJECTID": 5988,
    "ولایت": "باميان",
    "Province": "BAMYAN",
    "PC_Code": "1005070",
    "District": "YAKAWLANG",
    "د_مرکز_نوم__نام_مرکز": "منبر نیشر",
    "Polling_Center_Name": "Munbar-e-Naishar ",
    "د_مرکز_ځای__موقعیت_مرکز": "نیشر",
    "Polling_Center_Location": "Naishar",
    "Map_Accuracy": "Building",
    "Map_Accuracy_Dari": "تعمیر",
    "Status": "Open",
    "Status_Dari": null,
    "PS_Male": 1,
    "PS_Female": 2,
    "PS_Total": 3,
    "ولسوالي": "یکاولنگ",
    "Region": "Central Highlands Region"
   },
   "geometry": {
    "x": 7464036.043394194,
    "y": 4121639.1739668511
   }
  },
  {
   "attributes": {
    "OBJECTID": 5989,
    "ولایت": "غزنى",
    "Province": "GHAZNI",
    "PC_Code": "1106113",
    "District": "JAGHATU",
    "د_مرکز_نوم__نام_مرکز": "مهمان خانه یقوبی",
    "Polling_Center_Name": "Yaqoobi Guest House",
    "د_مرکز_ځای__موقعیت_مرکز": "قریه گیرو فقیر شاه ",
    "Polling_Center_Location": "Gero-e-Faqeer Shah Village",
    "Map_Accuracy": "Building",
    "Map_Accuracy_Dari": "تعمیر",
    "Status": "Open",
    "Status_Dari": null,
    "PS_Male": 0,
    "PS_Female": 3,
    "PS_Total": 3,
    "ولسوالي": "جغتو",
    "Region": "South Eastern Region"
   },
   "geometry": {
    "x": 7572190.0164118418,
    "y": 3972388.0281052934
   }
  },
  {
   "attributes": {
    "OBJECTID": 5990,
    "ولایت": "پکتيکا",
    "Province": "PAKTIKA",
    "PC_Code": "1203041",
    "District": "YOSUF KHEL",
    "د_مرکز_نوم__نام_مرکز": "میرزا خیلو بازار زوړ ښوونځی مشخیل",
    "Polling_Center_Name": "Merza Khel  Bazar, Old School",
    "د_مرکز_ځای__موقعیت_مرکز": "مشخیل ",
    "Polling_Center_Location": "Mosh Khel",
    "Map_Accuracy": "Building",
    "Map_Accuracy_Dari": "تعمیر",
    "Status": "Open",
    "Status_Dari": null,
    "PS_Male": 4,
    "PS_Female": 0,
    "PS_Total": 4,
    "ولسوالي": "یوسف خیل",
    "Region": "South Eastern Region"
   },
   "geometry": {
    "x": 7646319.5499700597,
    "y": 3906384.2954749404
   }
  },
  {
   "attributes": {
    "OBJECTID": 5991,
    "ولایت": "پکتيکا",
    "Province": "PAKTIKA",
    "PC_Code": "1203042",
    "District": "YOSUF KHEL",
    "د_مرکز_نوم__نام_مرکز": "میلمستون مدیر رسول",
    "Polling_Center_Name": "Bazi Wani Mosque",
    "د_مرکز_ځای__موقعیت_مرکز": "مشخیل ",
    "Polling_Center_Location": "Mosh Khel",
    "Map_Accuracy": "Village",
    "Map_Accuracy_Dari": "قریه",
    "Status": "Open",
    "Status_Dari": null,
    "PS_Male": 0,
    "PS_Female": 4,
    "PS_Total": 4,
    "ولسوالي": "یوسف خیل",
    "Region": "South Eastern Region"
   },
   "geometry": {
    "x": 7632104.2324465262,
    "y": 3890701.7107792543
   }
  },
  {
   "attributes": {
    "OBJECTID": 5992,
    "ولایت": "پکتيکا",
    "Province": "PAKTIKA",
    "PC_Code": "1208139",
    "District": "GOMAL",
    "د_مرکز_نوم__نام_مرکز": "علی زی کلینیک",
    "Polling_Center_Name": "Ali Zai Clinic",
    "د_مرکز_ځای__موقعیت_مرکز": "علی زی",
    "Polling_Center_Location": "Ali Zai",
    "Map_Accuracy": "Village",
    "Map_Accuracy_Dari": "قریه",
    "Status": "Open",
    "Status_Dari": null,
    "PS_Male": 2,
    "PS_Female": 0,
    "PS_Total": 2,
    "ولسوالي": "گومل",
    "Region": "South Eastern Region"
   },
   "geometry": {
    "x": 7672157.5407182099,
    "y": 3865685.5027401242
   }
  },
  {
   "attributes": {
    "OBJECTID": 5993,
    "ولایت": "پکتيکا",
    "Province": "PAKTIKA",
    "PC_Code": "1208140",
    "District": "GOMAL",
    "د_مرکز_نوم__نام_مرکز": "خیر منزود انجونو لومړنی ښوونځی ",
    "Polling_Center_Name": "Khair Manzo Girls Primary School",
    "د_مرکز_ځای__موقعیت_مرکز": "خیرمنذی",
    "Polling_Center_Location": "Khair Manzi",
    "Map_Accuracy": "Village",
    "Map_Accuracy_Dari": "قریه",
    "Status": "Open",
    "Status_Dari": null,
    "PS_Male": 0,
    "PS_Female": 2,
    "PS_Total": 2,
    "ولسوالي": "گومل",
    "Region": "South Eastern Region"
   },
   "geometry": {
    "x": 7666824.12595315,
    "y": 3846579.4466506015
   }
  },
  {
   "attributes": {
    "OBJECTID": 5994,
    "ولایت": "کابل",
    "Province": "KABUL",
    "PC_Code": "0101090",
    "District": "KABUL-D05",
    "د_مرکز_نوم__نام_مرکز": "مسجد محمدي دارالحفاظ",
    "Polling_Center_Name": "Mohammadia Darul Hefaz Mosque",
    "د_مرکز_ځای__موقعیت_مرکز": "قسمت ب خوشحال مينه",
    "Polling_Center_Location": "Phase B of Khush-hal Mina",
    "Map_Accuracy": "Building",
    "Map_Accuracy_Dari": "تعمیر",
    "Status": "Open",
    "Status_Dari": null,
    "PS_Male": 1,
    "PS_Female": 1,
    "PS_Total": 2,
    "ولسوالي": "کابل - ناحیه 05",
    "Region": "Central Region"
   },
   "geometry": {
    "x": 7692773.7200567899,
    "y": 4099128.6374173332
   }
  },
  {
   "attributes": {
    "OBJECTID": 5995,
    "ولایت": "کابل",
    "Province": "KABUL",
    "PC_Code": "0101091",
    "District": "KABUL-D05",
    "د_مرکز_نوم__نام_مرکز": " لیسه پروفیسور رسول امین",
    "Polling_Center_Name": "Professor Rasool Amin High School",
    "د_مرکز_ځای__موقعیت_مرکز": "قسمت ب خوشحال مينه",
    "Polling_Center_Location": "Phase B of Khush-hal Mina",
    "Map_Accuracy": "Building",
    "Map_Accuracy_Dari": "تعمیر",
    "Status": "Open",
    "Status_Dari": null,
    "PS_Male": 4,
    "PS_Female": 3,
    "PS_Total": 7,
    "ولسوالي": "کابل - ناحیه 05",
    "Region": "Central Region"
   },
   "geometry": {
    "x": 7694135.3355403785,
    "y": 4100023.2580832345
   }
  },
  {
   "attributes": {
    "OBJECTID": 5996,
    "ولایت": "کابل",
    "Province": "KABUL",
    "PC_Code": "0101147",
    "District": "KABUL-D08",
    "د_مرکز_نوم__نام_مرکز": " لیسه نسوان سید نورمحمد شاه مینه",
    "Polling_Center_Name": "Sayed Noor Mohammad Shah Mina Girls High School",
    "د_مرکز_ځای__موقعیت_مرکز": "سر تپه کارته نو",
    "Polling_Center_Location": "Sar-e-Tapa Kart-e-Naw",
    "Map_Accuracy": "Building",
    "Map_Accuracy_Dari": "تعمیر",
    "Status": "Open",
    "Status_Dari": null,
    "PS_Male": 3,
    "PS_Female": 6,
    "PS_Total": 9,
    "ولسوالي": "کابل - ناحیه 08",
    "Region": "Central Region"
   },
   "geometry": {
    "x": 7706378.0794794187,
    "y": 4097841.2009709044
   }
  },
  {
   "attributes": {
    "OBJECTID": 5997,
    "ولایت": "کابل",
    "Province": "KABUL",
    "PC_Code": "0101148",
    "District": "KABUL-D08",
    "د_مرکز_نوم__نام_مرکز": "  لیسه قلعه حشمت خان",
    "Polling_Center_Name": "Qala-e-Hashmat Khan High School",
    "د_مرکز_ځای__موقعیت_مرکز": "باغچه سعيد",
    "Polling_Center_Location": "Baghcha-e-Said",
    "Map_Accuracy": "Building",
    "Map_Accuracy_Dari": "تعمیر",
    "Status": "Open",
    "Status_Dari": null,
    "PS_Male": 4,
    "PS_Female": 4,
    "PS_Total": 8,
    "ولسوالي": "کابل - ناحیه 08",
    "Region": "Central Region"
   },
   "geometry": {
    "x": 7702038.9626137633,
    "y": 4096195.922354178
   }
  },
  {
   "attributes": {
    "OBJECTID": 5998,
    "ولایت": "کاپيسا",
    "Province": "KAPISA",
    "PC_Code": "0204029",
    "District": "HISSA-E-AWALI KOHISTAN",
    "د_مرکز_نوم__نام_مرکز": "لیسه نسوان نساجی گلبهار",
    "Polling_Center_Name": "Nasaji Gulbahar Girls High School ",
    "د_مرکز_ځای__موقعیت_مرکز": "پنجاه کوتی ",
    "Polling_Center_Location": "Penjah Kuti",
    "Map_Accuracy": "Building",
    "Map_Accuracy_Dari": "تعمیر",
    "Status": "Open",
    "Status_Dari": null,
    "PS_Male": 4,
    "PS_Female": 2,
    "PS_Total": 6,
    "ولسوالي": "حصه اول کوهستان ",
    "Region": "Central Region"
   },
   "geometry": {
    "x": 7714597.934056689,
    "y": 4181561.819079224
   }
  },
  {
   "attributes": {
    "OBJECTID": 5999,
    "ولایت": "کاپيسا",
    "Province": "KAPISA",
    "PC_Code": "0204030",
    "District": "HISSA-E-AWALI KOHISTAN",
    "د_مرکز_نوم__نام_مرکز": "لیسه نسوان اشترگرام ",
    "Polling_Center_Name": "Ashtargeram Girls High School ",
    "د_مرکز_ځای__موقعیت_مرکز": "اشترگرام ",
    "Polling_Center_Location": "Ashtar Geram",
    "Map_Accuracy": "Building",
    "Map_Accuracy_Dari": "تعمیر",
    "Status": "Open",
    "Status_Dari": null,
    "PS_Male": 2,
    "PS_Female": 2,
    "PS_Total": 4,
    "ولسوالي": "حصه اول کوهستان ",
    "Region": "Central Region"
   },
   "geometry": {
    "x": 7715494.6492904592,
    "y": 4177950.1382256271
   }
  },
  {
   "attributes": {
    "OBJECTID": 6000,
    "ولایت": "پروان",
    "Province": "PARWAN",
    "PC_Code": "0301019",
    "District": "CHARIKAR",
    "د_مرکز_نوم__نام_مرکز": "مسجد دولانه",
    "Polling_Center_Name": "Dolana Mosque",
    "د_مرکز_ځای__موقعیت_مرکز": "دولانه ",
    "Polling_Center_Location": "Dolana",
    "Map_Accuracy": "Building",
    "Map_Accuracy_Dari": "تعمیر",
    "Status": "Open",
    "Status_Dari": null,
    "PS_Male": 2,
    "PS_Female": 1,
    "PS_Total": 3,
    "ولسوالي": "چاریکار",
    "Region": "Central Region"
   },
   "geometry": {
    "x": 7704491.2219028361,
    "y": 4166199.4318557261
   }
  }
 ]
}