{
 "displayFieldName": "Polling_Center_Name",
 "fieldAliases": {
  "OBJECTID": "OBJECTID",
  "ولایت": "ولایت",
  "Province": "Province",
  "PC_Code": "PC_Code",
  "District": "District",
  "د_مرکز_نوم__نام_مرکز": "د_مرکز_نوم__نام_مرکز",
  "Polling_Center_Name": "Polling_Center_Name",
  "د_مرکز_ځای__موقعیت_مرکز": "د_مرکز_ځای__موقعیت_مرکز",
  "Polling_Center_Location": "Polling_Center_Location",
  "Map_Accuracy": "Map_Accuracy",
  "Map_Accuracy_Dari": "Map_Accuracy_Dari",
  "Status": "Status",
  "Status_Dari": "Status_Dari",
  "PS_Male": "PS_Male",
  "PS_Female": "PS_Female",
  "PS_Total": "PS_Total",
  "ولسوالي": "ولسوالي",
  "Region": "Region"
 },
 "geometryType": "esriGeometryPoint",
 "spatialReference": {
  "wkid": 102100,
  "latestWkid": 3857
 },
 "fields": [
  {
   "name": "OBJECTID",
   "type": "esriFieldTypeOID",
   "alias": "OBJECTID"
  },
  {
   "name": "ولایت",
   "type": "esriFieldTypeString",
   "alias": "ولایت",
   "length": 255
  },
  {
   "name": "Province",
   "type": "esriFieldTypeString",
   "alias": "Province",
   "length": 255
  },
  {
   "name": "PC_Code",
   "type": "esriFieldTypeString",
   "alias": "PC_Code",
   "length": 255
  },
  {
   "name": "District",
   "type": "esriFieldTypeString",
   "alias": "District",
   "length": 255
  },
  {
   "name": "د_مرکز_نوم__نام_مرکز",
   "type": "esriFieldTypeString",
   "alias": "د_مرکز_نوم__نام_مرکز",
   "length": 255
  },
  {
   "name": "Polling_Center_Name",
   "type": "esriFieldTypeString",
   "alias": "Polling_Center_Name",
   "length": 255
  },
  {
   "name": "د_مرکز_ځای__موقعیت_مرکز",
   "type": "esriFieldTypeString",
   "alias": "د_مرکز_ځای__موقعیت_مرکز",
   "length": 255
  },
  {
   "name": "Polling_Center_Location",
   "type": "esriFieldTypeString",
   "alias": "Polling_Center_Location",
   "length": 255
  },
  {
   "name": "Map_Accuracy",
   "type": "esriFieldTypeString",
   "alias": "Map_Accuracy",
   "length": 10
  },
  {
   "name": "Map_Accuracy_Dari",
   "type": "esriFieldTypeString",
   "alias": "Map_Accuracy_Dari",
   "length": 50
  },
  {
   "name": "Status",
   "type": "esriFieldTypeString",
   "alias": "Status",
   "length": 6
  },
  {
   "name": "Status_Dari",
   "type": "esriFieldTypeString",
   "alias": "Status_Dari",
   "length": 8
  },
  {
   "name": "PS_Male",
   "type": "esriFieldTypeSmallInteger",
   "alias": "PS_Male"
  },
  {
   "name": "PS_Female",
   "type": "esriFieldTypeSmallInteger",
   "alias": "PS_Female"
  },
  {
   "name": "PS_Total",
   "type": "esriFieldTypeSmallInteger",
   "alias": "PS_Total"
  },
  {
   "name": "ولسوالي",
   "type": "esriFieldTypeString",
   "alias": "ولسوالي",
   "length": 255
  },
  {
   "name": "Region",
   "type": "esriFieldTypeString",
   "alias": "Region",
   "length": 50
  }
 ],
 "features": [
  {
   "attributes": {
    "OBJECTID": 4201,
    "ولایت": "جوزجان",
    "Province": "JAWZJAN",
    "PC_Code": "2811109",
    "District": "DARZAB",
    "د_مرکز_نوم__نام_مرکز": "مسجد قره یغاچ",
    "Polling_Center_Name": "Qara Yaghach Mosque",
    "د_مرکز_ځای__موقعیت_مرکز": "قریه قره یغاچ",
    "Polling_Center_Location": "Qara Yaghach Village",
    "Map_Accuracy": "Village",
    "Map_Accuracy_Dari": "قریه",
    "Status": "Open",
    "Status_Dari": null,
    "PS_Male": 1,
    "PS_Female": 1,
    "PS_Total": 2,
    "ولسوالي": "درز آب",
    "Region": "Northern Region"
   },
   "geometry": {
    "x": 7292174.0838692347,
    "y": 4302446.4993926445
   }
  },
  {
   "attributes": {
    "OBJECTID": 4202,
    "ولایت": "فارياب",
    "Province": "FARYAB",
    "PC_Code": "2902030",
    "District": "PASHTUN KOT",
    "د_مرکز_نوم__نام_مرکز": "لیسه انجلاد",
    "Polling_Center_Name": "Injelad High School",
    "د_مرکز_ځای__موقعیت_مرکز": "انجلاد",
    "Polling_Center_Location": "Injelad",
    "Map_Accuracy": "Village",
    "Map_Accuracy_Dari": "قریه",
    "Status": "Open",
    "Status_Dari": null,
    "PS_Male": 3,
    "PS_Female": 2,
    "PS_Total": 5,
    "ولسوالي": "پشتون کوت",
    "Region": "Northern Region"
   },
   "geometry": {
    "x": 7216866.545195546,
    "y": 4286536.7396096857
   }
  },
  {
   "attributes": {
    "OBJECTID": 4203,
    "ولایت": "فارياب",
    "Province": "FARYAB",
    "PC_Code": "2902031",
    "District": "PASHTUN KOT",
    "د_مرکز_نوم__نام_مرکز": "مسجد علیکه بالا",
    "Polling_Center_Name": "Alaika Bala Mosque",
    "د_مرکز_ځای__موقعیت_مرکز": "علیکه بالا",
    "Polling_Center_Location": "Alaika Bala",
    "Map_Accuracy": "Village",
    "Map_Accuracy_Dari": "قریه",
    "Status": "Open",
    "Status_Dari": null,
    "PS_Male": 2,
    "PS_Female": 1,
    "PS_Total": 3,
    "ولسوالي": "پشتون کوت",
    "Region": "Northern Region"
   },
   "geometry": {
    "x": 7219302.2846721867,
    "y": 4282489.2008705689
   }
  },
  {
   "attributes": {
    "OBJECTID": 4204,
    "ولایت": "فارياب",
    "Province": "FARYAB",
    "PC_Code": "2902040",
    "District": "PASHTUN KOT",
    "د_مرکز_نوم__نام_مرکز": "مسجد اوراض بالا پوگانی",
    "Polling_Center_Name": "Awraz Bala Pogani Mosque",
    "د_مرکز_ځای__موقعیت_مرکز": "اوراض بالا پوگانی",
    "Polling_Center_Location": "Awraz Bala Pogani",
    "Map_Accuracy": "Village",
    "Map_Accuracy_Dari": "قریه",
    "Status": "Open",
    "Status_Dari": null,
    "PS_Male": 2,
    "PS_Female": 1,
    "PS_Total": 3,
    "ولسوالي": "پشتون کوت",
    "Region": "Northern Region"
   },
   "geometry": {
    "x": 7216220.3121743975,
    "y": 4270262.2875058036
   }
  },
  {
   "attributes": {
    "OBJECTID": 4205,
    "ولایت": "فارياب",
    "Province": "FARYAB",
    "PC_Code": "2902041",
    "District": "PASHTUN KOT",
    "د_مرکز_نوم__نام_مرکز": "مسجد پشه خان",
    "Polling_Center_Name": "Pasha Khan Mosque",
    "د_مرکز_ځای__موقعیت_مرکز": "پشه خان",
    "Polling_Center_Location": "Pasha Khan",
    "Map_Accuracy": "Village",
    "Map_Accuracy_Dari": "قریه",
    "Status": "Open",
    "Status_Dari": null,
    "PS_Male": 1,
    "PS_Female": 1,
    "PS_Total": 2,
    "ولسوالي": "پشتون کوت",
    "Region": "Northern Region"
   },
   "geometry": {
    "x": 7207616.4799379539,
    "y": 4282917.9959330363
   }
  },
  {
   "attributes": {
    "OBJECTID": 4206,
    "ولایت": "فارياب",
    "Province": "FARYAB",
    "PC_Code": "2908128",
    "District": "GURZIWAN",
    "د_مرکز_نوم__نام_مرکز": "لیسه نسوان دونگ قلعه",
    "Polling_Center_Name": "Dong Qala Girls High School",
    "د_مرکز_ځای__موقعیت_مرکز": "دونگ قلعه",
    "Polling_Center_Location": "Dong Qala",
    "Map_Accuracy": "Building",
    "Map_Accuracy_Dari": "تعمیر",
    "Status": "Open",
    "Status_Dari": null,
    "PS_Male": 3,
    "PS_Female": 2,
    "PS_Total": 5,
    "ولسوالي": "گرزیوان",
    "Region": "Northern Region"
   },
   "geometry": {
    "x": 7258446.8997328859,
    "y": 4260509.0812625242
   }
  },
  {
   "attributes": {
    "OBJECTID": 4207,
    "ولایت": "فارياب",
    "Province": "FARYAB",
    "PC_Code": "2908129",
    "District": "GURZIWAN",
    "د_مرکز_نوم__نام_مرکز": "مکتب نسوان دره شاخ",
    "Polling_Center_Name": "Dara-e-Shakh Girls School",
    "د_مرکز_ځای__موقعیت_مرکز": "دره شاخ",
    "Polling_Center_Location": "Dara-e-Shakh",
    "Map_Accuracy": "Building",
    "Map_Accuracy_Dari": "تعمیر",
    "Status": "Open",
    "Status_Dari": null,
    "PS_Male": 3,
    "PS_Female": 1,
    "PS_Total": 4,
    "ولسوالي": "گرزیوان",
    "Region": "Northern Region"
   },
   "geometry": {
    "x": 7260864.1056275005,
    "y": 4249230.5831261035
   }
  },
  {
   "attributes": {
    "OBJECTID": 4208,
    "ولایت": "فارياب",
    "Province": "FARYAB",
    "PC_Code": "2910113",
    "District": "KOHISTAN",
    "د_مرکز_نوم__نام_مرکز": "مسجد بر غر",
    "Polling_Center_Name": "Bar Ghar Mosque",
    "د_مرکز_ځای__موقعیت_مرکز": "قریه زی مراد",
    "Polling_Center_Location": "Ze Murad Village",
    "Map_Accuracy": "Building",
    "Map_Accuracy_Dari": "تعمیر",
    "Status": "Open",
    "Status_Dari": null,
    "PS_Male": 1,
    "PS_Female": 1,
    "PS_Total": 2,
    "ولسوالي": "کوهستان",
    "Region": "Northern Region"
   },
   "geometry": {
    "x": 7185746.9689240577,
    "y": 4199689.4502302632
   }
  },
  {
   "attributes": {
    "OBJECTID": 4209,
    "ولایت": "فارياب",
    "Province": "FARYAB",
    "PC_Code": "2912194",
    "District": "QURGHAN",
    "د_مرکز_نوم__نام_مرکز": "لیسه یوسف اند خویی",
    "Polling_Center_Name": "Yousuf Andkhoy High School",
    "د_مرکز_ځای__موقعیت_مرکز": "نماز گاه کاگر ",
    "Polling_Center_Location": "Namazgah Kagar",
    "Map_Accuracy": "Building",
    "Map_Accuracy_Dari": "تعمیر",
    "Status": "Open",
    "Status_Dari": null,
    "PS_Male": 1,
    "PS_Female": 2,
    "PS_Total": 3,
    "ولسوالي": "قرغان",
    "Region": "Northern Region"
   },
   "geometry": {
    "x": 7246839.6809931723,
    "y": 4432597.4915894056
   }
  },
  {
   "attributes": {
    "OBJECTID": 4210,
    "ولایت": "فارياب",
    "Province": "FARYAB",
    "PC_Code": "2912195",
    "District": "QURGHAN",
    "د_مرکز_نوم__نام_مرکز": "لیسه ذکورمیر آباد",
    "Polling_Center_Name": "Mir Abad Boys High School",
    "د_مرکز_ځای__موقعیت_مرکز": "میر آباد",
    "Polling_Center_Location": "Mir Abad",
    "Map_Accuracy": "Building",
    "Map_Accuracy_Dari": "تعمیر",
    "Status": "Open",
    "Status_Dari": null,
    "PS_Male": 3,
    "PS_Female": 2,
    "PS_Total": 5,
    "ولسوالي": "قرغان",
    "Region": "Northern Region"
   },
   "geometry": {
    "x": 7246235.4020617167,
    "y": 4424559.638390013
   }
  },
  {
   "attributes": {
    "OBJECTID": 4211,
    "ولایت": "هلمند",
    "Province": "HELMAND",
    "PC_Code": "3001002",
    "District": "LASHKARGAH",
    "د_مرکز_نوم__نام_مرکز": "سینمای لشکرگاه",
    "Polling_Center_Name": "Lashkargah Cinema",
    "د_مرکز_ځای__موقعیت_مرکز": "ناحیه 2",
    "Polling_Center_Location": "D02 - Nahia 2",
    "Map_Accuracy": "Building",
    "Map_Accuracy_Dari": "تعمیر",
    "Status": "Open",
    "Status_Dari": null,
    "PS_Male": 5,
    "PS_Female": 0,
    "PS_Total": 5,
    "ولسوالي": "لشکرگاه",
    "Region": "Southern Region"
   },
   "geometry": {
    "x": 7164619.6372004282,
    "y": 3708686.7947435621
   }
  },
  {
   "attributes": {
    "OBJECTID": 4212,
    "ولایت": "هلمند",
    "Province": "HELMAND",
    "PC_Code": "3001025",
    "District": "LASHKARGAH",
    "د_مرکز_نوم__نام_مرکز": "مکتب بشران",
    "Polling_Center_Name": "Bushran School",
    "د_مرکز_ځای__موقعیت_مرکز": "بشران کلی",
    "Polling_Center_Location": "Bushran Village",
    "Map_Accuracy": "Building",
    "Map_Accuracy_Dari": "تعمیر",
    "Status": "Open",
    "Status_Dari": null,
    "PS_Male": 3,
    "PS_Female": 2,
    "PS_Total": 5,
    "ولسوالي": "لشکرگاه",
    "Region": "Southern Region"
   },
   "geometry": {
    "x": 7160997.2286123475,
    "y": 3718246.582026239
   }
  },
  {
   "attributes": {
    "OBJECTID": 4213,
    "ولایت": "هلمند",
    "Province": "HELMAND",
    "PC_Code": "3001026",
    "District": "LASHKARGAH",
    "د_مرکز_نوم__نام_مرکز": "د سیدانو مکتب باباجی",
    "Polling_Center_Name": "Sayedano School Babaji",
    "د_مرکز_ځای__موقعیت_مرکز": "سیدانو کلی",
    "Polling_Center_Location": "Sayedano Village",
    "Map_Accuracy": "Building",
    "Map_Accuracy_Dari": "تعمیر",
    "Status": "Open",
    "Status_Dari": null,
    "PS_Male": 2,
    "PS_Female": 2,
    "PS_Total": 4,
    "ولسوالي": "لشکرگاه",
    "Region": "Southern Region"
   },
   "geometry": {
    "x": 7164019.94685838,
    "y": 3720399.7863276405
   }
  },
  {
   "attributes": {
    "OBJECTID": 4214,
    "ولایت": "هلمند",
    "Province": "HELMAND",
    "PC_Code": "3002084",
    "District": "NAD ALI",
    "د_مرکز_نوم__نام_مرکز": "مسجد چاه میرزا ",
    "Polling_Center_Name": "Chah Mirza Mosque",
    "د_مرکز_ځای__موقعیت_مرکز": "چاه میرزا",
    "Polling_Center_Location": "Chah Mirza",
    "Map_Accuracy": "Village",
    "Map_Accuracy_Dari": "قریه",
    "Status": "Open",
    "Status_Dari": null,
    "PS_Male": 4,
    "PS_Female": 0,
    "PS_Total": 4,
    "ولسوالي": "نادعلی",
    "Region": "Southern Region"
   },
   "geometry": {
    "x": 7150595.6867871331,
    "y": 3721219.4335830486
   }
  },
  {
   "attributes": {
    "OBJECTID": 4215,
    "ولایت": "هلمند",
    "Province": "HELMAND",
    "PC_Code": "3003089",
    "District": "NAWA-E-BARAKZAYI",
    "د_مرکز_نوم__نام_مرکز": "مسجد احمد شاه",
    "Polling_Center_Name": "Ahmad Shah Mosque",
    "د_مرکز_ځای__موقعیت_مرکز": "عینک",
    "Polling_Center_Location": "Ainak",
    "Map_Accuracy": "Village",
    "Map_Accuracy_Dari": "قریه",
    "Status": "Open",
    "Status_Dari": null,
    "PS_Male": 4,
    "PS_Female": 0,
    "PS_Total": 4,
    "ولسوالي": "ناوه بارکزایی",
    "Region": "Southern Region"
   },
   "geometry": {
    "x": 7161481.0631943522,
    "y": 3703465.4191005849
   }
  },
  {
   "attributes": {
    "OBJECTID": 4216,
    "ولایت": "هلمند",
    "Province": "HELMAND",
    "PC_Code": "3004040",
    "District": "NAHR-E-SARAJ",
    "د_مرکز_نوم__نام_مرکز": "شفاخانه گرشک",
    "Polling_Center_Name": "Gereshk Hospital",
    "د_مرکز_ځای__موقعیت_مرکز": "گرشک",
    "Polling_Center_Location": "Gereshk",
    "Map_Accuracy": "Building",
    "Map_Accuracy_Dari": "تعمیر",
    "Status": "Open",
    "Status_Dari": null,
    "PS_Male": 0,
    "PS_Female": 4,
    "PS_Total": 4,
    "ولسوالي": "نهرسراج",
    "Region": "Southern Region"
   },
   "geometry": {
    "x": 7188288.7602531891,
    "y": 3739382.6044850168
   }
  },
  {
   "attributes": {
    "OBJECTID": 4217,
    "ولایت": "هلمند",
    "Province": "HELMAND",
    "PC_Code": "3004041",
    "District": "NAHR-E-SARAJ",
    "د_مرکز_نوم__نام_مرکز": "مسجد روف خان شيله ",
    "Polling_Center_Name": "Rawoof Khan Shila Mosque",
    "د_مرکز_ځای__موقعیت_مرکز": "گرشک",
    "Polling_Center_Location": "Gereshk",
    "Map_Accuracy": "Building",
    "Map_Accuracy_Dari": "تعمیر",
    "Status": "Open",
    "Status_Dari": null,
    "PS_Male": 5,
    "PS_Female": 1,
    "PS_Total": 6,
    "ولسوالي": "نهرسراج",
    "Region": "Southern Region"
   },
   "geometry": {
    "x": 7187510.8908209838,
    "y": 3740461.9899470652
   }
  },
  {
   "attributes": {
    "OBJECTID": 4218,
    "ولایت": "هلمند",
    "Province": "HELMAND",
    "PC_Code": "3004052",
    "District": "NAHR-E-SARAJ",
    "د_مرکز_نوم__نام_مرکز": "تعمير ميرزا خان ",
    "Polling_Center_Name": "Mirza Khan Building",
    "د_مرکز_ځای__موقعیت_مرکز": "ده ادم خان",
    "Polling_Center_Location": "Deh Adam Khan",
    "Map_Accuracy": "Village",
    "Map_Accuracy_Dari": "قریه",
    "Status": "Open",
    "Status_Dari": null,
    "PS_Male": 4,
    "PS_Female": 0,
    "PS_Total": 4,
    "ولسوالي": "نهرسراج",
    "Region": "Southern Region"
   },
   "geometry": {
    "x": 7190139.5926161595,
    "y": 3740979.7927706875
   }
  },
  {
   "attributes": {
    "OBJECTID": 4219,
    "ولایت": "هلمند",
    "Province": "HELMAND",
    "PC_Code": "3004053",
    "District": "NAHR-E-SARAJ",
    "د_مرکز_نوم__نام_مرکز": "مكتب حيدرآباد ",
    "Polling_Center_Name": "Haidar Abad School",
    "د_مرکز_ځای__موقعیت_مرکز": "حیدر آباد",
    "Polling_Center_Location": "Haidar Abad",
    "Map_Accuracy": "Village",
    "Map_Accuracy_Dari": "قریه",
    "Status": "Open",
    "Status_Dari": null,
    "PS_Male": 2,
    "PS_Female": 2,
    "PS_Total": 4,
    "ولسوالي": "نهرسراج",
    "Region": "Southern Region"
   },
   "geometry": {
    "x": 7210059.9271761384,
    "y": 3753209.4231878319
   }
  },
  {
   "attributes": {
    "OBJECTID": 4220,
    "ولایت": "هلمند",
    "Province": "HELMAND",
    "PC_Code": "3008135",
    "District": "SANGIN QALA",
    "د_مرکز_نوم__نام_مرکز": "مكتب هاشم سارواني",
    "Polling_Center_Name": "Hashim Sarwani School",
    "د_مرکز_ځای__موقعیت_مرکز": "د ولسوالی مرکز",
    "Polling_Center_Location": "District Compound",
    "Map_Accuracy": "Building",
    "Map_Accuracy_Dari": "تعمیر",
    "Status": "Open",
    "Status_Dari": null,
    "PS_Male": 7,
    "PS_Female": 0,
    "PS_Total": 7,
    "ولسوالي": "سنگین قلعه",
    "Region": "Southern Region"
   },
   "geometry": {
    "x": 7217824.7666743677,
    "y": 3772982.8442584826
   }
  },
  {
   "attributes": {
    "OBJECTID": 4221,
    "ولایت": "هلمند",
    "Province": "HELMAND",
    "PC_Code": "3010147",
    "District": "KAJAKI",
    "د_مرکز_نوم__نام_مرکز": "مکتب کجكي سفلی",
    "Polling_Center_Name": "Kajaki Sufla School",
    "د_مرکز_ځای__موقعیت_مرکز": "کجكي سفلی",
    "Polling_Center_Location": "Kajaki Sufla",
    "Map_Accuracy": "Village",
    "Map_Accuracy_Dari": "قریه",
    "Status": "Open",
    "Status_Dari": null,
    "PS_Male": 4,
    "PS_Female": 1,
    "PS_Total": 5,
    "ولسوالي": "کجکی",
    "Region": "Southern Region"
   },
   "geometry": {
    "x": 7242899.2348462865,
    "y": 3799102.1618630658
   }
  },
  {
   "attributes": {
    "OBJECTID": 4222,
    "ولایت": "هلمند",
    "Province": "HELMAND",
    "PC_Code": "3014063",
    "District": "MARJA",
    "د_مرکز_نوم__نام_مرکز": "مكتب كاريز سدي ",
    "Polling_Center_Name": "Karez Sadi School",
    "د_مرکز_ځای__موقعیت_مرکز": "کاریز سدی",
    "Polling_Center_Location": "Karez Sadi",
    "Map_Accuracy": "Village",
    "Map_Accuracy_Dari": "قریه",
    "Status": "Open",
    "Status_Dari": null,
    "PS_Male": 3,
    "PS_Female": 1,
    "PS_Total": 4,
    "ولسوالي": "مارجه",
    "Region": "Southern Region"
   },
   "geometry": {
    "x": 7139839.2005391298,
    "y": 3701535.5469628647
   }
  },
  {
   "attributes": {
    "OBJECTID": 4223,
    "ولایت": "هلمند",
    "Province": "HELMAND",
    "PC_Code": "3014064",
    "District": "MARJA",
    "د_مرکز_نوم__نام_مرکز": "خانه وكيل محمد اخلاص",
    "Polling_Center_Name": "Wakeel Mohammad Ikhlas School",
    "د_مرکز_ځای__موقعیت_مرکز": "مارجه",
    "Polling_Center_Location": "Marja",
    "Map_Accuracy": "Village",
    "Map_Accuracy_Dari": "قریه",
    "Status": "Open",
    "Status_Dari": null,
    "PS_Male": 2,
    "PS_Female": 1,
    "PS_Total": 3,
    "ولسوالي": "مارجه",
    "Region": "Southern Region"
   },
   "geometry": {
    "x": 7138159.7356266733,
    "y": 3700974.2811657726
   }
  },
  {
   "attributes": {
    "OBJECTID": 4224,
    "ولایت": "بادغيس",
    "Province": "BADGHIS",
    "PC_Code": "3102039",
    "District": "AB KAMARI",
    "د_مرکز_نوم__نام_مرکز": "مکتب آغک",
    "Polling_Center_Name": "Aaghak School",
    "د_مرکز_ځای__موقعیت_مرکز": "آغک",
    "Polling_Center_Location": "Aaghak ",
    "Map_Accuracy": "Building",
    "Map_Accuracy_Dari": "تعمیر",
    "Status": "Open",
    "Status_Dari": null,
    "PS_Male": 2,
    "PS_Female": 2,
    "PS_Total": 4,
    "ولسوالي": "آبکمری",
    "Region": "Western Region"
   },
   "geometry": {
    "x": 7017680.4374189442,
    "y": 4153307.9465358043
   }
  },
  {
   "attributes": {
    "OBJECTID": 4225,
    "ولایت": "بادغيس",
    "Province": "BADGHIS",
    "PC_Code": "3102040",
    "District": "AB KAMARI",
    "د_مرکز_نوم__نام_مرکز": "مکتب لیسه کوچه زرد",
    "Polling_Center_Name": "Zard Koja High School",
    "د_مرکز_ځای__موقعیت_مرکز": " کوچه زرد",
    "Polling_Center_Location": "Zard Koja",
    "Map_Accuracy": "Building",
    "Map_Accuracy_Dari": "تعمیر",
    "Status": "Open",
    "Status_Dari": null,
    "PS_Male": 2,
    "PS_Female": 1,
    "PS_Total": 3,
    "ولسوالي": "آبکمری",
    "Region": "Western Region"
   },
   "geometry": {
    "x": 7006658.2905457495,
    "y": 4143128.266410647
   }
  },
  {
   "attributes": {
    "OBJECTID": 4226,
    "ولایت": "بادغيس",
    "Province": "BADGHIS",
    "PC_Code": "3103024",
    "District": "MUQUR",
    "د_مرکز_نوم__نام_مرکز": "مسجد میرانزی",
    "Polling_Center_Name": "Meeranzai Mosque",
    "د_مرکز_ځای__موقعیت_مرکز": "میرانزی",
    "Polling_Center_Location": "Meeranzai",
    "Map_Accuracy": "Village",
    "Map_Accuracy_Dari": "قریه",
    "Status": "Open",
    "Status_Dari": null,
    "PS_Male": 1,
    "PS_Female": 1,
    "PS_Total": 2,
    "ولسوالي": "مقر",
    "Region": "Western Region"
   },
   "geometry": {
    "x": 7045794.7614725027,
    "y": 4171594.1866786927
   }
  },
  {
   "attributes": {
    "OBJECTID": 4227,
    "ولایت": "بادغيس",
    "Province": "BADGHIS",
    "PC_Code": "3103025",
    "District": "MUQUR",
    "د_مرکز_نوم__نام_مرکز": "مکتب  لیسه زاد علی ",
    "Polling_Center_Name": "Zad Ali High School",
    "د_مرکز_ځای__موقعیت_مرکز": "زاد علی ",
    "Polling_Center_Location": "Zad Ali ",
    "Map_Accuracy": "Building",
    "Map_Accuracy_Dari": "تعمیر",
    "Status": "Open",
    "Status_Dari": null,
    "PS_Male": 2,
    "PS_Female": 1,
    "PS_Total": 3,
    "ولسوالي": "مقر",
    "Region": "Western Region"
   },
   "geometry": {
    "x": 7045563.1746302461,
    "y": 4168048.2641143957
   }
  },
  {
   "attributes": {
    "OBJECTID": 4228,
    "ولایت": "بادغيس",
    "Province": "BADGHIS",
    "PC_Code": "3104060",
    "District": "QADIS",
    "د_مرکز_نوم__نام_مرکز": "مکتب بویه کادانک",
    "Polling_Center_Name": "Boya kadank School",
    "د_مرکز_ځای__موقعیت_مرکز": "بویه کادانک",
    "Polling_Center_Location": "Boya kadank ",
    "Map_Accuracy": "Building",
    "Map_Accuracy_Dari": "تعمیر",
    "Status": "Open",
    "Status_Dari": null,
    "PS_Male": 1,
    "PS_Female": 1,
    "PS_Total": 2,
    "ولسوالي": "قادس",
    "Region": "Western Region"
   },
   "geometry": {
    "x": 7070679.5746279489,
    "y": 4120681.8070294522
   }
  },
  {
   "attributes": {
    "OBJECTID": 4229,
    "ولایت": "بادغيس",
    "Province": "BADGHIS",
    "PC_Code": "3104061",
    "District": "QADIS",
    "د_مرکز_نوم__نام_مرکز": "مکتب خواجه های شورآب",
    "Polling_Center_Name": "Khwaja Ha-e- Shur Aab Village ",
    "د_مرکز_ځای__موقعیت_مرکز": "خواجه ها شورآب",
    "Polling_Center_Location": "Khwaja Ha-e-Shue Aab",
    "Map_Accuracy": "Building",
    "Map_Accuracy_Dari": "تعمیر",
    "Status": "Open",
    "Status_Dari": null,
    "PS_Male": 1,
    "PS_Female": 1,
    "PS_Total": 2,
    "ولسوالي": "قادس",
    "Region": "Western Region"
   },
   "geometry": {
    "x": 7068450.499785969,
    "y": 4130103.1671609627
   }
  },
  {
   "attributes": {
    "OBJECTID": 4230,
    "ولایت": "بادغيس",
    "Province": "BADGHIS",
    "PC_Code": "3104070",
    "District": "QADIS",
    "د_مرکز_نوم__نام_مرکز": "مکتب لیسه لنگر شریف",
    "Polling_Center_Name": "Langari Sharif High School ",
    "د_مرکز_ځای__موقعیت_مرکز": "لنگر شریف",
    "Polling_Center_Location": "langar-e- Sharif",
    "Map_Accuracy": "Building",
    "Map_Accuracy_Dari": "تعمیر",
    "Status": "Open",
    "Status_Dari": null,
    "PS_Male": 2,
    "PS_Female": 1,
    "PS_Total": 3,
    "ولسوالي": "قادس",
    "Region": "Western Region"
   },
   "geometry": {
    "x": 7064550.4737461861,
    "y": 4146204.5822412181
   }
  },
  {
   "attributes": {
    "OBJECTID": 4231,
    "ولایت": "بادغيس",
    "Province": "BADGHIS",
    "PC_Code": "3105148",
    "District": "BALA MURGHAB",
    "د_مرکز_نوم__نام_مرکز": "کلینیک مرغاب",
    "Polling_Center_Name": "Murghab Clinic ",
    "د_مرکز_ځای__موقعیت_مرکز": "مرغاب",
    "Polling_Center_Location": "Murghab",
    "Map_Accuracy": "Building",
    "Map_Accuracy_Dari": "تعمیر",
    "Status": "Open",
    "Status_Dari": null,
    "PS_Male": 0,
    "PS_Female": 3,
    "PS_Total": 3,
    "ولسوالي": "بالا مرغاب",
    "Region": "Western Region"
   },
   "geometry": {
    "x": 7049558.0960831493,
    "y": 4243447.2111671036
   }
  },
  {
   "attributes": {
    "OBJECTID": 4232,
    "ولایت": "بادغيس",
    "Province": "BADGHIS",
    "PC_Code": "3105189",
    "District": "BALA MURGHAB",
    "د_مرکز_نوم__نام_مرکز": "مکتب قبچاق کپه بابا",
    "Polling_Center_Name": "Qabchaq Kapa Baba School",
    "د_مرکز_ځای__موقعیت_مرکز": "قبچاق کپه بابا ",
    "Polling_Center_Location": "Qabchaq Kapa Baba",
    "Map_Accuracy": "Building",
    "Map_Accuracy_Dari": "تعمیر",
    "Status": "Open",
    "Status_Dari": null,
    "PS_Male": 1,
    "PS_Female": 1,
    "PS_Total": 2,
    "ولسوالي": "بالا مرغاب",
    "Region": "Western Region"
   },
   "geometry": {
    "x": 7052448.3229844356,
    "y": 4240477.2233709879
   }
  },
  {
   "attributes": {
    "OBJECTID": 4233,
    "ولایت": "بادغيس",
    "Province": "BADGHIS",
    "PC_Code": "3106089",
    "District": "JAWAND",
    "د_مرکز_نوم__نام_مرکز": "مکتب چهار تاق",
    "Polling_Center_Name": "Char Taq School",
    "د_مرکز_ځای__موقعیت_مرکز": "چهار تاق",
    "Polling_Center_Location": "Char Taq",
    "Map_Accuracy": "Building",
    "Map_Accuracy_Dari": "تعمیر",
    "Status": "Open",
    "Status_Dari": null,
    "PS_Male": 3,
    "PS_Female": 1,
    "PS_Total": 4,
    "ولسوالي": "جوند",
    "Region": "Western Region"
   },
   "geometry": {
    "x": 7141470.6678267391,
    "y": 4172391.4275388205
   }
  },
  {
   "attributes": {
    "OBJECTID": 4234,
    "ولایت": "بادغيس",
    "Province": "BADGHIS",
    "PC_Code": "3107143",
    "District": "GHORMACH",
    "د_مرکز_نوم__نام_مرکز": "ابگرمک",
    "Polling_Center_Name": "Aabgarmak",
    "د_مرکز_ځای__موقعیت_مرکز": "ابگرمک",
    "Polling_Center_Location": "Aabgarmak",
    "Map_Accuracy": "Village",
    "Map_Accuracy_Dari": "قریه",
    "Status": "Open",
    "Status_Dari": null,
    "PS_Male": 2,
    "PS_Female": 1,
    "PS_Total": 3,
    "ولسوالي": "غورماچ",
    "Region": "Western Region"
   },
   "geometry": {
    "x": 7105669.049432233,
    "y": 4264488.4888305506
   }
  },
  {
   "attributes": {
    "OBJECTID": 4235,
    "ولایت": "هرات",
    "Province": "HERAT",
    "PC_Code": "3201007",
    "District": "HERAT",
    "د_مرکز_نوم__نام_مرکز": "لیسه هاتفی",
    "Polling_Center_Name": "Hatefi High school",
    "د_مرکز_ځای__موقعیت_مرکز": " ناحیه چهارم",
    "Polling_Center_Location": "D04 - Nahia 4",
    "Map_Accuracy": "Building",
    "Map_Accuracy_Dari": "تعمیر",
    "Status": "Open",
    "Status_Dari": null,
    "PS_Male": 6,
    "PS_Female": 5,
    "PS_Total": 11,
    "ولسوالي": "هرات",
    "Region": "Western Region"
   },
   "geometry": {
    "x": 6925913.0997622078,
    "y": 4073317.4729243303
   }
  },
  {
   "attributes": {
    "OBJECTID": 4236,
    "ولایت": "هرات",
    "Province": "HERAT",
    "PC_Code": "3201017",
    "District": "HERAT",
    "د_مرکز_نوم__نام_مرکز": "لیسه فتح نو آباد",
    "Polling_Center_Name": "Fath Now Abad High school",
    "د_مرکز_ځای__موقعیت_مرکز": "ناحیه یازدهم",
    "Polling_Center_Location": "D11 - Nahia 11",
    "Map_Accuracy": "Building",
    "Map_Accuracy_Dari": "تعمیر",
    "Status": "Open",
    "Status_Dari": null,
    "PS_Male": 7,
    "PS_Female": 6,
    "PS_Total": 13,
    "ولسوالي": "هرات",
    "Region": "Western Region"
   },
   "geometry": {
    "x": 6930621.9175623516,
    "y": 4075986.1558742798
   }
  },
  {
   "attributes": {
    "OBJECTID": 4237,
    "ولایت": "هرات",
    "Province": "HERAT",
    "PC_Code": "3202052",
    "District": "ENJIL",
    "د_مرکز_نوم__نام_مرکز": "مسجد جامع تلاب",
    "Polling_Center_Name": "Tallab Mosque ",
    "د_مرکز_ځای__موقعیت_مرکز": "قریه تلاب",
    "Polling_Center_Location": "Tallab Village  ",
    "Map_Accuracy": "Building",
    "Map_Accuracy_Dari": "تعمیر",
    "Status": "Open",
    "Status_Dari": null,
    "PS_Male": 2,
    "PS_Female": 1,
    "PS_Total": 3,
    "ولسوالي": "انجیل",
    "Region": "Western Region"
   },
   "geometry": {
    "x": 6910732.3383512935,
    "y": 4072009.9091948983
   }
  },
  {
   "attributes": {
    "OBJECTID": 4238,
    "ولایت": "هرات",
    "Province": "HERAT",
    "PC_Code": "3202053",
    "District": "ENJIL",
    "د_مرکز_نوم__نام_مرکز": "لیسه رواشان",
    "Polling_Center_Name": "Rawashan High School ",
    "د_مرکز_ځای__موقعیت_مرکز": "قریه خیر دوزان",
    "Polling_Center_Location": "Khirdozan Village",
    "Map_Accuracy": "Building",
    "Map_Accuracy_Dari": "تعمیر",
    "Status": "Open",
    "Status_Dari": null,
    "PS_Male": 2,
    "PS_Female": 1,
    "PS_Total": 3,
    "ولسوالي": "انجیل",
    "Region": "Western Region"
   },
   "geometry": {
    "x": 6908204.9317267649,
    "y": 4075116.7629144099
   }
  },
  {
   "attributes": {
    "OBJECTID": 4239,
    "ولایت": "هرات",
    "Province": "HERAT",
    "PC_Code": "3203090",
    "District": "GUZARA",
    "د_مرکز_نوم__نام_مرکز": "لیسه خواجه محمد کنجانی",
    "Polling_Center_Name": "khwaja Mohammad Kanjani High School",
    "د_مرکز_ځای__موقعیت_مرکز": "قریه سیاوشان",
    "Polling_Center_Location": "Seyawshan Village",
    "Map_Accuracy": "Building",
    "Map_Accuracy_Dari": "تعمیر",
    "Status": "Open",
    "Status_Dari": null,
    "PS_Male": 2,
    "PS_Female": 1,
    "PS_Total": 3,
    "ولسوالي": "گذره",
    "Region": "Western Region"
   },
   "geometry": {
    "x": 6932856.8489227425,
    "y": 4060246.1351664355
   }
  },
  {
   "attributes": {
    "OBJECTID": 4240,
    "ولایت": "هرات",
    "Province": "HERAT",
    "PC_Code": "3203091",
    "District": "GUZARA",
    "د_مرکز_نوم__نام_مرکز": "لیسه ناگهان",
    "Polling_Center_Name": "Nagahan High School",
    "د_مرکز_ځای__موقعیت_مرکز": "قریه ناگهان",
    "Polling_Center_Location": "Nagahan Village",
    "Map_Accuracy": "Building",
    "Map_Accuracy_Dari": "تعمیر",
    "Status": "Open",
    "Status_Dari": null,
    "PS_Male": 2,
    "PS_Female": 1,
    "PS_Total": 3,
    "ولسوالي": "گذره",
    "Region": "Western Region"
   },
   "geometry": {
    "x": 6922934.3259983622,
    "y": 4065475.1588156885
   }
  },
  {
   "attributes": {
    "OBJECTID": 4241,
    "ولایت": "هرات",
    "Province": "HERAT",
    "PC_Code": "3203111",
    "District": "GUZARA",
    "د_مرکز_نوم__نام_مرکز": "مکتب ابتدائیه کل خرما",
    "Polling_Center_Name": "Kol Khurma Primary School",
    "د_مرکز_ځای__موقعیت_مرکز": "قریه کل خرما ",
    "Polling_Center_Location": "Kal khurma Village ",
    "Map_Accuracy": "Building",
    "Map_Accuracy_Dari": "تعمیر",
    "Status": "Open",
    "Status_Dari": null,
    "PS_Male": 1,
    "PS_Female": 1,
    "PS_Total": 2,
    "ولسوالي": "گذره",
    "Region": "Western Region"
   },
   "geometry": {
    "x": 6941733.3259692388,
    "y": 4062543.1140972143
   }
  },
  {
   "attributes": {
    "OBJECTID": 4242,
    "ولایت": "هرات",
    "Province": "HERAT",
    "PC_Code": "3203113",
    "District": "GUZARA",
    "د_مرکز_نوم__نام_مرکز": "مکتب ابتدائیه گل هزار ",
    "Polling_Center_Name": "Gul Hazar  Primary School ",
    "د_مرکز_ځای__موقعیت_مرکز": "گل هزار ",
    "Polling_Center_Location": "Gul Hazar ",
    "Map_Accuracy": "Village",
    "Map_Accuracy_Dari": "قریه",
    "Status": "Open",
    "Status_Dari": null,
    "PS_Male": 3,
    "PS_Female": 1,
    "PS_Total": 4,
    "ولسوالي": "گذره",
    "Region": "Western Region"
   },
   "geometry": {
    "x": 6917318.8142852923,
    "y": 4019786.035338914
   }
  },
  {
   "attributes": {
    "OBJECTID": 4243,
    "ولایت": "هرات",
    "Province": "HERAT",
    "PC_Code": "3204160",
    "District": "KARRUKH",
    "د_مرکز_نوم__نام_مرکز": "مکتب میرزا بهار ",
    "Polling_Center_Name": "Mirzabahar School ",
    "د_مرکز_ځای__موقعیت_مرکز": "قریه میزا بهار ",
    "Polling_Center_Location": "Mirzabahar Villag ",
    "Map_Accuracy": "Building",
    "Map_Accuracy_Dari": "تعمیر",
    "Status": "Open",
    "Status_Dari": null,
    "PS_Male": 3,
    "PS_Female": 2,
    "PS_Total": 5,
    "ولسوالي": "کرخ ",
    "Region": "Western Region"
   },
   "geometry": {
    "x": 6995416.0260774354,
    "y": 4098607.5143528967
   }
  },
  {
   "attributes": {
    "OBJECTID": 4244,
    "ولایت": "هرات",
    "Province": "HERAT",
    "PC_Code": "3204161",
    "District": "KARRUKH",
    "د_مرکز_نوم__نام_مرکز": "مکتب بادام تو ",
    "Polling_Center_Name": "Badamto School ",
    "د_مرکز_ځای__موقعیت_مرکز": "قریه بادام تو ",
    "Polling_Center_Location": "Badamto Village ",
    "Map_Accuracy": "Building",
    "Map_Accuracy_Dari": "تعمیر",
    "Status": "Open",
    "Status_Dari": null,
    "PS_Male": 2,
    "PS_Female": 2,
    "PS_Total": 4,
    "ولسوالي": "کرخ ",
    "Region": "Western Region"
   },
   "geometry": {
    "x": 7004976.8018449517,
    "y": 4098720.4427713025
   }
  },
  {
   "attributes": {
    "OBJECTID": 4245,
    "ولایت": "هرات",
    "Province": "HERAT",
    "PC_Code": "3205265",
    "District": "ZENDAJAN",
    "د_مرکز_نوم__نام_مرکز": "مکتب ابتدایی ده سرخ",
    "Polling_Center_Name": "Deh Sorkh Primary School ",
    "د_مرکز_ځای__موقعیت_مرکز": " ده سرخ",
    "Polling_Center_Location": "Deh Sorkh ",
    "Map_Accuracy": "Building",
    "Map_Accuracy_Dari": "تعمیر",
    "Status": "Open",
    "Status_Dari": null,
    "PS_Male": 2,
    "PS_Female": 1,
    "PS_Total": 3,
    "ولسوالي": "زنده جان ",
    "Region": "Western Region"
   },
   "geometry": {
    "x": 6891928.8789216131,
    "y": 4081614.6592180016
   }
  },
  {
   "attributes": {
    "OBJECTID": 4246,
    "ولایت": "هرات",
    "Province": "HERAT",
    "PC_Code": "3205266",
    "District": "ZENDAJAN",
    "د_مرکز_نوم__نام_مرکز": "مکتب کبوتر خان",
    "Polling_Center_Name": "Kabotar Khan School ",
    "د_مرکز_ځای__موقعیت_مرکز": " کبوتر خان",
    "Polling_Center_Location": "Kabotar Khan",
    "Map_Accuracy": "Building",
    "Map_Accuracy_Dari": "تعمیر",
    "Status": "Open",
    "Status_Dari": null,
    "PS_Male": 2,
    "PS_Female": 1,
    "PS_Total": 3,
    "ولسوالي": "زنده جان ",
    "Region": "Western Region"
   },
   "geometry": {
    "x": 6900379.6579901697,
    "y": 4067611.0503480532
   }
  },
  {
   "attributes": {
    "OBJECTID": 4247,
    "ولایت": "هرات",
    "Province": "HERAT",
    "PC_Code": "3207172",
    "District": "KUSHK (RUBAT-E-SANGI)",
    "د_مرکز_نوم__نام_مرکز": "مکتب هفتو ",
    "Polling_Center_Name": "Hafto School ",
    "د_مرکز_ځای__موقعیت_مرکز": "قریه هفتو سفلی ",
    "Polling_Center_Location": "Hafto Sofla Village ",
    "Map_Accuracy": "Building",
    "Map_Accuracy_Dari": "تعمیر",
    "Status": "Open",
    "Status_Dari": null,
    "PS_Male": 3,
    "PS_Female": 1,
    "PS_Total": 4,
    "ولسوالي": "کشک (رباط سنگی)",
    "Region": "Western Region"
   },
   "geometry": {
    "x": 6912042.7413031403,
    "y": 4150322.6622414249
   }
  },
  {
   "attributes": {
    "OBJECTID": 4248,
    "ولایت": "هرات",
    "Province": "HERAT",
    "PC_Code": "3211453",
    "District": "GHORYAN",
    "د_مرکز_نوم__نام_مرکز": "مکتب نو آباد ",
    "Polling_Center_Name": "Now Abad School",
    "د_مرکز_ځای__موقعیت_مرکز": "برنا باد ",
    "Polling_Center_Location": "Barna Bad ",
    "Map_Accuracy": "Village",
    "Map_Accuracy_Dari": "قریه",
    "Status": "Open",
    "Status_Dari": null,
    "PS_Male": 1,
    "PS_Female": 1,
    "PS_Total": 2,
    "ولسوالي": "غوریان ",
    "Region": "Western Region"
   },
   "geometry": {
    "x": 6856244.2417272041,
    "y": 4078278.5205532252
   }
  },
  {
   "attributes": {
    "OBJECTID": 4249,
    "ولایت": "هرات",
    "Province": "HERAT",
    "PC_Code": "3211454",
    "District": "GHORYAN",
    "د_مرکز_نوم__نام_مرکز": "مسجد مولوی سراج ",
    "Polling_Center_Name": "Mawlawe Seraj Mosque ",
    "د_مرکز_ځای__موقعیت_مرکز": "محل طاهریان ",
    "Polling_Center_Location": "Mahal-e- Taheryan ",
    "Map_Accuracy": "Village",
    "Map_Accuracy_Dari": "قریه",
    "Status": "Open",
    "Status_Dari": null,
    "PS_Male": 1,
    "PS_Female": 1,
    "PS_Total": 2,
    "ولسوالي": "غوریان ",
    "Region": "Western Region"
   },
   "geometry": {
    "x": 6844747.3072070237,
    "y": 4073415.3173335069
   }
  },
  {
   "attributes": {
    "OBJECTID": 4250,
    "ولایت": "هرات",
    "Province": "HERAT",
    "PC_Code": "3213238",
    "District": "KOHSAN",
    "د_مرکز_نوم__نام_مرکز": "مکتب ابتدایی بنیاد",
    "Polling_Center_Name": "Bunyad Primary School ",
    "د_مرکز_ځای__موقعیت_مرکز": " قریه بنیاد",
    "Polling_Center_Location": "Bunyad Village ",
    "Map_Accuracy": "Village",
    "Map_Accuracy_Dari": "قریه",
    "Status": "Open",
    "Status_Dari": null,
    "PS_Male": 2,
    "PS_Female": 2,
    "PS_Total": 4,
    "ولسوالي": "کهسان ",
    "Region": "Western Region"
   },
   "geometry": {
    "x": 6801262.6858379385,
    "y": 4124912.1819106131
   }
  },
  {
   "attributes": {
    "OBJECTID": 4251,
    "ولایت": "هرات",
    "Province": "HERAT",
    "PC_Code": "3214310",
    "District": "SHINDAND",
    "د_مرکز_نوم__نام_مرکز": "مسجد شیر آباد",
    "Polling_Center_Name": "Shir Abad Mosque ",
    "د_مرکز_ځای__موقعیت_مرکز": " خیفان دوم",
    "Polling_Center_Location": "Khaifan Duowm ",
    "Map_Accuracy": "Building",
    "Map_Accuracy_Dari": "تعمیر",
    "Status": "Open",
    "Status_Dari": null,
    "PS_Male": 1,
    "PS_Female": 1,
    "PS_Total": 2,
    "ولسوالي": "شیندند",
    "Region": "Western Region"
   },
   "geometry": {
    "x": 6917567.4619527124,
    "y": 3932066.1864344222
   }
  },
  {
   "attributes": {
    "OBJECTID": 4252,
    "ولایت": "هرات",
    "Province": "HERAT",
    "PC_Code": "3215352",
    "District": "FERSI",
    "د_مرکز_نوم__نام_مرکز": "مسجد جامع کشک خاک",
    "Polling_Center_Name": "Kashak Khak Mosque ",
    "د_مرکز_ځای__موقعیت_مرکز": "شیله ",
    "Polling_Center_Location": "Shelah ",
    "Map_Accuracy": "Village",
    "Map_Accuracy_Dari": "قریه",
    "Status": "Open",
    "Status_Dari": null,
    "PS_Male": 4,
    "PS_Female": 1,
    "PS_Total": 5,
    "ولسوالي": "فرسی ",
    "Region": "Western Region"
   },
   "geometry": {
    "x": 7028910.4266870087,
    "y": 3993140.6386617064
   }
  },
  {
   "attributes": {
    "OBJECTID": 4253,
    "ولایت": "هرات",
    "Province": "HERAT",
    "PC_Code": "3215362",
    "District": "FERSI",
    "د_مرکز_نوم__نام_مرکز": "شورای انکشا فی",
    "Polling_Center_Name": "Shura-e- Ankishafi",
    "د_مرکز_ځای__موقعیت_مرکز": "دهن خوب آب ",
    "Polling_Center_Location": "Dahn-e-Khob Aab",
    "Map_Accuracy": "Village",
    "Map_Accuracy_Dari": "قریه",
    "Status": "Open",
    "Status_Dari": null,
    "PS_Male": 1,
    "PS_Female": 1,
    "PS_Total": 2,
    "ولسوالي": "فرسی ",
    "Region": "Western Region"
   },
   "geometry": {
    "x": 7024537.171473112,
    "y": 3989832.1960578118
   }
  },
  {
   "attributes": {
    "OBJECTID": 4254,
    "ولایت": "هرات",
    "Province": "HERAT",
    "PC_Code": "3216396",
    "District": "CHISHT-E-SHARIF",
    "د_مرکز_نوم__نام_مرکز": "مکتب آرویج",
    "Polling_Center_Name": "Arwej School",
    "د_مرکز_ځای__موقعیت_مرکز": "آرویج ",
    "Polling_Center_Location": "Arwej",
    "Map_Accuracy": "Building",
    "Map_Accuracy_Dari": "تعمیر",
    "Status": "Open",
    "Status_Dari": null,
    "PS_Male": 1,
    "PS_Female": 1,
    "PS_Total": 2,
    "ولسوالي": "چشت شریف",
    "Region": "Western Region"
   },
   "geometry": {
    "x": 7069333.950189217,
    "y": 4078489.5938026235
   }
  },
  {
   "attributes": {
    "OBJECTID": 4255,
    "ولایت": " فراه",
    "Province": "FARAH",
    "PC_Code": "3301014",
    "District": "FARAH",
    "د_مرکز_نوم__نام_مرکز": "لیسه نسوان",
    "Polling_Center_Name": "Girls High School",
    "د_مرکز_ځای__موقعیت_مرکز": "قلعه زمان",
    "Polling_Center_Location": "Qala-e-Zaman",
    "Map_Accuracy": "Building",
    "Map_Accuracy_Dari": "تعمیر",
    "Status": "Open",
    "Status_Dari": null,
    "PS_Male": 3,
    "PS_Female": 1,
    "PS_Total": 4,
    "ولسوالي": "فراه",
    "Region": "Western Region"
   },
   "geometry": {
    "x": 6916849.1373161264,
    "y": 3817454.0792333353
   }
  },
  {
   "attributes": {
    "OBJECTID": 4256,
    "ولایت": " فراه",
    "Province": "FARAH",
    "PC_Code": "3304073",
    "District": "QALA-E-KAH",
    "د_مرکز_نوم__نام_مرکز": " مسجد  کلا ته شیردل",
    "Polling_Center_Name": "Kalatah Shirdel Mosque ",
    "د_مرکز_ځای__موقعیت_مرکز": " کلا ته شیردل",
    "Polling_Center_Location": "Kalata Shirdel ",
    "Map_Accuracy": "Building",
    "Map_Accuracy_Dari": "تعمیر",
    "Status": "Open",
    "Status_Dari": null,
    "PS_Male": 1,
    "PS_Female": 1,
    "PS_Total": 2,
    "ولسوالي": "قلعه کاه ",
    "Region": "Western Region"
   },
   "geometry": {
    "x": 6833411.9273242429,
    "y": 3802862.0173990615
   }
  },
  {
   "attributes": {
    "OBJECTID": 4257,
    "ولایت": " فراه",
    "Province": "FARAH",
    "PC_Code": "3304074",
    "District": "QALA-E-KAH",
    "د_مرکز_نوم__نام_مرکز": " مسجد  جمعه علی",
    "Polling_Center_Name": "Jumaa Ali  Mosque ",
    "د_مرکز_ځای__موقعیت_مرکز": " جمعه علی",
    "Polling_Center_Location": "Juma Ali ",
    "Map_Accuracy": "Building",
    "Map_Accuracy_Dari": "تعمیر",
    "Status": "Open",
    "Status_Dari": null,
    "PS_Male": 2,
    "PS_Female": 1,
    "PS_Total": 3,
    "ولسوالي": "قلعه کاه ",
    "Region": "Western Region"
   },
   "geometry": {
    "x": 6819043.5455008755,
    "y": 3794780.7826612005
   }
  },
  {
   "attributes": {
    "OBJECTID": 4258,
    "ولایت": " فراه",
    "Province": "FARAH",
    "PC_Code": "3305085",
    "District": "SHIB KOH",
    "د_مرکز_نوم__نام_مرکز": "لیسه  کین",
    "Polling_Center_Name": "Keen High School ",
    "د_مرکز_ځای__موقعیت_مرکز": " قریه کین",
    "Polling_Center_Location": "Keen Village ",
    "Map_Accuracy": "Building",
    "Map_Accuracy_Dari": "تعمیر",
    "Status": "Open",
    "Status_Dari": null,
    "PS_Male": 2,
    "PS_Female": 1,
    "PS_Total": 3,
    "ولسوالي": "شیب کوه ",
    "Region": "Western Region"
   },
   "geometry": {
    "x": 6858421.9248130638,
    "y": 3780667.2339746309
   }
  },
  {
   "attributes": {
    "OBJECTID": 4259,
    "ولایت": " فراه",
    "Province": "FARAH",
    "PC_Code": "3310168",
    "District": "GULISTAN",
    "د_مرکز_نوم__نام_مرکز": "مکتب ابتدائیه نسوان قلعه کهنه",
    "Polling_Center_Name": "Qala Kohna Girls Primary School",
    "د_مرکز_ځای__موقعیت_مرکز": "قلعه کهنه",
    "Polling_Center_Location": "Qala-e-Kohna",
    "Map_Accuracy": "Village",
    "Map_Accuracy_Dari": "قریه",
    "Status": "Open",
    "Status_Dari": null,
    "PS_Male": 2,
    "PS_Female": 1,
    "PS_Total": 3,
    "ولسوالي": "گلستان",
    "Region": "Western Region"
   },
   "geometry": {
    "x": 7086870.9578283988,
    "y": 3843734.0109077184
   }
  },
  {
   "attributes": {
    "OBJECTID": 4260,
    "ولایت": " فراه",
    "Province": "FARAH",
    "PC_Code": "3311191",
    "District": "PUR CHAMAN",
    "د_مرکز_نوم__نام_مرکز": " مکتب ابتدائیه نیزگان",
    "Polling_Center_Name": "Nezagan Primary School",
    "د_مرکز_ځای__موقعیت_مرکز": " نیزگان",
    "Polling_Center_Location": "Nezagan ",
    "Map_Accuracy": "Building",
    "Map_Accuracy_Dari": "تعمیر",
    "Status": "Open",
    "Status_Dari": null,
    "PS_Male": 2,
    "PS_Female": 1,
    "PS_Total": 3,
    "ولسوالي": "پرچمن",
    "Region": "Western Region"
   },
   "geometry": {
    "x": 7073092.1151227113,
    "y": 3916357.1319424254
   }
  },
  {
   "attributes": {
    "OBJECTID": 4261,
    "ولایت": " فراه",
    "Province": "FARAH",
    "PC_Code": "3311192",
    "District": "PUR CHAMAN",
    "د_مرکز_نوم__نام_مرکز": " مسجد گرد خوله",
    "Polling_Center_Name": "Gerd Khola Mosque ",
    "د_مرکز_ځای__موقعیت_مرکز": " گرد خوله ",
    "Polling_Center_Location": "Gerd Khola",
    "Map_Accuracy": "Building",
    "Map_Accuracy_Dari": "تعمیر",
    "Status": "Open",
    "Status_Dari": null,
    "PS_Male": 1,
    "PS_Female": 1,
    "PS_Total": 2,
    "ولسوالي": "پرچمن",
    "Region": "Western Region"
   },
   "geometry": {
    "x": 7078849.6627136646,
    "y": 3935328.5951475659
   }
  },
  {
   "attributes": {
    "OBJECTID": 4262,
    "ولایت": " فراه",
    "Province": "FARAH",
    "PC_Code": "3311202",
    "District": "PUR CHAMAN",
    "د_مرکز_نوم__نام_مرکز": "مسجد کشت باج",
    "Polling_Center_Name": "Kesht Baj Mosque  ",
    "د_مرکز_ځای__موقعیت_مرکز": " کشت باج",
    "Polling_Center_Location": "Kesht Baj ",
    "Map_Accuracy": "Building",
    "Map_Accuracy_Dari": "تعمیر",
    "Status": "Open",
    "Status_Dari": null,
    "PS_Male": 1,
    "PS_Female": 1,
    "PS_Total": 2,
    "ولسوالي": "پرچمن",
    "Region": "Western Region"
   },
   "geometry": {
    "x": 7071547.4625663897,
    "y": 3938363.1052340786
   }
  },
  {
   "attributes": {
    "OBJECTID": 4263,
    "ولایت": "نيمروز",
    "Province": "NIMROZ",
    "PC_Code": "3404021",
    "District": "CHAR BURJAK",
    "د_مرکز_نوم__نام_مرکز": "مکتب جدید ",
    "Polling_Center_Name": "New School ",
    "د_مرکز_ځای__موقعیت_مرکز": "مرکز ولسوالی ",
    "Polling_Center_Location": "Char Burjak District Center  ",
    "Map_Accuracy": "Building",
    "Map_Accuracy_Dari": "تعمیر",
    "Status": "Open",
    "Status_Dari": null,
    "PS_Male": 2,
    "PS_Female": 1,
    "PS_Total": 3,
    "ولسوالي": "چهار برجک",
    "Region": "Southern Region"
   },
   "geometry": {
    "x": 6908487.5986305643,
    "y": 3539520.6317099053
   }
  },
  {
   "attributes": {
    "OBJECTID": 4264,
    "ولایت": "نيمروز",
    "Province": "NIMROZ",
    "PC_Code": "3404022",
    "District": "CHAR BURJAK",
    "د_مرکز_نوم__نام_مرکز": "مکتب خجو",
    "Polling_Center_Name": "Khajo School ",
    "د_مرکز_ځای__موقعیت_مرکز": "خجو ",
    "Polling_Center_Location": "Khajo ",
    "Map_Accuracy": "Building",
    "Map_Accuracy_Dari": "تعمیر",
    "Status": "Open",
    "Status_Dari": null,
    "PS_Male": 2,
    "PS_Female": 2,
    "PS_Total": 4,
    "ولسوالي": "چهار برجک",
    "Region": "Southern Region"
   },
   "geometry": {
    "x": 6932637.7432217989,
    "y": 3529212.4146115771
   }
  },
  {
   "attributes": {
    "OBJECTID": 4265,
    "ولایت": "نيمروز",
    "Province": "NIMROZ",
    "PC_Code": "3405041",
    "District": "KHASHROD",
    "د_مرکز_نوم__نام_مرکز": "مکتب دیوالک",
    "Polling_Center_Name": "Dewalak School",
    "د_مرکز_ځای__موقعیت_مرکز": " دیوالک",
    "Polling_Center_Location": "Dewlak",
    "Map_Accuracy": "Village",
    "Map_Accuracy_Dari": "قریه",
    "Status": "Open",
    "Status_Dari": null,
    "PS_Male": 2,
    "PS_Female": 2,
    "PS_Total": 4,
    "ولسوالي": "خاشرود",
    "Region": "Southern Region"
   },
   "geometry": {
    "x": 7013615.6240237458,
    "y": 3720477.5069371616
   }
  },
  {
   "attributes": {
    "OBJECTID": 4266,
    "ولایت": "نيمروز",
    "Province": "NIMROZ",
    "PC_Code": "3405042",
    "District": "KHASHROD",
    "د_مرکز_نوم__نام_مرکز": "مکتب قریه لوخی",
    "Polling_Center_Name": "Lowkhi Village School",
    "د_مرکز_ځای__موقعیت_مرکز": "قریه لوخی",
    "Polling_Center_Location": "Lowkhi Village",
    "Map_Accuracy": "Village",
    "Map_Accuracy_Dari": "قریه",
    "Status": "Open",
    "Status_Dari": null,
    "PS_Male": 2,
    "PS_Female": 1,
    "PS_Total": 3,
    "ولسوالي": "خاشرود",
    "Region": "Southern Region"
   },
   "geometry": {
    "x": 6999959.3207003241,
    "y": 3714784.440255099
   }
  },
  {
   "attributes": {
    "OBJECTID": 4267,
    "ولایت": "نيمروز",
    "Province": "NIMROZ",
    "PC_Code": "3406051",
    "District": "DELARAM",
    "د_مرکز_نوم__نام_مرکز": "قریه استوی ",
    "Polling_Center_Name": "Astawi Village ",
    "د_مرکز_ځای__موقعیت_مرکز": "قریه استوی ",
    "Polling_Center_Location": "Astawi Village ",
    "Map_Accuracy": "Village",
    "Map_Accuracy_Dari": "قریه",
    "Status": "Open",
    "Status_Dari": null,
    "PS_Male": 1,
    "PS_Female": 1,
    "PS_Total": 2,
    "ولسوالي": "دلارام",
    "Region": "Southern Region"
   },
   "geometry": {
    "x": 7030698.7386843655,
    "y": 3763196.334782138
   }
  },
  {
   "attributes": {
    "OBJECTID": 4268,
    "ولایت": "کابل",
    "Province": "KABUL",
    "PC_Code": "0101017",
    "District": "KABUL-D01",
    "د_مرکز_نوم__نام_مرکز": "مسجد امام باقر",
    "Polling_Center_Name": "Imam-e-Baqir Mosque",
    "د_مرکز_ځای__موقعیت_مرکز": "قريه هزاره ها",
    "Polling_Center_Location": "Hazara ha Village",
    "Map_Accuracy": "Building",
    "Map_Accuracy_Dari": "تعمیر",
    "Status": "Open",
    "Status_Dari": null,
    "PS_Male": 2,
    "PS_Female": 1,
    "PS_Total": 3,
    "ولسوالي": "کابل - ناحیه 01",
    "Region": "Central Region"
   },
   "geometry": {
    "x": 7699750.0869413232,
    "y": 4097558.1469048299
   }
  },
  {
   "attributes": {
    "OBJECTID": 4269,
    "ولایت": "کابل",
    "Province": "KABUL",
    "PC_Code": "0101027",
    "District": "KABUL-D02",
    "د_مرکز_نوم__نام_مرکز": "مسجد عمر فاروق",
    "Polling_Center_Name": "Omar Farooq Mosque",
    "د_مرکز_ځای__موقعیت_مرکز": "کارته پروان",
    "Polling_Center_Location": "Kart-e-Parwan",
    "Map_Accuracy": "Building",
    "Map_Accuracy_Dari": "تعمیر",
    "Status": "Open",
    "Status_Dari": null,
    "PS_Male": 1,
    "PS_Female": 1,
    "PS_Total": 2,
    "ولسوالي": "کابل - ناحیه 02",
    "Region": "Central Region"
   },
   "geometry": {
    "x": 7696689.6280483268,
    "y": 4100312.4142784267
   }
  },
  {
   "attributes": {
    "OBJECTID": 4270,
    "ولایت": "کابل",
    "Province": "KABUL",
    "PC_Code": "0101028",
    "District": "KABUL-D02",
    "د_مرکز_نوم__نام_مرکز": "ليسه استقلال",
    "Polling_Center_Name": "Istiqlal High School",
    "د_مرکز_ځای__موقعیت_مرکز": "ليسه استقلال",
    "Polling_Center_Location": "Istiqlal High School",
    "Map_Accuracy": "Building",
    "Map_Accuracy_Dari": "تعمیر",
    "Status": "Open",
    "Status_Dari": null,
    "PS_Male": 4,
    "PS_Female": 3,
    "PS_Total": 7,
    "ولسوالي": "کابل - ناحیه 02",
    "Region": "Central Region"
   },
   "geometry": {
    "x": 7700632.1024363367,
    "y": 4099236.0233256668
   }
  },
  {
   "attributes": {
    "OBJECTID": 4271,
    "ولایت": "کابل",
    "Province": "KABUL",
    "PC_Code": "0101036",
    "District": "KABUL-D03",
    "د_مرکز_نوم__نام_مرکز": "مکتب متوسطه نمبر١٢ جمال مينه",
    "Polling_Center_Name": "Jamal Menah 13th Number Secondary School",
    "د_مرکز_ځای__موقعیت_مرکز": "کارته سخي",
    "Polling_Center_Location": "Kart-e-Sakhi",
    "Map_Accuracy": "Building",
    "Map_Accuracy_Dari": "تعمیر",
    "Status": "Open",
    "Status_Dari": null,
    "PS_Male": 4,
    "PS_Female": 4,
    "PS_Total": 8,
    "ولسوالي": "کابل - ناحیه 03",
    "Region": "Central Region"
   },
   "geometry": {
    "x": 7696638.3142158501,
    "y": 4099151.7185658282
   }
  },
  {
   "attributes": {
    "OBJECTID": 4272,
    "ولایت": "کابل",
    "Province": "KABUL",
    "PC_Code": "0101055",
    "District": "KABUL-D04",
    "د_مرکز_نوم__نام_مرکز": " مکتب متوسطه امیرشیرعلی خان",
    "Polling_Center_Name": "Amir Shir Ali Khan Secondary School",
    "د_مرکز_ځای__موقعیت_مرکز": "کارته پروان",
    "Polling_Center_Location": "Kart-e-Parwan",
    "Map_Accuracy": "Building",
    "Map_Accuracy_Dari": "تعمیر",
    "Status": "Open",
    "Status_Dari": null,
    "PS_Male": 3,
    "PS_Female": 3,
    "PS_Total": 6,
    "ولسوالي": "کابل - ناحیه 04",
    "Region": "Central Region"
   },
   "geometry": {
    "x": 7697003.6380679552,
    "y": 4100825.0232540416
   }
  },
  {
   "attributes": {
    "OBJECTID": 4273,
    "ولایت": "کابل",
    "Province": "KABUL",
    "PC_Code": "0101075",
    "District": "KABUL-D05",
    "د_مرکز_نوم__نام_مرکز": "  مسجد امام حسین ",
    "Polling_Center_Name": "Imam-e-Hussain Mosque",
    "د_مرکز_ځای__موقعیت_مرکز": "ديوان بيگي",
    "Polling_Center_Location": "Dewan Begi",
    "Map_Accuracy": "Building",
    "Map_Accuracy_Dari": "تعمیر",
    "Status": "Open",
    "Status_Dari": null,
    "PS_Male": 3,
    "PS_Female": 2,
    "PS_Total": 5,
    "ولسوالي": "کابل - ناحیه 05",
    "Region": "Central Region"
   },
   "geometry": {
    "x": 7692367.596498115,
    "y": 4098540.7454603156
   }
  },
  {
   "attributes": {
    "OBJECTID": 4274,
    "ولایت": "کابل",
    "Province": "KABUL",
    "PC_Code": "0101076",
    "District": "KABUL-D05",
    "د_مرکز_نوم__نام_مرکز": " مسجد ايوب صابر",
    "Polling_Center_Name": "Ayub Saber Mosque",
    "د_مرکز_ځای__موقعیت_مرکز": "نو آباد قرغه",
    "Polling_Center_Location": "Naw Abad, Qargha",
    "Map_Accuracy": "Building",
    "Map_Accuracy_Dari": "تعمیر",
    "Status": "Open",
    "Status_Dari": null,
    "PS_Male": 1,
    "PS_Female": 2,
    "PS_Total": 3,
    "ولسوالي": "کابل - ناحیه 05",
    "Region": "Central Region"
   },
   "geometry": {
    "x": 7689310.5718114059,
    "y": 4100253.6846732697
   }
  },
  {
   "attributes": {
    "OBJECTID": 4275,
    "ولایت": "کابل",
    "Province": "KABUL",
    "PC_Code": "0101085",
    "District": "KABUL-D05",
    "د_مرکز_نوم__نام_مرکز": " مسجد شهيد",
    "Polling_Center_Name": "Shaheed Mosque",
    "د_مرکز_ځای__موقعیت_مرکز": "قريه وردک ها",
    "Polling_Center_Location": "Wardakeha Village",
    "Map_Accuracy": "Building",
    "Map_Accuracy_Dari": "تعمیر",
    "Status": "Open",
    "Status_Dari": null,
    "PS_Male": 1,
    "PS_Female": 1,
    "PS_Total": 2,
    "ولسوالي": "کابل - ناحیه 05",
    "Region": "Central Region"
   },
   "geometry": {
    "x": 7687538.0193143655,
    "y": 4100010.6160384775
   }
  },
  {
   "attributes": {
    "OBJECTID": 4276,
    "ولایت": "کابل",
    "Province": "KABUL",
    "PC_Code": "0101094",
    "District": "KABUL-D05",
    "د_مرکز_نوم__نام_مرکز": " لیسه میرغلام محمد غبار",
    "Polling_Center_Name": "Mir Ghulam Ghubar High School",
    "د_مرکز_ځای__موقعیت_مرکز": "سپين کلي",
    "Polling_Center_Location": "Spin Kalai",
    "Map_Accuracy": "Building",
    "Map_Accuracy_Dari": "تعمیر",
    "Status": "Open",
    "Status_Dari": null,
    "PS_Male": 5,
    "PS_Female": 4,
    "PS_Total": 9,
    "ولسوالي": "کابل - ناحیه 05",
    "Region": "Central Region"
   },
   "geometry": {
    "x": 7692767.1154714013,
    "y": 4099458.2660540724
   }
  },
  {
   "attributes": {
    "OBJECTID": 4277,
    "ولایت": "کابل",
    "Province": "KABUL",
    "PC_Code": "0101095",
    "District": "KABUL-D06",
    "د_مرکز_نوم__نام_مرکز": " ليسه چهار قلعه",
    "Polling_Center_Name": "Char Qala High School",
    "د_مرکز_ځای__موقعیت_مرکز": "چهار قلعه",
    "Polling_Center_Location": "Chahar Qala",
    "Map_Accuracy": "Building",
    "Map_Accuracy_Dari": "تعمیر",
    "Status": "Open",
    "Status_Dari": null,
    "PS_Male": 4,
    "PS_Female": 4,
    "PS_Total": 8,
    "ولسوالي": "کابل - ناحیه 06",
    "Region": "Central Region"
   },
   "geometry": {
    "x": 7693373.1755147176,
    "y": 4094561.3820581753
   }
  },
  {
   "attributes": {
    "OBJECTID": 4278,
    "ولایت": "کابل",
    "Province": "KABUL",
    "PC_Code": "0101104",
    "District": "KABUL-D06",
    "د_مرکز_نوم__نام_مرکز": " لیسه قلعه بختیار",
    "Polling_Center_Name": "Qala-e-Bakhtiar High School",
    "د_مرکز_ځای__موقعیت_مرکز": " نوآباد قلعه بختیار",
    "Polling_Center_Location": "Naw Abade Qala-e-Bakhtiar",
    "Map_Accuracy": "Building",
    "Map_Accuracy_Dari": "تعمیر",
    "Status": "Open",
    "Status_Dari": null,
    "PS_Male": 4,
    "PS_Female": 4,
    "PS_Total": 8,
    "ولسوالي": "کابل - ناحیه 06",
    "Region": "Central Region"
   },
   "geometry": {
    "x": 7693778.5343084913,
    "y": 4092316.2152142045
   }
  },
  {
   "attributes": {
    "OBJECTID": 4279,
    "ولایت": "کابل",
    "Province": "KABUL",
    "PC_Code": "0101114",
    "District": "KABUL-D06",
    "د_مرکز_نوم__نام_مرکز": " مسجد ابوذر غفاري",
    "Polling_Center_Name": "Abu Zar Ghafari Mosque",
    "د_مرکز_ځای__موقعیت_مرکز": "پل سوخته",
    "Polling_Center_Location": "Pul-e-Sukhta",
    "Map_Accuracy": "Building",
    "Map_Accuracy_Dari": "تعمیر",
    "Status": "Open",
    "Status_Dari": null,
    "PS_Male": 3,
    "PS_Female": 2,
    "PS_Total": 5,
    "ولسوالي": "کابل - ناحیه 06",
    "Region": "Central Region"
   },
   "geometry": {
    "x": 7694137.0231438614,
    "y": 4096728.3874617391
   }
  },
  {
   "attributes": {
    "OBJECTID": 4280,
    "ولایت": "کابل",
    "Province": "KABUL",
    "PC_Code": "0101125",
    "District": "KABUL-D07",
    "د_مرکز_نوم__نام_مرکز": " ليسه خوشحال خان",
    "Polling_Center_Name": "Khushhal Khan High School",
    "د_مرکز_ځای__موقعیت_مرکز": "سرک چهلستون",
    "Polling_Center_Location": "Chehel Seton Road",
    "Map_Accuracy": "Building",
    "Map_Accuracy_Dari": "تعمیر",
    "Status": "Open",
    "Status_Dari": null,
    "PS_Male": 4,
    "PS_Female": 5,
    "PS_Total": 9,
    "ولسوالي": "کابل - ناحیه 07",
    "Region": "Central Region"
   },
   "geometry": {
    "x": 7698580.9584420463,
    "y": 4096063.6386957085
   }
  },
  {
   "attributes": {
    "OBJECTID": 4281,
    "ولایت": "کابل",
    "Province": "KABUL",
    "PC_Code": "0101134",
    "District": "KABUL-D07",
    "د_مرکز_نوم__نام_مرکز": "ليسه غازي عبدالله",
    "Polling_Center_Name": "Ghazi Abdullah High School",
    "د_مرکز_ځای__موقعیت_مرکز": "قلعه اسفندیار",
    "Polling_Center_Location": "Qala-e-Asfandiar",
    "Map_Accuracy": "Building",
    "Map_Accuracy_Dari": "تعمیر",
    "Status": "Open",
    "Status_Dari": null,
    "PS_Male": 4,
    "PS_Female": 3,
    "PS_Total": 7,
    "ولسوالي": "کابل - ناحیه 07",
    "Region": "Central Region"
   },
   "geometry": {
    "x": 7695820.4343322655,
    "y": 4088749.4503224147
   }
  },
  {
   "attributes": {
    "OBJECTID": 4282,
    "ولایت": "کابل",
    "Province": "KABUL",
    "PC_Code": "0101151",
    "District": "KABUL-D08",
    "د_مرکز_نوم__نام_مرکز": " لیسه ذبیح الله عصمتی",
    "Polling_Center_Name": "Zabihullah Esmati High School",
    "د_مرکز_ځای__موقعیت_مرکز": "دوصد فاميلي",
    "Polling_Center_Location": "200 Family",
    "Map_Accuracy": "Building",
    "Map_Accuracy_Dari": "تعمیر",
    "Status": "Open",
    "Status_Dari": null,
    "PS_Male": 4,
    "PS_Female": 4,
    "PS_Total": 8,
    "ولسوالي": "کابل - ناحیه 08",
    "Region": "Central Region"
   },
   "geometry": {
    "x": 7706015.4551249621,
    "y": 4094294.6519628535
   }
  },
  {
   "attributes": {
    "OBJECTID": 4283,
    "ولایت": "کابل",
    "Province": "KABUL",
    "PC_Code": "0101161",
    "District": "KABUL-D08",
    "د_مرکز_نوم__نام_مرکز": " مسجد عمر فاروق",
    "Polling_Center_Name": "Omar Farooq Mosque",
    "د_مرکز_ځای__موقعیت_مرکز": "تپه دوستی خیل کارته نو",
    "Polling_Center_Location": "Tapa-e-DostiKhel, Kart-e-Naw",
    "Map_Accuracy": "Building",
    "Map_Accuracy_Dari": "تعمیر",
    "Status": "Open",
    "Status_Dari": null,
    "PS_Male": 4,
    "PS_Female": 1,
    "PS_Total": 5,
    "ولسوالي": "کابل - ناحیه 08",
    "Region": "Central Region"
   },
   "geometry": {
    "x": 7706889.5446722331,
    "y": 4096582.9014666001
   }
  },
  {
   "attributes": {
    "OBJECTID": 4284,
    "ولایت": "کابل",
    "Province": "KABUL",
    "PC_Code": "0101171",
    "District": "KABUL-D08",
    "د_مرکز_نوم__نام_مرکز": " مکتب متوسطه شاه شهيد خاص",
    "Polling_Center_Name": "Shah Shaheed Khas Secondary School",
    "د_مرکز_ځای__موقعیت_مرکز": "شاه شهيد خاص",
    "Polling_Center_Location": "Shah Shaheed Khas",
    "Map_Accuracy": "Building",
    "Map_Accuracy_Dari": "تعمیر",
    "Status": "Open",
    "Status_Dari": null,
    "PS_Male": 3,
    "PS_Female": 2,
    "PS_Total": 5,
    "ولسوالي": "کابل - ناحیه 08",
    "Region": "Central Region"
   },
   "geometry": {
    "x": 7703378.7338736691,
    "y": 4097606.8520208555
   }
  },
  {
   "attributes": {
    "OBJECTID": 4285,
    "ولایت": "کابل",
    "Province": "KABUL",
    "PC_Code": "0101177",
    "District": "KABUL-D09",
    "د_مرکز_نوم__نام_مرکز": " مکتب متوسطه خواجه رواش",
    "Polling_Center_Name": "Khwaja Rawash Secondary School",
    "د_مرکز_ځای__موقعیت_مرکز": "خواجه رواش",
    "Polling_Center_Location": "Khwaja Rawash",
    "Map_Accuracy": "Building",
    "Map_Accuracy_Dari": "تعمیر",
    "Status": "Open",
    "Status_Dari": null,
    "PS_Male": 3,
    "PS_Female": 3,
    "PS_Total": 6,
    "ولسوالي": "کابل - ناحیه 09",
    "Region": "Central Region"
   },
   "geometry": {
    "x": 7705886.3567982977,
    "y": 4103371.3556252387
   }
  },
  {
   "attributes": {
    "OBJECTID": 4286,
    "ولایت": "کابل",
    "Province": "KABUL",
    "PC_Code": "0101186",
    "District": "KABUL-D09",
    "د_مرکز_نوم__نام_مرکز": " لیسه عالی قابل بای ",
    "Polling_Center_Name": "Qabil Bai High School",
    "د_مرکز_ځای__موقعیت_مرکز": "قابل باي",
    "Polling_Center_Location": "Qabil Bai",
    "Map_Accuracy": "Building",
    "Map_Accuracy_Dari": "تعمیر",
    "Status": "Open",
    "Status_Dari": null,
    "PS_Male": 3,
    "PS_Female": 1,
    "PS_Total": 4,
    "ولسوالي": "کابل - ناحیه 09",
    "Region": "Central Region"
   },
   "geometry": {
    "x": 7707027.3771261508,
    "y": 4102499.3107219436
   }
  },
  {
   "attributes": {
    "OBJECTID": 4287,
    "ولایت": "کابل",
    "Province": "KABUL",
    "PC_Code": "0101187",
    "District": "KABUL-D09",
    "د_مرکز_نوم__نام_مرکز": " مسجد منصور هلاج",
    "Polling_Center_Name": "Mansoor Helaj Mosque",
    "د_مرکز_ځای__موقعیت_مرکز": "قلعه وکيل",
    "Polling_Center_Location": "Qala-e-Wakil",
    "Map_Accuracy": "Building",
    "Map_Accuracy_Dari": "تعمیر",
    "Status": "Open",
    "Status_Dari": null,
    "PS_Male": 2,
    "PS_Female": 1,
    "PS_Total": 3,
    "ولسوالي": "کابل - ناحیه 09",
    "Region": "Central Region"
   },
   "geometry": {
    "x": 7704112.7367473347,
    "y": 4102969.9433110952
   }
  },
  {
   "attributes": {
    "OBJECTID": 4288,
    "ولایت": "کابل",
    "Province": "KABUL",
    "PC_Code": "0101202",
    "District": "KABUL-D10",
    "د_مرکز_نوم__نام_مرکز": " مکتب متوسطه چهارقلعه وزير آباد",
    "Polling_Center_Name": "Chahar Qala-e-Wazirabad Secondary School",
    "د_مرکز_ځای__موقعیت_مرکز": "چهار قلعه",
    "Polling_Center_Location": "Chahar Qala",
    "Map_Accuracy": "Building",
    "Map_Accuracy_Dari": "تعمیر",
    "Status": "Open",
    "Status_Dari": null,
    "PS_Male": 3,
    "PS_Female": 3,
    "PS_Total": 6,
    "ولسوالي": "کابل - ناحیه 10",
    "Region": "Central Region"
   },
   "geometry": {
    "x": 7701552.3806667225,
    "y": 4103948.1674572164
   }
  },
  {
   "attributes": {
    "OBJECTID": 4289,
    "ولایت": "کابل",
    "Province": "KABUL",
    "PC_Code": "0101211",
    "District": "KABUL-D10",
    "د_مرکز_نوم__نام_مرکز": " ليسه نسوان زرغونه",
    "Polling_Center_Name": "Zarghona Girls High School",
    "د_مرکز_ځای__موقعیت_مرکز": "قلعه فتح الله",
    "Polling_Center_Location": "Qala-e-Fathullah",
    "Map_Accuracy": "Building",
    "Map_Accuracy_Dari": "تعمیر",
    "Status": "Open",
    "Status_Dari": null,
    "PS_Male": 3,
    "PS_Female": 4,
    "PS_Total": 7,
    "ولسوالي": "کابل - ناحیه 10",
    "Region": "Central Region"
   },
   "geometry": {
    "x": 7699890.6856845869,
    "y": 4101770.1966446349
   }
  },
  {
   "attributes": {
    "OBJECTID": 4290,
    "ولایت": "کابل",
    "Province": "KABUL",
    "PC_Code": "0101222",
    "District": "KABUL-D10",
    "د_مرکز_نوم__نام_مرکز": " وزارت امور زنان",
    "Polling_Center_Name": "Ministry of Women Affairs",
    "د_مرکز_ځای__موقعیت_مرکز": "شهر نو",
    "Polling_Center_Location": "Shahr-e-Naw",
    "Map_Accuracy": "Building",
    "Map_Accuracy_Dari": "تعمیر",
    "Status": "Open",
    "Status_Dari": null,
    "PS_Male": 3,
    "PS_Female": 2,
    "PS_Total": 5,
    "ولسوالي": "کابل - ناحیه 10",
    "Region": "Central Region"
   },
   "geometry": {
    "x": 7700344.6766243018,
    "y": 4100655.7892264314
   }
  },
  {
   "attributes": {
    "OBJECTID": 4291,
    "ولایت": "کابل",
    "Province": "KABUL",
    "PC_Code": "0101232",
    "District": "KABUL-D11",
    "د_مرکز_نوم__نام_مرکز": " مکتب متوسطه بی بی حوا",
    "Polling_Center_Name": "Bibi Hawa Secondary School",
    "د_مرکز_ځای__موقعیت_مرکز": "گولايي حصه اول",
    "Polling_Center_Location": "Golaye-e-Park",
    "Map_Accuracy": "Building",
    "Map_Accuracy_Dari": "تعمیر",
    "Status": "Open",
    "Status_Dari": null,
    "PS_Male": 3,
    "PS_Female": 4,
    "PS_Total": 7,
    "ولسوالي": "کابل - ناحیه 11",
    "Region": "Central Region"
   },
   "geometry": {
    "x": 7694397.0187201649,
    "y": 4105813.8730146829
   }
  },
  {
   "attributes": {
    "OBJECTID": 4292,
    "ولایت": "کابل",
    "Province": "KABUL",
    "PC_Code": "0101241",
    "District": "KABUL-D11",
    "د_مرکز_نوم__نام_مرکز": "لیسه عبدالقادر بیدل",
    "Polling_Center_Name": "Abdul Qader Bedil High School",
    "د_مرکز_ځای__موقعیت_مرکز": "پروژه جديد",
    "Polling_Center_Location": "Proja-e-Jadid",
    "Map_Accuracy": "Building",
    "Map_Accuracy_Dari": "تعمیر",
    "Status": "Open",
    "Status_Dari": null,
    "PS_Male": 5,
    "PS_Female": 5,
    "PS_Total": 10,
    "ولسوالي": "کابل - ناحیه 11",
    "Region": "Central Region"
   },
   "geometry": {
    "x": 7696531.3328456143,
    "y": 4108195.163137937
   }
  },
  {
   "attributes": {
    "OBJECTID": 4293,
    "ولایت": "کابل",
    "Province": "KABUL",
    "PC_Code": "0101498",
    "District": "KABUL-D12",
    "د_مرکز_نوم__نام_مرکز": " لیسه نسوان احمد شاه بابا",
    "Polling_Center_Name": "Ahmad Shah Baba Girls High School",
    "د_مرکز_ځای__موقعیت_مرکز": "بلاک ۸ احمد شاه بابا مینه",
    "Polling_Center_Location": "Block 8, Ahmad Shah Baba Mina",
    "Map_Accuracy": "Building",
    "Map_Accuracy_Dari": "تعمیر",
    "Status": "Open",
    "Status_Dari": null,
    "PS_Male": 3,
    "PS_Female": 3,
    "PS_Total": 6,
    "ولسوالي": "کابل - ناحیه 12",
    "Region": "Central Region"
   },
   "geometry": {
    "x": 7717264.7727962155,
    "y": 4098654.9337474629
   }
  },
  {
   "attributes": {
    "OBJECTID": 4294,
    "ولایت": "کابل",
    "Province": "KABUL",
    "PC_Code": "0101276",
    "District": "KABUL-D13",
    "د_مرکز_نوم__نام_مرکز": " مسجد حنيفي",
    "Polling_Center_Name": "Hanefi Mosque",
    "د_مرکز_ځای__موقعیت_مرکز": "قلعه دوغ آباد",
    "Polling_Center_Location": "Qala-e-Dogh Abad",
    "Map_Accuracy": "Building",
    "Map_Accuracy_Dari": "تعمیر",
    "Status": "Open",
    "Status_Dari": null,
    "PS_Male": 2,
    "PS_Female": 1,
    "PS_Total": 3,
    "ولسوالي": "کابل - ناحیه 13",
    "Region": "Central Region"
   },
   "geometry": {
    "x": 7688627.8994681453,
    "y": 4095587.1937501561
   }
  },
  {
   "attributes": {
    "OBJECTID": 4295,
    "ولایت": "کابل",
    "Province": "KABUL",
    "PC_Code": "0101499",
    "District": "KABUL-D13",
    "د_مرکز_نوم__نام_مرکز": "مسجد امام مهدی",
    "Polling_Center_Name": "Imam-e-Mehdi Mosque",
    "د_مرکز_ځای__موقعیت_مرکز": "شهرک مهدیه ",
    "Polling_Center_Location": "Shahrak-e-Mahdia",
    "Map_Accuracy": "Building",
    "Map_Accuracy_Dari": "تعمیر",
    "Status": "Open",
    "Status_Dari": null,
    "PS_Male": 3,
    "PS_Female": 2,
    "PS_Total": 5,
    "ولسوالي": "کابل - ناحیه 13",
    "Region": "Central Region"
   },
   "geometry": {
    "x": 7688606.9023857918,
    "y": 4093192.6301424312
   }
  },
  {
   "attributes": {
    "OBJECTID": 4296,
    "ولایت": "کابل",
    "Province": "KABUL",
    "PC_Code": "0101293",
    "District": "KABUL-D15",
    "د_مرکز_نوم__نام_مرکز": " لیسه محمد فقیر فیروزی",
    "Polling_Center_Name": "Mohammad Faqer Ferozi High School",
    "د_مرکز_ځای__موقعیت_مرکز": "حصه سوم خير خانه",
    "Polling_Center_Location": "Hesa Sewom-e-Khair Khana",
    "Map_Accuracy": "Building",
    "Map_Accuracy_Dari": "تعمیر",
    "Status": "Open",
    "Status_Dari": null,
    "PS_Male": 5,
    "PS_Female": 4,
    "PS_Total": 9,
    "ولسوالي": "کابل - ناحیه 15",
    "Region": "Central Region"
   },
   "geometry": {
    "x": 7698512.2275620447,
    "y": 4106915.4105043351
   }
  },
  {
   "attributes": {
    "OBJECTID": 4297,
    "ولایت": "کابل",
    "Province": "KABUL",
    "PC_Code": "0101302",
    "District": "KABUL-D15",
    "د_مرکز_نوم__نام_مرکز": " مسجد سعد ابن وقاض",
    "Polling_Center_Name": "Saad Ibne Weqas Mosque",
    "د_مرکز_ځای__موقعیت_مرکز": "لب جر",
    "Polling_Center_Location": "Lab-e-Jar",
    "Map_Accuracy": "Building",
    "Map_Accuracy_Dari": "تعمیر",
    "Status": "Open",
    "Status_Dari": null,
    "PS_Male": 3,
    "PS_Female": 2,
    "PS_Total": 5,
    "ولسوالي": "کابل - ناحیه 15",
    "Region": "Central Region"
   },
   "geometry": {
    "x": 7697881.0093138097,
    "y": 4105267.4848768204
   }
  },
  {
   "attributes": {
    "OBJECTID": 4298,
    "ولایت": "کابل",
    "Province": "KABUL",
    "PC_Code": "0101503",
    "District": "KABUL-D15",
    "د_مرکز_نوم__نام_مرکز": "مسجد حضرت عمر فاروق",
    "Polling_Center_Name": "Hazrat-e-Omer Farooq Mosque",
    "د_مرکز_ځای__موقعیت_مرکز": "تپه خواجه بغرا",
    "Polling_Center_Location": "Tapa-e- Khwaja Bughra",
    "Map_Accuracy": "Building",
    "Map_Accuracy_Dari": "تعمیر",
    "Status": "Open",
    "Status_Dari": null,
    "PS_Male": 3,
    "PS_Female": 2,
    "PS_Total": 5,
    "ولسوالي": "کابل - ناحیه 15",
    "Region": "Central Region"
   },
   "geometry": {
    "x": 7700061.9440420009,
    "y": 4106236.7317768973
   }
  },
  {
   "attributes": {
    "OBJECTID": 4299,
    "ولایت": "کابل",
    "Province": "KABUL",
    "PC_Code": "0101319",
    "District": "KABUL-D16",
    "د_مرکز_نوم__نام_مرکز": "مکتب متوسطه نازو انا",
    "Polling_Center_Name": "Nazo Ana Secondary School",
    "د_مرکز_ځای__موقعیت_مرکز": "مکروريان اول",
    "Polling_Center_Location": "First Makroryan",
    "Map_Accuracy": "Building",
    "Map_Accuracy_Dari": "تعمیر",
    "Status": "Open",
    "Status_Dari": null,
    "PS_Male": 4,
    "PS_Female": 3,
    "PS_Total": 7,
    "ولسوالي": "کابل - ناحیه 16",
    "Region": "Central Region"
   },
   "geometry": {
    "x": 7703542.4314112691,
    "y": 4100139.6409604507
   }
  },
  {
   "attributes": {
    "OBJECTID": 4300,
    "ولایت": "کابل",
    "Province": "KABUL",
    "PC_Code": "0101327",
    "District": "KABUL-D17",
    "د_مرکز_نوم__نام_مرکز": "مرکز ناحيه ١٧",
    "Polling_Center_Name": "17th Nahia Office",
    "د_مرکز_ځای__موقعیت_مرکز": "سر کوتل خير خانه",
    "Polling_Center_Location": "Sar-e-Kotal Khair Khana",
    "Map_Accuracy": "Building",
    "Map_Accuracy_Dari": "تعمیر",
    "Status": "Open",
    "Status_Dari": null,
    "PS_Male": 7,
    "PS_Female": 6,
    "PS_Total": 13,
    "ولسوالي": "کابل - ناحیه 17",
    "Region": "Central Region"
   },
   "geometry": {
    "x": 7690806.7725593643,
    "y": 4107595.4242131403
   }
  },
  {
   "attributes": {
    "OBJECTID": 4301,
    "ولایت": "کابل",
    "Province": "KABUL",
    "PC_Code": "0101509",
    "District": "KABUL-D21",
    "د_مرکز_نوم__نام_مرکز": " مسجد شریف گل سعید خان ",
    "Polling_Center_Name": "Sharif Gul Said Khan Mosque",
    "د_مرکز_ځای__موقعیت_مرکز": "ملواری غوندۍ",
    "Polling_Center_Location": "Malwari Ghundi",
    "Map_Accuracy": "Building",
    "Map_Accuracy_Dari": "تعمیر",
    "Status": "Open",
    "Status_Dari": null,
    "PS_Male": 3,
    "PS_Female": 4,
    "PS_Total": 7,
    "ولسوالي": "کابل - ناحیه 21",
    "Region": "Central Region"
   },
   "geometry": {
    "x": 7725655.7577134855,
    "y": 4104736.556674758
   }
  },
  {
   "attributes": {
    "OBJECTID": 4302,
    "ولایت": "کابل",
    "Province": "KABUL",
    "PC_Code": "0102405",
    "District": "PAGHMAN",
    "د_مرکز_نوم__نام_مرکز": "کلينيک دوازده امام",
    "Polling_Center_Name": "12 Imam Clinic",
    "د_مرکز_ځای__موقعیت_مرکز": "دره پشه يي",
    "Polling_Center_Location": "Dara-e-Pashaye",
    "Map_Accuracy": "Building",
    "Map_Accuracy_Dari": "تعمیر",
    "Status": "Open",
    "Status_Dari": null,
    "PS_Male": 3,
    "PS_Female": 1,
    "PS_Total": 4,
    "ولسوالي": "پغمان",
    "Region": "Central Region"
   },
   "geometry": {
    "x": 7676301.6069116797,
    "y": 4108334.0585834165
   }
  },
  {
   "attributes": {
    "OBJECTID": 4303,
    "ولایت": "کابل",
    "Province": "KABUL",
    "PC_Code": "0102406",
    "District": "PAGHMAN",
    "د_مرکز_نوم__نام_مرکز": " مکتب متوسطه حضرت عثمان",
    "Polling_Center_Name": "Hazrat-e-Usman Secondary School",
    "د_مرکز_ځای__موقعیت_مرکز": "دره زرگر",
    "Polling_Center_Location": "Dara-e-Zargar",
    "Map_Accuracy": "Building",
    "Map_Accuracy_Dari": "تعمیر",
    "Status": "Open",
    "Status_Dari": null,
    "PS_Male": 3,
    "PS_Female": 1,
    "PS_Total": 4,
    "ولسوالي": "پغمان",
    "Region": "Central Region"
   },
   "geometry": {
    "x": 7677448.0351403942,
    "y": 4108458.6801589695
   }
  },
  {
   "attributes": {
    "OBJECTID": 4304,
    "ولایت": "کابل",
    "Province": "KABUL",
    "PC_Code": "0102416",
    "District": "PAGHMAN",
    "د_مرکز_نوم__نام_مرکز": " مکتب ابتدائيه سموچک",
    "Polling_Center_Name": "Sumuchak Primary School",
    "د_مرکز_ځای__موقعیت_مرکز": "قریه سموچک",
    "Polling_Center_Location": "Smochak Village",
    "Map_Accuracy": "Building",
    "Map_Accuracy_Dari": "تعمیر",
    "Status": "Open",
    "Status_Dari": null,
    "PS_Male": 2,
    "PS_Female": 1,
    "PS_Total": 3,
    "ولسوالي": "پغمان",
    "Region": "Central Region"
   },
   "geometry": {
    "x": 7681056.7091297023,
    "y": 4111630.4806571989
   }
  },
  {
   "attributes": {
    "OBJECTID": 4305,
    "ولایت": "کابل",
    "Province": "KABUL",
    "PC_Code": "0104455",
    "District": "BAGRAMI",
    "د_مرکز_نوم__نام_مرکز": " لیسه حسین خیل",
    "Polling_Center_Name": "Hussain Khel High School",
    "د_مرکز_ځای__موقعیت_مرکز": "حسين خيل",
    "Polling_Center_Location": "Hossain Khel",
    "Map_Accuracy": "Village",
    "Map_Accuracy_Dari": "قریه",
    "Status": "Open",
    "Status_Dari": null,
    "PS_Male": 2,
    "PS_Female": 2,
    "PS_Total": 4,
    "ولسوالي": "بگرامی",
    "Region": "Central Region"
   },
   "geometry": {
    "x": 7714761.5236143814,
    "y": 4094700.1214260189
   }
  },
  {
   "attributes": {
    "OBJECTID": 4306,
    "ولایت": "کابل",
    "Province": "KABUL",
    "PC_Code": "0105466",
    "District": "DEHSABZ",
    "د_مرکز_نوم__نام_مرکز": " ليسه ده يحي",
    "Polling_Center_Name": "Deh Yahya High School",
    "د_مرکز_ځای__موقعیت_مرکز": "ده يحي",
    "Polling_Center_Location": "Deh Yahya",
    "Map_Accuracy": "Building",
    "Map_Accuracy_Dari": "تعمیر",
    "Status": "Open",
    "Status_Dari": null,
    "PS_Male": 2,
    "PS_Female": 1,
    "PS_Total": 3,
    "ولسوالي": "ده سبز",
    "Region": "Central Region"
   },
   "geometry": {
    "x": 7707352.0047988119,
    "y": 4109545.9673948167
   }
  },
  {
   "attributes": {
    "OBJECTID": 4307,
    "ولایت": "هرات",
    "Province": "HERAT",
    "PC_Code": "3209286",
    "District": "ADRASKAN",
    "د_مرکز_نوم__نام_مرکز": "مسجد نگل",
    "Polling_Center_Name": "Nigl Mosque ",
    "د_مرکز_ځای__موقعیت_مرکز": " نگل",
    "Polling_Center_Location": "Nigl ",
    "Map_Accuracy": "Building",
    "Map_Accuracy_Dari": "تعمیر",
    "Status": "Open",
    "Status_Dari": null,
    "PS_Male": 1,
    "PS_Female": 1,
    "PS_Total": 2,
    "ولسوالي": "ادرسکن ",
    "Region": "Western Region"
   },
   "geometry": {
    "x": 6946352.0896409135,
    "y": 3962866.4068507929
   }
  },
  {
   "attributes": {
    "OBJECTID": 4308,
    "ولایت": "وردک",
    "Province": "WARDAK",
    "PC_Code": "0402145",
    "District": "NERKH",
    "د_مرکز_نوم__نام_مرکز": "مکتب سهاک",
    "Polling_Center_Name": "Sahak School",
    "د_مرکز_ځای__موقعیت_مرکز": "سهاک",
    "Polling_Center_Location": "Sahak",
    "Map_Accuracy": "Village",
    "Map_Accuracy_Dari": "قریه",
    "Status": "Open",
    "Status_Dari": null,
    "PS_Male": 1,
    "PS_Female": 1,
    "PS_Total": 2,
    "ولسوالي": "نرخ",
    "Region": "Central Region"
   },
   "geometry": {
    "x": 7642490.0726575684,
    "y": 4083253.6798909451
   }
  },
  {
   "attributes": {
    "OBJECTID": 4309,
    "ولایت": "وردک",
    "Province": "WARDAK",
    "PC_Code": "0402155",
    "District": "NERKH",
    "د_مرکز_نوم__نام_مرکز": "مکتب زنانه و مردانه قریه توکرک",
    "Polling_Center_Name": "Boys and Girls School ",
    "د_مرکز_ځای__موقعیت_مرکز": "قریه توکرک",
    "Polling_Center_Location": "Tukarak",
    "Map_Accuracy": "Village",
    "Map_Accuracy_Dari": "قریه",
    "Status": "Open",
    "Status_Dari": null,
    "PS_Male": 2,
    "PS_Female": 1,
    "PS_Total": 3,
    "ولسوالي": "نرخ",
    "Region": "Central Region"
   },
   "geometry": {
    "x": 7647386.1198224658,
    "y": 4070073.5195453335
   }
  },
  {
   "attributes": {
    "OBJECTID": 4310,
    "ولایت": "هرات",
    "Province": "HERAT",
    "PC_Code": "3214311",
    "District": "SHINDAND",
    "د_مرکز_نوم__نام_مرکز": "مسجد عبدالله خان",
    "Polling_Center_Name": "Abdullah Khan Mosque ",
    "د_مرکز_ځای__موقعیت_مرکز": "ده میرزا قاسم ",
    "Polling_Center_Location": "Deh Mirza Qasem ",
    "Map_Accuracy": "Building",
    "Map_Accuracy_Dari": "تعمیر",
    "Status": "Open",
    "Status_Dari": null,
    "PS_Male": 2,
    "PS_Female": 1,
    "PS_Total": 3,
    "ولسوالي": "شیندند",
    "Region": "Western Region"
   },
   "geometry": {
    "x": 6924060.3449116321,
    "y": 3933880.2358397762
   }
  },
  {
   "attributes": {
    "OBJECTID": 4311,
    "ولایت": "کابل",
    "Province": "KABUL",
    "PC_Code": "0106387",
    "District": "SHAKAR DARA",
    "د_مرکز_نوم__نام_مرکز": " کلينيک بهزادي",
    "Polling_Center_Name": "Behzadi Clinic",
    "د_مرکز_ځای__موقعیت_مرکز": "بهزادي",
    "Polling_Center_Location": "Behzadi",
    "Map_Accuracy": "Building",
    "Map_Accuracy_Dari": "تعمیر",
    "Status": "Open",
    "Status_Dari": null,
    "PS_Male": 4,
    "PS_Female": 2,
    "PS_Total": 6,
    "ولسوالي": "شکردره",
    "Region": "Central Region"
   },
   "geometry": {
    "x": 7685420.6613737587,
    "y": 4123877.8280825154
   }
  },
  {
   "attributes": {
    "OBJECTID": 4312,
    "ولایت": "کابل",
    "Province": "KABUL",
    "PC_Code": "0107431",
    "District": "MUSAHI",
    "د_مرکز_نوم__نام_مرکز": " مکتب متوسطه قشلاق",
    "Polling_Center_Name": "Qeshlaq Secondary School",
    "د_مرکز_ځای__موقعیت_مرکز": "سعيد خيل معین خيل",
    "Polling_Center_Location": "Saied Khel Muien Khel",
    "Map_Accuracy": "Village",
    "Map_Accuracy_Dari": "قریه",
    "Status": "Open",
    "Status_Dari": null,
    "PS_Male": 2,
    "PS_Female": 2,
    "PS_Total": 4,
    "ولسوالي": "موسهی",
    "Region": "Central Region"
   },
   "geometry": {
    "x": 7706325.7125645606,
    "y": 4081665.2947631683
   }
  },
  {
   "attributes": {
    "OBJECTID": 4313,
    "ولایت": "کابل",
    "Province": "KABUL",
    "PC_Code": "0108335",
    "District": "MIR BACHA KOT",
    "د_مرکز_نوم__نام_مرکز": " مکتب مشواني",
    "Polling_Center_Name": "Mashwani School",
    "د_مرکز_ځای__موقعیت_مرکز": "مشواني",
    "Polling_Center_Location": "Mashwani",
    "Map_Accuracy": "Building",
    "Map_Accuracy_Dari": "تعمیر",
    "Status": "Open",
    "Status_Dari": null,
    "PS_Male": 1,
    "PS_Female": 1,
    "PS_Total": 2,
    "ولسوالي": "میر بچه کوت",
    "Region": "Central Region"
   },
   "geometry": {
    "x": 7692278.3550019329,
    "y": 4132152.9709777487
   }
  },
  {
   "attributes": {
    "OBJECTID": 4314,
    "ولایت": "کابل",
    "Province": "KABUL",
    "PC_Code": "0109441",
    "District": "KHAK-E-JABAR",
    "د_مرکز_نوم__نام_مرکز": "مسجد جامع بر ملنگ",
    "Polling_Center_Name": "Bar Malang Mosque",
    "د_مرکز_ځای__موقعیت_مرکز": "بر ملنگ",
    "Polling_Center_Location": "Bar Malang",
    "Map_Accuracy": "Building",
    "Map_Accuracy_Dari": "تعمیر",
    "Status": "Open",
    "Status_Dari": null,
    "PS_Male": 1,
    "PS_Female": 1,
    "PS_Total": 2,
    "ولسوالي": "خاک جبار",
    "Region": "Central Region"
   },
   "geometry": {
    "x": 7725914.0690258965,
    "y": 4076784.9894631444
   }
  },
  {
   "attributes": {
    "OBJECTID": 4315,
    "ولایت": "کابل",
    "Province": "KABUL",
    "PC_Code": "0110356",
    "District": "KALAKAN",
    "د_مرکز_نوم__نام_مرکز": " مکتب آقا سراي",
    "Polling_Center_Name": "Aqa Sarai School",
    "د_مرکز_ځای__موقعیت_مرکز": "قریه آقا سرای",
    "Polling_Center_Location": "Aqa Sarai Village",
    "Map_Accuracy": "Building",
    "Map_Accuracy_Dari": "تعمیر",
    "Status": "Open",
    "Status_Dari": null,
    "PS_Male": 2,
    "PS_Female": 1,
    "PS_Total": 3,
    "ولسوالي": "کلکان",
    "Region": "Central Region"
   },
   "geometry": {
    "x": 7701498.9050097354,
    "y": 4134020.78046
   }
  },
  {
   "attributes": {
    "OBJECTID": 4316,
    "ولایت": "کابل",
    "Province": "KABUL",
    "PC_Code": "0112349",
    "District": "FARZA",
    "د_مرکز_نوم__نام_مرکز": " مسجد قلعه چنار",
    "Polling_Center_Name": "Qala-e-Chinar Mosque",
    "د_مرکز_ځای__موقعیت_مرکز": "قلعه چنار",
    "Polling_Center_Location": "Qala-e-Chinar",
    "Map_Accuracy": "Building",
    "Map_Accuracy_Dari": "تعمیر",
    "Status": "Open",
    "Status_Dari": null,
    "PS_Male": 2,
    "PS_Female": 2,
    "PS_Total": 4,
    "ولسوالي": "فرزه",
    "Region": "Central Region"
   },
   "geometry": {
    "x": 7685260.795453026,
    "y": 4136160.459014792
   }
  },
  {
   "attributes": {
    "OBJECTID": 4317,
    "ولایت": "کابل",
    "Province": "KABUL",
    "PC_Code": "0114359",
    "District": "QARA BAGH",
    "د_مرکز_نوم__نام_مرکز": " مدرسه اکا خيل",
    "Polling_Center_Name": "Aka Khel Madrassa",
    "د_مرکز_ځای__موقعیت_مرکز": "قریه اکا خيل",
    "Polling_Center_Location": "Aka Khel Village",
    "Map_Accuracy": "Village",
    "Map_Accuracy_Dari": "قریه",
    "Status": "Open",
    "Status_Dari": null,
    "PS_Male": 2,
    "PS_Female": 2,
    "PS_Total": 4,
    "ولسوالي": "قره باغ",
    "Region": "Central Region"
   },
   "geometry": {
    "x": 7700077.8271069489,
    "y": 4146071.8413673723
   }
  },
  {
   "attributes": {
    "OBJECTID": 4318,
    "ولایت": "کابل",
    "Province": "KABUL",
    "PC_Code": "0114370",
    "District": "QARA BAGH",
    "د_مرکز_نوم__نام_مرکز": "مسجد جامع کاریز میر",
    "Polling_Center_Name": "Kariz Mir Mosque",
    "د_مرکز_ځای__موقعیت_مرکز": "کاريز مير",
    "Polling_Center_Location": "Kariz Mir",
    "Map_Accuracy": "Building",
    "Map_Accuracy_Dari": "تعمیر",
    "Status": "Open",
    "Status_Dari": null,
    "PS_Male": 2,
    "PS_Female": 1,
    "PS_Total": 3,
    "ولسوالي": "قره باغ",
    "Region": "Central Region"
   },
   "geometry": {
    "x": 7702145.850475627,
    "y": 4143724.7471302482
   }
  },
  {
   "attributes": {
    "OBJECTID": 4319,
    "ولایت": "کابل",
    "Province": "KABUL",
    "PC_Code": "0115483",
    "District": "SURUBI",
    "د_مرکز_نوم__نام_مرکز": "کلينيک سروبي",
    "Polling_Center_Name": "Surubi Clinic",
    "د_مرکز_ځای__موقعیت_مرکز": "شهرک",
    "Polling_Center_Location": "Shahrak",
    "Map_Accuracy": "Building",
    "Map_Accuracy_Dari": "تعمیر",
    "Status": "Open",
    "Status_Dari": null,
    "PS_Male": 3,
    "PS_Female": 3,
    "PS_Total": 6,
    "ولسوالي": "سروبی",
    "Region": "Central Region"
   },
   "geometry": {
    "x": 7762170.818271704,
    "y": 4107376.8700633324
   }
  },
  {
   "attributes": {
    "OBJECTID": 4320,
    "ولایت": "کاپيسا",
    "Province": "KAPISA",
    "PC_Code": "0201003",
    "District": "MAHMUDI RAQI",
    "د_مرکز_نوم__نام_مرکز": "نسوان ریگروان",
    "Polling_Center_Name": "Reg Rawan Girls School",
    "د_مرکز_ځای__موقعیت_مرکز": "ریگ روان ",
    "Polling_Center_Location": "Regerawan",
    "Map_Accuracy": "Building",
    "Map_Accuracy_Dari": "تعمیر",
    "Status": "Open",
    "Status_Dari": null,
    "PS_Male": 4,
    "PS_Female": 1,
    "PS_Total": 5,
    "ولسوالي": "محمود راقی ",
    "Region": "Central Region"
   },
   "geometry": {
    "x": 7721407.5833058311,
    "y": 4170513.719634214
   }
  },
  {
   "attributes": {
    "OBJECTID": 4321,
    "ولایت": "کاپيسا",
    "Province": "KAPISA",
    "PC_Code": "0201013",
    "District": "MAHMUDI RAQI",
    "د_مرکز_نوم__نام_مرکز": "مسجد عبدالمالک ",
    "Polling_Center_Name": "Abdul Malik Mosque",
    "د_مرکز_ځای__موقعیت_مرکز": "کاکری ",
    "Polling_Center_Location": "Kakari",
    "Map_Accuracy": "Building",
    "Map_Accuracy_Dari": "تعمیر",
    "Status": "Open",
    "Status_Dari": null,
    "PS_Male": 2,
    "PS_Female": 1,
    "PS_Total": 3,
    "ولسوالي": "محمود راقی ",
    "Region": "Central Region"
   },
   "geometry": {
    "x": 7719689.7543572662,
    "y": 4166960.7484439979
   }
  },
  {
   "attributes": {
    "OBJECTID": 4322,
    "ولایت": "کاپيسا",
    "Province": "KAPISA",
    "PC_Code": "0202023",
    "District": "HISSA-E-DUWUMI KOHISTAN",
    "د_مرکز_نوم__نام_مرکز": "مکتب محمدطاهر شهید",
    "Polling_Center_Name": "Mohammad Tahir Shaheed School ",
    "د_مرکز_ځای__موقعیت_مرکز": "قلعه نو ",
    "Polling_Center_Location": "Qala-e-Now",
    "Map_Accuracy": "Building",
    "Map_Accuracy_Dari": "تعمیر",
    "Status": "Open",
    "Status_Dari": null,
    "PS_Male": 3,
    "PS_Female": 1,
    "PS_Total": 4,
    "ولسوالي": "حصه دوم کوهستان",
    "Region": "Central Region"
   },
   "geometry": {
    "x": 7720878.2101465343,
    "y": 4175982.2185825664
   }
  },
  {
   "attributes": {
    "OBJECTID": 4323,
    "ولایت": "کاپيسا",
    "Province": "KAPISA",
    "PC_Code": "0204033",
    "District": "HISSA-E-AWALI KOHISTAN",
    "د_مرکز_نوم__نام_مرکز": "مدرسه حقانیه شیرخان خیل ",
    "Polling_Center_Name": "Sheer Khan khel Haqania Madrasa ",
    "د_مرکز_ځای__موقعیت_مرکز": "شیرخان خیل ",
    "Polling_Center_Location": "Sheer Khan Khel",
    "Map_Accuracy": "Building",
    "Map_Accuracy_Dari": "تعمیر",
    "Status": "Open",
    "Status_Dari": null,
    "PS_Male": 3,
    "PS_Female": 1,
    "PS_Total": 4,
    "ولسوالي": "حصه اول کوهستان ",
    "Region": "Central Region"
   },
   "geometry": {
    "x": 7714151.1109789833,
    "y": 4182845.926670942
   }
  },
  {
   "attributes": {
    "OBJECTID": 4324,
    "ولایت": "کاپيسا",
    "Province": "KAPISA",
    "PC_Code": "0205047",
    "District": "NIJRAB",
    "د_مرکز_نوم__نام_مرکز": "مکتب نسوان بدخشی ",
    "Polling_Center_Name": "Badakhshi Girls School",
    "د_مرکز_ځای__موقعیت_مرکز": "بدخشی ",
    "Polling_Center_Location": "Badakhshi",
    "Map_Accuracy": "Building",
    "Map_Accuracy_Dari": "تعمیر",
    "Status": "Open",
    "Status_Dari": null,
    "PS_Male": 1,
    "PS_Female": 1,
    "PS_Total": 2,
    "ولسوالي": "نجراب ",
    "Region": "Central Region"
   },
   "geometry": {
    "x": 7748860.6016791863,
    "y": 4168042.6916498733
   }
  },
  {
   "attributes": {
    "OBJECTID": 4325,
    "ولایت": "کاپيسا",
    "Province": "KAPISA",
    "PC_Code": "0205058",
    "District": "NIJRAB",
    "د_مرکز_نوم__نام_مرکز": "ذکریا",
    "Polling_Center_Name": "Zekria ",
    "د_مرکز_ځای__موقعیت_مرکز": "پجغان",
    "Polling_Center_Location": "Puchghan",
    "Map_Accuracy": "Village",
    "Map_Accuracy_Dari": "قریه",
    "Status": "Open",
    "Status_Dari": null,
    "PS_Male": 1,
    "PS_Female": 2,
    "PS_Total": 3,
    "ولسوالي": "نجراب ",
    "Region": "Central Region"
   },
   "geometry": {
    "x": 7761700.4221786279,
    "y": 4167872.4249094292
   }
  },
  {
   "attributes": {
    "OBJECTID": 4326,
    "ولایت": "پروان",
    "Province": "PARWAN",
    "PC_Code": "0301002",
    "District": "CHARIKAR",
    "د_مرکز_نوم__نام_مرکز": "لیسه صادقی (( رح ))",
    "Polling_Center_Name": "Sadiqi High School ",
    "د_مرکز_ځای__موقعیت_مرکز": "چاریکار",
    "Polling_Center_Location": "Charikar",
    "Map_Accuracy": "Building",
    "Map_Accuracy_Dari": "تعمیر",
    "Status": "Open",
    "Status_Dari": null,
    "PS_Male": 3,
    "PS_Female": 2,
    "PS_Total": 5,
    "ولسوالي": "چاریکار",
    "Region": "Central Region"
   },
   "geometry": {
    "x": 7700306.5240952224,
    "y": 4166728.521810513
   }
  },
  {
   "attributes": {
    "OBJECTID": 4327,
    "ولایت": "پروان",
    "Province": "PARWAN",
    "PC_Code": "0301012",
    "District": "CHARIKAR",
    "د_مرکز_نوم__نام_مرکز": "مکتب متوسطه هوفیان شریف",
    "Polling_Center_Name": "Hofian Sharif Secondary School",
    "د_مرکز_ځای__موقعیت_مرکز": "هوفیان شریف ",
    "Polling_Center_Location": "Hofian-e-Sharif",
    "Map_Accuracy": "Building",
    "Map_Accuracy_Dari": "تعمیر",
    "Status": "Open",
    "Status_Dari": null,
    "PS_Male": 4,
    "PS_Female": 2,
    "PS_Total": 6,
    "ولسوالي": "چاریکار",
    "Region": "Central Region"
   },
   "geometry": {
    "x": 7699526.6698364979,
    "y": 4169009.8857688089
   }
  },
  {
   "attributes": {
    "OBJECTID": 4328,
    "ولایت": "پروان",
    "Province": "PARWAN",
    "PC_Code": "0301023",
    "District": "CHARIKAR",
    "د_مرکز_نوم__نام_مرکز": "مسجد جامی خلا زیئ",
    "Polling_Center_Name": "Khala Zaye Mosque",
    "د_مرکز_ځای__موقعیت_مرکز": " خلا زیئ",
    "Polling_Center_Location": "Khalazaye",
    "Map_Accuracy": "Village",
    "Map_Accuracy_Dari": "قریه",
    "Status": "Open",
    "Status_Dari": null,
    "PS_Male": 2,
    "PS_Female": 1,
    "PS_Total": 3,
    "ولسوالي": "چاریکار",
    "Region": "Central Region"
   },
   "geometry": {
    "x": 7696874.9621987576,
    "y": 4152156.0718734772
   }
  },
  {
   "attributes": {
    "OBJECTID": 4329,
    "ولایت": "پروان",
    "Province": "PARWAN",
    "PC_Code": "0302107",
    "District": "BAGRAM",
    "د_مرکز_نوم__نام_مرکز": "نسوان قلعه دشت رباط",
    "Polling_Center_Name": "Qala-e- Dasht Rabat Girls School",
    "د_مرکز_ځای__موقعیت_مرکز": "دشت رباط ",
    "Polling_Center_Location": "Dasht-e-Rabat ",
    "Map_Accuracy": "Building",
    "Map_Accuracy_Dari": "تعمیر",
    "Status": "Open",
    "Status_Dari": null,
    "PS_Male": 2,
    "PS_Female": 1,
    "PS_Total": 3,
    "ولسوالي": "بگرام ",
    "Region": "Central Region"
   },
   "geometry": {
    "x": 7703376.0733378427,
    "y": 4155671.605749316
   }
  },
  {
   "attributes": {
    "OBJECTID": 4330,
    "ولایت": "پروان",
    "Province": "PARWAN",
    "PC_Code": "0302118",
    "District": "BAGRAM",
    "د_مرکز_نوم__نام_مرکز": "دارالعلو م مهمدی و مسجد شهر نو",
    "Polling_Center_Name": "Darul Olum Mehdi and Shahr-e-Now Mosque",
    "د_مرکز_ځای__موقعیت_مرکز": "شهرنو غلام علی ",
    "Polling_Center_Location": "Shahr-e-Naw Ghulam Ali",
    "Map_Accuracy": "Building",
    "Map_Accuracy_Dari": "تعمیر",
    "Status": "Open",
    "Status_Dari": null,
    "PS_Male": 3,
    "PS_Female": 1,
    "PS_Total": 4,
    "ولسوالي": "بگرام ",
    "Region": "Central Region"
   },
   "geometry": {
    "x": 7706342.8780300403,
    "y": 4158157.3317954806
   }
  },
  {
   "attributes": {
    "OBJECTID": 4331,
    "ولایت": "پروان",
    "Province": "PARWAN",
    "PC_Code": "0306063",
    "District": "SALANG",
    "د_مرکز_نوم__نام_مرکز": "لیسه ذکور سالنګ",
    "Polling_Center_Name": "Salang Boys High School",
    "د_مرکز_ځای__موقعیت_مرکز": "باغ میدان",
    "Polling_Center_Location": "Bagh-e-Maidan",
    "Map_Accuracy": "Building",
    "Map_Accuracy_Dari": "تعمیر",
    "Status": "Open",
    "Status_Dari": null,
    "PS_Male": 3,
    "PS_Female": 1,
    "PS_Total": 4,
    "ولسوالي": "سالنگ ",
    "Region": "Central Region"
   },
   "geometry": {
    "x": 7704884.1841581156,
    "y": 4194306.2366115972
   }
  },
  {
   "attributes": {
    "OBJECTID": 4332,
    "ولایت": "پروان",
    "Province": "PARWAN",
    "PC_Code": "0308148",
    "District": "KOHI SAFI",
    "د_مرکز_نوم__نام_مرکز": "مسجد ملا احمد خیل",
    "Polling_Center_Name": "Mula Ahmad Khel Mosque",
    "د_مرکز_ځای__موقعیت_مرکز": "ملا احمد خیل ",
    "Polling_Center_Location": "Mula Ahmad Khel ",
    "Map_Accuracy": "Building",
    "Map_Accuracy_Dari": "تعمیر",
    "Status": "Open",
    "Status_Dari": null,
    "PS_Male": 1,
    "PS_Female": 1,
    "PS_Total": 2,
    "ولسوالي": "کوه صافی",
    "Region": "Central Region"
   },
   "geometry": {
    "x": 7724877.121289989,
    "y": 4144428.7960297004
   }
  },
  {
   "attributes": {
    "OBJECTID": 4333,
    "ولایت": "پروان",
    "Province": "PARWAN",
    "PC_Code": "0309138",
    "District": "SURKHI PARSA",
    "د_مرکز_نوم__نام_مرکز": "لیسه شهید علی دوست ",
    "Polling_Center_Name": "Shaheed Ali Dost High School ",
    "د_مرکز_ځای__موقعیت_مرکز": "دهن نیک ",
    "Polling_Center_Location": "Dahan-e-Naik ",
    "Map_Accuracy": "Building",
    "Map_Accuracy_Dari": "تعمیر",
    "Status": "Open",
    "Status_Dari": null,
    "PS_Male": 1,
    "PS_Female": 1,
    "PS_Total": 2,
    "ولسوالي": "سرخ پارسا ",
    "Region": "Central Region"
   },
   "geometry": {
    "x": 7640699.4418752203,
    "y": 4141696.7550935065
   }
  },
  {
   "attributes": {
    "OBJECTID": 4334,
    "ولایت": "پروان",
    "Province": "PARWAN",
    "PC_Code": "0310128",
    "District": "SHAYKH ALI",
    "د_مرکز_نوم__نام_مرکز": "خیمه دهن بوتیان ",
    "Polling_Center_Name": "Dahan-e-Botyan Tent",
    "د_مرکز_ځای__موقعیت_مرکز": "قریه دهن بوتیان ",
    "Polling_Center_Location": "Dahan-e-Botyan Village",
    "Map_Accuracy": "Village",
    "Map_Accuracy_Dari": "قریه",
    "Status": "Open",
    "Status_Dari": null,
    "PS_Male": 1,
    "PS_Female": 1,
    "PS_Total": 2,
    "ولسوالي": "شیخ علی ",
    "Region": "Central Region"
   },
   "geometry": {
    "x": 7609710.1327850521,
    "y": 4153364.0265848641
   }
  },
  {
   "attributes": {
    "OBJECTID": 4335,
    "ولایت": "پروان",
    "Province": "PARWAN",
    "PC_Code": "0310129",
    "District": "SHAYKH ALI",
    "د_مرکز_نوم__نام_مرکز": "مکتب متوسطه بابر\u0650",
    "Polling_Center_Name": "Babor Secondary School",
    "د_مرکز_ځای__موقعیت_مرکز": "بابر پایان ",
    "Polling_Center_Location": "Babor Payan",
    "Map_Accuracy": "Village",
    "Map_Accuracy_Dari": "قریه",
    "Status": "Open",
    "Status_Dari": null,
    "PS_Male": 1,
    "PS_Female": 1,
    "PS_Total": 2,
    "ولسوالي": "شیخ علی ",
    "Region": "Central Region"
   },
   "geometry": {
    "x": 7637420.7255357876,
    "y": 4162562.9371716026
   }
  },
  {
   "attributes": {
    "OBJECTID": 4336,
    "ولایت": "وردک",
    "Province": "WARDAK",
    "PC_Code": "0401007",
    "District": "MAYDAN SHAHR",
    "د_مرکز_نوم__نام_مرکز": "کلینیک ابراهیم خیل",
    "Polling_Center_Name": "Ibrahim Khel Clinic",
    "د_مرکز_ځای__موقعیت_مرکز": "ابراهیم خیل",
    "Polling_Center_Location": "Ibrahim Khel",
    "Map_Accuracy": "Village",
    "Map_Accuracy_Dari": "قریه",
    "Status": "Open",
    "Status_Dari": null,
    "PS_Male": 3,
    "PS_Female": 1,
    "PS_Total": 4,
    "ولسوالي": "میدان شهر",
    "Region": "Central Region"
   },
   "geometry": {
    "x": 7660898.2666316992,
    "y": 4076763.3591181342
   }
  },
  {
   "attributes": {
    "OBJECTID": 4337,
    "ولایت": "وردک",
    "Province": "WARDAK",
    "PC_Code": "0402148",
    "District": "NERKH",
    "د_مرکز_نوم__نام_مرکز": "منزل امام الدین ",
    "Polling_Center_Name": "Imamuddin House",
    "د_مرکز_ځای__موقعیت_مرکز": "زنانه کلینیک گاغندی مردانه ",
    "Polling_Center_Location": "Femal Clinic Gaghundi",
    "Map_Accuracy": "Village",
    "Map_Accuracy_Dari": "قریه",
    "Status": "Open",
    "Status_Dari": null,
    "PS_Male": 1,
    "PS_Female": 1,
    "PS_Total": 2,
    "ولسوالي": "نرخ",
    "Region": "Central Region"
   },
   "geometry": {
    "x": 7645603.3559885342,
    "y": 4075909.170906215
   }
  },
  {
   "attributes": {
    "OBJECTID": 4338,
    "ولایت": "وردک",
    "Province": "WARDAK",
    "PC_Code": "0402157",
    "District": "NERKH",
    "د_مرکز_نوم__نام_مرکز": "مسجد کلان قریه هجان",
    "Polling_Center_Name": "Hajan Village Mosque",
    "د_مرکز_ځای__موقعیت_مرکز": "قریه هجان",
    "Polling_Center_Location": "Hajan Village",
    "Map_Accuracy": "Village",
    "Map_Accuracy_Dari": "قریه",
    "Status": "Open",
    "Status_Dari": null,
    "PS_Male": 2,
    "PS_Female": 1,
    "PS_Total": 3,
    "ولسوالي": "نرخ",
    "Region": "Central Region"
   },
   "geometry": {
    "x": 7670848.8420677651,
    "y": 4074842.8382119038
   }
  },
  {
   "attributes": {
    "OBJECTID": 4339,
    "ولایت": "وردک",
    "Province": "WARDAK",
    "PC_Code": "0402158",
    "District": "NERKH",
    "د_مرکز_نوم__نام_مرکز": "مکتب مشک عالم",
    "Polling_Center_Name": "Mushk-e-Aalam School",
    "د_مرکز_ځای__موقعیت_مرکز": "اندر",
    "Polling_Center_Location": "Andar",
    "Map_Accuracy": "Village",
    "Map_Accuracy_Dari": "قریه",
    "Status": "Open",
    "Status_Dari": null,
    "PS_Male": 2,
    "PS_Female": 1,
    "PS_Total": 3,
    "ولسوالي": "نرخ",
    "Region": "Central Region"
   },
   "geometry": {
    "x": 7660627.1725021619,
    "y": 4063419.1877826964
   }
  },
  {
   "attributes": {
    "OBJECTID": 4340,
    "ولایت": "وردک",
    "Province": "WARDAK",
    "PC_Code": "0403022",
    "District": "JALREZ",
    "د_مرکز_نوم__نام_مرکز": "متوسطه بی بی عایشه صدیقه",
    "Polling_Center_Name": "Bibi Ayesha Sedeqa Secondary School",
    "د_مرکز_ځای__موقعیت_مرکز": "قریه یادگار",
    "Polling_Center_Location": "Yadgar Village",
    "Map_Accuracy": "District",
    "Map_Accuracy_Dari": "ولسوالی",
    "Status": "Open",
    "Status_Dari": null,
    "PS_Male": 2,
    "PS_Female": 1,
    "PS_Total": 3,
    "ولسوالي": "جلریز",
    "Region": "Central Region"
   },
   "geometry": {
    "x": 7633685.6994716562,
    "y": 4102321.8897923334
   }
  },
  {
   "attributes": {
    "OBJECTID": 4341,
    "ولایت": "وردک",
    "Province": "WARDAK",
    "PC_Code": "0405111",
    "District": "SAYYD ABAD",
    "د_مرکز_نوم__نام_مرکز": "مسجدجامع قلعه سعدالدین",
    "Polling_Center_Name": "Qala-e-Saeduddin Village Mosque",
    "د_مرکز_ځای__موقعیت_مرکز": "قلعه سعدالدین",
    "Polling_Center_Location": "Qala Saduddin",
    "Map_Accuracy": "Village",
    "Map_Accuracy_Dari": "قریه",
    "Status": "Open",
    "Status_Dari": null,
    "PS_Male": 2,
    "PS_Female": 1,
    "PS_Total": 3,
    "ولسوالي": "سید آباد",
    "Region": "Central Region"
   },
   "geometry": {
    "x": 7649702.8821405433,
    "y": 4031355.7472628565
   }
  },
  {
   "attributes": {
    "OBJECTID": 4342,
    "ولایت": "وردک",
    "Province": "WARDAK",
    "PC_Code": "0405134",
    "District": "SAYYD ABAD",
    "د_مرکز_نوم__نام_مرکز": "خانه شخصی در قریه بینی سفید",
    "Polling_Center_Name": "Private House",
    "د_مرکز_ځای__موقعیت_مرکز": "بینی سفید",
    "Polling_Center_Location": "Beni Safid",
    "Map_Accuracy": "Village",
    "Map_Accuracy_Dari": "قریه",
    "Status": "Open",
    "Status_Dari": null,
    "PS_Male": 1,
    "PS_Female": 1,
    "PS_Total": 2,
    "ولسوالي": "سید آباد",
    "Region": "Central Region"
   },
   "geometry": {
    "x": 7659041.6078065783,
    "y": 4029234.6326208403
   }
  },
  {
   "attributes": {
    "OBJECTID": 4343,
    "ولایت": "وردک",
    "Province": "WARDAK",
    "PC_Code": "0406066",
    "District": "DAYMIRDAD",
    "د_مرکز_نوم__نام_مرکز": "کلینیک میران",
    "Polling_Center_Name": "Miran Clinic",
    "د_مرکز_ځای__موقعیت_مرکز": "قریه میران",
    "Polling_Center_Location": "Miran Village",
    "Map_Accuracy": "Village",
    "Map_Accuracy_Dari": "قریه",
    "Status": "Open",
    "Status_Dari": null,
    "PS_Male": 2,
    "PS_Female": 1,
    "PS_Total": 3,
    "ولسوالي": "دایمیرداد",
    "Region": "Central Region"
   },
   "geometry": {
    "x": 7603789.9897194589,
    "y": 4058641.6195932282
   }
  },
  {
   "attributes": {
    "OBJECTID": 4344,
    "ولایت": "وردک",
    "Province": "WARDAK",
    "PC_Code": "0406067",
    "District": "DAYMIRDAD",
    "د_مرکز_نوم__نام_مرکز": "لیسه غازی عبدالکبیر خان",
    "Polling_Center_Name": "Ghazi Abdul Kabir Khan High School",
    "د_مرکز_ځای__موقعیت_مرکز": "قریه بابک",
    "Polling_Center_Location": "Babak Village",
    "Map_Accuracy": "Building",
    "Map_Accuracy_Dari": "تعمیر",
    "Status": "Open",
    "Status_Dari": null,
    "PS_Male": 1,
    "PS_Female": 1,
    "PS_Total": 2,
    "ولسوالي": "دایمیرداد",
    "Region": "Central Region"
   },
   "geometry": {
    "x": 7612242.8371041492,
    "y": 4059897.5654041502
   }
  },
  {
   "attributes": {
    "OBJECTID": 4345,
    "ولایت": "وردک",
    "Province": "WARDAK",
    "PC_Code": "0407030",
    "District": "HISSA-E-AWALI BIHSUD",
    "د_مرکز_نوم__نام_مرکز": "مکتب متوسطه ارگین",
    "Polling_Center_Name": "Argin Secondary School",
    "د_مرکز_ځای__موقعیت_مرکز": "ارگین قول خویش",
    "Polling_Center_Location": "Argin Quli Khwish",
    "Map_Accuracy": "Village",
    "Map_Accuracy_Dari": "قریه",
    "Status": "Open",
    "Status_Dari": null,
    "PS_Male": 1,
    "PS_Female": 1,
    "PS_Total": 2,
    "ولسوالي": "حصه اول بهسود",
    "Region": "Central Region"
   },
   "geometry": {
    "x": 7597394.8775561024,
    "y": 4124098.855613471
   }
  },
  {
   "attributes": {
    "OBJECTID": 4346,
    "ولایت": "وردک",
    "Province": "WARDAK",
    "PC_Code": "0409040",
    "District": "MARKAZ-E-BEHSUD",
    "د_مرکز_نوم__نام_مرکز": "مکتب کهنه قلعه",
    "Polling_Center_Name": "Kuhna Qala School",
    "د_مرکز_ځای__موقعیت_مرکز": "کهنه قلعه",
    "Polling_Center_Location": "Kuhna Qala",
    "Map_Accuracy": "Building",
    "Map_Accuracy_Dari": "تعمیر",
    "Status": "Open",
    "Status_Dari": null,
    "PS_Male": 1,
    "PS_Female": 1,
    "PS_Total": 2,
    "ولسوالي": "مرکز بهسود",
    "Region": "Central Region"
   },
   "geometry": {
    "x": 7541795.6855096733,
    "y": 4065678.7983341543
   }
  },
  {
   "attributes": {
    "OBJECTID": 4347,
    "ولایت": "وردک",
    "Province": "WARDAK",
    "PC_Code": "0409041",
    "District": "MARKAZ-E-BEHSUD",
    "د_مرکز_نوم__نام_مرکز": "مسجد تگاب زیرات",
    "Polling_Center_Name": "Tagab-e-Zerat Mosque",
    "د_مرکز_ځای__موقعیت_مرکز": "قریه زیرات",
    "Polling_Center_Location": "Zerat Village",
    "Map_Accuracy": "Building",
    "Map_Accuracy_Dari": "تعمیر",
    "Status": "Open",
    "Status_Dari": null,
    "PS_Male": 1,
    "PS_Female": 1,
    "PS_Total": 2,
    "ولسوالي": "مرکز بهسود",
    "Region": "Central Region"
   },
   "geometry": {
    "x": 7519794.3978221659,
    "y": 4063478.1220839713
   }
  },
  {
   "attributes": {
    "OBJECTID": 4348,
    "ولایت": "وردک",
    "Province": "WARDAK",
    "PC_Code": "0409051",
    "District": "MARKAZ-E-BEHSUD",
    "د_مرکز_نوم__نام_مرکز": "خیمه",
    "Polling_Center_Name": "Tent",
    "د_مرکز_ځای__موقعیت_مرکز": "قریه غواص",
    "Polling_Center_Location": "Ghawas Village",
    "Map_Accuracy": "Village",
    "Map_Accuracy_Dari": "قریه",
    "Status": "Open",
    "Status_Dari": null,
    "PS_Male": 1,
    "PS_Female": 1,
    "PS_Total": 2,
    "ولسوالي": "مرکز بهسود",
    "Region": "Central Region"
   },
   "geometry": {
    "x": 7509030.7592968829,
    "y": 4098888.9951201198
   }
  },
  {
   "attributes": {
    "OBJECTID": 4349,
    "ولایت": "وردک",
    "Province": "WARDAK",
    "PC_Code": "0409061",
    "District": "MARKAZ-E-BEHSUD",
    "د_مرکز_نوم__نام_مرکز": "مسجد تگاب بیرمگ",
    "Polling_Center_Name": "Tagab Bermak Mosque",
    "د_مرکز_ځای__موقعیت_مرکز": "تگاب بیرمک",
    "Polling_Center_Location": "Tagab Beramak",
    "Map_Accuracy": "Building",
    "Map_Accuracy_Dari": "تعمیر",
    "Status": "Open",
    "Status_Dari": null,
    "PS_Male": 1,
    "PS_Female": 1,
    "PS_Total": 2,
    "ولسوالي": "مرکز بهسود",
    "Region": "Central Region"
   },
   "geometry": {
    "x": 7511867.0507916864,
    "y": 4057315.0279577305
   }
  },
  {
   "attributes": {
    "OBJECTID": 4350,
    "ولایت": "لوگر",
    "Province": "LOGAR",
    "PC_Code": "0505054",
    "District": "MOHAMMAD AGHA",
    "د_مرکز_نوم__نام_مرکز": "مکتب سرخآب",
    "Polling_Center_Name": "Sorkhaab School",
    "د_مرکز_ځای__موقعیت_مرکز": "سرخآب",
    "Polling_Center_Location": "Surkhaab",
    "Map_Accuracy": "Building",
    "Map_Accuracy_Dari": "تعمیر",
    "Status": "Open",
    "Status_Dari": null,
    "PS_Male": 2,
    "PS_Female": 1,
    "PS_Total": 3,
    "ولسوالي": "محمد آغه",
    "Region": "Central Region"
   },
   "geometry": {
    "x": 7702649.2194018755,
    "y": 4047989.7571599502
   }
  },
  {
   "attributes": {
    "OBJECTID": 4351,
    "ولایت": "لوگر",
    "Province": "LOGAR",
    "PC_Code": "0505065",
    "District": "MOHAMMAD AGHA",
    "د_مرکز_نوم__نام_مرکز": "مکتب قلعه احمدزای",
    "Polling_Center_Name": "Qala-e-Ahmadzai Mosque",
    "د_مرکز_ځای__موقعیت_مرکز": "قلعه احمدزای",
    "Polling_Center_Location": "Qala-e-Ahmadzai",
    "Map_Accuracy": "Building",
    "Map_Accuracy_Dari": "تعمیر",
    "Status": "Open",
    "Status_Dari": null,
    "PS_Male": 3,
    "PS_Female": 2,
    "PS_Total": 5,
    "ولسوالي": "محمد آغه",
    "Region": "Central Region"
   },
   "geometry": {
    "x": 7691729.4931393815,
    "y": 4054798.7181638218
   }
  },
  {
   "attributes": {
    "OBJECTID": 4352,
    "ولایت": "لوگر",
    "Province": "LOGAR",
    "PC_Code": "0507076",
    "District": "AZRA",
    "د_مرکز_نوم__نام_مرکز": "مکتب اناث و ذکور اکبر خيل",
    "Polling_Center_Name": "Akbar Khel Boys & Girls School",
    "د_مرکز_ځای__موقعیت_مرکز": "اکبر خيل",
    "Polling_Center_Location": "Akbar Khel",
    "Map_Accuracy": "Building",
    "Map_Accuracy_Dari": "تعمیر",
    "Status": "Open",
    "Status_Dari": null,
    "PS_Male": 4,
    "PS_Female": 4,
    "PS_Total": 8,
    "ولسوالي": "اذره",
    "Region": "Central Region"
   },
   "geometry": {
    "x": 7755269.3126315353,
    "y": 4052590.2191778519
   }
  },
  {
   "attributes": {
    "OBJECTID": 4353,
    "ولایت": "ننگرهار",
    "Province": "NANGARHAR",
    "PC_Code": "0601005",
    "District": "JALALABAD",
    "د_مرکز_نوم__نام_مرکز": "بي بي عايشه",
    "Polling_Center_Name": "Bibi Ayesha",
    "د_مرکز_ځای__موقعیت_مرکز": "څلورمه ناحیه",
    "Polling_Center_Location": "D04-Nahia 4",
    "Map_Accuracy": "Building",
    "Map_Accuracy_Dari": "تعمیر",
    "Status": "Open",
    "Status_Dari": null,
    "PS_Male": 6,
    "PS_Female": 0,
    "PS_Total": 6,
    "ولسوالي": "جلال آباد",
    "Region": "Eastern Region"
   },
   "geometry": {
    "x": 7844744.5730672739,
    "y": 4086512.2291382765
   }
  },
  {
   "attributes": {
    "OBJECTID": 4354,
    "ولایت": "ننگرهار",
    "Province": "NANGARHAR",
    "PC_Code": "0601016",
    "District": "JALALABAD",
    "د_مرکز_نوم__نام_مرکز": "کوچيانو جومات",
    "Polling_Center_Name": "Kuchi Mosque",
    "د_مرکز_ځای__موقعیت_مرکز": "پنځمه ناحیه",
    "Polling_Center_Location": "D05-Nahia 5",
    "Map_Accuracy": "Building",
    "Map_Accuracy_Dari": "تعمیر",
    "Status": "Open",
    "Status_Dari": null,
    "PS_Male": 4,
    "PS_Female": 1,
    "PS_Total": 5,
    "ولسوالي": "جلال آباد",
    "Region": "Eastern Region"
   },
   "geometry": {
    "x": 7841145.3901777584,
    "y": 4084723.4282042938
   }
  },
  {
   "attributes": {
    "OBJECTID": 4355,
    "ولایت": "ننگرهار",
    "Province": "NANGARHAR",
    "PC_Code": "0601017",
    "District": "JALALABAD",
    "د_مرکز_نوم__نام_مرکز": "نازوانا مکتب",
    "Polling_Center_Name": "Nazo Ana School",
    "د_مرکز_ځای__موقعیت_مرکز": "پنځمه ناحیه",
    "Polling_Center_Location": "D05-Nahia 5",
    "Map_Accuracy": "Building",
    "Map_Accuracy_Dari": "تعمیر",
    "Status": "Open",
    "Status_Dari": null,
    "PS_Male": 6,
    "PS_Female": 0,
    "PS_Total": 6,
    "ولسوالي": "جلال آباد",
    "Region": "Eastern Region"
   },
   "geometry": {
    "x": 7840852.4162022974,
    "y": 4085701.3024678472
   }
  },
  {
   "attributes": {
    "OBJECTID": 4356,
    "ولایت": "ننگرهار",
    "Province": "NANGARHAR",
    "PC_Code": "0601026",
    "District": "JALALABAD",
    "د_مرکز_نوم__نام_مرکز": "اميرشهيد باغ",
    "Polling_Center_Name": "Ameer Shaheed Bagh",
    "د_مرکز_ځای__موقعیت_مرکز": "دویمه ناحیه",
    "Polling_Center_Location": "D02-Nahia 2",
    "Map_Accuracy": "Building",
    "Map_Accuracy_Dari": "تعمیر",
    "Status": "Open",
    "Status_Dari": null,
    "PS_Male": 0,
    "PS_Female": 6,
    "PS_Total": 6,
    "ولسوالي": "جلال آباد",
    "Region": "Eastern Region"
   },
   "geometry": {
    "x": 7841882.1604539575,
    "y": 4086556.4355238508
   }
  },
  {
   "attributes": {
    "OBJECTID": 4357,
    "ولایت": "ننگرهار",
    "Province": "NANGARHAR",
    "PC_Code": "0601037",
    "District": "JALALABAD",
    "د_مرکز_نوم__نام_مرکز": "سپين جومات",
    "Polling_Center_Name": "Speen Mosque",
    "د_مرکز_ځای__موقعیت_مرکز": "اوله ناحیه",
    "Polling_Center_Location": "D01-Nahia 1",
    "Map_Accuracy": "Building",
    "Map_Accuracy_Dari": "تعمیر",
    "Status": "Open",
    "Status_Dari": null,
    "PS_Male": 5,
    "PS_Female": 3,
    "PS_Total": 8,
    "ولسوالي": "جلال آباد",
    "Region": "Eastern Region"
   },
   "geometry": {
    "x": 7843172.3589182263,
    "y": 4087172.2752810582
   }
  },
  {
   "attributes": {
    "OBJECTID": 4358,
    "ولایت": "ننگرهار",
    "Province": "NANGARHAR",
    "PC_Code": "0601038",
    "District": "JALALABAD",
    "د_مرکز_نوم__نام_مرکز": "طب پوهنځي",
    "Polling_Center_Name": "Medical Faculty",
    "د_مرکز_ځای__موقعیت_مرکز": "څلورمه ناحیه",
    "Polling_Center_Location": "D04-Nahia 4",
    "Map_Accuracy": "Building",
    "Map_Accuracy_Dari": "تعمیر",
    "Status": "Open",
    "Status_Dari": null,
    "PS_Male": 5,
    "PS_Female": 0,
    "PS_Total": 5,
    "ولسوالي": "جلال آباد",
    "Region": "Eastern Region"
   },
   "geometry": {
    "x": 7844335.0164155075,
    "y": 4086388.708602299
   }
  },
  {
   "attributes": {
    "OBJECTID": 4359,
    "ولایت": "ننگرهار",
    "Province": "NANGARHAR",
    "PC_Code": "0602048",
    "District": "BEHSUD",
    "د_مرکز_نوم__نام_مرکز": "شهید سردار محمد داوود خان لیسه",
    "Polling_Center_Name": "Shaheed Sardar Mohammad Dawood Khan High School",
    "د_مرکز_ځای__موقعیت_مرکز": "جوي ١٠ ،١١",
    "Polling_Center_Location": "Joee 10,11",
    "Map_Accuracy": "Building",
    "Map_Accuracy_Dari": "تعمیر",
    "Status": "Open",
    "Status_Dari": null,
    "PS_Male": 4,
    "PS_Female": 2,
    "PS_Total": 6,
    "ولسوالي": "بهسود",
    "Region": "Eastern Region"
   },
   "geometry": {
    "x": 7848623.9126060884,
    "y": 4078926.6606303751
   }
  },
  {
   "attributes": {
    "OBJECTID": 4360,
    "ولایت": "ننگرهار",
    "Province": "NANGARHAR",
    "PC_Code": "0602062",
    "District": "BEHSUD",
    "د_مرکز_نوم__نام_مرکز": "غلام محمد ديره",
    "Polling_Center_Name": "Ghulam Mohammad Dera",
    "د_مرکز_ځای__موقعیت_مرکز": "بنې ګاه",
    "Polling_Center_Location": "Bani Gah",
    "Map_Accuracy": "Village",
    "Map_Accuracy_Dari": "قریه",
    "Status": "Open",
    "Status_Dari": null,
    "PS_Male": 0,
    "PS_Female": 5,
    "PS_Total": 5,
    "ولسوالي": "بهسود",
    "Region": "Eastern Region"
   },
   "geometry": {
    "x": 7851444.7729930757,
    "y": 4091011.8460033145
   }
  },
  {
   "attributes": {
    "OBJECTID": 4361,
    "ولایت": "ننگرهار",
    "Province": "NANGARHAR",
    "PC_Code": "0603074",
    "District": "SURKH RUD",
    "د_مرکز_نوم__نام_مرکز": "سلطان پور جومات",
    "Polling_Center_Name": "Sultanpoor Mosque",
    "د_مرکز_ځای__موقعیت_مرکز": "سلطان پورعلیا",
    "Polling_Center_Location": "Sultanpoor Ulia",
    "Map_Accuracy": "Village",
    "Map_Accuracy_Dari": "قریه",
    "Status": "Open",
    "Status_Dari": null,
    "PS_Male": 3,
    "PS_Female": 0,
    "PS_Total": 3,
    "ولسوالي": "سرخرود",
    "Region": "Eastern Region"
   },
   "geometry": {
    "x": 7825357.0614576219,
    "y": 4084372.2507006903
   }
  },
  {
   "attributes": {
    "OBJECTID": 4362,
    "ولایت": "ننگرهار",
    "Province": "NANGARHAR",
    "PC_Code": "0603086",
    "District": "SURKH RUD",
    "د_مرکز_نوم__نام_مرکز": "فتح آباد مکتب",
    "Polling_Center_Name": "Fateh Abad School",
    "د_مرکز_ځای__موقعیت_مرکز": "فتح آباد",
    "Polling_Center_Location": "Fateh Abad",
    "Map_Accuracy": "Village",
    "Map_Accuracy_Dari": "قریه",
    "Status": "Open",
    "Status_Dari": null,
    "PS_Male": 0,
    "PS_Female": 2,
    "PS_Total": 2,
    "ولسوالي": "سرخرود",
    "Region": "Eastern Region"
   },
   "geometry": {
    "x": 7816659.2154584164,
    "y": 4076368.5320267016
   }
  },
  {
   "attributes": {
    "OBJECTID": 4363,
    "ولایت": "ننگرهار",
    "Province": "NANGARHAR",
    "PC_Code": "0603097",
    "District": "SURKH RUD",
    "د_مرکز_نوم__نام_مرکز": "درونته کلنيک",
    "Polling_Center_Name": "Daronta Clinic",
    "د_مرکز_ځای__موقعیت_مرکز": "درونته",
    "Polling_Center_Location": "Daronta",
    "Map_Accuracy": "Building",
    "Map_Accuracy_Dari": "تعمیر",
    "Status": "Open",
    "Status_Dari": null,
    "PS_Male": 0,
    "PS_Female": 2,
    "PS_Total": 2,
    "ولسوالي": "سرخرود",
    "Region": "Eastern Region"
   },
   "geometry": {
    "x": 7832997.5147832334,
    "y": 4093084.4902650383
   }
  },
  {
   "attributes": {
    "OBJECTID": 4364,
    "ولایت": "ننگرهار",
    "Province": "NANGARHAR",
    "PC_Code": "0604109",
    "District": "CHAPARHAR",
    "د_مرکز_نوم__نام_مرکز": "زغوکلي جومات",
    "Polling_Center_Name": "Zagho Village Mosque",
    "د_مرکز_ځای__موقعیت_مرکز": "زغوکلي",
    "Polling_Center_Location": "Zagho Village",
    "Map_Accuracy": "Village",
    "Map_Accuracy_Dari": "قریه",
    "Status": "Open",
    "Status_Dari": null,
    "PS_Male": 0,
    "PS_Female": 2,
    "PS_Total": 2,
    "ولسوالي": "چپرهار",
    "Region": "Eastern Region"
   },
   "geometry": {
    "x": 7838278.4702382525,
    "y": 4069228.7544425447
   }
  },
  {
   "attributes": {
    "OBJECTID": 4365,
    "ولایت": "ننگرهار",
    "Province": "NANGARHAR",
    "PC_Code": "0605167",
    "District": "KAMA",
    "د_مرکز_نوم__نام_مرکز": "وټه پورجومات",
    "Polling_Center_Name": "WataPoor Mosque",
    "د_مرکز_ځای__موقعیت_مرکز": "وټه پور",
    "Polling_Center_Location": "WataPoor",
    "Map_Accuracy": "Village",
    "Map_Accuracy_Dari": "قریه",
    "Status": "Open",
    "Status_Dari": null,
    "PS_Male": 0,
    "PS_Female": 2,
    "PS_Total": 2,
    "ولسوالي": "کامه",
    "Region": "Eastern Region"
   },
   "geometry": {
    "x": 7860279.0120851733,
    "y": 4083459.565224261
   }
  },
  {
   "attributes": {
    "OBJECTID": 4366,
    "ولایت": "ننگرهار",
    "Province": "NANGARHAR",
    "PC_Code": "0605179",
    "District": "KAMA",
    "د_مرکز_نوم__نام_مرکز": "ميرلالا چارديوالي",
    "Polling_Center_Name": "Meer Lala Chardiwali ",
    "د_مرکز_ځای__موقعیت_مرکز": "کنډۍ ميرلالا",
    "Polling_Center_Location": "Kandi Meer Lala",
    "Map_Accuracy": "Village",
    "Map_Accuracy_Dari": "قریه",
    "Status": "Open",
    "Status_Dari": null,
    "PS_Male": 0,
    "PS_Female": 2,
    "PS_Total": 2,
    "ولسوالي": "کامه",
    "Region": "Eastern Region"
   },
   "geometry": {
    "x": 7860310.692499062,
    "y": 4083730.2488630572
   }
  },
  {
   "attributes": {
    "OBJECTID": 4367,
    "ولایت": "ننگرهار",
    "Province": "NANGARHAR",
    "PC_Code": "0606191",
    "District": "KUZ KUNAR",
    "د_مرکز_نوم__نام_مرکز": "بازارک جومات",
    "Polling_Center_Name": "Bazarak Mosque",
    "د_مرکز_ځای__موقعیت_مرکز": "بازارک",
    "Polling_Center_Location": "Bazarak",
    "Map_Accuracy": "Village",
    "Map_Accuracy_Dari": "قریه",
    "Status": "Open",
    "Status_Dari": null,
    "PS_Male": 2,
    "PS_Female": 0,
    "PS_Total": 2,
    "ولسوالي": "کوز کنړ",
    "Region": "Eastern Region"
   },
   "geometry": {
    "x": 7854883.4710254995,
    "y": 4103421.6646182239
   }
  },
  {
   "attributes": {
    "OBJECTID": 4368,
    "ولایت": "ننگرهار",
    "Province": "NANGARHAR",
    "PC_Code": "0606203",
    "District": "KUZ KUNAR",
    "د_مرکز_نوم__نام_مرکز": "سرکنډ مکتب",
    "Polling_Center_Name": "Sarkand School",
    "د_مرکز_ځای__موقعیت_مرکز": "سرکنډ",
    "Polling_Center_Location": "Sarkand",
    "Map_Accuracy": "Village",
    "Map_Accuracy_Dari": "قریه",
    "Status": "Open",
    "Status_Dari": null,
    "PS_Male": 3,
    "PS_Female": 0,
    "PS_Total": 3,
    "ولسوالي": "کوز کنړ",
    "Region": "Eastern Region"
   },
   "geometry": {
    "x": 7873612.6525249491,
    "y": 4109160.4176596119
   }
  },
  {
   "attributes": {
    "OBJECTID": 4369,
    "ولایت": "ننگرهار",
    "Province": "NANGARHAR",
    "PC_Code": "0606204",
    "District": "KUZ KUNAR",
    "د_مرکز_نوم__نام_مرکز": "ياسين بابا کلینیک",
    "Polling_Center_Name": "Yaseen Baba Clinic",
    "د_مرکز_ځای__موقعیت_مرکز": "ياسين بابا",
    "Polling_Center_Location": "Yasee Baba",
    "Map_Accuracy": "Building",
    "Map_Accuracy_Dari": "تعمیر",
    "Status": "Open",
    "Status_Dari": null,
    "PS_Male": 2,
    "PS_Female": 1,
    "PS_Total": 3,
    "ولسوالي": "کوز کنړ",
    "Region": "Eastern Region"
   },
   "geometry": {
    "x": 7853096.5137863448,
    "y": 4101332.4149285131
   }
  },
  {
   "attributes": {
    "OBJECTID": 4370,
    "ولایت": "ننگرهار",
    "Province": "NANGARHAR",
    "PC_Code": "0606214",
    "District": "KUZ KUNAR",
    "د_مرکز_نوم__نام_مرکز": "اسلام پور کلي جومات",
    "Polling_Center_Name": "Islam Poor Village Mosque",
    "د_مرکز_ځای__موقعیت_مرکز": "اسلام پور",
    "Polling_Center_Location": "Islampoor",
    "Map_Accuracy": "Building",
    "Map_Accuracy_Dari": "تعمیر",
    "Status": "Open",
    "Status_Dari": null,
    "PS_Male": 1,
    "PS_Female": 1,
    "PS_Total": 2,
    "ولسوالي": "کوز کنړ",
    "Region": "Eastern Region"
   },
   "geometry": {
    "x": 7862221.7709704489,
    "y": 4107828.8590941723
   }
  },
  {
   "attributes": {
    "OBJECTID": 4371,
    "ولایت": "ننگرهار",
    "Province": "NANGARHAR",
    "PC_Code": "0607139",
    "District": "RODAT",
    "د_مرکز_نوم__نام_مرکز": "بړو ګرى جومات",
    "Polling_Center_Name": "Barogaray Mosque",
    "د_مرکز_ځای__موقعیت_مرکز": "بړو ګري",
    "Polling_Center_Location": "Barogaray",
    "Map_Accuracy": "Village",
    "Map_Accuracy_Dari": "قریه",
    "Status": "Open",
    "Status_Dari": null,
    "PS_Male": 2,
    "PS_Female": 0,
    "PS_Total": 2,
    "ولسوالي": "رودات",
    "Region": "Eastern Region"
   },
   "geometry": {
    "x": 7863757.9899621522,
    "y": 4063240.8553727479
   }
  },
  {
   "attributes": {
    "OBJECTID": 4372,
    "ولایت": "ننگرهار",
    "Province": "NANGARHAR",
    "PC_Code": "0609450",
    "District": "BATI KOT",
    "د_مرکز_نوم__نام_مرکز": "زيارت جومات",
    "Polling_Center_Name": "Ziarat Mosque",
    "د_مرکز_ځای__موقعیت_مرکز": "غازي آباد",
    "Polling_Center_Location": "Ghazi Abad",
    "Map_Accuracy": "Village",
    "Map_Accuracy_Dari": "قریه",
    "Status": "Open",
    "Status_Dari": null,
    "PS_Male": 2,
    "PS_Female": 0,
    "PS_Total": 2,
    "ولسوالي": "بټي کوټ",
    "Region": "Eastern Region"
   },
   "geometry": {
    "x": 7877764.938549622,
    "y": 4071507.0073424429
   }
  },
  {
   "attributes": {
    "OBJECTID": 4373,
    "ولایت": "ننگرهار",
    "Province": "NANGARHAR",
    "PC_Code": "0609451",
    "District": "BATI KOT",
    "د_مرکز_نوم__نام_مرکز": "زيارت جومات ميدان",
    "Polling_Center_Name": "Ziarat Mosque Maidan",
    "د_مرکز_ځای__موقعیت_مرکز": "غازي آباد",
    "Polling_Center_Location": "Ghazi Abad",
    "Map_Accuracy": "Village",
    "Map_Accuracy_Dari": "قریه",
    "Status": "Open",
    "Status_Dari": null,
    "PS_Male": 0,
    "PS_Female": 2,
    "PS_Total": 2,
    "ولسوالي": "بټي کوټ",
    "Region": "Eastern Region"
   },
   "geometry": {
    "x": 7877984.8424113141,
    "y": 4071284.7268232675
   }
  },
  {
   "attributes": {
    "OBJECTID": 4374,
    "ولایت": "ننگرهار",
    "Province": "NANGARHAR",
    "PC_Code": "0611306",
    "District": "PACHIR WAGAM",
    "د_مرکز_نوم__نام_مرکز": "مورکي ابتدائيه مکتب",
    "Polling_Center_Name": "Morkay Primary School",
    "د_مرکز_ځای__موقعیت_مرکز": "مورکۍ",
    "Polling_Center_Location": "Morkay",
    "Map_Accuracy": "Village",
    "Map_Accuracy_Dari": "قریه",
    "Status": "Open",
    "Status_Dari": null,
    "PS_Male": 0,
    "PS_Female": 3,
    "PS_Total": 3,
    "ولسوالي": "پچیر و اګام",
    "Region": "Eastern Region"
   },
   "geometry": {
    "x": 7822982.1736674281,
    "y": 4054558.5524446769
   }
  },
  {
   "attributes": {
    "OBJECTID": 4375,
    "ولایت": "ننگرهار",
    "Province": "NANGARHAR",
    "PC_Code": "0612223",
    "District": "DARAH-E-NOOR",
    "د_مرکز_نوم__نام_مرکز": "جومات بمبه کوټ",
    "Polling_Center_Name": "Bamba Kot Mosque",
    "د_مرکز_ځای__موقعیت_مرکز": "بمبه کوټ",
    "Polling_Center_Location": "Bama Kot",
    "Map_Accuracy": "Village",
    "Map_Accuracy_Dari": "قریه",
    "Status": "Open",
    "Status_Dari": null,
    "PS_Male": 2,
    "PS_Female": 1,
    "PS_Total": 3,
    "ولسوالي": "دره نور",
    "Region": "Eastern Region"
   },
   "geometry": {
    "x": 7860128.5660197586,
    "y": 4123397.6955403965
   }
  },
  {
   "attributes": {
    "OBJECTID": 4376,
    "ولایت": "ننگرهار",
    "Province": "NANGARHAR",
    "PC_Code": "0612234",
    "District": "DARAH-E-NOOR",
    "د_مرکز_نوم__نام_مرکز": "سوتن ميدان",
    "Polling_Center_Name": "Sotan Maidan",
    "د_مرکز_ځای__موقعیت_مرکز": "سوتن",
    "Polling_Center_Location": "Sotan",
    "Map_Accuracy": "Village",
    "Map_Accuracy_Dari": "قریه",
    "Status": "Open",
    "Status_Dari": null,
    "PS_Male": 0,
    "PS_Female": 2,
    "PS_Total": 2,
    "ولسوالي": "دره نور",
    "Region": "Eastern Region"
   },
   "geometry": {
    "x": 7861779.4062383482,
    "y": 4125218.157885557
   }
  },
  {
   "attributes": {
    "OBJECTID": 4377,
    "ولایت": "ننگرهار",
    "Province": "NANGARHAR",
    "PC_Code": "0614490",
    "District": "GOSHTA",
    "د_مرکز_نوم__نام_مرکز": "ملک سهیل حجره",
    "Polling_Center_Name": "Malak Suhail Hujra",
    "د_مرکز_ځای__موقعیت_مرکز": "چورخيل",
    "Polling_Center_Location": "ChoorKhel",
    "Map_Accuracy": "Village",
    "Map_Accuracy_Dari": "قریه",
    "Status": "Open",
    "Status_Dari": null,
    "PS_Male": 2,
    "PS_Female": 0,
    "PS_Total": 2,
    "ولسوالي": "ګوشته",
    "Region": "Eastern Region"
   },
   "geometry": {
    "x": 7881305.0642228862,
    "y": 4075666.7369419103
   }
  },
  {
   "attributes": {
    "OBJECTID": 4378,
    "ولایت": "ننگرهار",
    "Province": "NANGARHAR",
    "PC_Code": "0614496",
    "District": "GOSHTA",
    "د_مرکز_نوم__نام_مرکز": "شالالا ميدان",
    "Polling_Center_Name": "Shah Lala Maidan",
    "د_مرکز_ځای__موقعیت_مرکز": "خوګاخيل",
    "Polling_Center_Location": "KhogaKhel",
    "Map_Accuracy": "Village",
    "Map_Accuracy_Dari": "قریه",
    "Status": "Open",
    "Status_Dari": null,
    "PS_Male": 2,
    "PS_Female": 0,
    "PS_Total": 2,
    "ولسوالي": "ګوشته",
    "Region": "Eastern Region"
   },
   "geometry": {
    "x": 7894097.2533386108,
    "y": 4095366.4051044602
   }
  },
  {
   "attributes": {
    "OBJECTID": 4379,
    "ولایت": "ننگرهار",
    "Province": "NANGARHAR",
    "PC_Code": "0615356",
    "District": "ACHIN",
    "د_مرکز_نوم__نام_مرکز": "د وچ کوټیو او دولت خیلوجومات",
    "Polling_Center_Name": "Wach Kotyo & Dawlatkhelo Mosque",
    "د_مرکز_ځای__موقعیت_مرکز": "کوشتال",
    "Polling_Center_Location": "Koshtal",
    "Map_Accuracy": "Village",
    "Map_Accuracy_Dari": "قریه",
    "Status": "Open",
    "Status_Dari": null,
    "PS_Male": 0,
    "PS_Female": 3,
    "PS_Total": 3,
    "ولسوالي": "اچین",
    "Region": "Eastern Region"
   },
   "geometry": {
    "x": 7869325.2001481634,
    "y": 4041340.3384426734
   }
  },
  {
   "attributes": {
    "OBJECTID": 4380,
    "ولایت": "ننگرهار",
    "Province": "NANGARHAR",
    "PC_Code": "0615391",
    "District": "ACHIN",
    "د_مرکز_نوم__نام_مرکز": "شهید ګل اصغر لیسه ",
    "Polling_Center_Name": "Shaheed Gul Asghar High School",
    "د_مرکز_ځای__موقعیت_مرکز": "عبدالخيل بازار",
    "Polling_Center_Location": "Abdul Khel Bazaar",
    "Map_Accuracy": "Village",
    "Map_Accuracy_Dari": "قریه",
    "Status": "Open",
    "Status_Dari": null,
    "PS_Male": 1,
    "PS_Female": 1,
    "PS_Total": 2,
    "ولسوالي": "اچین",
    "Region": "Eastern Region"
   },
   "geometry": {
    "x": 7869796.9888480688,
    "y": 4040190.4753128611
   }
  },
  {
   "attributes": {
    "OBJECTID": 4381,
    "ولایت": "ننگرهار",
    "Province": "NANGARHAR",
    "PC_Code": "0616432",
    "District": "SHINWAR",
    "د_مرکز_نوم__نام_مرکز": "سياچوب جومات",
    "Polling_Center_Name": "Siya Chob Mosque",
    "د_مرکز_ځای__موقعیت_مرکز": "سياچوب",
    "Polling_Center_Location": "Siya Chob",
    "Map_Accuracy": "Village",
    "Map_Accuracy_Dari": "قریه",
    "Status": "Open",
    "Status_Dari": null,
    "PS_Male": 3,
    "PS_Female": 0,
    "PS_Total": 3,
    "ولسوالي": "شینوار",
    "Region": "Eastern Region"
   },
   "geometry": {
    "x": 7873233.6463942286,
    "y": 4052604.1565534747
   }
  },
  {
   "attributes": {
    "OBJECTID": 4382,
    "ولایت": "ننگرهار",
    "Province": "NANGARHAR",
    "PC_Code": "0622418",
    "District": "DUR BABA",
    "د_مرکز_نوم__نام_مرکز": "شولګرښوونځی",
    "Polling_Center_Name": "Sholgar School",
    "د_مرکز_ځای__موقعیت_مرکز": "شولګرښوونځی",
    "Polling_Center_Location": "Sholgar School",
    "Map_Accuracy": "Building",
    "Map_Accuracy_Dari": "تعمیر",
    "Status": "Open",
    "Status_Dari": null,
    "PS_Male": 3,
    "PS_Female": 0,
    "PS_Total": 3,
    "ولسوالي": "در بابا",
    "Region": "Eastern Region"
   },
   "geometry": {
    "x": 7893788.7803504486,
    "y": 4038783.069411519
   }
  },
  {
   "attributes": {
    "OBJECTID": 4383,
    "ولایت": "لغمان",
    "Province": "LAGHMAN",
    "PC_Code": "0701008",
    "District": "MEHTARLAM",
    "د_مرکز_نوم__نام_مرکز": "د حېدرخانۍ کلکوټ ښوونځی",
    "Polling_Center_Name": "Haidarkhani Kalkot School",
    "د_مرکز_ځای__موقعیت_مرکز": "حیدرخانی ",
    "Polling_Center_Location": "Haidar Khan",
    "Map_Accuracy": "Building",
    "Map_Accuracy_Dari": "تعمیر",
    "Status": "Open",
    "Status_Dari": null,
    "PS_Male": 3,
    "PS_Female": 1,
    "PS_Total": 4,
    "ولسوالي": "مهترلام",
    "Region": "Eastern Region"
   },
   "geometry": {
    "x": 7816267.341907762,
    "y": 4109608.1914184
   }
  },
  {
   "attributes": {
    "OBJECTID": 4384,
    "ولایت": "لغمان",
    "Province": "LAGHMAN",
    "PC_Code": "0701017",
    "District": "MEHTARLAM",
    "د_مرکز_نوم__نام_مرکز": "دشهيد مولوي حبيب رحمان لېسه",
    "Polling_Center_Name": "Shaheed Mawlawi Habib Rahman High School",
    "د_مرکز_ځای__موقعیت_مرکز": "بصرام",
    "Polling_Center_Location": "Basram",
    "Map_Accuracy": "Building",
    "Map_Accuracy_Dari": "تعمیر",
    "Status": "Open",
    "Status_Dari": null,
    "PS_Male": 2,
    "PS_Female": 1,
    "PS_Total": 3,
    "ولسوالي": "مهترلام",
    "Region": "Eastern Region"
   },
   "geometry": {
    "x": 7821572.0473761391,
    "y": 4126842.8392824712
   }
  },
  {
   "attributes": {
    "OBJECTID": 4385,
    "ولایت": "لغمان",
    "Province": "LAGHMAN",
    "PC_Code": "0701023",
    "District": "MEHTARLAM",
    "د_مرکز_نوم__نام_مرکز": "د ډيوې ښوونځی",
    "Polling_Center_Name": "Diwa School",
    "د_مرکز_ځای__موقعیت_مرکز": "ډیوه",
    "Polling_Center_Location": "Diwa",
    "Map_Accuracy": "Building",
    "Map_Accuracy_Dari": "تعمیر",
    "Status": "Open",
    "Status_Dari": null,
    "PS_Male": 1,
    "PS_Female": 1,
    "PS_Total": 2,
    "ولسوالي": "مهترلام",
    "Region": "Eastern Region"
   },
   "geometry": {
    "x": 7809184.2819704683,
    "y": 4121449.6248329803
   }
  },
  {
   "attributes": {
    "OBJECTID": 4386,
    "ولایت": "لغمان",
    "Province": "LAGHMAN",
    "PC_Code": "0702035",
    "District": "QARGHAYEE",
    "د_مرکز_نوم__نام_مرکز": "دچهارباغ هلکانو او انجونوليسه",
    "Polling_Center_Name": "Charbagh Boys & Girls High School",
    "د_مرکز_ځای__موقعیت_مرکز": "چهارباغ",
    "Polling_Center_Location": "Charbagh",
    "Map_Accuracy": "Building",
    "Map_Accuracy_Dari": "تعمیر",
    "Status": "Open",
    "Status_Dari": null,
    "PS_Male": 3,
    "PS_Female": 2,
    "PS_Total": 5,
    "ولسوالي": "قرغه یي",
    "Region": "Eastern Region"
   },
   "geometry": {
    "x": 7824440.4623364015,
    "y": 4100481.9296124554
   }
  },
  {
   "attributes": {
    "OBJECTID": 4387,
    "ولایت": "لغمان",
    "Province": "LAGHMAN",
    "PC_Code": "0702045",
    "District": "QARGHAYEE",
    "د_مرکز_نوم__نام_مرکز": "دکاکڅ ښوونځی",
    "Polling_Center_Name": "Ka Kass School",
    "د_مرکز_ځای__موقعیت_مرکز": "کا کڅ",
    "Polling_Center_Location": "Ka Kass",
    "Map_Accuracy": "Building",
    "Map_Accuracy_Dari": "تعمیر",
    "Status": "Open",
    "Status_Dari": null,
    "PS_Male": 4,
    "PS_Female": 2,
    "PS_Total": 6,
    "ولسوالي": "قرغه یي",
    "Region": "Eastern Region"
   },
   "geometry": {
    "x": 7796203.5243165158,
    "y": 4097093.638510826
   }
  },
  {
   "attributes": {
    "OBJECTID": 4388,
    "ولایت": "لغمان",
    "Province": "LAGHMAN",
    "PC_Code": "0702127",
    "District": "QARGHAYEE",
    "د_مرکز_نوم__نام_مرکز": "زيړاني کلی جامع جومات او کلینیک",
    "Polling_Center_Name": "Zeranai Village Mosque & Clinic",
    "د_مرکز_ځای__موقعیت_مرکز": "زيړاني کلي",
    "Polling_Center_Location": "Zeranai Village",
    "Map_Accuracy": "Building",
    "Map_Accuracy_Dari": "تعمیر",
    "Status": "Open",
    "Status_Dari": null,
    "PS_Male": 2,
    "PS_Female": 1,
    "PS_Total": 3,
    "ولسوالي": "قرغه یي",
    "Region": "Eastern Region"
   },
   "geometry": {
    "x": 7807584.5051155044,
    "y": 4098657.0386987221
   }
  },
  {
   "attributes": {
    "OBJECTID": 4389,
    "ولایت": "لغمان",
    "Province": "LAGHMAN",
    "PC_Code": "0704063",
    "District": "ALINGAR",
    "د_مرکز_نوم__نام_مرکز": "د تندرود ښوونځی ",
    "Polling_Center_Name": "Tondrod School",
    "د_مرکز_ځای__موقعیت_مرکز": "تندرود",
    "Polling_Center_Location": "Tondrod",
    "Map_Accuracy": "Village",
    "Map_Accuracy_Dari": "قریه",
    "Status": "Open",
    "Status_Dari": null,
    "PS_Male": 1,
    "PS_Female": 1,
    "PS_Total": 2,
    "ولسوالي": "علینګار",
    "Region": "Eastern Region"
   },
   "geometry": {
    "x": 7832631.0365480091,
    "y": 4146489.4348831694
   }
  },
  {
   "attributes": {
    "OBJECTID": 4390,
    "ولایت": "لغمان",
    "Province": "LAGHMAN",
    "PC_Code": "0705117",
    "District": "DAWLAT SHAH",
    "د_مرکز_نوم__نام_مرکز": "افغان کالونی ښوونځي",
    "Polling_Center_Name": "Afghan Colony School",
    "د_مرکز_ځای__موقعیت_مرکز": "افغان کالونی",
    "Polling_Center_Location": "Afghan Colony",
    "Map_Accuracy": "Building",
    "Map_Accuracy_Dari": "تعمیر",
    "Status": "Open",
    "Status_Dari": null,
    "PS_Male": 2,
    "PS_Female": 1,
    "PS_Total": 3,
    "ولسوالي": "دولت شاه",
    "Region": "Eastern Region"
   },
   "geometry": {
    "x": 7801475.7144748317,
    "y": 4157732.6809204854
   }
  },
  {
   "attributes": {
    "OBJECTID": 4391,
    "ولایت": "پنجشیر",
    "Province": "PANJSHIR",
    "PC_Code": "0803047",
    "District": "DARAH",
    "د_مرکز_نوم__نام_مرکز": "مسجد ده خواجه ",
    "Polling_Center_Name": "Deh Khwaja Mosque",
    "د_مرکز_ځای__موقعیت_مرکز": "خواجه عبدالله خیل",
    "Polling_Center_Location": "Khwaja Abdullh Khel",
    "Map_Accuracy": "Building",
    "Map_Accuracy_Dari": "تعمیر",
    "Status": "Open",
    "Status_Dari": null,
    "PS_Male": 2,
    "PS_Female": 1,
    "PS_Total": 3,
    "ولسوالي": "دره",
    "Region": "Central Region"
   },
   "geometry": {
    "x": 7748120.8291163165,
    "y": 4196019.9976964053
   }
  },
  {
   "attributes": {
    "OBJECTID": 4392,
    "ولایت": "پنجشیر",
    "Province": "PANJSHIR",
    "PC_Code": "0803054",
    "District": "DARAH",
    "د_مرکز_نوم__نام_مرکز": "مکتب ذکور ملیمه",
    "Polling_Center_Name": "Malima Boys School ",
    "د_مرکز_ځای__موقعیت_مرکز": "ملیمه ",
    "Polling_Center_Location": "Malima",
    "Map_Accuracy": "Building",
    "Map_Accuracy_Dari": "تعمیر",
    "Status": "Open",
    "Status_Dari": null,
    "PS_Male": 2,
    "PS_Female": 1,
    "PS_Total": 3,
    "ولسوالي": "دره",
    "Region": "Central Region"
   },
   "geometry": {
    "x": 7752014.8450167887,
    "y": 4206675.0277387025
   }
  },
  {
   "attributes": {
    "OBJECTID": 4393,
    "ولایت": "پنجشیر",
    "Province": "PANJSHIR",
    "PC_Code": "0804014",
    "District": "HISSA-E-AWAL KHINJ",
    "د_مرکز_نوم__نام_مرکز": "لیسه دشت ریوت",
    "Polling_Center_Name": "Dasht -e-Reut High School",
    "د_مرکز_ځای__موقعیت_مرکز": "دشت ریوت",
    "Polling_Center_Location": "Dasht-e-Reut",
    "Map_Accuracy": "Building",
    "Map_Accuracy_Dari": "تعمیر",
    "Status": "Open",
    "Status_Dari": null,
    "PS_Male": 2,
    "PS_Female": 1,
    "PS_Total": 3,
    "ولسوالي": "حصه اول خنج",
    "Region": "Central Region"
   },
   "geometry": {
    "x": 7772362.5306491433,
    "y": 4230586.8791876612
   }
  },
  {
   "attributes": {
    "OBJECTID": 4394,
    "ولایت": "پنجشیر",
    "Province": "PANJSHIR",
    "PC_Code": "0805033",
    "District": "UNABA",
    "د_مرکز_نوم__نام_مرکز": "لیسه نسوان فراج",
    "Polling_Center_Name": "Faraj Girls School",
    "د_مرکز_ځای__موقعیت_مرکز": "فراج",
    "Polling_Center_Location": "Faraj",
    "Map_Accuracy": "Building",
    "Map_Accuracy_Dari": "تعمیر",
    "Status": "Open",
    "Status_Dari": null,
    "PS_Male": 1,
    "PS_Female": 1,
    "PS_Total": 2,
    "ولسوالي": "عنابه",
    "Region": "Central Region"
   },
   "geometry": {
    "x": 7721301.7017721646,
    "y": 4191995.2554259892
   }
  },
  {
   "attributes": {
    "OBJECTID": 4395,
    "ولایت": "پنجشیر",
    "Province": "PANJSHIR",
    "PC_Code": "0806085",
    "District": "SHUTUL",
    "د_مرکز_نوم__نام_مرکز": "مسجد سغه وار",
    "Polling_Center_Name": "Sagha War Mosque",
    "د_مرکز_ځای__موقعیت_مرکز": "سغه وار",
    "Polling_Center_Location": "Sagha War",
    "Map_Accuracy": "Building",
    "Map_Accuracy_Dari": "تعمیر",
    "Status": "Open",
    "Status_Dari": null,
    "PS_Male": 1,
    "PS_Female": 1,
    "PS_Total": 2,
    "ولسوالي": "شتل",
    "Region": "Central Region"
   },
   "geometry": {
    "x": 7712202.0447313618,
    "y": 4191492.8021948817
   }
  },
  {
   "attributes": {
    "OBJECTID": 4396,
    "ولایت": "پنجشیر",
    "Province": "PANJSHIR",
    "PC_Code": "0806086",
    "District": "SHUTUL",
    "د_مرکز_نوم__نام_مرکز": "مسجد ماره",
    "Polling_Center_Name": "Mara Mosque",
    "د_مرکز_ځای__موقعیت_مرکز": "ماره",
    "Polling_Center_Location": "Mara",
    "Map_Accuracy": "Village",
    "Map_Accuracy_Dari": "قریه",
    "Status": "Open",
    "Status_Dari": null,
    "PS_Male": 1,
    "PS_Female": 1,
    "PS_Total": 2,
    "ولسوالي": "شتل",
    "Region": "Central Region"
   },
   "geometry": {
    "x": 7712520.3828527909,
    "y": 4191343.5376306269
   }
  },
  {
   "attributes": {
    "OBJECTID": 4397,
    "ولایت": "پنجشیر",
    "Province": "PANJSHIR",
    "PC_Code": "0807070",
    "District": "PARYAN",
    "د_مرکز_نوم__نام_مرکز": "مسجد نو دانگ ",
    "Polling_Center_Name": "Nawdang Mosque",
    "د_مرکز_ځای__موقعیت_مرکز": "نودانگ ",
    "Polling_Center_Location": "Nawdang",
    "Map_Accuracy": "Building",
    "Map_Accuracy_Dari": "تعمیر",
    "Status": "Open",
    "Status_Dari": null,
    "PS_Male": 1,
    "PS_Female": 1,
    "PS_Total": 2,
    "ولسوالي": "پریان",
    "Region": "Central Region"
   },
   "geometry": {
    "x": 7792851.3783013755,
    "y": 4248994.7569767972
   }
  },
  {
   "attributes": {
    "OBJECTID": 4398,
    "ولایت": "پنجشیر",
    "Province": "PANJSHIR",
    "PC_Code": "0807081",
    "District": "PARYAN",
    "د_مرکز_نوم__نام_مرکز": "مسجد چمار بالا",
    "Polling_Center_Name": "Chamar Bala Mosque ",
    "د_مرکز_ځای__موقعیت_مرکز": "چمار بالا",
    "Polling_Center_Location": "Chamar Bala",
    "Map_Accuracy": "Village",
    "Map_Accuracy_Dari": "قریه",
    "Status": "Open",
    "Status_Dari": null,
    "PS_Male": 1,
    "PS_Female": 1,
    "PS_Total": 2,
    "ولسوالي": "پریان",
    "Region": "Central Region"
   },
   "geometry": {
    "x": 7805796.434681437,
    "y": 4257315.2138727158
   }
  },
  {
   "attributes": {
    "OBJECTID": 4399,
    "ولایت": "پنجشیر",
    "Province": "PANJSHIR",
    "PC_Code": "0808057",
    "District": "ABSHAR",
    "د_مرکز_نوم__نام_مرکز": "مکتب جر علی ",
    "Polling_Center_Name": "Jar a+J1748li Schoo ",
    "د_مرکز_ځای__موقعیت_مرکز": "جر علی ",
    "Polling_Center_Location": "Jarali",
    "Map_Accuracy": "Village",
    "Map_Accuracy_Dari": "قریه",
    "Status": "Open",
    "Status_Dari": null,
    "PS_Male": 1,
    "PS_Female": 1,
    "PS_Total": 2,
    "ولسوالي": "آبشار",
    "Region": "Central Region"
   },
   "geometry": {
    "x": 7758760.6926129814,
    "y": 4197478.4417689098
   }
  },
  {
   "attributes": {
    "OBJECTID": 4400,
    "ولایت": "بغلان",
    "Province": "BAGHLAN",
    "PC_Code": "0901005",
    "District": "PUL-E-KHUMRI",
    "د_مرکز_نوم__نام_مرکز": "مسجد جامع تکیه خانه تپه فرحت",
    "Polling_Center_Name": "Takia Khana Farahd  Mosque",
    "د_مرکز_ځای__موقعیت_مرکز": "ناحیه اول",
    "Polling_Center_Location": "First Nahia",
    "Map_Accuracy": "Building",
    "Map_Accuracy_Dari": "تعمیر",
    "Status": "Open",
    "Status_Dari": null,
    "PS_Male": 4,
    "PS_Female": 2,
    "PS_Total": 6,
    "ولسوالي": "پلخمری",
    "Region": "North Eastern Region"
   },
   "geometry": {
    "x": 7648053.8608824331,
    "y": 4293695.0031194529
   }
  }
 ]
}