{
 "displayFieldName": "Polling_Center_Name",
 "fieldAliases": {
  "OBJECTID": "OBJECTID",
  "ولایت": "ولایت",
  "Province": "Province",
  "PC_Code": "PC_Code",
  "District": "District",
  "د_مرکز_نوم__نام_مرکز": "د_مرکز_نوم__نام_مرکز",
  "Polling_Center_Name": "Polling_Center_Name",
  "د_مرکز_ځای__موقعیت_مرکز": "د_مرکز_ځای__موقعیت_مرکز",
  "Polling_Center_Location": "Polling_Center_Location",
  "Map_Accuracy": "Map_Accuracy",
  "Map_Accuracy_Dari": "Map_Accuracy_Dari",
  "Status": "Status",
  "Status_Dari": "Status_Dari",
  "PS_Male": "PS_Male",
  "PS_Female": "PS_Female",
  "PS_Total": "PS_Total",
  "ولسوالي": "ولسوالي",
  "Region": "Region"
 },
 "geometryType": "esriGeometryPoint",
 "spatialReference": {
  "wkid": 102100,
  "latestWkid": 3857
 },
 "fields": [
  {
   "name": "OBJECTID",
   "type": "esriFieldTypeOID",
   "alias": "OBJECTID"
  },
  {
   "name": "ولایت",
   "type": "esriFieldTypeString",
   "alias": "ولایت",
   "length": 255
  },
  {
   "name": "Province",
   "type": "esriFieldTypeString",
   "alias": "Province",
   "length": 255
  },
  {
   "name": "PC_Code",
   "type": "esriFieldTypeString",
   "alias": "PC_Code",
   "length": 255
  },
  {
   "name": "District",
   "type": "esriFieldTypeString",
   "alias": "District",
   "length": 255
  },
  {
   "name": "د_مرکز_نوم__نام_مرکز",
   "type": "esriFieldTypeString",
   "alias": "د_مرکز_نوم__نام_مرکز",
   "length": 255
  },
  {
   "name": "Polling_Center_Name",
   "type": "esriFieldTypeString",
   "alias": "Polling_Center_Name",
   "length": 255
  },
  {
   "name": "د_مرکز_ځای__موقعیت_مرکز",
   "type": "esriFieldTypeString",
   "alias": "د_مرکز_ځای__موقعیت_مرکز",
   "length": 255
  },
  {
   "name": "Polling_Center_Location",
   "type": "esriFieldTypeString",
   "alias": "Polling_Center_Location",
   "length": 255
  },
  {
   "name": "Map_Accuracy",
   "type": "esriFieldTypeString",
   "alias": "Map_Accuracy",
   "length": 10
  },
  {
   "name": "Map_Accuracy_Dari",
   "type": "esriFieldTypeString",
   "alias": "Map_Accuracy_Dari",
   "length": 50
  },
  {
   "name": "Status",
   "type": "esriFieldTypeString",
   "alias": "Status",
   "length": 6
  },
  {
   "name": "Status_Dari",
   "type": "esriFieldTypeString",
   "alias": "Status_Dari",
   "length": 8
  },
  {
   "name": "PS_Male",
   "type": "esriFieldTypeSmallInteger",
   "alias": "PS_Male"
  },
  {
   "name": "PS_Female",
   "type": "esriFieldTypeSmallInteger",
   "alias": "PS_Female"
  },
  {
   "name": "PS_Total",
   "type": "esriFieldTypeSmallInteger",
   "alias": "PS_Total"
  },
  {
   "name": "ولسوالي",
   "type": "esriFieldTypeString",
   "alias": "ولسوالي",
   "length": 255
  },
  {
   "name": "Region",
   "type": "esriFieldTypeString",
   "alias": "Region",
   "length": 50
  }
 ],
 "features": [
  {
   "attributes": {
    "OBJECTID": 4001,
    "ولایت": "غزنى",
    "Province": "GHAZNI",
    "PC_Code": "1114348",
    "District": "JAGHURI",
    "د_مرکز_نوم__نام_مرکز": "مکتب متوسطه سه قول",
    "Polling_Center_Name": "3 Qul Secondary School",
    "د_مرکز_ځای__موقعیت_مرکز": "قریه صوبه غربیده",
    "Polling_Center_Location": "Suba Gharbeeda Village",
    "Map_Accuracy": "Building",
    "Map_Accuracy_Dari": "تعمیر",
    "Status": "Open",
    "Status_Dari": null,
    "PS_Male": 1,
    "PS_Female": 1,
    "PS_Total": 2,
    "ولسوالي": "جاغوری",
    "Region": "South Eastern Region"
   },
   "geometry": {
    "x": 7508342.1324740574,
    "y": 3898271.0222349577
   }
  },
  {
   "attributes": {
    "OBJECTID": 4002,
    "ولایت": "غزنى",
    "Province": "GHAZNI",
    "PC_Code": "1115371",
    "District": "MUQUR",
    "د_مرکز_نوم__نام_مرکز": "محوطه دفتر ولسوالی مقر",
    "Polling_Center_Name": "Disrtict Compound",
    "د_مرکز_ځای__موقعیت_مرکز": "مرکز  ولسوالی مقر",
    "Polling_Center_Location": "Muqur District Center",
    "Map_Accuracy": "Building",
    "Map_Accuracy_Dari": "تعمیر",
    "Status": "Open",
    "Status_Dari": null,
    "PS_Male": 1,
    "PS_Female": 1,
    "PS_Total": 2,
    "ولسوالي": "مقر",
    "Region": "South Eastern Region"
   },
   "geometry": {
    "x": 7543891.8448796514,
    "y": 3871595.8735233787
   }
  },
  {
   "attributes": {
    "OBJECTID": 4003,
    "ولایت": "پکتيکا",
    "Province": "PAKTIKA",
    "PC_Code": "1201005",
    "District": "SHARAN",
    "د_مرکز_نوم__نام_مرکز": "لومړنۍ ښوونځی",
    "Polling_Center_Name": "Primary School",
    "د_مرکز_ځای__موقعیت_مرکز": "مسواس",
    "Polling_Center_Location": "Maswas",
    "Map_Accuracy": "Building",
    "Map_Accuracy_Dari": "تعمیر",
    "Status": "Open",
    "Status_Dari": null,
    "PS_Male": 4,
    "PS_Female": 0,
    "PS_Total": 4,
    "ولسوالي": "شرن",
    "Region": "South Eastern Region"
   },
   "geometry": {
    "x": 7652882.5953776408,
    "y": 3925964.9472282548
   }
  },
  {
   "attributes": {
    "OBJECTID": 4004,
    "ولایت": "پکتيکا",
    "Province": "PAKTIKA",
    "PC_Code": "1201014",
    "District": "SHARAN",
    "د_مرکز_نوم__نام_مرکز": "میلمستون داگیر",
    "Polling_Center_Name": "Dagir Guest House",
    "د_مرکز_ځای__موقعیت_مرکز": "سپوانی",
    "Polling_Center_Location": "Spavani",
    "Map_Accuracy": "Village",
    "Map_Accuracy_Dari": "قریه",
    "Status": "Open",
    "Status_Dari": null,
    "PS_Male": 0,
    "PS_Female": 4,
    "PS_Total": 4,
    "ولسوالي": "شرن",
    "Region": "South Eastern Region"
   },
   "geometry": {
    "x": 7657261.2239833623,
    "y": 3915114.4267309792
   }
  },
  {
   "attributes": {
    "OBJECTID": 4005,
    "ولایت": "پکتيکا",
    "Province": "PAKTIKA",
    "PC_Code": "1201015",
    "District": "SHARAN",
    "د_مرکز_نوم__نام_مرکز": "لومړنی ښوونځی ",
    "Polling_Center_Name": "Primary School",
    "د_مرکز_ځای__موقعیت_مرکز": "کریخیل ",
    "Polling_Center_Location": "Kari Khel",
    "Map_Accuracy": "Village",
    "Map_Accuracy_Dari": "قریه",
    "Status": "Open",
    "Status_Dari": null,
    "PS_Male": 4,
    "PS_Female": 0,
    "PS_Total": 4,
    "ولسوالي": "شرن",
    "Region": "South Eastern Region"
   },
   "geometry": {
    "x": 7655755.8371510245,
    "y": 3924863.6924709184
   }
  },
  {
   "attributes": {
    "OBJECTID": 4006,
    "ولایت": "پکتيکا",
    "Province": "PAKTIKA",
    "PC_Code": "1202283",
    "District": "MATA KHAN",
    "د_مرکز_نوم__نام_مرکز": "ليسه مټا خان",
    "Polling_Center_Name": "Mata Khan High School",
    "د_مرکز_ځای__موقعیت_مرکز": "بازارمټاخان ",
    "Polling_Center_Location": "Mata Khan Bazaar ",
    "Map_Accuracy": "Building",
    "Map_Accuracy_Dari": "تعمیر",
    "Status": "Open",
    "Status_Dari": null,
    "PS_Male": 2,
    "PS_Female": 0,
    "PS_Total": 2,
    "ولسوالي": "مټا خان",
    "Region": "South Eastern Region"
   },
   "geometry": {
    "x": 7665230.2067297865,
    "y": 3930934.1007064786
   }
  },
  {
   "attributes": {
    "OBJECTID": 4007,
    "ولایت": "پکتيکا",
    "Province": "PAKTIKA",
    "PC_Code": "1203039",
    "District": "YOSUF KHEL",
    "د_مرکز_نوم__نام_مرکز": "جومات باذی وانی",
    "Polling_Center_Name": "Bazi Wani Mosque",
    "د_مرکز_ځای__موقعیت_مرکز": "یوسف خیل مرکز",
    "Polling_Center_Location": "Yousuf Khel Markaz",
    "Map_Accuracy": "Building",
    "Map_Accuracy_Dari": "تعمیر",
    "Status": "Open",
    "Status_Dari": null,
    "PS_Male": 4,
    "PS_Female": 0,
    "PS_Total": 4,
    "ولسوالي": "یوسف خیل",
    "Region": "South Eastern Region"
   },
   "geometry": {
    "x": 7644848.9649501294,
    "y": 3904167.3603719142
   }
  },
  {
   "attributes": {
    "OBJECTID": 4008,
    "ولایت": "پکتيکا",
    "Province": "PAKTIKA",
    "PC_Code": "1203046",
    "District": "YOSUF KHEL",
    "د_مرکز_نوم__نام_مرکز": "میلمستون ملنګ ",
    "Polling_Center_Name": "Malang Guest House",
    "د_مرکز_ځای__موقعیت_مرکز": "پرک کلی",
    "Polling_Center_Location": "Parak Village",
    "Map_Accuracy": "Village",
    "Map_Accuracy_Dari": "قریه",
    "Status": "Open",
    "Status_Dari": null,
    "PS_Male": 3,
    "PS_Female": 2,
    "PS_Total": 5,
    "ولسوالي": "یوسف خیل",
    "Region": "South Eastern Region"
   },
   "geometry": {
    "x": 7649351.6146005429,
    "y": 3907432.6496697892
   }
  },
  {
   "attributes": {
    "OBJECTID": 4009,
    "ولایت": "پکتيکا",
    "Province": "PAKTIKA",
    "PC_Code": "1204047",
    "District": "YAHYA KHEL",
    "د_مرکز_نوم__نام_مرکز": "میلمستون نورمحمد",
    "Polling_Center_Name": "Noor Mohammad Guest Houes",
    "د_مرکز_ځای__موقعیت_مرکز": "یحیی خیل",
    "Polling_Center_Location": "Yahya Khel ",
    "Map_Accuracy": "Village",
    "Map_Accuracy_Dari": "قریه",
    "Status": "Open",
    "Status_Dari": null,
    "PS_Male": 3,
    "PS_Female": 0,
    "PS_Total": 3,
    "ولسوالي": "یحی خیل",
    "Region": "South Eastern Region"
   },
   "geometry": {
    "x": 7641602.1583427424,
    "y": 3886711.0001450684
   }
  },
  {
   "attributes": {
    "OBJECTID": 4010,
    "ولایت": "پکتيکا",
    "Province": "PAKTIKA",
    "PC_Code": "1204064",
    "District": "YAHYA KHEL",
    "د_مرکز_نوم__نام_مرکز": "احمد خان میلمستون",
    "Polling_Center_Name": "Ahmad Khan Guest House",
    "د_مرکز_ځای__موقعیت_مرکز": "ﭙیاوی",
    "Polling_Center_Location": "Peyawi",
    "Map_Accuracy": "Village",
    "Map_Accuracy_Dari": "قریه",
    "Status": "Open",
    "Status_Dari": null,
    "PS_Male": 2,
    "PS_Female": 2,
    "PS_Total": 4,
    "ولسوالي": "یحی خیل",
    "Region": "South Eastern Region"
   },
   "geometry": {
    "x": 7636815.0962989079,
    "y": 3878134.1887739575
   }
  },
  {
   "attributes": {
    "OBJECTID": 4011,
    "ولایت": "پکتيکا",
    "Province": "PAKTIKA",
    "PC_Code": "1205073",
    "District": "SAR RAWZA",
    "د_مرکز_نوم__نام_مرکز": "عید ګاه جومات  ",
    "Polling_Center_Name": "Edgah Mosque",
    "د_مرکز_ځای__موقعیت_مرکز": "مداجی ",
    "Polling_Center_Location": "Madaji",
    "Map_Accuracy": "District",
    "Map_Accuracy_Dari": "ولسوالی",
    "Status": "Open",
    "Status_Dari": null,
    "PS_Male": 4,
    "PS_Female": 0,
    "PS_Total": 4,
    "ولسوالي": "سروضه ",
    "Region": "South Eastern Region"
   },
   "geometry": {
    "x": 7686836.0675484883,
    "y": 3903985.5693452801
   }
  },
  {
   "attributes": {
    "OBJECTID": 4012,
    "ولایت": "پکتيکا",
    "Province": "PAKTIKA",
    "PC_Code": "1205078",
    "District": "SAR RAWZA",
    "د_مرکز_نوم__نام_مرکز": "ملک ظاهر میلمستون",
    "Polling_Center_Name": "Malik Zahir Guest House",
    "د_مرکز_ځای__موقعیت_مرکز": "سلطانی",
    "Polling_Center_Location": "Sultani",
    "Map_Accuracy": "Village",
    "Map_Accuracy_Dari": "قریه",
    "Status": "Open",
    "Status_Dari": null,
    "PS_Male": 0,
    "PS_Female": 3,
    "PS_Total": 3,
    "ولسوالي": "سروضه ",
    "Region": "South Eastern Region"
   },
   "geometry": {
    "x": 7677832.4213421009,
    "y": 3903831.7577772052
   }
  },
  {
   "attributes": {
    "OBJECTID": 4013,
    "ولایت": "پکتيکا",
    "Province": "PAKTIKA",
    "PC_Code": "1205079",
    "District": "SAR RAWZA",
    "د_مرکز_نوم__نام_مرکز": "مرکز ولسوالی (خیمه) ",
    "Polling_Center_Name": "District Compound (Tent)",
    "د_مرکز_ځای__موقعیت_مرکز": "ولسوالی سروضه ",
    "Polling_Center_Location": "Sar Rawza District",
    "Map_Accuracy": "Building",
    "Map_Accuracy_Dari": "تعمیر",
    "Status": "Open",
    "Status_Dari": null,
    "PS_Male": 0,
    "PS_Female": 3,
    "PS_Total": 3,
    "ولسوالي": "سروضه ",
    "Region": "South Eastern Region"
   },
   "geometry": {
    "x": 7678338.2548818812,
    "y": 3908963.9193880414
   }
  },
  {
   "attributes": {
    "OBJECTID": 4014,
    "ولایت": "پکتيکا",
    "Province": "PAKTIKA",
    "PC_Code": "1207288",
    "District": "ZARGHUN SHAHR",
    "د_مرکز_نوم__نام_مرکز": "بازار جومات",
    "Polling_Center_Name": "Bazaar Mosque",
    "د_مرکز_ځای__موقعیت_مرکز": "ولسوالي مركز",
    "Polling_Center_Location": "District Center",
    "Map_Accuracy": "Building",
    "Map_Accuracy_Dari": "تعمیر",
    "Status": "Open",
    "Status_Dari": null,
    "PS_Male": 2,
    "PS_Female": 0,
    "PS_Total": 2,
    "ولسوالي": "زرغون شهر ",
    "Region": "South Eastern Region"
   },
   "geometry": {
    "x": 7627442.8167119548,
    "y": 3884982.2822433333
   }
  },
  {
   "attributes": {
    "OBJECTID": 4015,
    "ولایت": "پکتيکا",
    "Province": "PAKTIKA",
    "PC_Code": "1207289",
    "District": "ZARGHUN SHAHR",
    "د_مرکز_نوم__نام_مرکز": "سي ګانه دكلي جومات ",
    "Polling_Center_Name": "Segana Village Mosque",
    "د_مرکز_ځای__موقعیت_مرکز": "سي ګانه",
    "Polling_Center_Location": "Segana",
    "Map_Accuracy": "Building",
    "Map_Accuracy_Dari": "تعمیر",
    "Status": "Open",
    "Status_Dari": null,
    "PS_Male": 2,
    "PS_Female": 2,
    "PS_Total": 4,
    "ولسوالي": "زرغون شهر ",
    "Region": "South Eastern Region"
   },
   "geometry": {
    "x": 7627756.7588266972,
    "y": 3885202.8665994182
   }
  },
  {
   "attributes": {
    "OBJECTID": 4016,
    "ولایت": "پکتيکا",
    "Province": "PAKTIKA",
    "PC_Code": "1208132",
    "District": "GOMAL",
    "د_مرکز_نوم__نام_مرکز": "امندخیلو د کلی ښوونځی ",
    "Polling_Center_Name": "Amand Khel Village School",
    "د_مرکز_ځای__موقعیت_مرکز": "روزی خیل",
    "Polling_Center_Location": "Rozi Khel",
    "Map_Accuracy": "Village",
    "Map_Accuracy_Dari": "قریه",
    "Status": "Open",
    "Status_Dari": null,
    "PS_Male": 0,
    "PS_Female": 2,
    "PS_Total": 2,
    "ولسوالي": "گومل",
    "Region": "South Eastern Region"
   },
   "geometry": {
    "x": 7670255.2767467424,
    "y": 3860812.9409344643
   }
  },
  {
   "attributes": {
    "OBJECTID": 4017,
    "ولایت": "پکتيکا",
    "Province": "PAKTIKA",
    "PC_Code": "1209112",
    "District": "JANI KHEL",
    "د_مرکز_نوم__نام_مرکز": "جلوزو نجونو ښوونځی",
    "Polling_Center_Name": "Jalozo Girls School",
    "د_مرکز_ځای__موقعیت_مرکز": "جلالزو",
    "Polling_Center_Location": "Jalalzo",
    "Map_Accuracy": "Village",
    "Map_Accuracy_Dari": "قریه",
    "Status": "Open",
    "Status_Dari": null,
    "PS_Male": 0,
    "PS_Female": 3,
    "PS_Total": 3,
    "ولسوالي": "جانی خیل",
    "Region": "South Eastern Region"
   },
   "geometry": {
    "x": 7613874.6249918938,
    "y": 3861555.3737725588
   }
  },
  {
   "attributes": {
    "OBJECTID": 4018,
    "ولایت": "پکتيکا",
    "Province": "PAKTIKA",
    "PC_Code": "1209113",
    "District": "JANI KHEL",
    "د_مرکز_نوم__نام_مرکز": "عبدالله میلمستون ",
    "Polling_Center_Name": "Abdullah Guest House",
    "د_مرکز_ځای__موقعیت_مرکز": "شادی خیل",
    "Polling_Center_Location": "Shadi Khel",
    "Map_Accuracy": "Village",
    "Map_Accuracy_Dari": "قریه",
    "Status": "Open",
    "Status_Dari": null,
    "PS_Male": 3,
    "PS_Female": 0,
    "PS_Total": 3,
    "ولسوالي": "جانی خیل",
    "Region": "South Eastern Region"
   },
   "geometry": {
    "x": 7614057.7455542469,
    "y": 3866138.6549764969
   }
  },
  {
   "attributes": {
    "OBJECTID": 4019,
    "ولایت": "پکتيکا",
    "Province": "PAKTIKA",
    "PC_Code": "1210148",
    "District": "SURUBI",
    "د_مرکز_نوم__نام_مرکز": "خان محمد جومات ",
    "Polling_Center_Name": "Khan Mohammad Mosque",
    "د_مرکز_ځای__موقعیت_مرکز": "لانجه خیل ",
    "Polling_Center_Location": "Lanja Khel",
    "Map_Accuracy": "Village",
    "Map_Accuracy_Dari": "قریه",
    "Status": "Open",
    "Status_Dari": null,
    "PS_Male": 2,
    "PS_Female": 1,
    "PS_Total": 3,
    "ولسوالي": "سروبی",
    "Region": "South Eastern Region"
   },
   "geometry": {
    "x": 7692722.8069744837,
    "y": 3850091.9408671199
   }
  },
  {
   "attributes": {
    "OBJECTID": 4020,
    "ولایت": "پکتيکا",
    "Province": "PAKTIKA",
    "PC_Code": "1210157",
    "District": "SURUBI",
    "د_مرکز_نوم__نام_مرکز": "جومات عباس خیل",
    "Polling_Center_Name": "Abas Khel Mosque",
    "د_مرکز_ځای__موقعیت_مرکز": "عباس خیل",
    "Polling_Center_Location": "Abbas Khel",
    "Map_Accuracy": "Building",
    "Map_Accuracy_Dari": "تعمیر",
    "Status": "Open",
    "Status_Dari": null,
    "PS_Male": 2,
    "PS_Female": 0,
    "PS_Total": 2,
    "ولسوالي": "سروبی",
    "Region": "South Eastern Region"
   },
   "geometry": {
    "x": 7710189.4996573105,
    "y": 3873042.3092483729
   }
  },
  {
   "attributes": {
    "OBJECTID": 4021,
    "ولایت": "پکتيکا",
    "Province": "PAKTIKA",
    "PC_Code": "1211172",
    "District": "URGOON",
    "د_مرکز_نوم__نام_مرکز": "زوړ ارګون نجونو ښوونځی ",
    "Polling_Center_Name": "Old Orgon Girls School",
    "د_مرکز_ځای__موقعیت_مرکز": "زوړ ارگون",
    "Polling_Center_Location": "Old Argon",
    "Map_Accuracy": "Village",
    "Map_Accuracy_Dari": "قریه",
    "Status": "Open",
    "Status_Dari": null,
    "PS_Male": 0,
    "PS_Female": 2,
    "PS_Total": 2,
    "ولسوالي": "اورگون",
    "Region": "South Eastern Region"
   },
   "geometry": {
    "x": 7697859.7673285771,
    "y": 3882286.2764797872
   }
  },
  {
   "attributes": {
    "OBJECTID": 4022,
    "ولایت": "پکتيکا",
    "Province": "PAKTIKA",
    "PC_Code": "1211173",
    "District": "URGOON",
    "د_مرکز_نوم__نام_مرکز": "غوچ ښوونځی ",
    "Polling_Center_Name": "Ghouch School",
    "د_مرکز_ځای__موقعیت_مرکز": "قلعه جانی",
    "Polling_Center_Location": "Jani Qala",
    "Map_Accuracy": "Village",
    "Map_Accuracy_Dari": "قریه",
    "Status": "Open",
    "Status_Dari": null,
    "PS_Male": 3,
    "PS_Female": 0,
    "PS_Total": 3,
    "ولسوالي": "اورگون",
    "Region": "South Eastern Region"
   },
   "geometry": {
    "x": 7698358.8393224832,
    "y": 3878739.4920963179
   }
  },
  {
   "attributes": {
    "OBJECTID": 4023,
    "ولایت": "پکتيکا",
    "Province": "PAKTIKA",
    "PC_Code": "1211297",
    "District": "URGOON",
    "د_مرکز_نوم__نام_مرکز": "بالش انجوني ابتدايي ښوونځي",
    "Polling_Center_Name": "Balish Girls Primary School",
    "د_مرکز_ځای__موقعیت_مرکز": "بالشی ",
    "Polling_Center_Location": "Balishi",
    "Map_Accuracy": "District",
    "Map_Accuracy_Dari": "ولسوالی",
    "Status": "Open",
    "Status_Dari": null,
    "PS_Male": 0,
    "PS_Female": 2,
    "PS_Total": 2,
    "ولسوالي": "اورگون",
    "Region": "South Eastern Region"
   },
   "geometry": {
    "x": 7700996.3342442373,
    "y": 3889172.9322578995
   }
  },
  {
   "attributes": {
    "OBJECTID": 4024,
    "ولایت": "پکتيکا",
    "Province": "PAKTIKA",
    "PC_Code": "1211298",
    "District": "URGOON",
    "د_مرکز_نوم__نام_مرکز": "شيخان دانجونو ابتداښونځي",
    "Polling_Center_Name": "Shaikhan Girls Primary School",
    "د_مرکز_ځای__موقعیت_مرکز": "شیخان ",
    "Polling_Center_Location": "Shaikhan",
    "Map_Accuracy": "Village",
    "Map_Accuracy_Dari": "قریه",
    "Status": "Open",
    "Status_Dari": null,
    "PS_Male": 2,
    "PS_Female": 0,
    "PS_Total": 2,
    "ولسوالي": "اورگون",
    "Region": "South Eastern Region"
   },
   "geometry": {
    "x": 7711083.6478636246,
    "y": 3882259.4755754108
   }
  },
  {
   "attributes": {
    "OBJECTID": 4025,
    "ولایت": "پکتيکا",
    "Province": "PAKTIKA",
    "PC_Code": "1213197",
    "District": "NIKA",
    "د_مرکز_نوم__نام_مرکز": "نوره کی جومات",
    "Polling_Center_Name": "Nooraki Mosque",
    "د_مرکز_ځای__موقعیت_مرکز": "نوره کی",
    "Polling_Center_Location": "Nora Ki",
    "Map_Accuracy": "Village",
    "Map_Accuracy_Dari": "قریه",
    "Status": "Open",
    "Status_Dari": null,
    "PS_Male": 0,
    "PS_Female": 6,
    "PS_Total": 6,
    "ولسوالي": "نیکه",
    "Region": "South Eastern Region"
   },
   "geometry": {
    "x": 7709731.7895334065,
    "y": 3922040.8829583288
   }
  },
  {
   "attributes": {
    "OBJECTID": 4026,
    "ولایت": "پکتيکا",
    "Province": "PAKTIKA",
    "PC_Code": "1213198",
    "District": "NIKA",
    "د_مرکز_نوم__نام_مرکز": "شربت شاه میلمستون",
    "Polling_Center_Name": "Sharbat Shah Guest House",
    "د_مرکز_ځای__موقعیت_مرکز": "نوره کی",
    "Polling_Center_Location": "Nora Ki",
    "Map_Accuracy": "Village",
    "Map_Accuracy_Dari": "قریه",
    "Status": "Open",
    "Status_Dari": null,
    "PS_Male": 5,
    "PS_Female": 0,
    "PS_Total": 5,
    "ولسوالي": "نیکه",
    "Region": "South Eastern Region"
   },
   "geometry": {
    "x": 7709736.5751583157,
    "y": 3922063.5765148029
   }
  },
  {
   "attributes": {
    "OBJECTID": 4027,
    "ولایت": "پکتيکا",
    "Province": "PAKTIKA",
    "PC_Code": "1214304",
    "District": "BARMAL",
    "د_مرکز_نوم__نام_مرکز": "زیارت کلی جومات زنګی اډه",
    "Polling_Center_Name": "Zangi Ada Village Mosque",
    "د_مرکز_ځای__موقعیت_مرکز": "زنګی اډه",
    "Polling_Center_Location": "Zangi Ada",
    "Map_Accuracy": "District",
    "Map_Accuracy_Dari": "ولسوالی",
    "Status": "Open",
    "Status_Dari": null,
    "PS_Male": 0,
    "PS_Female": 2,
    "PS_Total": 2,
    "ولسوالي": "برمل",
    "Region": "South Eastern Region"
   },
   "geometry": {
    "x": 7716227.9998319056,
    "y": 3867514.5542019852
   }
  },
  {
   "attributes": {
    "OBJECTID": 4028,
    "ولایت": "پکتيکا",
    "Province": "PAKTIKA",
    "PC_Code": "1217227",
    "District": "WAZAKHWAH",
    "د_مرکز_نوم__نام_مرکز": "اپسرکوټ جومات",
    "Polling_Center_Name": "Apsar Kot Mosque",
    "د_مرکز_ځای__موقعیت_مرکز": "اپسرکوټ",
    "Polling_Center_Location": "Apsar Kot",
    "Map_Accuracy": "Building",
    "Map_Accuracy_Dari": "تعمیر",
    "Status": "Open",
    "Status_Dari": null,
    "PS_Male": 2,
    "PS_Female": 0,
    "PS_Total": 2,
    "ولسوالي": "وازه خواه",
    "Region": "South Eastern Region"
   },
   "geometry": {
    "x": 7617941.3619878916,
    "y": 3784006.2051683627
   }
  },
  {
   "attributes": {
    "OBJECTID": 4029,
    "ولایت": "پکتيکا",
    "Province": "PAKTIKA",
    "PC_Code": "1217228",
    "District": "WAZAKHWAH",
    "د_مرکز_نوم__نام_مرکز": "سرواند لومړنی ښوونځی",
    "Polling_Center_Name": "Servand Primary School",
    "د_مرکز_ځای__موقعیت_مرکز": "حاجی آدم قلعه",
    "Polling_Center_Location": "Haji Adam Qala",
    "Map_Accuracy": "Building",
    "Map_Accuracy_Dari": "تعمیر",
    "Status": "Open",
    "Status_Dari": null,
    "PS_Male": 0,
    "PS_Female": 3,
    "PS_Total": 3,
    "ولسوالي": "وازه خواه",
    "Region": "South Eastern Region"
   },
   "geometry": {
    "x": 7617984.1108987415,
    "y": 3785959.6705584144
   }
  },
  {
   "attributes": {
    "OBJECTID": 4030,
    "ولایت": "پکتيکا",
    "Province": "PAKTIKA",
    "PC_Code": "1218242",
    "District": "WOR MAMY",
    "د_مرکز_نوم__نام_مرکز": "د پولیسو پخوانی دفتر",
    "Polling_Center_Name": "Old Police Office",
    "د_مرکز_ځای__موقعیت_مرکز": "دوچینه",
    "Polling_Center_Location": "Do Cheena ",
    "Map_Accuracy": "Village",
    "Map_Accuracy_Dari": "قریه",
    "Status": "Open",
    "Status_Dari": null,
    "PS_Male": 4,
    "PS_Female": 0,
    "PS_Total": 4,
    "ولسوالي": "وړممی",
    "Region": "South Eastern Region"
   },
   "geometry": {
    "x": 7666558.7681169733,
    "y": 3733991.3281593695
   }
  },
  {
   "attributes": {
    "OBJECTID": 4031,
    "ولایت": "پکتيا",
    "Province": "PAKTYA",
    "PC_Code": "1301003",
    "District": "GARDEZ",
    "د_مرکز_نوم__نام_مرکز": "مکتب مهلن",
    "Polling_Center_Name": "Mohlan School",
    "د_مرکز_ځای__موقعیت_مرکز": "مهلن",
    "Polling_Center_Location": "Mohlan",
    "Map_Accuracy": "Building",
    "Map_Accuracy_Dari": "تعمیر",
    "Status": "Open",
    "Status_Dari": null,
    "PS_Male": 4,
    "PS_Female": 3,
    "PS_Total": 7,
    "ولسوالي": "گردیز",
    "Region": "South Eastern Region"
   },
   "geometry": {
    "x": 7714835.6935647083,
    "y": 3976423.2833000729
   }
  },
  {
   "attributes": {
    "OBJECTID": 4032,
    "ولایت": "پکتيا",
    "Province": "PAKTYA",
    "PC_Code": "1301004",
    "District": "GARDEZ",
    "د_مرکز_نوم__نام_مرکز": "مکتب تیره",
    "Polling_Center_Name": "Tera School",
    "د_مرکز_ځای__موقعیت_مرکز": "تیره",
    "Polling_Center_Location": "Tera",
    "Map_Accuracy": "Building",
    "Map_Accuracy_Dari": "تعمیر",
    "Status": "Open",
    "Status_Dari": null,
    "PS_Male": 5,
    "PS_Female": 1,
    "PS_Total": 6,
    "ولسوالي": "گردیز",
    "Region": "South Eastern Region"
   },
   "geometry": {
    "x": 7706349.6084064515,
    "y": 3983498.5537243029
   }
  },
  {
   "attributes": {
    "OBJECTID": 4033,
    "ولایت": "پکتيا",
    "Province": "PAKTYA",
    "PC_Code": "1303102",
    "District": "ZURMAT",
    "د_مرکز_نوم__نام_مرکز": "ولسوالی مرکز ارمه",
    "Polling_Center_Name": "District Compound",
    "د_مرکز_ځای__موقعیت_مرکز": "ارمه",
    "Polling_Center_Location": "Arma",
    "Map_Accuracy": "Village",
    "Map_Accuracy_Dari": "قریه",
    "Status": "Open",
    "Status_Dari": null,
    "PS_Male": 1,
    "PS_Female": 1,
    "PS_Total": 2,
    "ولسوالي": "زرمت",
    "Region": "South Eastern Region"
   },
   "geometry": {
    "x": 7691651.3412908725,
    "y": 3930448.163466671
   }
  },
  {
   "attributes": {
    "OBJECTID": 4034,
    "ولایت": "پکتيا",
    "Province": "PAKTYA",
    "PC_Code": "1305115",
    "District": "WUZA ZADRAN",
    "د_مرکز_نوم__نام_مرکز": "وزی معارف مدرسه",
    "Polling_Center_Name": "Waza Education Madrassa",
    "د_مرکز_ځای__موقعیت_مرکز": "وزی کلی ",
    "Polling_Center_Location": "Waza Village",
    "Map_Accuracy": "Village",
    "Map_Accuracy_Dari": "قریه",
    "Status": "Open",
    "Status_Dari": null,
    "PS_Male": 0,
    "PS_Female": 2,
    "PS_Total": 2,
    "ولسوالي": "وزه ځدراڼ",
    "Region": "South Eastern Region"
   },
   "geometry": {
    "x": 7730005.7660781229,
    "y": 3944139.2743739281
   }
  },
  {
   "attributes": {
    "OBJECTID": 4035,
    "ولایت": "پکتيا",
    "Province": "PAKTYA",
    "PC_Code": "1305129",
    "District": "WUZA ZADRAN",
    "د_مرکز_نوم__نام_مرکز": "گرده څيړی کلینیک",
    "Polling_Center_Name": "Garda Seri Clinic",
    "د_مرکز_ځای__موقعیت_مرکز": "د ولسوالی مرکز",
    "Polling_Center_Location": "District Center",
    "Map_Accuracy": "Building",
    "Map_Accuracy_Dari": "تعمیر",
    "Status": "Open",
    "Status_Dari": null,
    "PS_Male": 3,
    "PS_Female": 1,
    "PS_Total": 4,
    "ولسوالي": "وزه ځدراڼ",
    "Region": "South Eastern Region"
   },
   "geometry": {
    "x": 7729721.6041535595,
    "y": 3944236.6956117875
   }
  },
  {
   "attributes": {
    "OBJECTID": 4036,
    "ولایت": "پکتيا",
    "Province": "PAKTYA",
    "PC_Code": "1306021",
    "District": "SAYYID KARAM",
    "د_مرکز_نوم__نام_مرکز": "کوندر خیلو مسجد",
    "Polling_Center_Name": "Kondar Khel Mosque",
    "د_مرکز_ځای__موقعیت_مرکز": "کوندر خیل",
    "Polling_Center_Location": "Kondar Khel",
    "Map_Accuracy": "Building",
    "Map_Accuracy_Dari": "تعمیر",
    "Status": "Open",
    "Status_Dari": null,
    "PS_Male": 3,
    "PS_Female": 1,
    "PS_Total": 4,
    "ولسوالي": "سید کرم",
    "Region": "South Eastern Region"
   },
   "geometry": {
    "x": 7722002.4011937706,
    "y": 3987372.8603848787
   }
  },
  {
   "attributes": {
    "OBJECTID": 4037,
    "ولایت": "پکتيا",
    "Province": "PAKTYA",
    "PC_Code": "1306030",
    "District": "SAYYID KARAM",
    "د_مرکز_نوم__نام_مرکز": "نادر خان کور",
    "Polling_Center_Name": "Nadir Khan House",
    "د_مرکز_ځای__موقعیت_مرکز": " سمین خیل",
    "Polling_Center_Location": "Samin Khel",
    "Map_Accuracy": "Village",
    "Map_Accuracy_Dari": "قریه",
    "Status": "Open",
    "Status_Dari": null,
    "PS_Male": 0,
    "PS_Female": 2,
    "PS_Total": 2,
    "ولسوالي": "سید کرم",
    "Region": "South Eastern Region"
   },
   "geometry": {
    "x": 7736007.3527095728,
    "y": 3992450.1135711423
   }
  },
  {
   "attributes": {
    "OBJECTID": 4038,
    "ولایت": "پکتيا",
    "Province": "PAKTYA",
    "PC_Code": "1307216",
    "District": "JAJI ARYOB",
    "د_مرکز_نوم__نام_مرکز": "محرم استیا ښوونځی",
    "Polling_Center_Name": "Muhram Astea School",
    "د_مرکز_ځای__موقعیت_مرکز": "محرم استیا",
    "Polling_Center_Location": "Muhram Astea ",
    "Map_Accuracy": "District",
    "Map_Accuracy_Dari": "ولسوالی",
    "Status": "Open",
    "Status_Dari": null,
    "PS_Male": 2,
    "PS_Female": 1,
    "PS_Total": 3,
    "ولسوالي": "ځاځی اریوب",
    "Region": "South Eastern Region"
   },
   "geometry": {
    "x": 7747985.6627642037,
    "y": 4028196.5453304411
   }
  },
  {
   "attributes": {
    "OBJECTID": 4039,
    "ولایت": "پکتيا",
    "Province": "PAKTYA",
    "PC_Code": "1308139",
    "District": "LAJA AHMAD KHEL",
    "د_مرکز_نوم__نام_مرکز": "مسجد سلیمان خیل ",
    "Polling_Center_Name": "Sulaiman Khel Mosque ",
    "د_مرکز_ځای__موقعیت_مرکز": "کوندی حسن خیل کلی ",
    "Polling_Center_Location": "Kwandi Hassan Khel Village",
    "Map_Accuracy": "District",
    "Map_Accuracy_Dari": "ولسوالی",
    "Status": "Open",
    "Status_Dari": null,
    "PS_Male": 0,
    "PS_Female": 2,
    "PS_Total": 2,
    "ولسوالي": " لجه احمد خیل",
    "Region": "South Eastern Region"
   },
   "geometry": {
    "x": 7751632.2877943171,
    "y": 4012088.9915791205
   }
  },
  {
   "attributes": {
    "OBJECTID": 4040,
    "ولایت": "پکتيا",
    "Province": "PAKTYA",
    "PC_Code": "1310158",
    "District": "SAMKANI",
    "د_مرکز_نوم__نام_مرکز": "د بګیاړ مکتب ",
    "Polling_Center_Name": "Bagyaar School",
    "د_مرکز_ځای__موقعیت_مرکز": "بګیاړ",
    "Polling_Center_Location": "Bagyaar",
    "Map_Accuracy": "Building",
    "Map_Accuracy_Dari": "تعمیر",
    "Status": "Open",
    "Status_Dari": null,
    "PS_Male": 4,
    "PS_Female": 0,
    "PS_Total": 4,
    "ولسوالي": "څمکنی",
    "Region": "South Eastern Region"
   },
   "geometry": {
    "x": 7764329.534742726,
    "y": 4002817.5777846249
   }
  },
  {
   "attributes": {
    "OBJECTID": 4041,
    "ولایت": "پکتيا",
    "Province": "PAKTYA",
    "PC_Code": "1311188",
    "District": "DAND PATAN",
    "د_مرکز_نوم__نام_مرکز": "صحی کلینیک سلتک مقبل",
    "Polling_Center_Name": "Saltak Maqbol Health Clinic",
    "د_مرکز_ځای__موقعیت_مرکز": "سلتک مقبل",
    "Polling_Center_Location": "Saltak Moqbol",
    "Map_Accuracy": "Village",
    "Map_Accuracy_Dari": "قریه",
    "Status": "Open",
    "Status_Dari": null,
    "PS_Male": 0,
    "PS_Female": 2,
    "PS_Total": 2,
    "ولسوالي": "ډنډ پټان",
    "Region": "South Eastern Region"
   },
   "geometry": {
    "x": 7782162.1034223335,
    "y": 3993167.9015212553
   }
  },
  {
   "attributes": {
    "OBJECTID": 4042,
    "ولایت": "خوست",
    "Province": "KHOST",
    "PC_Code": "1401034",
    "District": "KHOST",
    "د_مرکز_نوم__نام_مرکز": "جومات لکڼ",
    "Polling_Center_Name": "Mosque",
    "د_مرکز_ځای__موقعیت_مرکز": "لکڼ خوني خوړ",
    "Polling_Center_Location": "Lakan Khoni Khwar",
    "Map_Accuracy": "Village",
    "Map_Accuracy_Dari": "قریه",
    "Status": "Open",
    "Status_Dari": null,
    "PS_Male": 3,
    "PS_Female": 1,
    "PS_Total": 4,
    "ولسوالي": "خوست",
    "Region": "South Eastern Region"
   },
   "geometry": {
    "x": 7782447.2393924426,
    "y": 3946657.0995347905
   }
  },
  {
   "attributes": {
    "OBJECTID": 4043,
    "ولایت": "خوست",
    "Province": "KHOST",
    "PC_Code": "1404134",
    "District": "TANAY",
    "د_مرکز_نوم__نام_مرکز": "د سوات خان هجره  ",
    "Polling_Center_Name": "Sawat Khan Hojra",
    "د_مرکز_ځای__موقعیت_مرکز": "حصارک",
    "Polling_Center_Location": "Hisarak",
    "Map_Accuracy": "Village",
    "Map_Accuracy_Dari": "قریه",
    "Status": "Open",
    "Status_Dari": null,
    "PS_Male": 2,
    "PS_Female": 1,
    "PS_Total": 3,
    "ولسوالي": "تڼي",
    "Region": "South Eastern Region"
   },
   "geometry": {
    "x": 7760065.2980457488,
    "y": 3926614.5588440346
   }
  },
  {
   "attributes": {
    "OBJECTID": 4044,
    "ولایت": "خوست",
    "Province": "KHOST",
    "PC_Code": "1405076",
    "District": "MUSA KHEL",
    "د_مرکز_نوم__نام_مرکز": "د عجب خان جومات کوسين خوله ",
    "Polling_Center_Name": "Ajab Khan Mosque",
    "د_مرکز_ځای__موقعیت_مرکز": " کوسين خوله",
    "Polling_Center_Location": "Kosin Khola",
    "Map_Accuracy": "Village",
    "Map_Accuracy_Dari": "قریه",
    "Status": "Open",
    "Status_Dari": null,
    "PS_Male": 2,
    "PS_Female": 1,
    "PS_Total": 3,
    "ولسوالي": "موسی خیل",
    "Region": "South Eastern Region"
   },
   "geometry": {
    "x": 7753235.7860598629,
    "y": 3974913.1842444334
   }
  },
  {
   "attributes": {
    "OBJECTID": 4045,
    "ولایت": "خوست",
    "Province": "KHOST",
    "PC_Code": "1405077",
    "District": "MUSA KHEL",
    "د_مرکز_نوم__نام_مرکز": "د ډبکي کلي حسن ګل هجره",
    "Polling_Center_Name": "Hasan Gul Hojra",
    "د_مرکز_ځای__موقعیت_مرکز": "د ډبکي کلي",
    "Polling_Center_Location": "Dabaki Village ",
    "Map_Accuracy": "Village",
    "Map_Accuracy_Dari": "قریه",
    "Status": "Open",
    "Status_Dari": null,
    "PS_Male": 3,
    "PS_Female": 2,
    "PS_Total": 5,
    "ولسوالي": "موسی خیل",
    "Region": "South Eastern Region"
   },
   "geometry": {
    "x": 7750923.9229125762,
    "y": 3985637.0506820036
   }
  },
  {
   "attributes": {
    "OBJECTID": 4046,
    "ولایت": "خوست",
    "Province": "KHOST",
    "PC_Code": "1408049",
    "District": "ALI SHER",
    "د_مرکز_نوم__نام_مرکز": "جومات مندينه",
    "Polling_Center_Name": "Mandena Mosque",
    "د_مرکز_ځای__موقعیت_مرکز": "مندينه",
    "Polling_Center_Location": "Mandenah",
    "Map_Accuracy": "District",
    "Map_Accuracy_Dari": "ولسوالی",
    "Status": "Open",
    "Status_Dari": null,
    "PS_Male": 3,
    "PS_Female": 1,
    "PS_Total": 4,
    "ولسوالي": "علی شیر",
    "Region": "South Eastern Region"
   },
   "geometry": {
    "x": 7799299.3928263411,
    "y": 3953089.1145849228
   }
  },
  {
   "attributes": {
    "OBJECTID": 4047,
    "ولایت": "خوست",
    "Province": "KHOST",
    "PC_Code": "1410108",
    "District": "QALANDAR",
    "د_مرکز_نوم__نام_مرکز": "د ميلې جومات",
    "Polling_Center_Name": "Mela Village Mosque",
    "د_مرکز_ځای__موقعیت_مرکز": "خوست ميله کلی",
    "Polling_Center_Location": "Khost Mela Village ",
    "Map_Accuracy": "Building",
    "Map_Accuracy_Dari": "تعمیر",
    "Status": "Open",
    "Status_Dari": null,
    "PS_Male": 2,
    "PS_Female": 1,
    "PS_Total": 3,
    "ولسوالي": "قلندر",
    "Region": "South Eastern Region"
   },
   "geometry": {
    "x": 7757877.3245861577,
    "y": 3962455.2621810883
   }
  },
  {
   "attributes": {
    "OBJECTID": 4048,
    "ولایت": "خوست",
    "Province": "KHOST",
    "PC_Code": "1410109",
    "District": "QALANDAR",
    "د_مرکز_نوم__نام_مرکز": "د غفار کور",
    "Polling_Center_Name": "Ghafar House",
    "د_مرکز_ځای__موقعیت_مرکز": "لنډى کلى",
    "Polling_Center_Location": "Landi Village",
    "Map_Accuracy": "Building",
    "Map_Accuracy_Dari": "تعمیر",
    "Status": "Open",
    "Status_Dari": null,
    "PS_Male": 3,
    "PS_Female": 1,
    "PS_Total": 4,
    "ولسوالي": "قلندر",
    "Region": "South Eastern Region"
   },
   "geometry": {
    "x": 7758612.0721872132,
    "y": 3957689.6939835045
   }
  },
  {
   "attributes": {
    "OBJECTID": 4049,
    "ولایت": "کنړ ",
    "Province": "KUNAR",
    "PC_Code": "1507022",
    "District": "DARA-E-PECH",
    "د_مرکز_نوم__نام_مرکز": "مسجد قریه",
    "Polling_Center_Name": "Kolak Village Mosque",
    "د_مرکز_ځای__موقعیت_مرکز": "کولک",
    "Polling_Center_Location": "Kolak",
    "Map_Accuracy": "Village",
    "Map_Accuracy_Dari": "قریه",
    "Status": "Open",
    "Status_Dari": null,
    "PS_Male": 2,
    "PS_Female": 1,
    "PS_Total": 3,
    "ولسوالي": "دره پیچ",
    "Region": "Eastern Region"
   },
   "geometry": {
    "x": 7899197.7454275219,
    "y": 4155858.6565151419
   }
  },
  {
   "attributes": {
    "OBJECTID": 4050,
    "ولایت": "کنړ ",
    "Province": "KUNAR",
    "PC_Code": "1507023",
    "District": "DARA-E-PECH",
    "د_مرکز_نوم__نام_مرکز": "لیسه مانونگی",
    "Polling_Center_Name": "Manogi High School",
    "د_مرکز_ځای__موقعیت_مرکز": "مانونګی ",
    "Polling_Center_Location": "Manogai",
    "Map_Accuracy": "Village",
    "Map_Accuracy_Dari": "قریه",
    "Status": "Open",
    "Status_Dari": null,
    "PS_Male": 2,
    "PS_Female": 1,
    "PS_Total": 3,
    "ولسوالي": "دره پیچ",
    "Region": "Eastern Region"
   },
   "geometry": {
    "x": 7891992.5397336837,
    "y": 4161733.7362671066
   }
  },
  {
   "attributes": {
    "OBJECTID": 4051,
    "ولایت": "کنړ ",
    "Province": "KUNAR",
    "PC_Code": "1510096",
    "District": "KHAS KUNAR",
    "د_مرکز_نوم__نام_مرکز": "لیسه خاص کنړ",
    "Polling_Center_Name": "Khas Kunar Bararazi High School",
    "د_مرکز_ځای__موقعیت_مرکز": "براراضی",
    "Polling_Center_Location": "Bar Arazi",
    "Map_Accuracy": "Building",
    "Map_Accuracy_Dari": "تعمیر",
    "Status": "Open",
    "Status_Dari": null,
    "PS_Male": 3,
    "PS_Female": 3,
    "PS_Total": 6,
    "ولسوالي": "خاص کنړ",
    "Region": "Eastern Region"
   },
   "geometry": {
    "x": 7892288.8615315035,
    "y": 4115928.3054098026
   }
  },
  {
   "attributes": {
    "OBJECTID": 4052,
    "ولایت": "کنړ ",
    "Province": "KUNAR",
    "PC_Code": "1510097",
    "District": "KHAS KUNAR",
    "د_مرکز_نوم__نام_مرکز": "مسجد قریه",
    "Polling_Center_Name": "Chindraway Village Mosque",
    "د_مرکز_ځای__موقعیت_مرکز": "چیندراوی",
    "Polling_Center_Location": "Chindraway",
    "Map_Accuracy": "Building",
    "Map_Accuracy_Dari": "تعمیر",
    "Status": "Open",
    "Status_Dari": null,
    "PS_Male": 3,
    "PS_Female": 1,
    "PS_Total": 4,
    "ولسوالي": "خاص کنړ",
    "Region": "Eastern Region"
   },
   "geometry": {
    "x": 7886924.0936318636,
    "y": 4112033.4361121217
   }
  },
  {
   "attributes": {
    "OBJECTID": 4053,
    "ولایت": "نورستان",
    "Province": "NOORISTAN",
    "PC_Code": "1603040",
    "District": "WAMA",
    "د_مرکز_نوم__نام_مرکز": "جامع مسجد قریه ارچڼو",
    "Polling_Center_Name": "Archano Village Mosque",
    "د_مرکز_ځای__موقعیت_مرکز": "قریه ارچڼو",
    "Polling_Center_Location": "Archno Village",
    "Map_Accuracy": "Building",
    "Map_Accuracy_Dari": "تعمیر",
    "Status": "Open",
    "Status_Dari": null,
    "PS_Male": 3,
    "PS_Female": 2,
    "PS_Total": 5,
    "ولسوالي": "واما",
    "Region": "Eastern Region"
   },
   "geometry": {
    "x": 7873998.6484064916,
    "y": 4175778.4113728828
   }
  },
  {
   "attributes": {
    "OBJECTID": 4054,
    "ولایت": "نورستان",
    "Province": "NOORISTAN",
    "PC_Code": "1606055",
    "District": "KAMDESH",
    "د_مرکز_نوم__نام_مرکز": "مسجد جامع قریه پپرستان",
    "Polling_Center_Name": "Paparistan Village Mosque",
    "د_مرکز_ځای__موقعیت_مرکز": "قریه پپرستان",
    "Polling_Center_Location": "Paparistan Village",
    "Map_Accuracy": "Village",
    "Map_Accuracy_Dari": "قریه",
    "Status": "Open",
    "Status_Dari": null,
    "PS_Male": 3,
    "PS_Female": 2,
    "PS_Total": 5,
    "ولسوالي": "کامدیش",
    "Region": "Eastern Region"
   },
   "geometry": {
    "x": 7941319.3019332504,
    "y": 4219651.5608119834
   }
  },
  {
   "attributes": {
    "OBJECTID": 4055,
    "ولایت": "نورستان",
    "Province": "NOORISTAN",
    "PC_Code": "1608066",
    "District": "BARG-E-MATAL",
    "د_مرکز_نوم__نام_مرکز": "مکتب قریه برگ متال غرب",
    "Polling_Center_Name": "Barg-e-Matal Gharb Village School",
    "د_مرکز_ځای__موقعیت_مرکز": "قریه برگ متال غرب",
    "Polling_Center_Location": "Barg-e-Matal Gharb Village",
    "Map_Accuracy": "Village",
    "Map_Accuracy_Dari": "قریه",
    "Status": "Open",
    "Status_Dari": null,
    "PS_Male": 5,
    "PS_Female": 3,
    "PS_Total": 8,
    "ولسوالي": "برګ مټال",
    "Region": "Eastern Region"
   },
   "geometry": {
    "x": 7942084.4286233401,
    "y": 4256688.0961584477
   }
  },
  {
   "attributes": {
    "OBJECTID": 4056,
    "ولایت": "بدخشان",
    "Province": "BADAKHSHAN",
    "PC_Code": "1701014",
    "District": "FAIZ ABAD",
    "د_مرکز_نوم__نام_مرکز": "مکتب نجیب الله شهید",
    "Polling_Center_Name": "Najibullah Shaheed School",
    "د_مرکز_ځای__موقعیت_مرکز": "چته ناحیه چهارم",
    "Polling_Center_Location": "Chata Nahia 4",
    "Map_Accuracy": "Building",
    "Map_Accuracy_Dari": "تعمیر",
    "Status": "Open",
    "Status_Dari": null,
    "PS_Male": 3,
    "PS_Female": 2,
    "PS_Total": 5,
    "ولسوالي": "فیض آباد",
    "Region": "North Eastern Region"
   },
   "geometry": {
    "x": 7857945.5496170893,
    "y": 4452835.432035204
   }
  },
  {
   "attributes": {
    "OBJECTID": 4057,
    "ولایت": "بدخشان",
    "Province": "BADAKHSHAN",
    "PC_Code": "1701015",
    "District": "FAIZ ABAD",
    "د_مرکز_نوم__نام_مرکز": "لیسه عالی کوکچه ",
    "Polling_Center_Name": "Kokcha High School",
    "د_مرکز_ځای__موقعیت_مرکز": "کوکچه ",
    "Polling_Center_Location": "Kokcha",
    "Map_Accuracy": "Building",
    "Map_Accuracy_Dari": "تعمیر",
    "Status": "Open",
    "Status_Dari": null,
    "PS_Male": 3,
    "PS_Female": 1,
    "PS_Total": 4,
    "ولسوالي": "فیض آباد",
    "Region": "North Eastern Region"
   },
   "geometry": {
    "x": 7857193.7701339414,
    "y": 4454649.4508721996
   }
  },
  {
   "attributes": {
    "OBJECTID": 4058,
    "ولایت": "بدخشان",
    "Province": "BADAKHSHAN",
    "PC_Code": "1702050",
    "District": "ARGO",
    "د_مرکز_نوم__نام_مرکز": "مکتب قره کمر",
    "Polling_Center_Name": "Qara Kamar School",
    "د_مرکز_ځای__موقعیت_مرکز": "قره کمر",
    "Polling_Center_Location": "Qara Kamar",
    "Map_Accuracy": "Building",
    "Map_Accuracy_Dari": "تعمیر",
    "Status": "Open",
    "Status_Dari": null,
    "PS_Male": 2,
    "PS_Female": 1,
    "PS_Total": 3,
    "ولسوالي": "ارگو",
    "Region": "North Eastern Region"
   },
   "geometry": {
    "x": 7822435.1953306608,
    "y": 4466762.7396805976
   }
  },
  {
   "attributes": {
    "OBJECTID": 4059,
    "ولایت": "بدخشان",
    "Province": "BADAKHSHAN",
    "PC_Code": "1703222",
    "District": "ARGHANJ KHWAH",
    "د_مرکز_نوم__نام_مرکز": "مسجد خانقاه",
    "Polling_Center_Name": "Khanqah Mosque",
    "د_مرکز_ځای__موقعیت_مرکز": "خانقاه",
    "Polling_Center_Location": "Khanqah",
    "Map_Accuracy": "Building",
    "Map_Accuracy_Dari": "تعمیر",
    "Status": "Open",
    "Status_Dari": null,
    "PS_Male": 2,
    "PS_Female": 1,
    "PS_Total": 3,
    "ولسوالي": "ارغنجخواه",
    "Region": "North Eastern Region"
   },
   "geometry": {
    "x": 7877173.9155431231,
    "y": 4463708.0420523798
   }
  },
  {
   "attributes": {
    "OBJECTID": 4060,
    "ولایت": "بدخشان",
    "Province": "BADAKHSHAN",
    "PC_Code": "1703223",
    "District": "ARGHANJ KHWAH",
    "د_مرکز_نوم__نام_مرکز": "مکتب سمدره ",
    "Polling_Center_Name": "Samdarah School",
    "د_مرکز_ځای__موقعیت_مرکز": "سمدره ",
    "Polling_Center_Location": "Samdarah",
    "Map_Accuracy": "Building",
    "Map_Accuracy_Dari": "تعمیر",
    "Status": "Open",
    "Status_Dari": null,
    "PS_Male": 2,
    "PS_Female": 1,
    "PS_Total": 3,
    "ولسوالي": "ارغنجخواه",
    "Region": "North Eastern Region"
   },
   "geometry": {
    "x": 7871933.6651731068,
    "y": 4454131.8706071889
   }
  },
  {
   "attributes": {
    "OBJECTID": 4061,
    "ولایت": "بدخشان",
    "Province": "BADAKHSHAN",
    "PC_Code": "1704027",
    "District": "YAFTAL-E-SUFLA",
    "د_مرکز_نوم__نام_مرکز": "مکتب فرغامبول ",
    "Polling_Center_Name": "Farghambol School",
    "د_مرکز_ځای__موقعیت_مرکز": "فرغامبل",
    "Polling_Center_Location": "Farghambol",
    "Map_Accuracy": "Building",
    "Map_Accuracy_Dari": "تعمیر",
    "Status": "Open",
    "Status_Dari": null,
    "PS_Male": 2,
    "PS_Female": 1,
    "PS_Total": 3,
    "ولسوالي": "یفتل سفلا",
    "Region": "North Eastern Region"
   },
   "geometry": {
    "x": 7832146.0832051216,
    "y": 4471497.6211982723
   }
  },
  {
   "attributes": {
    "OBJECTID": 4062,
    "ولایت": "بدخشان",
    "Province": "BADAKHSHAN",
    "PC_Code": "1704028",
    "District": "YAFTAL-E-SUFLA",
    "د_مرکز_نوم__نام_مرکز": "لیسه گزانک ",
    "Polling_Center_Name": "Gazanak High School",
    "د_مرکز_ځای__موقعیت_مرکز": "گزانک ",
    "Polling_Center_Location": "Gazanak",
    "Map_Accuracy": "Building",
    "Map_Accuracy_Dari": "تعمیر",
    "Status": "Open",
    "Status_Dari": null,
    "PS_Male": 2,
    "PS_Female": 1,
    "PS_Total": 3,
    "ولسوالي": "یفتل سفلا",
    "Region": "North Eastern Region"
   },
   "geometry": {
    "x": 7850063.0298323547,
    "y": 4478678.2722355491
   }
  },
  {
   "attributes": {
    "OBJECTID": 4063,
    "ولایت": "بدخشان",
    "Province": "BADAKHSHAN",
    "PC_Code": "1706107",
    "District": "BAHARAK",
    "د_مرکز_نوم__نام_مرکز": "لیسه نسوان خیر آباد ",
    "Polling_Center_Name": "Khair Abad Girls High School",
    "د_مرکز_ځای__موقعیت_مرکز": "خیر آباد ",
    "Polling_Center_Location": "Khair Abad",
    "Map_Accuracy": "Building",
    "Map_Accuracy_Dari": "تعمیر",
    "Status": "Open",
    "Status_Dari": null,
    "PS_Male": 1,
    "PS_Female": 1,
    "PS_Total": 2,
    "ولسوالي": "بهارک",
    "Region": "North Eastern Region"
   },
   "geometry": {
    "x": 7890611.528387296,
    "y": 4441349.5344708869
   }
  },
  {
   "attributes": {
    "OBJECTID": 4064,
    "ولایت": "بدخشان",
    "Province": "BADAKHSHAN",
    "PC_Code": "1706108",
    "District": "BAHARAK",
    "د_مرکز_نوم__نام_مرکز": "مکتب پایان شهر ",
    "Polling_Center_Name": "Payan Shahr School",
    "د_مرکز_ځای__موقعیت_مرکز": "پایان شهر",
    "Polling_Center_Location": "Payan Shahr",
    "Map_Accuracy": "Building",
    "Map_Accuracy_Dari": "تعمیر",
    "Status": "Open",
    "Status_Dari": null,
    "PS_Male": 1,
    "PS_Female": 1,
    "PS_Total": 2,
    "ولسوالي": "بهارک",
    "Region": "North Eastern Region"
   },
   "geometry": {
    "x": 7879534.11250012,
    "y": 4446657.5442899913
   }
  },
  {
   "attributes": {
    "OBJECTID": 4065,
    "ولایت": "بدخشان",
    "Province": "BADAKHSHAN",
    "PC_Code": "1708125",
    "District": "KOHISTAN",
    "د_مرکز_نوم__نام_مرکز": "مسجد مارچ",
    "Polling_Center_Name": "March Mosque",
    "د_مرکز_ځای__موقعیت_مرکز": "مارچ",
    "Polling_Center_Location": "March",
    "Map_Accuracy": "Building",
    "Map_Accuracy_Dari": "تعمیر",
    "Status": "Open",
    "Status_Dari": null,
    "PS_Male": 1,
    "PS_Female": 1,
    "PS_Total": 2,
    "ولسوالي": "کوهستان",
    "Region": "North Eastern Region"
   },
   "geometry": {
    "x": 7866623.8857623339,
    "y": 4491579.0780277755
   }
  },
  {
   "attributes": {
    "OBJECTID": 4066,
    "ولایت": "بدخشان",
    "Province": "BADAKHSHAN",
    "PC_Code": "1708126",
    "District": "KOHISTAN",
    "د_مرکز_نوم__نام_مرکز": "مسجد حجر ه گردن ",
    "Polling_Center_Name": "Hujra Gardan Mosque",
    "د_مرکز_ځای__موقعیت_مرکز": "حجر ه گردن",
    "Polling_Center_Location": "Hujra Gardan",
    "Map_Accuracy": "Building",
    "Map_Accuracy_Dari": "تعمیر",
    "Status": "Open",
    "Status_Dari": null,
    "PS_Male": 1,
    "PS_Female": 1,
    "PS_Total": 2,
    "ولسوالي": "کوهستان",
    "Region": "North Eastern Region"
   },
   "geometry": {
    "x": 7871829.834144461,
    "y": 4491642.0702652764
   }
  },
  {
   "attributes": {
    "OBJECTID": 4067,
    "ولایت": "بدخشان",
    "Province": "BADAKHSHAN",
    "PC_Code": "1713139",
    "District": "SHAHR-E-BUZURG",
    "د_مرکز_نوم__نام_مرکز": "مکتب وندیان ",
    "Polling_Center_Name": "Wandyan School",
    "د_مرکز_ځای__موقعیت_مرکز": "وندیان",
    "Polling_Center_Location": "Wandyan",
    "Map_Accuracy": "Building",
    "Map_Accuracy_Dari": "تعمیر",
    "Status": "Open",
    "Status_Dari": null,
    "PS_Male": 2,
    "PS_Female": 1,
    "PS_Total": 3,
    "ولسوالي": "شهر بزرگ",
    "Region": "North Eastern Region"
   },
   "geometry": {
    "x": 7817454.5731826276,
    "y": 4500725.6201191926
   }
  },
  {
   "attributes": {
    "OBJECTID": 4068,
    "ولایت": "بدخشان",
    "Province": "BADAKHSHAN",
    "PC_Code": "1713140",
    "District": "SHAHR-E-BUZURG",
    "د_مرکز_نوم__نام_مرکز": "مکتب متوسطه دشت فرنگ",
    "Polling_Center_Name": "Dasht Farang Secondary School",
    "د_مرکز_ځای__موقعیت_مرکز": "دشت فرنگ",
    "Polling_Center_Location": "Dasht Farang",
    "Map_Accuracy": "Building",
    "Map_Accuracy_Dari": "تعمیر",
    "Status": "Open",
    "Status_Dari": null,
    "PS_Male": 1,
    "PS_Female": 1,
    "PS_Total": 2,
    "ولسوالي": "شهر بزرگ",
    "Region": "North Eastern Region"
   },
   "geometry": {
    "x": 7813481.0239587631,
    "y": 4473715.6461513937
   }
  },
  {
   "attributes": {
    "OBJECTID": 4069,
    "ولایت": "بدخشان",
    "Province": "BADAKHSHAN",
    "PC_Code": "1715153",
    "District": "KISHM",
    "د_مرکز_نوم__نام_مرکز": "مکتب دره جیم ",
    "Polling_Center_Name": "Dara-e-Jeem School",
    "د_مرکز_ځای__موقعیت_مرکز": "دره جیم ",
    "Polling_Center_Location": "Dara-e-Jeem",
    "Map_Accuracy": "Building",
    "Map_Accuracy_Dari": "تعمیر",
    "Status": "Open",
    "Status_Dari": null,
    "PS_Male": 2,
    "PS_Female": 2,
    "PS_Total": 4,
    "ولسوالي": "کشم",
    "Region": "North Eastern Region"
   },
   "geometry": {
    "x": 7807429.8790032035,
    "y": 4401000.0901872404
   }
  },
  {
   "attributes": {
    "OBJECTID": 4070,
    "ولایت": "بدخشان",
    "Province": "BADAKHSHAN",
    "PC_Code": "1717167",
    "District": "TAGAB",
    "د_مرکز_نوم__نام_مرکز": "مکتب فرمان قلی ",
    "Polling_Center_Name": "Farman Qoli School",
    "د_مرکز_ځای__موقعیت_مرکز": "فرمان قلی",
    "Polling_Center_Location": "Farman Qoli",
    "Map_Accuracy": "Building",
    "Map_Accuracy_Dari": "تعمیر",
    "Status": "Open",
    "Status_Dari": null,
    "PS_Male": 2,
    "PS_Female": 1,
    "PS_Total": 3,
    "ولسوالي": "تگاب",
    "Region": "North Eastern Region"
   },
   "geometry": {
    "x": 7819885.8342761565,
    "y": 4381106.173406031
   }
  },
  {
   "attributes": {
    "OBJECTID": 4071,
    "ولایت": "بدخشان",
    "Province": "BADAKHSHAN",
    "PC_Code": "1719217",
    "District": "SHIGHNAN",
    "د_مرکز_نوم__نام_مرکز": "مسجد یارخ ",
    "Polling_Center_Name": "Yaarakh Mosque",
    "د_مرکز_ځای__موقعیت_مرکز": " یارخ ",
    "Polling_Center_Location": "Yaarakh",
    "Map_Accuracy": "Building",
    "Map_Accuracy_Dari": "تعمیر",
    "Status": "Open",
    "Status_Dari": null,
    "PS_Male": 2,
    "PS_Female": 1,
    "PS_Total": 3,
    "ولسوالي": "شغنان",
    "Region": "North Eastern Region"
   },
   "geometry": {
    "x": 7938457.7821022496,
    "y": 4565853.5409862595
   }
  },
  {
   "attributes": {
    "OBJECTID": 4072,
    "ولایت": "بدخشان",
    "Province": "BADAKHSHAN",
    "PC_Code": "1719218",
    "District": "SHIGHNAN",
    "د_مرکز_نوم__نام_مرکز": "مکتب ذکور ویر",
    "Polling_Center_Name": "Weer Boys School",
    "د_مرکز_ځای__موقعیت_مرکز": "ویر",
    "Polling_Center_Location": "Weer",
    "Map_Accuracy": "Building",
    "Map_Accuracy_Dari": "تعمیر",
    "Status": "Open",
    "Status_Dari": null,
    "PS_Male": 2,
    "PS_Female": 2,
    "PS_Total": 4,
    "ولسوالي": "شغنان",
    "Region": "North Eastern Region"
   },
   "geometry": {
    "x": 7959196.9783837153,
    "y": 4505014.5138009489
   }
  },
  {
   "attributes": {
    "OBJECTID": 4073,
    "ولایت": "بدخشان",
    "Province": "BADAKHSHAN",
    "PC_Code": "1725195",
    "District": "ZEBAK",
    "د_مرکز_نوم__نام_مرکز": "لیسه فاروق ",
    "Polling_Center_Name": "Farooq High School",
    "د_مرکز_ځای__موقعیت_مرکز": "فاروق ",
    "Polling_Center_Location": "Farooq",
    "Map_Accuracy": "Building",
    "Map_Accuracy_Dari": "تعمیر",
    "Status": "Open",
    "Status_Dari": null,
    "PS_Male": 1,
    "PS_Female": 1,
    "PS_Total": 2,
    "ولسوالي": "زیباک",
    "Region": "North Eastern Region"
   },
   "geometry": {
    "x": 7937427.443404505,
    "y": 4360671.5778651917
   }
  },
  {
   "attributes": {
    "OBJECTID": 4074,
    "ولایت": "بدخشان",
    "Province": "BADAKHSHAN",
    "PC_Code": "1726188",
    "District": "KIRAN WA MENJAN",
    "د_مرکز_نوم__نام_مرکز": "مکتب دهن آب یمک",
    "Polling_Center_Name": "Dahan Aab Yamak School",
    "د_مرکز_ځای__موقعیت_مرکز": "دهن آب یمک",
    "Polling_Center_Location": "Dahan Aab Yamak",
    "Map_Accuracy": "Building",
    "Map_Accuracy_Dari": "تعمیر",
    "Status": "Open",
    "Status_Dari": null,
    "PS_Male": 3,
    "PS_Female": 2,
    "PS_Total": 5,
    "ولسوالي": "کران و منجان ",
    "Region": "North Eastern Region"
   },
   "geometry": {
    "x": 7838354.6027512029,
    "y": 4286272.1773502892
   }
  },
  {
   "attributes": {
    "OBJECTID": 4075,
    "ولایت": "تخار",
    "Province": "TAKHAR",
    "PC_Code": "1801001",
    "District": "TALUQAN",
    "د_مرکز_نوم__نام_مرکز": "لیسه لته بند",
    "Polling_Center_Name": "Lataband High School",
    "د_مرکز_ځای__موقعیت_مرکز": "لته بند",
    "Polling_Center_Location": "Lataband",
    "Map_Accuracy": "Building",
    "Map_Accuracy_Dari": "تعمیر",
    "Status": "Open",
    "Status_Dari": null,
    "PS_Male": 3,
    "PS_Female": 1,
    "PS_Total": 4,
    "ولسوالي": "تالقان",
    "Region": "North Eastern Region"
   },
   "geometry": {
    "x": 7766242.6069461983,
    "y": 4404411.4920658283
   }
  },
  {
   "attributes": {
    "OBJECTID": 4076,
    "ولایت": "تخار",
    "Province": "TAKHAR",
    "PC_Code": "1801023",
    "District": "TALUQAN",
    "د_مرکز_نوم__نام_مرکز": "ليسه چشمه شير",
    "Polling_Center_Name": "Chashma Shir High School",
    "د_مرکز_ځای__موقعیت_مرکز": "چشمه شیر",
    "Polling_Center_Location": "Chashma Shir",
    "Map_Accuracy": "Building",
    "Map_Accuracy_Dari": "تعمیر",
    "Status": "Open",
    "Status_Dari": null,
    "PS_Male": 3,
    "PS_Female": 2,
    "PS_Total": 5,
    "ولسوالي": "تالقان",
    "Region": "North Eastern Region"
   },
   "geometry": {
    "x": 7735930.0635871133,
    "y": 4400034.1192076514
   }
  },
  {
   "attributes": {
    "OBJECTID": 4077,
    "ولایت": "تخار",
    "Province": "TAKHAR",
    "PC_Code": "1801024",
    "District": "TALUQAN",
    "د_مرکز_نوم__نام_مرکز": "لیسه نسوان نمبر 1",
    "Polling_Center_Name": "Girls Number 1 High School",
    "د_مرکز_ځای__موقعیت_مرکز": "ناحیه اول",
    "Polling_Center_Location": "D01 - Nahia 1",
    "Map_Accuracy": "Building",
    "Map_Accuracy_Dari": "تعمیر",
    "Status": "Open",
    "Status_Dari": null,
    "PS_Male": 4,
    "PS_Female": 3,
    "PS_Total": 7,
    "ولسوالي": "تالقان",
    "Region": "North Eastern Region"
   },
   "geometry": {
    "x": 7742032.1628131941,
    "y": 4401429.7987487791
   }
  },
  {
   "attributes": {
    "OBJECTID": 4078,
    "ولایت": "تخار",
    "Province": "TAKHAR",
    "PC_Code": "1801034",
    "District": "TALUQAN",
    "د_مرکز_نوم__نام_مرکز": "مکتب شورچه 2",
    "Polling_Center_Name": "Shorcha 2 School",
    "د_مرکز_ځای__موقعیت_مرکز": "قریه شورچه 2",
    "Polling_Center_Location": "Shorcha 2 Village",
    "Map_Accuracy": "Building",
    "Map_Accuracy_Dari": "تعمیر",
    "Status": "Open",
    "Status_Dari": null,
    "PS_Male": 1,
    "PS_Female": 1,
    "PS_Total": 2,
    "ولسوالي": "تالقان",
    "Region": "North Eastern Region"
   },
   "geometry": {
    "x": 7734162.5816928763,
    "y": 4385388.6632652748
   }
  },
  {
   "attributes": {
    "OBJECTID": 4079,
    "ولایت": "تخار",
    "Province": "TAKHAR",
    "PC_Code": "1801183",
    "District": "TALUQAN",
    "د_مرکز_نوم__نام_مرکز": "مکتب عبدالباری شهید",
    "Polling_Center_Name": "Abdul Bari Shaheed School",
    "د_مرکز_ځای__موقعیت_مرکز": "زرگری بالا",
    "Polling_Center_Location": "Zargari Bala",
    "Map_Accuracy": "Building",
    "Map_Accuracy_Dari": "تعمیر",
    "Status": "Open",
    "Status_Dari": null,
    "PS_Male": 2,
    "PS_Female": 2,
    "PS_Total": 4,
    "ولسوالي": "تالقان",
    "Region": "North Eastern Region"
   },
   "geometry": {
    "x": 7745152.3379338291,
    "y": 4401245.3102151575
   }
  },
  {
   "attributes": {
    "OBJECTID": 4080,
    "ولایت": "تخار",
    "Province": "TAKHAR",
    "PC_Code": "1806194",
    "District": "NAMAK AB",
    "د_مرکز_نوم__نام_مرکز": "مكتب نخجيردره ",
    "Polling_Center_Name": "Nakhjir Dara School",
    "د_مرکز_ځای__موقعیت_مرکز": "نخجيردره",
    "Polling_Center_Location": "Nakhjir Dara",
    "Map_Accuracy": "Building",
    "Map_Accuracy_Dari": "تعمیر",
    "Status": "Open",
    "Status_Dari": null,
    "PS_Male": 1,
    "PS_Female": 1,
    "PS_Total": 2,
    "ولسوالي": "نمک آب",
    "Region": "North Eastern Region"
   },
   "geometry": {
    "x": 7766060.2645070814,
    "y": 4360206.662821047
   }
  },
  {
   "attributes": {
    "OBJECTID": 4081,
    "ولایت": "تخار",
    "Province": "TAKHAR",
    "PC_Code": "1808086",
    "District": "FARKHAR",
    "د_مرکز_نوم__نام_مرکز": "لیسه صمیمی شهید",
    "Polling_Center_Name": "Samimi Shaheed High School",
    "د_مرکز_ځای__موقعیت_مرکز": "مرکز شهر",
    "Polling_Center_Location": "Markaz Shahr",
    "Map_Accuracy": "Building",
    "Map_Accuracy_Dari": "تعمیر",
    "Status": "Open",
    "Status_Dari": null,
    "PS_Male": 5,
    "PS_Female": 3,
    "PS_Total": 8,
    "ولسوالي": "فرخار",
    "Region": "North Eastern Region"
   },
   "geometry": {
    "x": 7776243.3351524463,
    "y": 4380978.5776983248
   }
  },
  {
   "attributes": {
    "OBJECTID": 4082,
    "ولایت": "تخار",
    "Province": "TAKHAR",
    "PC_Code": "1809048",
    "District": "KHWAJA GHAR",
    "د_مرکز_نوم__نام_مرکز": "مکتب ابتدائیه جوکدو",
    "Polling_Center_Name": "Jokdo Primary School",
    "د_مرکز_ځای__موقعیت_مرکز": "جوکدو",
    "Polling_Center_Location": "Jokdo",
    "Map_Accuracy": "Building",
    "Map_Accuracy_Dari": "تعمیر",
    "Status": "Open",
    "Status_Dari": null,
    "PS_Male": 3,
    "PS_Female": 1,
    "PS_Total": 4,
    "ولسوالي": "خواجه غار",
    "Region": "North Eastern Region"
   },
   "geometry": {
    "x": 7727320.1867023204,
    "y": 4453560.0212700022
   }
  },
  {
   "attributes": {
    "OBJECTID": 4083,
    "ولایت": "تخار",
    "Province": "TAKHAR",
    "PC_Code": "1809049",
    "District": "KHWAJA GHAR",
    "د_مرکز_نوم__نام_مرکز": "مکتب ابتدائیه لکلکان",
    "Polling_Center_Name": "Laklakan Primary School",
    "د_مرکز_ځای__موقعیت_مرکز": "لکلکان",
    "Polling_Center_Location": "Lalakan",
    "Map_Accuracy": "Building",
    "Map_Accuracy_Dari": "تعمیر",
    "Status": "Open",
    "Status_Dari": null,
    "PS_Male": 2,
    "PS_Female": 1,
    "PS_Total": 3,
    "ولسوالي": "خواجه غار",
    "Region": "North Eastern Region"
   },
   "geometry": {
    "x": 7730283.5772257363,
    "y": 4454899.0623460542
   }
  },
  {
   "attributes": {
    "OBJECTID": 4084,
    "ولایت": "تخار",
    "Province": "TAKHAR",
    "PC_Code": "1810110",
    "District": "RUSTAQ",
    "د_مرکز_نوم__نام_مرکز": "مکتب متوسطه شیراتله",
    "Polling_Center_Name": "Sher Atla Secondary School",
    "د_مرکز_ځای__موقعیت_مرکز": "شیراتله",
    "Polling_Center_Location": "Sher Atla",
    "Map_Accuracy": "Building",
    "Map_Accuracy_Dari": "تعمیر",
    "Status": "Open",
    "Status_Dari": null,
    "PS_Male": 3,
    "PS_Female": 1,
    "PS_Total": 4,
    "ولسوالي": "رستاق",
    "Region": "North Eastern Region"
   },
   "geometry": {
    "x": 7749242.4753999915,
    "y": 4455011.4273328409
   }
  },
  {
   "attributes": {
    "OBJECTID": 4085,
    "ولایت": "تخار",
    "Province": "TAKHAR",
    "PC_Code": "1810196",
    "District": "RUSTAQ",
    "د_مرکز_نوم__نام_مرکز": "مسجد جامع زان پایان",
    "Polling_Center_Name": "Zaan Payan Mosque",
    "د_مرکز_ځای__موقعیت_مرکز": "زان پایان",
    "Polling_Center_Location": "Zaan Payan",
    "Map_Accuracy": "Building",
    "Map_Accuracy_Dari": "تعمیر",
    "Status": "Open",
    "Status_Dari": null,
    "PS_Male": 1,
    "PS_Female": 1,
    "PS_Total": 2,
    "ولسوالي": "رستاق",
    "Region": "North Eastern Region"
   },
   "geometry": {
    "x": 7791456.2333871638,
    "y": 4471762.9191288836
   }
  },
  {
   "attributes": {
    "OBJECTID": 4086,
    "ولایت": "تخار",
    "Province": "TAKHAR",
    "PC_Code": "1812200",
    "District": "DASHT-E-QALA",
    "د_مرکز_نوم__نام_مرکز": "مسجد باغ بایان",
    "Polling_Center_Name": "Bagh Bayan Mosque",
    "د_مرکز_ځای__موقعیت_مرکز": "قریه باغ بایان ",
    "Polling_Center_Location": "Bagh Bayan",
    "Map_Accuracy": "Building",
    "Map_Accuracy_Dari": "تعمیر",
    "Status": "Open",
    "Status_Dari": null,
    "PS_Male": 1,
    "PS_Female": 1,
    "PS_Total": 2,
    "ولسوالي": "دشت قلعه",
    "Region": "North Eastern Region"
   },
   "geometry": {
    "x": 7735917.3330901451,
    "y": 4468760.3167944392
   }
  },
  {
   "attributes": {
    "OBJECTID": 4087,
    "ولایت": "تخار",
    "Province": "TAKHAR",
    "PC_Code": "1815164",
    "District": "DARQAD",
    "د_مرکز_نوم__نام_مرکز": "مکتب متوسطۀ موسی زی",
    "Polling_Center_Name": "Musa Zai Secondary School",
    "د_مرکز_ځای__موقعیت_مرکز": "تره کی",
    "Polling_Center_Location": "Taraki",
    "Map_Accuracy": "Building",
    "Map_Accuracy_Dari": "تعمیر",
    "Status": "Open",
    "Status_Dari": null,
    "PS_Male": 2,
    "PS_Female": 1,
    "PS_Total": 3,
    "ولسوالي": "درقد",
    "Region": "North Eastern Region"
   },
   "geometry": {
    "x": 7727559.7139638504,
    "y": 4492320.5523183262
   }
  },
  {
   "attributes": {
    "OBJECTID": 4088,
    "ولایت": "تخار",
    "Province": "TAKHAR",
    "PC_Code": "1815165",
    "District": "DARQAD",
    "د_مرکز_نوم__نام_مرکز": "مکتب لاله میدان ",
    "Polling_Center_Name": "Lala Maidan School",
    "د_مرکز_ځای__موقعیت_مرکز": "لاله میدان",
    "Polling_Center_Location": "Lala Maidan",
    "Map_Accuracy": "Building",
    "Map_Accuracy_Dari": "تعمیر",
    "Status": "Open",
    "Status_Dari": null,
    "PS_Male": 2,
    "PS_Female": 1,
    "PS_Total": 3,
    "ولسوالي": "درقد",
    "Region": "North Eastern Region"
   },
   "geometry": {
    "x": 7737977.9804293662,
    "y": 4511926.1815932309
   }
  },
  {
   "attributes": {
    "OBJECTID": 4089,
    "ولایت": "تخار",
    "Province": "TAKHAR",
    "PC_Code": "1817148",
    "District": "YANGI QALA",
    "د_مرکز_نوم__نام_مرکز": "لیسه جلگه",
    "Polling_Center_Name": "Jalga High School",
    "د_مرکز_ځای__موقعیت_مرکز": "جلگه",
    "Polling_Center_Location": "Jalga",
    "Map_Accuracy": "Building",
    "Map_Accuracy_Dari": "تعمیر",
    "Status": "Open",
    "Status_Dari": null,
    "PS_Male": 2,
    "PS_Female": 2,
    "PS_Total": 4,
    "ولسوالي": "ینگی قلعه",
    "Region": "North Eastern Region"
   },
   "geometry": {
    "x": 7759245.0181139372,
    "y": 4505538.1997538609
   }
  },
  {
   "attributes": {
    "OBJECTID": 4090,
    "ولایت": "تخار",
    "Province": "TAKHAR",
    "PC_Code": "1817149",
    "District": "YANGI QALA",
    "د_مرکز_نوم__نام_مرکز": "لیسه ینگی قلعه",
    "Polling_Center_Name": "Yangi Qala High School",
    "د_مرکز_ځای__موقعیت_مرکز": "مخمل گذر",
    "Polling_Center_Location": "Makhmal Guzar",
    "Map_Accuracy": "Building",
    "Map_Accuracy_Dari": "تعمیر",
    "Status": "Open",
    "Status_Dari": null,
    "PS_Male": 3,
    "PS_Female": 1,
    "PS_Total": 4,
    "ولسوالي": "ینگی قلعه",
    "Region": "North Eastern Region"
   },
   "geometry": {
    "x": 7749463.0427258518,
    "y": 4504349.3803723818
   }
  },
  {
   "attributes": {
    "OBJECTID": 4091,
    "ولایت": "کندز",
    "Province": "KUNDUZ",
    "PC_Code": "1901016",
    "District": "KUNDUZ",
    "د_مرکز_نوم__نام_مرکز": "دفتر احصایه مرکزی",
    "Polling_Center_Name": "Central Statistics Office",
    "د_مرکز_ځای__موقعیت_مرکز": "ناحیه سوم",
    "Polling_Center_Location": "D03 - Nahia 3",
    "Map_Accuracy": "Building",
    "Map_Accuracy_Dari": "تعمیر",
    "Status": "Open",
    "Status_Dari": null,
    "PS_Male": 4,
    "PS_Female": 2,
    "PS_Total": 6,
    "ولسوالي": "کندز",
    "Region": "North Eastern Region"
   },
   "geometry": {
    "x": 7665557.2856576378,
    "y": 4401545.5189170418
   }
  },
  {
   "attributes": {
    "OBJECTID": 4092,
    "ولایت": "کندز",
    "Province": "KUNDUZ",
    "PC_Code": "1901017",
    "District": "KUNDUZ",
    "د_مرکز_نوم__نام_مرکز": "لیسه مولوی سراج الدین",
    "Polling_Center_Name": "Mawlawi Sirajuddin High School",
    "د_مرکز_ځای__موقعیت_مرکز": "ناحیه چهارم",
    "Polling_Center_Location": "D04 - Nahia 4",
    "Map_Accuracy": "Building",
    "Map_Accuracy_Dari": "تعمیر",
    "Status": "Open",
    "Status_Dari": null,
    "PS_Male": 5,
    "PS_Female": 3,
    "PS_Total": 8,
    "ولسوالي": "کندز",
    "Region": "North Eastern Region"
   },
   "geometry": {
    "x": 7667322.3508057296,
    "y": 4400947.6654970655
   }
  },
  {
   "attributes": {
    "OBJECTID": 4093,
    "ولایت": "کندز",
    "Province": "KUNDUZ",
    "PC_Code": "1901039",
    "District": "KUNDUZ",
    "د_مرکز_نوم__نام_مرکز": "مکتب غرمه کمر",
    "Polling_Center_Name": "Gharma Kamar School",
    "د_مرکز_ځای__موقعیت_مرکز": "قریه غرمه کمر",
    "Polling_Center_Location": "Gharma Kamar Village",
    "Map_Accuracy": "Village",
    "Map_Accuracy_Dari": "قریه",
    "Status": "Open",
    "Status_Dari": null,
    "PS_Male": 2,
    "PS_Female": 1,
    "PS_Total": 3,
    "ولسوالي": "کندز",
    "Region": "North Eastern Region"
   },
   "geometry": {
    "x": 7648642.9825520273,
    "y": 4410035.3215061659
   }
  },
  {
   "attributes": {
    "OBJECTID": 4094,
    "ولایت": "کندز",
    "Province": "KUNDUZ",
    "PC_Code": "1901040",
    "District": "KUNDUZ",
    "د_مرکز_نوم__نام_مرکز": "لیسه سلطان غیاث الدین",
    "Polling_Center_Name": "Sultan Ghiyasuddin High School",
    "د_مرکز_ځای__موقعیت_مرکز": "لرخابی",
    "Polling_Center_Location": "Larkhabi",
    "Map_Accuracy": "Building",
    "Map_Accuracy_Dari": "تعمیر",
    "Status": "Open",
    "Status_Dari": null,
    "PS_Male": 2,
    "PS_Female": 1,
    "PS_Total": 3,
    "ولسوالي": "کندز",
    "Region": "North Eastern Region"
   },
   "geometry": {
    "x": 7652518.2555898298,
    "y": 4411067.0588388694
   }
  },
  {
   "attributes": {
    "OBJECTID": 4095,
    "ولایت": "کندز",
    "Province": "KUNDUZ",
    "PC_Code": "1901050",
    "District": "KUNDUZ",
    "د_مرکز_نوم__نام_مرکز": "مسجد جامه بیش بله",
    "Polling_Center_Name": "Besh Bala Mosque",
    "د_مرکز_ځای__موقعیت_مرکز": "قریه عسقلان",
    "Polling_Center_Location": "Asqalan Village",
    "Map_Accuracy": "Village",
    "Map_Accuracy_Dari": "قریه",
    "Status": "Open",
    "Status_Dari": null,
    "PS_Male": 2,
    "PS_Female": 2,
    "PS_Total": 4,
    "ولسوالي": "کندز",
    "Region": "North Eastern Region"
   },
   "geometry": {
    "x": 7652662.1794462819,
    "y": 4417669.352723646
   }
  },
  {
   "attributes": {
    "OBJECTID": 4096,
    "ولایت": "کندز",
    "Province": "KUNDUZ",
    "PC_Code": "1901199",
    "District": "KUNDUZ",
    "د_مرکز_نوم__نام_مرکز": "مکتب تپه علی",
    "Polling_Center_Name": "Tapa Ali School",
    "د_مرکز_ځای__موقعیت_مرکز": "قریه تپه علی",
    "Polling_Center_Location": "Tapa Ali Village",
    "Map_Accuracy": "Building",
    "Map_Accuracy_Dari": "تعمیر",
    "Status": "Open",
    "Status_Dari": null,
    "PS_Male": 2,
    "PS_Female": 1,
    "PS_Total": 3,
    "ولسوالي": "کندز",
    "Region": "North Eastern Region"
   },
   "geometry": {
    "x": 7672337.859368979,
    "y": 4411780.2564176889
   }
  },
  {
   "attributes": {
    "OBJECTID": 4097,
    "ولایت": "کندز",
    "Province": "KUNDUZ",
    "PC_Code": "1904152",
    "District": "KHAN ABAD",
    "د_مرکز_نوم__نام_مرکز": "مکتب چهار سری",
    "Polling_Center_Name": "Chahar Sari School",
    "د_مرکز_ځای__موقعیت_مرکز": "قریه چهار سری",
    "Polling_Center_Location": "Chahar Sari Village",
    "Map_Accuracy": "Building",
    "Map_Accuracy_Dari": "تعمیر",
    "Status": "Open",
    "Status_Dari": null,
    "PS_Male": 1,
    "PS_Female": 1,
    "PS_Total": 2,
    "ولسوالي": "خان آباد",
    "Region": "North Eastern Region"
   },
   "geometry": {
    "x": 7687794.2422731258,
    "y": 4393750.2537012659
   }
  },
  {
   "attributes": {
    "OBJECTID": 4098,
    "ولایت": "کندز",
    "Province": "KUNDUZ",
    "PC_Code": "1904153",
    "District": "KHAN ABAD",
    "د_مرکز_نوم__نام_مرکز": "لیسه آبشور جولیچه",
    "Polling_Center_Name": "Abshor Jolicha High School",
    "د_مرکز_ځای__موقعیت_مرکز": "قریه جولیچه",
    "Polling_Center_Location": "Jolicha Village",
    "Map_Accuracy": "Building",
    "Map_Accuracy_Dari": "تعمیر",
    "Status": "Open",
    "Status_Dari": null,
    "PS_Male": 1,
    "PS_Female": 1,
    "PS_Total": 2,
    "ولسوالي": "خان آباد",
    "Region": "North Eastern Region"
   },
   "geometry": {
    "x": 7704859.8753209133,
    "y": 4402670.7208183501
   }
  },
  {
   "attributes": {
    "OBJECTID": 4099,
    "ولایت": "کندز",
    "Province": "KUNDUZ",
    "PC_Code": "1904162",
    "District": "KHAN ABAD",
    "د_مرکز_نوم__نام_مرکز": "لیسه نسوان نیک پای خورد",
    "Polling_Center_Name": "Nikpay Khord Girls High School",
    "د_مرکز_ځای__موقعیت_مرکز": "قریه نیک پای",
    "Polling_Center_Location": "Nikpay Village",
    "Map_Accuracy": "Building",
    "Map_Accuracy_Dari": "تعمیر",
    "Status": "Open",
    "Status_Dari": null,
    "PS_Male": 1,
    "PS_Female": 1,
    "PS_Total": 2,
    "ولسوالي": "خان آباد",
    "Region": "North Eastern Region"
   },
   "geometry": {
    "x": 7681146.002946049,
    "y": 4394900.4620540868
   }
  },
  {
   "attributes": {
    "OBJECTID": 4100,
    "ولایت": "کندز",
    "Province": "KUNDUZ",
    "PC_Code": "1906180",
    "District": "DASHT-E-ARCHI",
    "د_مرکز_نوم__نام_مرکز": "لیسه حمید قرلق",
    "Polling_Center_Name": "Hamid Qarlaq High Schoo",
    "د_مرکز_ځای__موقعیت_مرکز": "قریه مرزاخیل",
    "Polling_Center_Location": "Mirza Khel Village",
    "Map_Accuracy": "Building",
    "Map_Accuracy_Dari": "تعمیر",
    "Status": "Open",
    "Status_Dari": null,
    "PS_Male": 3,
    "PS_Female": 1,
    "PS_Total": 4,
    "ولسوالي": "دشت ارچی",
    "Region": "North Eastern Region"
   },
   "geometry": {
    "x": 7714486.5600193422,
    "y": 4448825.4131537285
   }
  },
  {
   "attributes": {
    "OBJECTID": 4101,
    "ولایت": "کندز",
    "Province": "KUNDUZ",
    "PC_Code": "1906181",
    "District": "DASHT-E-ARCHI",
    "د_مرکز_نوم__نام_مرکز": "مکتب کل تراش",
    "Polling_Center_Name": "Kal Tarash School",
    "د_مرکز_ځای__موقعیت_مرکز": "قریه کلتراش",
    "Polling_Center_Location": "Kal Tarash Village",
    "Map_Accuracy": "Building",
    "Map_Accuracy_Dari": "تعمیر",
    "Status": "Open",
    "Status_Dari": null,
    "PS_Male": 3,
    "PS_Female": 1,
    "PS_Total": 4,
    "ولسوالي": "دشت ارچی",
    "Region": "North Eastern Region"
   },
   "geometry": {
    "x": 7706166.2407148276,
    "y": 4447547.514002122
   }
  },
  {
   "attributes": {
    "OBJECTID": 4102,
    "ولایت": "کندز",
    "Province": "KUNDUZ",
    "PC_Code": "1907100",
    "District": "QALA-E-ZAL",
    "د_مرکز_نوم__نام_مرکز": "مکتب اورته بوز",
    "Polling_Center_Name": "Orta Boz School",
    "د_مرکز_ځای__موقعیت_مرکز": "اورته بوز",
    "Polling_Center_Location": "Orta Boz",
    "Map_Accuracy": "Building",
    "Map_Accuracy_Dari": "تعمیر",
    "Status": "Open",
    "Status_Dari": null,
    "PS_Male": 3,
    "PS_Female": 1,
    "PS_Total": 4,
    "ولسوالي": "قلعه ذال",
    "Region": "North Eastern Region"
   },
   "geometry": {
    "x": 7621843.4719285388,
    "y": 4439200.6537297638
   }
  },
  {
   "attributes": {
    "OBJECTID": 4103,
    "ولایت": "کندز",
    "Province": "KUNDUZ",
    "PC_Code": "1907101",
    "District": "QALA-E-ZAL",
    "د_مرکز_نوم__نام_مرکز": "مکتب دورمن",
    "Polling_Center_Name": "Dorman School",
    "د_مرکز_ځای__موقعیت_مرکز": "قریه دورمن",
    "Polling_Center_Location": "Dorman Village",
    "Map_Accuracy": "Building",
    "Map_Accuracy_Dari": "تعمیر",
    "Status": "Open",
    "Status_Dari": null,
    "PS_Male": 3,
    "PS_Female": 1,
    "PS_Total": 4,
    "ولسوالي": "قلعه ذال",
    "Region": "North Eastern Region"
   },
   "geometry": {
    "x": 7615093.0502144732,
    "y": 4438152.8244225373
   }
  },
  {
   "attributes": {
    "OBJECTID": 4104,
    "ولایت": "سمنگان",
    "Province": "SAMANGAN",
    "PC_Code": "2002024",
    "District": "HAZRAT-E-SULTAN",
    "د_مرکز_نوم__نام_مرکز": "مکتب متوسطه کوکجر",
    "Polling_Center_Name": "Kokjar Secondary School",
    "د_مرکز_ځای__موقعیت_مرکز": "قریه کوکجر",
    "Polling_Center_Location": "Kokjar Village",
    "Map_Accuracy": "Building",
    "Map_Accuracy_Dari": "تعمیر",
    "Status": "Open",
    "Status_Dari": null,
    "PS_Male": 2,
    "PS_Female": 1,
    "PS_Total": 3,
    "ولسوالي": "حضرت سلطان",
    "Region": "Northern Region"
   },
   "geometry": {
    "x": 7560421.3554674145,
    "y": 4347718.2433615662
   }
  },
  {
   "attributes": {
    "OBJECTID": 4105,
    "ولایت": "سمنگان",
    "Province": "SAMANGAN",
    "PC_Code": "2006053",
    "District": "DARA-E-SOOF-E-PAYIN",
    "د_مرکز_نوم__نام_مرکز": "مسجد اوته",
    "Polling_Center_Name": "Ota Mosque",
    "د_مرکز_ځای__موقعیت_مرکز": "قریه اوته",
    "Polling_Center_Location": "Ota Village",
    "Map_Accuracy": "Building",
    "Map_Accuracy_Dari": "تعمیر",
    "Status": "Open",
    "Status_Dari": null,
    "PS_Male": 2,
    "PS_Female": 2,
    "PS_Total": 4,
    "ولسوالي": "دره صوف پائین",
    "Region": "Northern Region"
   },
   "geometry": {
    "x": 7472971.9850862836,
    "y": 4283034.5437081028
   }
  },
  {
   "attributes": {
    "OBJECTID": 4106,
    "ولایت": "سمنگان",
    "Province": "SAMANGAN",
    "PC_Code": "2007091",
    "District": "DARA-E-SOOF-E-BALA",
    "د_مرکز_نوم__نام_مرکز": "مکتب سر اولنگ",
    "Polling_Center_Name": "Sar Olang School",
    "د_مرکز_ځای__موقعیت_مرکز": "جمبوغه ",
    "Polling_Center_Location": "Jambogha",
    "Map_Accuracy": "Building",
    "Map_Accuracy_Dari": "تعمیر",
    "Status": "Open",
    "Status_Dari": null,
    "PS_Male": 1,
    "PS_Female": 1,
    "PS_Total": 2,
    "ولسوالي": "دره صوف بالا",
    "Region": "Northern Region"
   },
   "geometry": {
    "x": 7489333.8073326917,
    "y": 4281591.0350339515
   }
  },
  {
   "attributes": {
    "OBJECTID": 4107,
    "ولایت": "بلخ",
    "Province": "BALKH",
    "PC_Code": "2101001",
    "District": "MAZAR-E-SHARIF",
    "د_مرکز_نوم__نام_مرکز": "لیسه سلطان راضیه ",
    "Polling_Center_Name": "Sultan Razia High School",
    "د_مرکز_ځای__موقعیت_مرکز": "ناحیه اول شهرداری مزار",
    "Polling_Center_Location": "D01 - Nahia 1 Mazar",
    "Map_Accuracy": "Building",
    "Map_Accuracy_Dari": "تعمیر",
    "Status": "Open",
    "Status_Dari": null,
    "PS_Male": 6,
    "PS_Female": 4,
    "PS_Total": 10,
    "ولسوالي": "مزار شریف",
    "Region": "Northern Region"
   },
   "geometry": {
    "x": 7471888.3666538531,
    "y": 4398361.6839365866
   }
  },
  {
   "attributes": {
    "OBJECTID": 4108,
    "ولایت": "بلخ",
    "Province": "BALKH",
    "PC_Code": "2101009",
    "District": "MAZAR-E-SHARIF",
    "د_مرکز_نوم__نام_مرکز": "لیسه عایشه افغان ",
    "Polling_Center_Name": "Aisha Afghan High School",
    "د_مرکز_ځای__موقعیت_مرکز": "ناحیه سوم مزار شاروالی ",
    "Polling_Center_Location": "D03 - Nahia 3",
    "Map_Accuracy": "Building",
    "Map_Accuracy_Dari": "تعمیر",
    "Status": "Open",
    "Status_Dari": null,
    "PS_Male": 2,
    "PS_Female": 3,
    "PS_Total": 5,
    "ولسوالي": "مزار شریف",
    "Region": "Northern Region"
   },
   "geometry": {
    "x": 7471623.4273789655,
    "y": 4399166.7596276496
   }
  },
  {
   "attributes": {
    "OBJECTID": 4109,
    "ولایت": "بلخ",
    "Province": "BALKH",
    "PC_Code": "2101010",
    "District": "MAZAR-E-SHARIF",
    "د_مرکز_نوم__نام_مرکز": "مکتب سلطان غیاث الدین",
    "Polling_Center_Name": "Sultan Ghiyasuddin School",
    "د_مرکز_ځای__موقعیت_مرکز": "ناحیه سوم مزار شاروالی ",
    "Polling_Center_Location": "D03 - Nahia 3",
    "Map_Accuracy": "Building",
    "Map_Accuracy_Dari": "تعمیر",
    "Status": "Open",
    "Status_Dari": null,
    "PS_Male": 3,
    "PS_Female": 3,
    "PS_Total": 6,
    "ولسوالي": "مزار شریف",
    "Region": "Northern Region"
   },
   "geometry": {
    "x": 7471189.9893568326,
    "y": 4398802.2353225211
   }
  },
  {
   "attributes": {
    "OBJECTID": 4110,
    "ولایت": "بلخ",
    "Province": "BALKH",
    "PC_Code": "2101047",
    "District": "MAZAR-E-SHARIF",
    "د_مرکز_نوم__نام_مرکز": "مکتب هلا ل الدین بلخی",
    "Polling_Center_Name": "Hilaluddin Balkhi School",
    "د_مرکز_ځای__موقعیت_مرکز": "ناحیه ششم مزار شاروالی ",
    "Polling_Center_Location": "D06 - Nahia 6",
    "Map_Accuracy": "Building",
    "Map_Accuracy_Dari": "تعمیر",
    "Status": "Open",
    "Status_Dari": null,
    "PS_Male": 2,
    "PS_Female": 2,
    "PS_Total": 4,
    "ولسوالي": "مزار شریف",
    "Region": "Northern Region"
   },
   "geometry": {
    "x": 7473904.8056836938,
    "y": 4396580.2822102075
   }
  },
  {
   "attributes": {
    "OBJECTID": 4111,
    "ولایت": "بلخ",
    "Province": "BALKH",
    "PC_Code": "2101048",
    "District": "MAZAR-E-SHARIF",
    "د_مرکز_نوم__نام_مرکز": "مکتب مهدیه",
    "Polling_Center_Name": "Mehdiya School",
    "د_مرکز_ځای__موقعیت_مرکز": "کارته جعفریه ناحیه نهم ",
    "Polling_Center_Location": "D09 - Nahia 9",
    "Map_Accuracy": "Building",
    "Map_Accuracy_Dari": "تعمیر",
    "Status": "Open",
    "Status_Dari": null,
    "PS_Male": 2,
    "PS_Female": 3,
    "PS_Total": 5,
    "ولسوالي": "مزار شریف",
    "Region": "Northern Region"
   },
   "geometry": {
    "x": 7469137.6843002513,
    "y": 4400764.2088876534
   }
  },
  {
   "attributes": {
    "OBJECTID": 4112,
    "ولایت": "بلخ",
    "Province": "BALKH",
    "PC_Code": "2103058",
    "District": "DEHDADI",
    "د_مرکز_نوم__نام_مرکز": "مکتب چهل گزی",
    "Polling_Center_Name": "Chehl Gazai School",
    "د_مرکز_ځای__موقعیت_مرکز": "قریه چهل گزی",
    "Polling_Center_Location": "Chehl Gazai Village",
    "Map_Accuracy": "Building",
    "Map_Accuracy_Dari": "تعمیر",
    "Status": "Open",
    "Status_Dari": null,
    "PS_Male": 2,
    "PS_Female": 2,
    "PS_Total": 4,
    "ولسوالي": "دهدادی ",
    "Region": "Northern Region"
   },
   "geometry": {
    "x": 7457224.3035650132,
    "y": 4400051.6050780471
   }
  },
  {
   "attributes": {
    "OBJECTID": 4113,
    "ولایت": "بلخ",
    "Province": "BALKH",
    "PC_Code": "2103059",
    "District": "DEHDADI",
    "د_مرکز_نوم__نام_مرکز": "مکتب ابو زید",
    "Polling_Center_Name": "Abu Zayed School",
    "د_مرکز_ځای__موقعیت_مرکز": "شیر آباد سفلی",
    "Polling_Center_Location": "Sher Abad Sufla",
    "Map_Accuracy": "Building",
    "Map_Accuracy_Dari": "تعمیر",
    "Status": "Open",
    "Status_Dari": null,
    "PS_Male": 2,
    "PS_Female": 2,
    "PS_Total": 4,
    "ولسوالي": "دهدادی ",
    "Region": "Northern Region"
   },
   "geometry": {
    "x": 7463253.5029961532,
    "y": 4396779.2231755471
   }
  },
  {
   "attributes": {
    "OBJECTID": 4114,
    "ولایت": "بلخ",
    "Province": "BALKH",
    "PC_Code": "2105074",
    "District": "MARMUL",
    "د_مرکز_نوم__نام_مرکز": "مکتب پرواز",
    "Polling_Center_Name": "Parwaz School",
    "د_مرکز_ځای__موقعیت_مرکز": "قریه پرواز علیا",
    "Polling_Center_Location": "Parwaz Ulya Village",
    "Map_Accuracy": "Building",
    "Map_Accuracy_Dari": "تعمیر",
    "Status": "Open",
    "Status_Dari": null,
    "PS_Male": 2,
    "PS_Female": 1,
    "PS_Total": 3,
    "ولسوالي": "مارمل ",
    "Region": "Northern Region"
   },
   "geometry": {
    "x": 7491022.4293864602,
    "y": 4375216.0606551813
   }
  },
  {
   "attributes": {
    "OBJECTID": 4115,
    "ولایت": "بلخ",
    "Province": "BALKH",
    "PC_Code": "2105075",
    "District": "MARMUL",
    "د_مرکز_نوم__نام_مرکز": "مسجد ملا افغان",
    "Polling_Center_Name": "Mula Afghan Mosque",
    "د_مرکز_ځای__موقعیت_مرکز": "قریه ملا افغان",
    "Polling_Center_Location": "Mula Afghan Village",
    "Map_Accuracy": "Building",
    "Map_Accuracy_Dari": "تعمیر",
    "Status": "Open",
    "Status_Dari": null,
    "PS_Male": 1,
    "PS_Female": 1,
    "PS_Total": 2,
    "ولسوالي": "مارمل ",
    "Region": "Northern Region"
   },
   "geometry": {
    "x": 7493975.1109748641,
    "y": 4374998.5528068366
   }
  },
  {
   "attributes": {
    "OBJECTID": 4116,
    "ولایت": "بلخ",
    "Province": "BALKH",
    "PC_Code": "2106169",
    "District": "BALKH",
    "د_مرکز_نوم__نام_مرکز": "مکتب بهاألدین ",
    "Polling_Center_Name": "Baha'uddin School",
    "د_مرکز_ځای__موقعیت_مرکز": "قریه بهاألدین",
    "Polling_Center_Location": "Baha'uddin Village",
    "Map_Accuracy": "Building",
    "Map_Accuracy_Dari": "تعمیر",
    "Status": "Open",
    "Status_Dari": null,
    "PS_Male": 2,
    "PS_Female": 1,
    "PS_Total": 3,
    "ولسوالي": "بلخ",
    "Region": "Northern Region"
   },
   "geometry": {
    "x": 7449739.8055064166,
    "y": 4407845.2259542057
   }
  },
  {
   "attributes": {
    "OBJECTID": 4117,
    "ولایت": "بلخ",
    "Province": "BALKH",
    "PC_Code": "2106170",
    "District": "BALKH",
    "د_مرکز_نوم__نام_مرکز": "مکتب سالارزی",
    "Polling_Center_Name": "Salarzai School",
    "د_مرکز_ځای__موقعیت_مرکز": "قریه سالارزی",
    "Polling_Center_Location": "Salarzai Village",
    "Map_Accuracy": "Building",
    "Map_Accuracy_Dari": "تعمیر",
    "Status": "Open",
    "Status_Dari": null,
    "PS_Male": 1,
    "PS_Female": 1,
    "PS_Total": 2,
    "ولسوالي": "بلخ",
    "Region": "Northern Region"
   },
   "geometry": {
    "x": 7438567.4674894409,
    "y": 4413560.4545048056
   }
  },
  {
   "attributes": {
    "OBJECTID": 4118,
    "ولایت": "بلخ",
    "Province": "BALKH",
    "PC_Code": "2107252",
    "District": "SHOLGARA",
    "د_مرکز_نوم__نام_مرکز": "مکتب بی بی فاطمه",
    "Polling_Center_Name": "Bibi Fatima School",
    "د_مرکز_ځای__موقعیت_مرکز": "قریه حاجی نظر",
    "Polling_Center_Location": "Haji Nazar Village",
    "Map_Accuracy": "Building",
    "Map_Accuracy_Dari": "تعمیر",
    "Status": "Open",
    "Status_Dari": null,
    "PS_Male": 2,
    "PS_Female": 1,
    "PS_Total": 3,
    "ولسوالي": "شولگره",
    "Region": "Northern Region"
   },
   "geometry": {
    "x": 7444799.9864045409,
    "y": 4352800.913643253
   }
  },
  {
   "attributes": {
    "OBJECTID": 4119,
    "ولایت": "بلخ",
    "Province": "BALKH",
    "PC_Code": "2107253",
    "District": "SHOLGARA",
    "د_مرکز_نوم__نام_مرکز": "مکتب قزل کنت",
    "Polling_Center_Name": "Qazal Kant School",
    "د_مرکز_ځای__موقعیت_مرکز": "قریه قزل کنت",
    "Polling_Center_Location": "Qazal Kant Village",
    "Map_Accuracy": "Building",
    "Map_Accuracy_Dari": "تعمیر",
    "Status": "Open",
    "Status_Dari": null,
    "PS_Male": 1,
    "PS_Female": 1,
    "PS_Total": 2,
    "ولسوالي": "شولگره",
    "Region": "Northern Region"
   },
   "geometry": {
    "x": 7446297.0131431185,
    "y": 4333628.3884581095
   }
  },
  {
   "attributes": {
    "OBJECTID": 4120,
    "ولایت": "بلخ",
    "Province": "BALKH",
    "PC_Code": "2108212",
    "District": "CHIMTAL",
    "د_مرکز_نوم__نام_مرکز": "کلینیک بای تیمور",
    "Polling_Center_Name": "Bay Taimoor Clinic",
    "د_مرکز_ځای__موقعیت_مرکز": "قریه بای تیمور",
    "Polling_Center_Location": "Bai Taimoor Village",
    "Map_Accuracy": "Building",
    "Map_Accuracy_Dari": "تعمیر",
    "Status": "Open",
    "Status_Dari": null,
    "PS_Male": 2,
    "PS_Female": 1,
    "PS_Total": 3,
    "ولسوالي": "چمتال",
    "Region": "Northern Region"
   },
   "geometry": {
    "x": 7431166.172957846,
    "y": 4393900.9504522756
   }
  },
  {
   "attributes": {
    "OBJECTID": 4121,
    "ولایت": "بلخ",
    "Province": "BALKH",
    "PC_Code": "2108234",
    "District": "CHIMTAL",
    "د_مرکز_نوم__نام_مرکز": "مسجد قریه نو شهر بلوچ",
    "Polling_Center_Name": "Nawshahr Baloch Village Mosque",
    "د_مرکز_ځای__موقعیت_مرکز": "نوشهر بلوچ",
    "Polling_Center_Location": "Nawshahr Baloch ",
    "Map_Accuracy": "Village",
    "Map_Accuracy_Dari": "قریه",
    "Status": "Open",
    "Status_Dari": null,
    "PS_Male": 1,
    "PS_Female": 1,
    "PS_Total": 2,
    "ولسوالي": "چمتال",
    "Region": "Northern Region"
   },
   "geometry": {
    "x": 7406886.9868128886,
    "y": 4401780.328532353
   }
  },
  {
   "attributes": {
    "OBJECTID": 4122,
    "ولایت": "بلخ",
    "Province": "BALKH",
    "PC_Code": "2108235",
    "District": "CHIMTAL",
    "د_مرکز_نوم__نام_مرکز": "منزل قدیم",
    "Polling_Center_Name": "Qadeem Private House",
    "د_مرکز_ځای__موقعیت_مرکز": "قریه صد میش",
    "Polling_Center_Location": "Sad Mesh Village",
    "Map_Accuracy": "Village",
    "Map_Accuracy_Dari": "قریه",
    "Status": "Open",
    "Status_Dari": null,
    "PS_Male": 1,
    "PS_Female": 1,
    "PS_Total": 2,
    "ولسوالي": "چمتال",
    "Region": "Northern Region"
   },
   "geometry": {
    "x": 7427702.3300788393,
    "y": 4376468.2915761787
   }
  },
  {
   "attributes": {
    "OBJECTID": 4123,
    "ولایت": "بلخ",
    "Province": "BALKH",
    "PC_Code": "2109135",
    "District": "DAWLAT ABAD",
    "د_مرکز_نوم__نام_مرکز": "مکتب شاخ مغیلان ",
    "Polling_Center_Name": "Shakh Moghelan School",
    "د_مرکز_ځای__موقعیت_مرکز": "قریه شاخ مغیلان",
    "Polling_Center_Location": "Shakh Moghelan Village",
    "Map_Accuracy": "Building",
    "Map_Accuracy_Dari": "تعمیر",
    "Status": "Open",
    "Status_Dari": null,
    "PS_Male": 1,
    "PS_Female": 1,
    "PS_Total": 2,
    "ولسوالي": "دولت آباد",
    "Region": "Northern Region"
   },
   "geometry": {
    "x": 7458573.3410593383,
    "y": 4430699.5200965283
   }
  },
  {
   "attributes": {
    "OBJECTID": 4124,
    "ولایت": "بلخ",
    "Province": "BALKH",
    "PC_Code": "2109136",
    "District": "DAWLAT ABAD",
    "د_مرکز_نوم__نام_مرکز": "مکتب شینگل آباد",
    "Polling_Center_Name": "Shengal Abad School",
    "د_مرکز_ځای__موقعیت_مرکز": "قریه شینگل آباد",
    "Polling_Center_Location": "Shengal Abad Village",
    "Map_Accuracy": "Building",
    "Map_Accuracy_Dari": "تعمیر",
    "Status": "Open",
    "Status_Dari": null,
    "PS_Male": 1,
    "PS_Female": 1,
    "PS_Total": 2,
    "ولسوالي": "دولت آباد",
    "Region": "Northern Region"
   },
   "geometry": {
    "x": 7449156.6182788778,
    "y": 4433687.3831254207
   }
  },
  {
   "attributes": {
    "OBJECTID": 4125,
    "ولایت": "بلخ",
    "Province": "BALKH",
    "PC_Code": "2110085",
    "District": "KHULM",
    "د_مرکز_نوم__نام_مرکز": "مکتب ینگی اریق",
    "Polling_Center_Name": "Yangee Areeq School",
    "د_مرکز_ځای__موقعیت_مرکز": "قریه ینگی اریق",
    "Polling_Center_Location": "Yangee Areeq Village",
    "Map_Accuracy": "Building",
    "Map_Accuracy_Dari": "تعمیر",
    "Status": "Open",
    "Status_Dari": null,
    "PS_Male": 2,
    "PS_Female": 1,
    "PS_Total": 3,
    "ولسوالي": "خلم",
    "Region": "Northern Region"
   },
   "geometry": {
    "x": 7557280.2066415111,
    "y": 4397671.9847604949
   }
  },
  {
   "attributes": {
    "OBJECTID": 4126,
    "ولایت": "بلخ",
    "Province": "BALKH",
    "PC_Code": "2110086",
    "District": "KHULM",
    "د_مرکز_نوم__نام_مرکز": "مکتب ده حسن",
    "Polling_Center_Name": "Deh Hassan School",
    "د_مرکز_ځای__موقعیت_مرکز": "قریه ده حسن",
    "Polling_Center_Location": "Deh Hassan Village",
    "Map_Accuracy": "Building",
    "Map_Accuracy_Dari": "تعمیر",
    "Status": "Open",
    "Status_Dari": null,
    "PS_Male": 2,
    "PS_Female": 1,
    "PS_Total": 3,
    "ولسوالي": "خلم",
    "Region": "Northern Region"
   },
   "geometry": {
    "x": 7536147.2710947171,
    "y": 4407619.1576203555
   }
  },
  {
   "attributes": {
    "OBJECTID": 4127,
    "ولایت": "بلخ",
    "Province": "BALKH",
    "PC_Code": "2111186",
    "District": "CHAR BOLAK",
    "د_مرکز_نوم__نام_مرکز": "مکتب شیخ تاش تیمور",
    "Polling_Center_Name": "Shekh Tash Taimur School",
    "د_مرکز_ځای__موقعیت_مرکز": "قریه شیخ تاش تیمور",
    "Polling_Center_Location": "Shekh Tash Taimor Village",
    "Map_Accuracy": "Building",
    "Map_Accuracy_Dari": "تعمیر",
    "Status": "Open",
    "Status_Dari": null,
    "PS_Male": 1,
    "PS_Female": 1,
    "PS_Total": 2,
    "ولسوالي": "چار بولک",
    "Region": "Northern Region"
   },
   "geometry": {
    "x": 7429848.1034326684,
    "y": 4417186.6117962403
   }
  },
  {
   "attributes": {
    "OBJECTID": 4128,
    "ولایت": "بلخ",
    "Province": "BALKH",
    "PC_Code": "2111187",
    "District": "CHAR BOLAK",
    "د_مرکز_نوم__نام_مرکز": "مکتب زیگزگ",
    "Polling_Center_Name": "Zegzag School",
    "د_مرکز_ځای__موقعیت_مرکز": "قریه زیگزگ",
    "Polling_Center_Location": "Zegzag Village",
    "Map_Accuracy": "Building",
    "Map_Accuracy_Dari": "تعمیر",
    "Status": "Open",
    "Status_Dari": null,
    "PS_Male": 1,
    "PS_Female": 1,
    "PS_Total": 2,
    "ولسوالي": "چار بولک",
    "Region": "Northern Region"
   },
   "geometry": {
    "x": 7415081.2902274355,
    "y": 4401546.9953764407
   }
  },
  {
   "attributes": {
    "OBJECTID": 4129,
    "ولایت": "بلخ",
    "Province": "BALKH",
    "PC_Code": "2111209",
    "District": "CHAR BOLAK",
    "د_مرکز_نوم__نام_مرکز": "منزل عین الدین",
    "Polling_Center_Name": "Ainuddin Private House",
    "د_مرکز_ځای__موقعیت_مرکز": "قریه نوارد زگزگ",
    "Polling_Center_Location": "Nawarad Zagzag Village",
    "Map_Accuracy": "Building",
    "Map_Accuracy_Dari": "تعمیر",
    "Status": "Open",
    "Status_Dari": null,
    "PS_Male": 1,
    "PS_Female": 1,
    "PS_Total": 2,
    "ولسوالي": "چار بولک",
    "Region": "Northern Region"
   },
   "geometry": {
    "x": 7415242.5064535858,
    "y": 4403079.9496931955
   }
  },
  {
   "attributes": {
    "OBJECTID": 4130,
    "ولایت": "بلخ",
    "Province": "BALKH",
    "PC_Code": "2111210",
    "District": "CHAR BOLAK",
    "د_مرکز_نوم__نام_مرکز": "منزل سر دار محمد",
    "Polling_Center_Name": "Sardar Mohammad Private House",
    "د_مرکز_ځای__موقعیت_مرکز": "قریه شنکی",
    "Polling_Center_Location": "Shenkai Village",
    "Map_Accuracy": "Building",
    "Map_Accuracy_Dari": "تعمیر",
    "Status": "Open",
    "Status_Dari": null,
    "PS_Male": 1,
    "PS_Female": 1,
    "PS_Total": 2,
    "ولسوالي": "چار بولک",
    "Region": "Northern Region"
   },
   "geometry": {
    "x": 7427516.1760603646,
    "y": 4405142.5290026497
   }
  },
  {
   "attributes": {
    "OBJECTID": 4131,
    "ولایت": "بلخ",
    "Province": "BALKH",
    "PC_Code": "2113107",
    "District": "KALDAR",
    "د_مرکز_نوم__نام_مرکز": "منزل عبدالرحیم قریه دار ",
    "Polling_Center_Name": "Abdul Raheem Qaryadar Private House",
    "د_مرکز_ځای__موقعیت_مرکز": "قریه کدو آریخ",
    "Polling_Center_Location": "Kado Areekh Village",
    "Map_Accuracy": "Building",
    "Map_Accuracy_Dari": "تعمیر",
    "Status": "Open",
    "Status_Dari": null,
    "PS_Male": 1,
    "PS_Female": 1,
    "PS_Total": 2,
    "ولسوالي": "کلدار",
    "Region": "Northern Region"
   },
   "geometry": {
    "x": 7537429.7183828373,
    "y": 4466889.3558850568
   }
  },
  {
   "attributes": {
    "OBJECTID": 4132,
    "ولایت": "بلخ",
    "Province": "BALKH",
    "PC_Code": "2114287",
    "District": "KISHINDEH",
    "د_مرکز_نوم__نام_مرکز": "مکتب آق کوپروک",
    "Polling_Center_Name": "Aaq Koprok School",
    "د_مرکز_ځای__موقعیت_مرکز": "مرکز آق کوپروک",
    "Polling_Center_Location": "Aaq Koprok Village",
    "Map_Accuracy": "Building",
    "Map_Accuracy_Dari": "تعمیر",
    "Status": "Open",
    "Status_Dari": null,
    "PS_Male": 4,
    "PS_Female": 2,
    "PS_Total": 6,
    "ولسوالي": "کشنده",
    "Region": "Northern Region"
   },
   "geometry": {
    "x": 7440241.0769966813,
    "y": 4311677.1775606154
   }
  },
  {
   "attributes": {
    "OBJECTID": 4133,
    "ولایت": "بلخ",
    "Province": "BALKH",
    "PC_Code": "2114297",
    "District": "KISHINDEH",
    "د_مرکز_نوم__نام_مرکز": "مسجد کرم شاهی",
    "Polling_Center_Name": "Karam Shahee Mosque",
    "د_مرکز_ځای__موقعیت_مرکز": "قریه کرم شاهی",
    "Polling_Center_Location": "Karam Shahee Village",
    "Map_Accuracy": "Building",
    "Map_Accuracy_Dari": "تعمیر",
    "Status": "Open",
    "Status_Dari": null,
    "PS_Male": 1,
    "PS_Female": 1,
    "PS_Total": 2,
    "ولسوالي": "کشنده",
    "Region": "Northern Region"
   },
   "geometry": {
    "x": 7456359.9733975045,
    "y": 4287010.2174443584
   }
  },
  {
   "attributes": {
    "OBJECTID": 4134,
    "ولایت": "بلخ",
    "Province": "BALKH",
    "PC_Code": "2114298",
    "District": "KISHINDEH",
    "د_مرکز_نوم__نام_مرکز": "کلینیک کشنده بالا",
    "Polling_Center_Name": "Kushenda Bala Clinic",
    "د_مرکز_ځای__موقعیت_مرکز": "قریه کشنده بالا",
    "Polling_Center_Location": "Kushenda Bala Village",
    "Map_Accuracy": "Building",
    "Map_Accuracy_Dari": "تعمیر",
    "Status": "Open",
    "Status_Dari": null,
    "PS_Male": 2,
    "PS_Female": 1,
    "PS_Total": 3,
    "ولسوالي": "کشنده",
    "Region": "Northern Region"
   },
   "geometry": {
    "x": 7456228.9748471249,
    "y": 4317235.0830995878
   }
  },
  {
   "attributes": {
    "OBJECTID": 4135,
    "ولایت": "بلخ",
    "Province": "BALKH",
    "PC_Code": "2115319",
    "District": "ZARI",
    "د_مرکز_نوم__نام_مرکز": "مکتب ابوذرغفاری",
    "Polling_Center_Name": "Abu Zar Ghaffari School",
    "د_مرکز_ځای__موقعیت_مرکز": "قریه خیرآباد",
    "Polling_Center_Location": "Khair Abad Village",
    "Map_Accuracy": "Building",
    "Map_Accuracy_Dari": "تعمیر",
    "Status": "Open",
    "Status_Dari": null,
    "PS_Male": 1,
    "PS_Female": 2,
    "PS_Total": 3,
    "ولسوالي": "زاری",
    "Region": "Northern Region"
   },
   "geometry": {
    "x": 7415417.5942014847,
    "y": 4261420.1882125596
   }
  },
  {
   "attributes": {
    "OBJECTID": 4136,
    "ولایت": "بلخ",
    "Province": "BALKH",
    "PC_Code": "2115324",
    "District": "ZARI",
    "د_مرکز_نوم__نام_مرکز": "مکتب ابتدائیه اومکی ",
    "Polling_Center_Name": "Omaki Primary School",
    "د_مرکز_ځای__موقعیت_مرکز": "قریه اومکی ",
    "Polling_Center_Location": "Omaki Village",
    "Map_Accuracy": "Building",
    "Map_Accuracy_Dari": "تعمیر",
    "Status": "Open",
    "Status_Dari": null,
    "PS_Male": 2,
    "PS_Female": 1,
    "PS_Total": 3,
    "ولسوالي": "زاری",
    "Region": "Northern Region"
   },
   "geometry": {
    "x": 7417942.4838923281,
    "y": 4304882.2707170509
   }
  },
  {
   "attributes": {
    "OBJECTID": 4137,
    "ولایت": "سرپل",
    "Province": "SAR-E-PUL",
    "PC_Code": "2201029",
    "District": "SAR-E-PUL",
    "د_مرکز_نوم__نام_مرکز": "مسجد قریه لتی",
    "Polling_Center_Name": "Qarya Latee Mosque",
    "د_مرکز_ځای__موقعیت_مرکز": "قریه لتی",
    "Polling_Center_Location": "Latee Village",
    "Map_Accuracy": "Building",
    "Map_Accuracy_Dari": "تعمیر",
    "Status": "Open",
    "Status_Dari": null,
    "PS_Male": 3,
    "PS_Female": 1,
    "PS_Total": 4,
    "ولسوالي": "سرپل",
    "Region": "Northern Region"
   },
   "geometry": {
    "x": 7342578.2067873711,
    "y": 4308178.1330563631
   }
  },
  {
   "attributes": {
    "OBJECTID": 4138,
    "ولایت": "سرپل",
    "Province": "SAR-E-PUL",
    "PC_Code": "2203064",
    "District": "KOHISTANAT",
    "د_مرکز_نوم__نام_مرکز": "مدرسه جامع خمدان",
    "Polling_Center_Name": "Khumdan Madrassa",
    "د_مرکز_ځای__موقعیت_مرکز": "خمدان",
    "Polling_Center_Location": "Khumdan ",
    "Map_Accuracy": "Building",
    "Map_Accuracy_Dari": "تعمیر",
    "Status": "Open",
    "Status_Dari": null,
    "PS_Male": 2,
    "PS_Female": 1,
    "PS_Total": 3,
    "ولسوالي": "کوهستانات",
    "Region": "Northern Region"
   },
   "geometry": {
    "x": 7328295.8415345363,
    "y": 4270290.4001604384
   }
  },
  {
   "attributes": {
    "OBJECTID": 4139,
    "ولایت": "سرپل",
    "Province": "SAR-E-PUL",
    "PC_Code": "2203084",
    "District": "KOHISTANAT",
    "د_مرکز_نوم__نام_مرکز": " مسجد جامع قریه \u064E قلعه کهنه",
    "Polling_Center_Name": "Qala-e-Kuhna Village Mosque",
    "د_مرکز_ځای__موقعیت_مرکز": "قلعه کهنه",
    "Polling_Center_Location": "Qala-e-Kuhna",
    "Map_Accuracy": "Building",
    "Map_Accuracy_Dari": "تعمیر",
    "Status": "Open",
    "Status_Dari": null,
    "PS_Male": 1,
    "PS_Female": 1,
    "PS_Total": 2,
    "ولسوالي": "کوهستانات",
    "Region": "Northern Region"
   },
   "geometry": {
    "x": 7378442.6995434752,
    "y": 4174665.5540734292
   }
  },
  {
   "attributes": {
    "OBJECTID": 4140,
    "ولایت": "سرپل",
    "Province": "SAR-E-PUL",
    "PC_Code": "2203085",
    "District": "KOHISTANAT",
    "د_مرکز_نوم__نام_مرکز": "مسجد جامع ده بزان",
    "Polling_Center_Name": "Deh Bezan Mosque",
    "د_مرکز_ځای__موقعیت_مرکز": "ده بزان",
    "Polling_Center_Location": "Deh Bezan",
    "Map_Accuracy": "Building",
    "Map_Accuracy_Dari": "تعمیر",
    "Status": "Open",
    "Status_Dari": null,
    "PS_Male": 1,
    "PS_Female": 1,
    "PS_Total": 2,
    "ولسوالي": "کوهستانات",
    "Region": "Northern Region"
   },
   "geometry": {
    "x": 7384460.9952304978,
    "y": 4170436.1476689619
   }
  },
  {
   "attributes": {
    "OBJECTID": 4141,
    "ولایت": "سرپل",
    "Province": "SAR-E-PUL",
    "PC_Code": "2205105",
    "District": "SANG CHARAK",
    "د_مرکز_نوم__نام_مرکز": "مسجد قطار درخت",
    "Polling_Center_Name": "Qatar Darakht Mosque",
    "د_مرکز_ځای__موقعیت_مرکز": "قطار درخت",
    "Polling_Center_Location": "Qatar Darakht",
    "Map_Accuracy": "Building",
    "Map_Accuracy_Dari": "تعمیر",
    "Status": "Open",
    "Status_Dari": null,
    "PS_Male": 2,
    "PS_Female": 2,
    "PS_Total": 4,
    "ولسوالي": "سنگ چارک",
    "Region": "Northern Region"
   },
   "geometry": {
    "x": 7386689.5824931059,
    "y": 4292426.1943921559
   }
  },
  {
   "attributes": {
    "OBJECTID": 4142,
    "ولایت": "سرپل",
    "Province": "SAR-E-PUL",
    "PC_Code": "2206125",
    "District": "GOSFANDI",
    "د_مرکز_نوم__نام_مرکز": "مسجدجامع قریه الغن",
    "Polling_Center_Name": "Alghan Village Mosque",
    "د_مرکز_ځای__موقعیت_مرکز": " قریه الغن",
    "Polling_Center_Location": "Alghan Village",
    "Map_Accuracy": "Building",
    "Map_Accuracy_Dari": "تعمیر",
    "Status": "Open",
    "Status_Dari": null,
    "PS_Male": 2,
    "PS_Female": 1,
    "PS_Total": 3,
    "ولسوالي": "گوسفندی ",
    "Region": "Northern Region"
   },
   "geometry": {
    "x": 7406015.5989896581,
    "y": 4300306.1619472662
   }
  },
  {
   "attributes": {
    "OBJECTID": 4143,
    "ولایت": "سرپل",
    "Province": "SAR-E-PUL",
    "PC_Code": "2206126",
    "District": "GOSFANDI",
    "د_مرکز_نوم__نام_مرکز": "مسجد لرک ازبکیه",
    "Polling_Center_Name": "Uzbekya Larak Mosque",
    "د_مرکز_ځای__موقعیت_مرکز": "لرک ازبکیه",
    "Polling_Center_Location": "Larak Uzbekya",
    "Map_Accuracy": "Village",
    "Map_Accuracy_Dari": "قریه",
    "Status": "Open",
    "Status_Dari": null,
    "PS_Male": 1,
    "PS_Female": 1,
    "PS_Total": 2,
    "ولسوالي": "گوسفندی ",
    "Region": "Northern Region"
   },
   "geometry": {
    "x": 7398912.7097114781,
    "y": 4304759.9850381818
   }
  },
  {
   "attributes": {
    "OBJECTID": 4144,
    "ولایت": "سرپل",
    "Province": "SAR-E-PUL",
    "PC_Code": "2207096",
    "District": "BALKHAB",
    "د_مرکز_نوم__نام_مرکز": "مدرسه خرماتخت",
    "Polling_Center_Name": "Khormatakht Madrassa",
    "د_مرکز_ځای__موقعیت_مرکز": "خرماتخت",
    "Polling_Center_Location": "Khormatakht",
    "Map_Accuracy": "Building",
    "Map_Accuracy_Dari": "تعمیر",
    "Status": "Open",
    "Status_Dari": null,
    "PS_Male": 3,
    "PS_Female": 1,
    "PS_Total": 4,
    "ولسوالي": "بلخآب",
    "Region": "Northern Region"
   },
   "geometry": {
    "x": 7405332.0583543712,
    "y": 4215895.4977727123
   }
  },
  {
   "attributes": {
    "OBJECTID": 4145,
    "ولایت": "غور",
    "Province": "GHOR",
    "PC_Code": "2301019",
    "District": "CHIGHCHERAN",
    "د_مرکز_نوم__نام_مرکز": "دهنه دوابی",
    "Polling_Center_Name": "Dahna Do-Abi",
    "د_مرکز_ځای__موقعیت_مرکز": "آب کلان ",
    "Polling_Center_Location": "Aab Kalan",
    "Map_Accuracy": "Village",
    "Map_Accuracy_Dari": "قریه",
    "Status": "Open",
    "Status_Dari": null,
    "PS_Male": 4,
    "PS_Female": 2,
    "PS_Total": 6,
    "ولسوالي": "چغچران",
    "Region": "Western Region"
   },
   "geometry": {
    "x": 7196395.7880737558,
    "y": 4114053.9610774145
   }
  },
  {
   "attributes": {
    "OBJECTID": 4146,
    "ولایت": "غور",
    "Province": "GHOR",
    "PC_Code": "2301020",
    "District": "CHIGHCHERAN",
    "د_مرکز_نوم__نام_مرکز": "باد گاه شویچ",
    "Polling_Center_Name": "Badgah Showech",
    "د_مرکز_ځای__موقعیت_مرکز": " بادگاه ",
    "Polling_Center_Location": "Badgah",
    "Map_Accuracy": "Village",
    "Map_Accuracy_Dari": "قریه",
    "Status": "Open",
    "Status_Dari": null,
    "PS_Male": 3,
    "PS_Female": 2,
    "PS_Total": 5,
    "ولسوالي": "چغچران",
    "Region": "Western Region"
   },
   "geometry": {
    "x": 7289394.4261653787,
    "y": 4099119.5173840001
   }
  },
  {
   "attributes": {
    "OBJECTID": 4147,
    "ولایت": "غور",
    "Province": "GHOR",
    "PC_Code": "2301030",
    "District": "CHIGHCHERAN",
    "د_مرکز_نوم__نام_مرکز": "مسجد قریه پلال گورگی",
    "Polling_Center_Name": "Plal Gorgi Village Mosque",
    "د_مرکز_ځای__موقعیت_مرکز": "قریه پلال گورگی",
    "Polling_Center_Location": "Plal Gorgi Village",
    "Map_Accuracy": "Building",
    "Map_Accuracy_Dari": "تعمیر",
    "Status": "Open",
    "Status_Dari": null,
    "PS_Male": 2,
    "PS_Female": 2,
    "PS_Total": 4,
    "ولسوالي": "چغچران",
    "Region": "Western Region"
   },
   "geometry": {
    "x": 7219444.9762218725,
    "y": 4099925.1961303283
   }
  },
  {
   "attributes": {
    "OBJECTID": 4148,
    "ولایت": "غور",
    "Province": "GHOR",
    "PC_Code": "2301041",
    "District": "CHIGHCHERAN",
    "د_مرکز_نوم__نام_مرکز": "مسجد چشمه کج",
    "Polling_Center_Name": "Chashma Kaj Mosque",
    "د_مرکز_ځای__موقعیت_مرکز": " چشمه کج",
    "Polling_Center_Location": "Chashma Kaj",
    "Map_Accuracy": "Village",
    "Map_Accuracy_Dari": "قریه",
    "Status": "Open",
    "Status_Dari": null,
    "PS_Male": 2,
    "PS_Female": 1,
    "PS_Total": 3,
    "ولسوالي": "چغچران",
    "Region": "Western Region"
   },
   "geometry": {
    "x": 7230014.1908037057,
    "y": 4113481.5572036421
   }
  },
  {
   "attributes": {
    "OBJECTID": 4149,
    "ولایت": "غور",
    "Province": "GHOR",
    "PC_Code": "2301042",
    "District": "CHIGHCHERAN",
    "د_مرکز_نوم__نام_مرکز": "مسجد خیمه سفید",
    "Polling_Center_Name": "Khema Safid Mosque",
    "د_مرکز_ځای__موقعیت_مرکز": "خیل اعظم ",
    "Polling_Center_Location": "Khel Azam",
    "Map_Accuracy": "Village",
    "Map_Accuracy_Dari": "قریه",
    "Status": "Open",
    "Status_Dari": null,
    "PS_Male": 2,
    "PS_Female": 1,
    "PS_Total": 3,
    "ولسوالي": "چغچران",
    "Region": "Western Region"
   },
   "geometry": {
    "x": 7323495.2463802099,
    "y": 4164096.8783479719
   }
  },
  {
   "attributes": {
    "OBJECTID": 4150,
    "ولایت": "غور",
    "Province": "GHOR",
    "PC_Code": "2303048",
    "District": "DAWLATYAR",
    "د_مرکز_نوم__نام_مرکز": "مسجد دروازه",
    "Polling_Center_Name": "Darwaza Mosque",
    "د_مرکز_ځای__موقعیت_مرکز": "دروازه",
    "Polling_Center_Location": "Darwaza",
    "Map_Accuracy": "Village",
    "Map_Accuracy_Dari": "قریه",
    "Status": "Open",
    "Status_Dari": null,
    "PS_Male": 1,
    "PS_Female": 1,
    "PS_Total": 2,
    "ولسوالي": "دولت یار ",
    "Region": "Western Region"
   },
   "geometry": {
    "x": 7324755.5544480113,
    "y": 4087957.0909484359
   }
  },
  {
   "attributes": {
    "OBJECTID": 4151,
    "ولایت": "غور",
    "Province": "GHOR",
    "PC_Code": "2304070",
    "District": "CHAR SADA",
    "د_مرکز_نوم__نام_مرکز": "مکتب کورپی",
    "Polling_Center_Name": "Korpai School",
    "د_مرکز_ځای__موقعیت_مرکز": " کورپی",
    "Polling_Center_Location": "Korpai",
    "Map_Accuracy": "Building",
    "Map_Accuracy_Dari": "تعمیر",
    "Status": "Open",
    "Status_Dari": null,
    "PS_Male": 2,
    "PS_Female": 2,
    "PS_Total": 4,
    "ولسوالي": "چار صده",
    "Region": "Western Region"
   },
   "geometry": {
    "x": 7247745.9819483003,
    "y": 4178134.8007368511
   }
  },
  {
   "attributes": {
    "OBJECTID": 4152,
    "ولایت": "غور",
    "Province": "GHOR",
    "PC_Code": "2305131",
    "District": "PASABAND",
    "د_مرکز_نوم__نام_مرکز": "مکتب پیتاب ",
    "Polling_Center_Name": "Petaab School",
    "د_مرکز_ځای__موقعیت_مرکز": "پیتاب ",
    "Polling_Center_Location": "Pitab",
    "Map_Accuracy": "Village",
    "Map_Accuracy_Dari": "قریه",
    "Status": "Open",
    "Status_Dari": null,
    "PS_Male": 2,
    "PS_Female": 1,
    "PS_Total": 3,
    "ولسوالي": "پسابند ",
    "Region": "Western Region"
   },
   "geometry": {
    "x": 7296841.5231014537,
    "y": 3990153.4779460826
   }
  },
  {
   "attributes": {
    "OBJECTID": 4153,
    "ولایت": "غور",
    "Province": "GHOR",
    "PC_Code": "2306088",
    "District": "SHAHRAK",
    "د_مرکز_نوم__نام_مرکز": "مکتب ابتدائیه استوه",
    "Polling_Center_Name": "Ostwa Primary School",
    "د_مرکز_ځای__موقعیت_مرکز": " استوه",
    "Polling_Center_Location": "Ostwa",
    "Map_Accuracy": "Village",
    "Map_Accuracy_Dari": "قریه",
    "Status": "Open",
    "Status_Dari": null,
    "PS_Male": 1,
    "PS_Female": 1,
    "PS_Total": 2,
    "ولسوالي": "شهرک ",
    "Region": "Western Region"
   },
   "geometry": {
    "x": 7185895.2075239737,
    "y": 4077700.8361101542
   }
  },
  {
   "attributes": {
    "OBJECTID": 4154,
    "ولایت": "غور",
    "Province": "GHOR",
    "PC_Code": "2307149",
    "District": "LAL WA SARJANGAL",
    "د_مرکز_نوم__نام_مرکز": "مکتب سرقل تلخک ",
    "Polling_Center_Name": "Sarqal Talkhak School",
    "د_مرکز_ځای__موقعیت_مرکز": "سرقل",
    "Polling_Center_Location": "Sarqal",
    "Map_Accuracy": "Village",
    "Map_Accuracy_Dari": "قریه",
    "Status": "Open",
    "Status_Dari": null,
    "PS_Male": 2,
    "PS_Female": 1,
    "PS_Total": 3,
    "ولسوالي": "لعل و سرجنگل ",
    "Region": "Western Region"
   },
   "geometry": {
    "x": 7404281.9036740698,
    "y": 4081314.1624685102
   }
  },
  {
   "attributes": {
    "OBJECTID": 4155,
    "ولایت": "غور",
    "Province": "GHOR",
    "PC_Code": "2307150",
    "District": "LAL WA SARJANGAL",
    "د_مرکز_نوم__نام_مرکز": "مکتب دهن سر خک",
    "Polling_Center_Name": "Dahan Sarkhak School",
    "د_مرکز_ځای__موقعیت_مرکز": " دهن سرخک بالا ",
    "Polling_Center_Location": "Dahan Sarkhak Bala",
    "Map_Accuracy": "Building",
    "Map_Accuracy_Dari": "تعمیر",
    "Status": "Open",
    "Status_Dari": null,
    "PS_Male": 2,
    "PS_Female": 1,
    "PS_Total": 3,
    "ولسوالي": "لعل و سرجنگل ",
    "Region": "Western Region"
   },
   "geometry": {
    "x": 7389630.0256166905,
    "y": 4073208.8344443059
   }
  },
  {
   "attributes": {
    "OBJECTID": 4156,
    "ولایت": "غور",
    "Province": "GHOR",
    "PC_Code": "2307160",
    "District": "LAL WA SARJANGAL",
    "د_مرکز_نوم__نام_مرکز": "مکتب خم شور",
    "Polling_Center_Name": "Kham Shor School",
    "د_مرکز_ځای__موقعیت_مرکز": "قریه دهن خم شور",
    "Polling_Center_Location": "Dahan Kham Shor Village",
    "Map_Accuracy": "Building",
    "Map_Accuracy_Dari": "تعمیر",
    "Status": "Open",
    "Status_Dari": null,
    "PS_Male": 2,
    "PS_Female": 1,
    "PS_Total": 3,
    "ولسوالي": "لعل و سرجنگل ",
    "Region": "Western Region"
   },
   "geometry": {
    "x": 7344660.3677313831,
    "y": 4108988.4995542848
   }
  },
  {
   "attributes": {
    "OBJECTID": 4157,
    "ولایت": "دایکندی",
    "Province": "DAYKUNDI",
    "PC_Code": "2401002",
    "District": "NILI",
    "د_مرکز_نوم__نام_مرکز": "مسجد جرف",
    "Polling_Center_Name": "Jaraf Mosque",
    "د_مرکز_ځای__موقعیت_مرکز": "جرف",
    "Polling_Center_Location": "Jaraf",
    "Map_Accuracy": "Building",
    "Map_Accuracy_Dari": "تعمیر",
    "Status": "Open",
    "Status_Dari": null,
    "PS_Male": 3,
    "PS_Female": 3,
    "PS_Total": 6,
    "ولسوالي": "نیلی",
    "Region": "Central Highlands Region"
   },
   "geometry": {
    "x": 7357852.9886402143,
    "y": 4008420.0310277413
   }
  },
  {
   "attributes": {
    "OBJECTID": 4158,
    "ولایت": "دایکندی",
    "Province": "DAYKUNDI",
    "PC_Code": "2402026",
    "District": "SHAHRISTAN",
    "د_مرکز_نوم__نام_مرکز": "مسجد چوچان",
    "Polling_Center_Name": "Chochan Mosque",
    "د_مرکز_ځای__موقعیت_مرکز": "چوچان",
    "Polling_Center_Location": "Chochan",
    "Map_Accuracy": "Building",
    "Map_Accuracy_Dari": "تعمیر",
    "Status": "Open",
    "Status_Dari": null,
    "PS_Male": 1,
    "PS_Female": 1,
    "PS_Total": 2,
    "ولسوالي": "شهرستان",
    "Region": "Central Highlands Region"
   },
   "geometry": {
    "x": 7428106.956390365,
    "y": 3967235.7917951699
   }
  },
  {
   "attributes": {
    "OBJECTID": 4159,
    "ولایت": "دایکندی",
    "Province": "DAYKUNDI",
    "PC_Code": "2402027",
    "District": "SHAHRISTAN",
    "د_مرکز_نوم__نام_مرکز": "مسجد جنگلک",
    "Polling_Center_Name": "Jangalak Mosque",
    "د_مرکز_ځای__موقعیت_مرکز": "جنگلک",
    "Polling_Center_Location": "Jangalak",
    "Map_Accuracy": "Building",
    "Map_Accuracy_Dari": "تعمیر",
    "Status": "Open",
    "Status_Dari": null,
    "PS_Male": 1,
    "PS_Female": 1,
    "PS_Total": 2,
    "ولسوالي": "شهرستان",
    "Region": "Central Highlands Region"
   },
   "geometry": {
    "x": 7423320.9719192088,
    "y": 3984067.4119827515
   }
  },
  {
   "attributes": {
    "OBJECTID": 4160,
    "ولایت": "دایکندی",
    "Province": "DAYKUNDI",
    "PC_Code": "2403106",
    "District": "GIZAB",
    "د_مرکز_نوم__نام_مرکز": "مکتب بازار بیری",
    "Polling_Center_Name": "Bazar Beri School",
    "د_مرکز_ځای__موقعیت_مرکز": "مرکز بازار بیری",
    "Polling_Center_Location": "Markaz Bazar Beri",
    "Map_Accuracy": "Building",
    "Map_Accuracy_Dari": "تعمیر",
    "Status": "Open",
    "Status_Dari": null,
    "PS_Male": 1,
    "PS_Female": 2,
    "PS_Total": 3,
    "ولسوالي": "گیزاب",
    "Region": "Central Highlands Region"
   },
   "geometry": {
    "x": 7350438.0797348982,
    "y": 3950292.0294908639
   }
  },
  {
   "attributes": {
    "OBJECTID": 4161,
    "ولایت": "دایکندی",
    "Province": "DAYKUNDI",
    "PC_Code": "2403116",
    "District": "GIZAB",
    "د_مرکز_نوم__نام_مرکز": "مسجد بازار قریه نیکوزی",
    "Polling_Center_Name": "Nikozai Village Mosque",
    "د_مرکز_ځای__موقعیت_مرکز": "قریه دنیکوزی",
    "Polling_Center_Location": "Nikozai Village",
    "Map_Accuracy": "Village",
    "Map_Accuracy_Dari": "قریه",
    "Status": "Open",
    "Status_Dari": null,
    "PS_Male": 1,
    "PS_Female": 1,
    "PS_Total": 2,
    "ولسوالي": "گیزاب",
    "Region": "Central Highlands Region"
   },
   "geometry": {
    "x": 7371896.5646797391,
    "y": 3951098.186269572
   }
  },
  {
   "attributes": {
    "OBJECTID": 4162,
    "ولایت": "دایکندی",
    "Province": "DAYKUNDI",
    "PC_Code": "2404038",
    "District": "ISHTERLAI",
    "د_مرکز_نوم__نام_مرکز": "مدرسه سر تاله",
    "Polling_Center_Name": "Sar Tala Madrassa",
    "د_مرکز_ځای__موقعیت_مرکز": "سر تاله",
    "Polling_Center_Location": "Sar Tala",
    "Map_Accuracy": "Building",
    "Map_Accuracy_Dari": "تعمیر",
    "Status": "Open",
    "Status_Dari": null,
    "PS_Male": 1,
    "PS_Female": 1,
    "PS_Total": 2,
    "ولسوالي": "اشترلی",
    "Region": "Central Highlands Region"
   },
   "geometry": {
    "x": 7397601.890424734,
    "y": 4041334.7625600272
   }
  },
  {
   "attributes": {
    "OBJECTID": 4163,
    "ولایت": "دایکندی",
    "Province": "DAYKUNDI",
    "PC_Code": "2404039",
    "District": "ISHTERLAI",
    "د_مرکز_نوم__نام_مرکز": "مسجد دهن ده یک",
    "Polling_Center_Name": "Dahan Deh Yak Mosque",
    "د_مرکز_ځای__موقعیت_مرکز": "شیخمیران",
    "Polling_Center_Location": "Shikhmeeran",
    "Map_Accuracy": "Building",
    "Map_Accuracy_Dari": "تعمیر",
    "Status": "Open",
    "Status_Dari": null,
    "PS_Male": 2,
    "PS_Female": 1,
    "PS_Total": 3,
    "ولسوالي": "اشترلی",
    "Region": "Central Highlands Region"
   },
   "geometry": {
    "x": 7373537.7100838805,
    "y": 4034875.6948720589
   }
  },
  {
   "attributes": {
    "OBJECTID": 4164,
    "ولایت": "دایکندی",
    "Province": "DAYKUNDI",
    "PC_Code": "2404048",
    "District": "ISHTERLAI",
    "د_مرکز_نوم__نام_مرکز": "مسجد باریک",
    "Polling_Center_Name": "Bareek Mosque",
    "د_مرکز_ځای__موقعیت_مرکز": "باریک سیاه دره",
    "Polling_Center_Location": "Bareek Siyah Dara",
    "Map_Accuracy": "Building",
    "Map_Accuracy_Dari": "تعمیر",
    "Status": "Open",
    "Status_Dari": null,
    "PS_Male": 2,
    "PS_Female": 2,
    "PS_Total": 4,
    "ولسوالي": "اشترلی",
    "Region": "Central Highlands Region"
   },
   "geometry": {
    "x": 7361423.9743027212,
    "y": 4025841.0406616386
   }
  },
  {
   "attributes": {
    "OBJECTID": 4165,
    "ولایت": "دایکندی",
    "Province": "DAYKUNDI",
    "PC_Code": "2404049",
    "District": "ISHTERLAI",
    "د_مرکز_نوم__نام_مرکز": "مدرسه قوچنقی",
    "Polling_Center_Name": "Qochanqi Madrassa",
    "د_مرکز_ځای__موقعیت_مرکز": "قوچنقی",
    "Polling_Center_Location": "Qochanqi",
    "Map_Accuracy": "Building",
    "Map_Accuracy_Dari": "تعمیر",
    "Status": "Open",
    "Status_Dari": null,
    "PS_Male": 2,
    "PS_Female": 1,
    "PS_Total": 3,
    "ولسوالي": "اشترلی",
    "Region": "Central Highlands Region"
   },
   "geometry": {
    "x": 7378341.5134659279,
    "y": 4038129.1051879884
   }
  },
  {
   "attributes": {
    "OBJECTID": 4166,
    "ولایت": "دایکندی",
    "Province": "DAYKUNDI",
    "PC_Code": "2405102",
    "District": "KHEDIR",
    "د_مرکز_نوم__نام_مرکز": "مسجد خاک فقیر",
    "Polling_Center_Name": "Khak Faqeer Mosque",
    "د_مرکز_ځای__موقعیت_مرکز": "خاک فقیر",
    "Polling_Center_Location": "Khak Faqeer",
    "Map_Accuracy": "Building",
    "Map_Accuracy_Dari": "تعمیر",
    "Status": "Open",
    "Status_Dari": null,
    "PS_Male": 1,
    "PS_Female": 1,
    "PS_Total": 2,
    "ولسوالي": "خدیر",
    "Region": "Central Highlands Region"
   },
   "geometry": {
    "x": 7307130.2938297177,
    "y": 3991566.4885953548
   }
  },
  {
   "attributes": {
    "OBJECTID": 4167,
    "ولایت": "دایکندی",
    "Province": "DAYKUNDI",
    "PC_Code": "2405103",
    "District": "KHEDIR",
    "د_مرکز_نوم__نام_مرکز": "مسجد شنیه جلیل پسی بند",
    "Polling_Center_Name": "Shinya Jalil Pasi Band Mosque",
    "د_مرکز_ځای__موقعیت_مرکز": "پسی بند",
    "Polling_Center_Location": "Pasi Band",
    "Map_Accuracy": "Building",
    "Map_Accuracy_Dari": "تعمیر",
    "Status": "Open",
    "Status_Dari": null,
    "PS_Male": 1,
    "PS_Female": 1,
    "PS_Total": 2,
    "ولسوالي": "خدیر",
    "Region": "Central Highlands Region"
   },
   "geometry": {
    "x": 7336509.8574045142,
    "y": 4026894.6172124981
   }
  },
  {
   "attributes": {
    "OBJECTID": 4168,
    "ولایت": "دایکندی",
    "Province": "DAYKUNDI",
    "PC_Code": "2407145",
    "District": "MIRAMOR",
    "د_مرکز_نوم__نام_مرکز": "مکتب تگاب",
    "Polling_Center_Name": "Tagab Mosque",
    "د_مرکز_ځای__موقعیت_مرکز": "تگاب",
    "Polling_Center_Location": "Tagab",
    "Map_Accuracy": "Building",
    "Map_Accuracy_Dari": "تعمیر",
    "Status": "Open",
    "Status_Dari": null,
    "PS_Male": 3,
    "PS_Female": 1,
    "PS_Total": 4,
    "ولسوالي": "میرامور",
    "Region": "Central Highlands Region"
   },
   "geometry": {
    "x": 7434430.1338987686,
    "y": 4003547.2969901571
   }
  },
  {
   "attributes": {
    "OBJECTID": 4169,
    "ولایت": "دایکندی",
    "Province": "DAYKUNDI",
    "PC_Code": "2408081",
    "District": "SANG-E-TAKHT",
    "د_مرکز_نوم__نام_مرکز": "مسجد ارل",
    "Polling_Center_Name": "Aral Mosque",
    "د_مرکز_ځای__موقعیت_مرکز": "ارل",
    "Polling_Center_Location": "Aral",
    "Map_Accuracy": "Building",
    "Map_Accuracy_Dari": "تعمیر",
    "Status": "Open",
    "Status_Dari": null,
    "PS_Male": 2,
    "PS_Female": 1,
    "PS_Total": 3,
    "ولسوالي": "سنگ تخت",
    "Region": "Central Highlands Region"
   },
   "geometry": {
    "x": 7318765.5550623545,
    "y": 4062767.6903614742
   }
  },
  {
   "attributes": {
    "OBJECTID": 4170,
    "ولایت": "دایکندی",
    "Province": "DAYKUNDI",
    "PC_Code": "2408082",
    "District": "SANG-E-TAKHT",
    "د_مرکز_نوم__نام_مرکز": "مسجد شینیه قلعه",
    "Polling_Center_Name": "Shinya Qala Mosque",
    "د_مرکز_ځای__موقعیت_مرکز": "شینیه قلعه",
    "Polling_Center_Location": "Shinya Qala",
    "Map_Accuracy": "Building",
    "Map_Accuracy_Dari": "تعمیر",
    "Status": "Open",
    "Status_Dari": null,
    "PS_Male": 2,
    "PS_Female": 1,
    "PS_Total": 3,
    "ولسوالي": "سنگ تخت",
    "Region": "Central Highlands Region"
   },
   "geometry": {
    "x": 7326840.9380912734,
    "y": 4047042.225604279
   }
  },
  {
   "attributes": {
    "OBJECTID": 4171,
    "ولایت": "دایکندی",
    "Province": "DAYKUNDI",
    "PC_Code": "2409061",
    "District": "KEJRAN",
    "د_مرکز_نوم__نام_مرکز": "مسجد سنگ شهرک",
    "Polling_Center_Name": "Sang Shahrak Mosque",
    "د_مرکز_ځای__موقعیت_مرکز": "سنگ شهرک",
    "Polling_Center_Location": "Sang Shahrak",
    "Map_Accuracy": "Building",
    "Map_Accuracy_Dari": "تعمیر",
    "Status": "Open",
    "Status_Dari": null,
    "PS_Male": 2,
    "PS_Female": 1,
    "PS_Total": 3,
    "ولسوالي": "کجران",
    "Region": "Central Highlands Region"
   },
   "geometry": {
    "x": 7316689.9279045379,
    "y": 3933126.5397944823
   }
  },
  {
   "attributes": {
    "OBJECTID": 4172,
    "ولایت": "دایکندی",
    "Province": "DAYKUNDI",
    "PC_Code": "2409062",
    "District": "KEJRAN",
    "د_مرکز_نوم__نام_مرکز": "منبرغرینج",
    "Polling_Center_Name": "Gharenj Menbar",
    "د_مرکز_ځای__موقعیت_مرکز": "غرینج",
    "Polling_Center_Location": "Gharenj",
    "Map_Accuracy": "Building",
    "Map_Accuracy_Dari": "تعمیر",
    "Status": "Open",
    "Status_Dari": null,
    "PS_Male": 2,
    "PS_Female": 1,
    "PS_Total": 3,
    "ولسوالي": "کجران",
    "Region": "Central Highlands Region"
   },
   "geometry": {
    "x": 7320394.0991001334,
    "y": 3941560.4369849088
   }
  },
  {
   "attributes": {
    "OBJECTID": 4173,
    "ولایت": "ارزگان",
    "Province": "UROZGAN",
    "PC_Code": "2501013",
    "District": "TIRINKOT",
    "د_مرکز_نوم__نام_مرکز": "لیسه کوټوال",
    "Polling_Center_Name": "Kotwal High School",
    "د_مرکز_ځای__موقعیت_مرکز": "کوټوال",
    "Polling_Center_Location": "Kotwal",
    "Map_Accuracy": "Building",
    "Map_Accuracy_Dari": "تعمیر",
    "Status": "Open",
    "Status_Dari": null,
    "PS_Male": 3,
    "PS_Female": 2,
    "PS_Total": 5,
    "ولسوالي": "ترینکوټ",
    "Region": "Southern Region"
   },
   "geometry": {
    "x": 7334821.226445186,
    "y": 3850774.7000300647
   }
  },
  {
   "attributes": {
    "OBJECTID": 4174,
    "ولایت": "ارزگان",
    "Province": "UROZGAN",
    "PC_Code": "2501014",
    "District": "TIRINKOT",
    "د_مرکز_نوم__نام_مرکز": "مکتب متوسطه چرمگر",
    "Polling_Center_Name": "Charamgar Secondary School",
    "د_مرکز_ځای__موقعیت_مرکز": "چرمگر",
    "Polling_Center_Location": "Charamgar",
    "Map_Accuracy": "Building",
    "Map_Accuracy_Dari": "تعمیر",
    "Status": "Open",
    "Status_Dari": null,
    "PS_Male": 3,
    "PS_Female": 2,
    "PS_Total": 5,
    "ولسوالي": "ترینکوټ",
    "Region": "Southern Region"
   },
   "geometry": {
    "x": 7332088.4687559931,
    "y": 3848031.9542669184
   }
  },
  {
   "attributes": {
    "OBJECTID": 4175,
    "ولایت": "ارزگان",
    "Province": "UROZGAN",
    "PC_Code": "2505027",
    "District": "KHAS UROZGAN",
    "د_مرکز_نوم__نام_مرکز": "د مټک خان کلی لیسه",
    "Polling_Center_Name": "Matak Khan Village High School",
    "د_مرکز_ځای__موقعیت_مرکز": "مټک خان کلی",
    "Polling_Center_Location": "Matak Khan Village",
    "Map_Accuracy": "Building",
    "Map_Accuracy_Dari": "تعمیر",
    "Status": "Open",
    "Status_Dari": null,
    "PS_Male": 3,
    "PS_Female": 3,
    "PS_Total": 6,
    "ولسوالي": "خاص ارزگان",
    "Region": "Southern Region"
   },
   "geometry": {
    "x": 7428248.0672032861,
    "y": 3888189.3467186219
   }
  },
  {
   "attributes": {
    "OBJECTID": 4176,
    "ولایت": "ارزگان",
    "Province": "UROZGAN",
    "PC_Code": "2505028",
    "District": "KHAS UROZGAN",
    "د_مرکز_نوم__نام_مرکز": "مارغوندی مکتب",
    "Polling_Center_Name": "Marghonde School",
    "د_مرکز_ځای__موقعیت_مرکز": "ناوه سلطان محمد کلی",
    "Polling_Center_Location": "Nawa Sultan Mohammad Village",
    "Map_Accuracy": "Village",
    "Map_Accuracy_Dari": "قریه",
    "Status": "Open",
    "Status_Dari": null,
    "PS_Male": 4,
    "PS_Female": 3,
    "PS_Total": 7,
    "ولسوالي": "خاص ارزگان",
    "Region": "Southern Region"
   },
   "geometry": {
    "x": 7432273.9321350455,
    "y": 3907892.4933099053
   }
  },
  {
   "attributes": {
    "OBJECTID": 4177,
    "ولایت": "زابل",
    "Province": "ZABUL",
    "PC_Code": "2601004",
    "District": "QALAT",
    "د_مرکز_نوم__نام_مرکز": "ولايتي شفاخانه",
    "Polling_Center_Name": "Provincial Hospital",
    "د_مرکز_ځای__موقعیت_مرکز": "قلات",
    "Polling_Center_Location": "Qalat",
    "Map_Accuracy": "Building",
    "Map_Accuracy_Dari": "تعمیر",
    "Status": "Open",
    "Status_Dari": null,
    "PS_Male": 3,
    "PS_Female": 2,
    "PS_Total": 5,
    "ولسوالي": "قلات",
    "Region": "Southern Region"
   },
   "geometry": {
    "x": 7447124.8104801392,
    "y": 3776771.0343095143
   }
  },
  {
   "attributes": {
    "OBJECTID": 4178,
    "ولایت": "زابل",
    "Province": "ZABUL",
    "PC_Code": "2606011",
    "District": "SHAH JOI",
    "د_مرکز_نوم__نام_مرکز": "مکتب بازرګان",
    "Polling_Center_Name": "Bazargan School",
    "د_مرکز_ځای__موقعیت_مرکز": "بازرګان",
    "Polling_Center_Location": "Bazargan",
    "Map_Accuracy": "Building",
    "Map_Accuracy_Dari": "تعمیر",
    "Status": "Open",
    "Status_Dari": null,
    "PS_Male": 4,
    "PS_Female": 1,
    "PS_Total": 5,
    "ولسوالي": "شاه جوی",
    "Region": "Southern Region"
   },
   "geometry": {
    "x": 7508996.795720242,
    "y": 3835863.342130213
   }
  },
  {
   "attributes": {
    "OBJECTID": 4179,
    "ولایت": "زابل",
    "Province": "ZABUL",
    "PC_Code": "2606012",
    "District": "SHAH JOI",
    "د_مرکز_نوم__نام_مرکز": "مكتب غلام رباط مالند",
    "Polling_Center_Name": "Ghulam Rabat Maland School",
    "د_مرکز_ځای__موقعیت_مرکز": "غلام رباط",
    "Polling_Center_Location": "Ghulam Rabat",
    "Map_Accuracy": "Building",
    "Map_Accuracy_Dari": "تعمیر",
    "Status": "Open",
    "Status_Dari": null,
    "PS_Male": 2,
    "PS_Female": 1,
    "PS_Total": 3,
    "ولسوالي": "شاه جوی",
    "Region": "Southern Region"
   },
   "geometry": {
    "x": 7505664.5269133765,
    "y": 3844775.2473589969
   }
  },
  {
   "attributes": {
    "OBJECTID": 4180,
    "ولایت": "کندهار",
    "Province": "کندهار",
    "PC_Code": "2701025",
    "District": "KANDAHAR",
    "د_مرکز_نوم__نام_مرکز": "د سردار مدد مكتب",
    "Polling_Center_Name": "Sardar Madad School",
    "د_مرکز_ځای__موقعیت_مرکز": "دوهمه ناحيه",
    "Polling_Center_Location": "D02 - Nahia 2",
    "Map_Accuracy": "Building",
    "Map_Accuracy_Dari": "تعمیر",
    "Status": "Open",
    "Status_Dari": null,
    "PS_Male": 1,
    "PS_Female": 6,
    "PS_Total": 7,
    "ولسوالي": "کندهار",
    "Region": "Southern Region"
   },
   "geometry": {
    "x": 7314275.9453770919,
    "y": 3712195.8171342677
   }
  },
  {
   "attributes": {
    "OBJECTID": 4181,
    "ولایت": "کندهار",
    "Province": "کندهار",
    "PC_Code": "2701029",
    "District": "KANDAHAR",
    "د_مرکز_نوم__نام_مرکز": "تيمورشاهي لیسه",
    "Polling_Center_Name": "Taimor Shahi High School",
    "د_مرکز_ځای__موقعیت_مرکز": "څلورمه ناحيه",
    "Polling_Center_Location": "D04 - Nahia 4",
    "Map_Accuracy": "Building",
    "Map_Accuracy_Dari": "تعمیر",
    "Status": "Open",
    "Status_Dari": null,
    "PS_Male": 6,
    "PS_Female": 7,
    "PS_Total": 13,
    "ولسوالي": "کندهار",
    "Region": "Southern Region"
   },
   "geometry": {
    "x": 7315089.2956706025,
    "y": 3713458.839199597
   }
  },
  {
   "attributes": {
    "OBJECTID": 4182,
    "ولایت": "کندهار",
    "Province": "کندهار",
    "PC_Code": "2704187",
    "District": "PANJWAYEE",
    "د_مرکز_نوم__نام_مرکز": "د حاجي عبدالله خان مكتب ",
    "Polling_Center_Name": "Haji Abdullah Khan School",
    "د_مرکز_ځای__موقعیت_مرکز": "سفيد روان",
    "Polling_Center_Location": "Safid Rawan",
    "Map_Accuracy": "Building",
    "Map_Accuracy_Dari": "تعمیر",
    "Status": "Open",
    "Status_Dari": null,
    "PS_Male": 3,
    "PS_Female": 2,
    "PS_Total": 5,
    "ولسوالي": "پنجوایې",
    "Region": "Southern Region"
   },
   "geometry": {
    "x": 7282705.1477948204,
    "y": 3698779.8415285172
   }
  },
  {
   "attributes": {
    "OBJECTID": 4183,
    "ولایت": "کندهار",
    "Province": "کندهار",
    "PC_Code": "2708248",
    "District": "ARGHISTAN",
    "د_مرکز_نوم__نام_مرکز": "كلينيك كرم خيل",
    "Polling_Center_Name": "Karam Khel Clinic",
    "د_مرکز_ځای__موقعیت_مرکز": "كرم خيل",
    "Polling_Center_Location": "Karam Khel",
    "Map_Accuracy": "Village",
    "Map_Accuracy_Dari": "قریه",
    "Status": "Open",
    "Status_Dari": null,
    "PS_Male": 2,
    "PS_Female": 3,
    "PS_Total": 5,
    "ولسوالي": "ارغستان",
    "Region": "Southern Region"
   },
   "geometry": {
    "x": 7427845.647244066,
    "y": 3706927.8244970459
   }
  },
  {
   "attributes": {
    "OBJECTID": 4184,
    "ولایت": "کندهار",
    "Province": "کندهار",
    "PC_Code": "2708249",
    "District": "ARGHISTAN",
    "د_مرکز_نوم__نام_مرکز": "مكتب شنه خټه",
    "Polling_Center_Name": "Shna Khata School",
    "د_مرکز_ځای__موقعیت_مرکز": "شنه خټه",
    "Polling_Center_Location": "Shna Khata",
    "Map_Accuracy": "Village",
    "Map_Accuracy_Dari": "قریه",
    "Status": "Open",
    "Status_Dari": null,
    "PS_Male": 2,
    "PS_Female": 1,
    "PS_Total": 3,
    "ولسوالي": "ارغستان",
    "Region": "Southern Region"
   },
   "geometry": {
    "x": 7393002.264799919,
    "y": 3710472.9916386022
   }
  },
  {
   "attributes": {
    "OBJECTID": 4185,
    "ولایت": "کندهار",
    "Province": "کندهار",
    "PC_Code": "2711204",
    "District": "SPIN BOLDAK",
    "د_مرکز_نوم__نام_مرکز": "د مخابراتو مركز",
    "Polling_Center_Name": "Mukhabirato Markaz",
    "د_مرکز_ځای__موقعیت_مرکز": "عوامي كمپ",
    "Polling_Center_Location": "Awami Camp",
    "Map_Accuracy": "Building",
    "Map_Accuracy_Dari": "تعمیر",
    "Status": "Open",
    "Status_Dari": null,
    "PS_Male": 4,
    "PS_Female": 2,
    "PS_Total": 6,
    "ولسوالي": "سپین بولدک",
    "Region": "Southern Region"
   },
   "geometry": {
    "x": 7391083.7479601558,
    "y": 3633664.7162712491
   }
  },
  {
   "attributes": {
    "OBJECTID": 4186,
    "ولایت": "کندهار",
    "Province": "کندهار",
    "PC_Code": "2711214",
    "District": "SPIN BOLDAK",
    "د_مرکز_نوم__نام_مرکز": "حاجي نعمت دتیلو پمپ",
    "Polling_Center_Name": "Haji Nemat Oil Stioation",
    "د_مرکز_ځای__موقعیت_مرکز": "سپين بولدك",
    "Polling_Center_Location": "Speen Boldak",
    "Map_Accuracy": "Building",
    "Map_Accuracy_Dari": "تعمیر",
    "Status": "Open",
    "Status_Dari": null,
    "PS_Male": 4,
    "PS_Female": 2,
    "PS_Total": 6,
    "ولسوالي": "سپین بولدک",
    "Region": "Southern Region"
   },
   "geometry": {
    "x": 7389993.2488700096,
    "y": 3635468.8555248408
   }
  },
  {
   "attributes": {
    "OBJECTID": 4187,
    "ولایت": "کندهار",
    "Province": "کندهار",
    "PC_Code": "2711215",
    "District": "SPIN BOLDAK",
    "د_مرکز_نوم__نام_مرکز": "د احمد شاه اطاقونه",
    "Polling_Center_Name": "Ahmad Shah Rooms",
    "د_مرکز_ځای__موقعیت_مرکز": "ويش",
    "Polling_Center_Location": "Wesh",
    "Map_Accuracy": "Building",
    "Map_Accuracy_Dari": "تعمیر",
    "Status": "Open",
    "Status_Dari": null,
    "PS_Male": 4,
    "PS_Female": 0,
    "PS_Total": 4,
    "ولسوالي": "سپین بولدک",
    "Region": "Southern Region"
   },
   "geometry": {
    "x": 7391348.6349148918,
    "y": 3632249.3641733443
   }
  },
  {
   "attributes": {
    "OBJECTID": 4188,
    "ولایت": "کندهار",
    "Province": "کندهار",
    "PC_Code": "2711226",
    "District": "SPIN BOLDAK",
    "د_مرکز_نوم__نام_مرکز": "د مرغه خیمه ",
    "Polling_Center_Name": "Margha Khaima",
    "د_مرکز_ځای__موقعیت_مرکز": "ذكريا کلی",
    "Polling_Center_Location": "Zikriya Village",
    "Map_Accuracy": "Village",
    "Map_Accuracy_Dari": "قریه",
    "Status": "Open",
    "Status_Dari": null,
    "PS_Male": 4,
    "PS_Female": 2,
    "PS_Total": 6,
    "ولسوالي": "سپین بولدک",
    "Region": "Southern Region"
   },
   "geometry": {
    "x": 7388375.7755555892,
    "y": 3624054.2742932206
   }
  },
  {
   "attributes": {
    "OBJECTID": 4189,
    "ولایت": "کندهار",
    "Province": "کندهار",
    "PC_Code": "2713259",
    "District": "MIYANISHIN",
    "د_مرکز_نوم__نام_مرکز": "حاجي عبدالحليم مسجد",
    "Polling_Center_Name": "Haji Abdul Haleem Mosque",
    "د_مرکز_ځای__موقعیت_مرکز": "زمتو كلي",
    "Polling_Center_Location": "Zamto Village",
    "Map_Accuracy": "Village",
    "Map_Accuracy_Dari": "قریه",
    "Status": "Open",
    "Status_Dari": null,
    "PS_Male": 2,
    "PS_Female": 1,
    "PS_Total": 3,
    "ولسوالي": "ميانشين",
    "Region": "Southern Region"
   },
   "geometry": {
    "x": 7366916.071662317,
    "y": 3812207.543663857
   }
  },
  {
   "attributes": {
    "OBJECTID": 4190,
    "ولایت": "کندهار",
    "Province": "کندهار",
    "PC_Code": "2717013",
    "District": "DAND",
    "د_مرکز_نوم__نام_مرکز": "مكتب كرز",
    "Polling_Center_Name": "Karz School",
    "د_مرکز_ځای__موقعیت_مرکز": "شپږمه ناحيه",
    "Polling_Center_Location": "D06 - Nahia 6",
    "Map_Accuracy": "Village",
    "Map_Accuracy_Dari": "قریه",
    "Status": "Open",
    "Status_Dari": null,
    "PS_Male": 4,
    "PS_Female": 3,
    "PS_Total": 7,
    "ولسوالي": "ډند",
    "Region": "Southern Region"
   },
   "geometry": {
    "x": 7316211.6287955316,
    "y": 3707904.7139776386
   }
  },
  {
   "attributes": {
    "OBJECTID": 4191,
    "ولایت": "کندهار",
    "Province": "کندهار",
    "PC_Code": "2718241",
    "District": "TAKHTA PUL",
    "د_مرکز_نوم__نام_مرکز": "دحاجي طالب اكا كور",
    "Polling_Center_Name": "Haji Talib Aka Private House",
    "د_مرکز_ځای__موقعیت_مرکز": "داسحق زو كلي",
    "Polling_Center_Location": "Ishaaqzo Village",
    "Map_Accuracy": "Village",
    "Map_Accuracy_Dari": "قریه",
    "Status": "Open",
    "Status_Dari": null,
    "PS_Male": 2,
    "PS_Female": 2,
    "PS_Total": 4,
    "ولسوالي": "تخته پل",
    "Region": "Southern Region"
   },
   "geometry": {
    "x": 7320064.4641654594,
    "y": 3688161.1140472349
   }
  },
  {
   "attributes": {
    "OBJECTID": 4192,
    "ولایت": "جوزجان",
    "Province": "JAWZJAN",
    "PC_Code": "2801016",
    "District": "SHEBERGHAN",
    "د_مرکز_نوم__نام_مرکز": "ریاست زراعت ",
    "Polling_Center_Name": "Agriculture Department",
    "د_مرکز_ځای__موقعیت_مرکز": "ناحیه چهارم",
    "Polling_Center_Location": "D04 - Nahia 4",
    "Map_Accuracy": "Building",
    "Map_Accuracy_Dari": "تعمیر",
    "Status": "Open",
    "Status_Dari": null,
    "PS_Male": 4,
    "PS_Female": 2,
    "PS_Total": 6,
    "ولسوالي": "شبرغان",
    "Region": "Northern Region"
   },
   "geometry": {
    "x": 7319605.9259358626,
    "y": 4394200.798550792
   }
  },
  {
   "attributes": {
    "OBJECTID": 4193,
    "ولایت": "جوزجان",
    "Province": "JAWZJAN",
    "PC_Code": "2801017",
    "District": "SHEBERGHAN",
    "د_مرکز_نوم__نام_مرکز": "لیسه مصرآباد",
    "Polling_Center_Name": "Mesr Abad High School",
    "د_مرکز_ځای__موقعیت_مرکز": "ناحیه چهارم",
    "Polling_Center_Location": "D04 - Nahia 4",
    "Map_Accuracy": "Building",
    "Map_Accuracy_Dari": "تعمیر",
    "Status": "Open",
    "Status_Dari": null,
    "PS_Male": 3,
    "PS_Female": 2,
    "PS_Total": 5,
    "ولسوالي": "شبرغان",
    "Region": "Northern Region"
   },
   "geometry": {
    "x": 7331490.7320710067,
    "y": 4404338.2705366304
   }
  },
  {
   "attributes": {
    "OBJECTID": 4194,
    "ولایت": "جوزجان",
    "Province": "JAWZJAN",
    "PC_Code": "2802114",
    "District": "KHWAJA DUKOH",
    "د_مرکز_نوم__نام_مرکز": "مکتب متوسطه طاغن ",
    "Polling_Center_Name": "Taghan Secondary School",
    "د_مرکز_ځای__موقعیت_مرکز": "لب جر طاغن ",
    "Polling_Center_Location": "Lab Jar Taghan",
    "Map_Accuracy": "Building",
    "Map_Accuracy_Dari": "تعمیر",
    "Status": "Open",
    "Status_Dari": null,
    "PS_Male": 1,
    "PS_Female": 1,
    "PS_Total": 2,
    "ولسوالي": "خواجه دوکوه",
    "Region": "Northern Region"
   },
   "geometry": {
    "x": 7306605.4914487125,
    "y": 4399757.6460055513
   }
  },
  {
   "attributes": {
    "OBJECTID": 4195,
    "ولایت": "جوزجان",
    "Province": "JAWZJAN",
    "PC_Code": "2803115",
    "District": "KHANAQA",
    "د_مرکز_نوم__نام_مرکز": "لیسه ذکور علیلی",
    "Polling_Center_Name": "Alili Boys High School",
    "د_مرکز_ځای__موقعیت_مرکز": "خانقا",
    "Polling_Center_Location": "Khanqa",
    "Map_Accuracy": "Building",
    "Map_Accuracy_Dari": "تعمیر",
    "Status": "Open",
    "Status_Dari": null,
    "PS_Male": 3,
    "PS_Female": 1,
    "PS_Total": 4,
    "ولسوالي": "خانقاه",
    "Region": "Northern Region"
   },
   "geometry": {
    "x": 7358386.4950922066,
    "y": 4420309.8682340784
   }
  },
  {
   "attributes": {
    "OBJECTID": 4196,
    "ولایت": "جوزجان",
    "Province": "JAWZJAN",
    "PC_Code": "2805089",
    "District": "QUSH TEPA",
    "د_مرکز_نوم__نام_مرکز": "لیسه قوش تپه",
    "Polling_Center_Name": "Qosh Tapa High School",
    "د_مرکز_ځای__موقعیت_مرکز": "قوش تبه ",
    "Polling_Center_Location": "Qosh Taba",
    "Map_Accuracy": "Building",
    "Map_Accuracy_Dari": "تعمیر",
    "Status": "Open",
    "Status_Dari": null,
    "PS_Male": 4,
    "PS_Female": 3,
    "PS_Total": 7,
    "ولسوالي": "قوش تیپه",
    "Region": "Northern Region"
   },
   "geometry": {
    "x": 7279360.5091661401,
    "y": 4312844.4271536097
   }
  },
  {
   "attributes": {
    "OBJECTID": 4197,
    "ولایت": "جوزجان",
    "Province": "JAWZJAN",
    "PC_Code": "2809065",
    "District": "MARDYAN",
    "د_مرکز_نوم__نام_مرکز": "مکتب متوسطه الم لیک",
    "Polling_Center_Name": "Alam Lek Secondary School",
    "د_مرکز_ځای__موقعیت_مرکز": "قریه الم لیک",
    "Polling_Center_Location": "Alam Lek Village",
    "Map_Accuracy": "Building",
    "Map_Accuracy_Dari": "تعمیر",
    "Status": "Open",
    "Status_Dari": null,
    "PS_Male": 1,
    "PS_Female": 1,
    "PS_Total": 2,
    "ولسوالي": "مردیان",
    "Region": "Northern Region"
   },
   "geometry": {
    "x": 7372090.7882481059,
    "y": 4433106.5047576623
   }
  },
  {
   "attributes": {
    "OBJECTID": 4198,
    "ولایت": "جوزجان",
    "Province": "JAWZJAN",
    "PC_Code": "2811098",
    "District": "DARZAB",
    "د_مرکز_نوم__نام_مرکز": "مکتب امام بخاری",
    "Polling_Center_Name": "Imam Bukhari School",
    "د_مرکز_ځای__موقعیت_مرکز": "قریه سردره ",
    "Polling_Center_Location": "Sardara Village",
    "Map_Accuracy": "Building",
    "Map_Accuracy_Dari": "تعمیر",
    "Status": "Open",
    "Status_Dari": null,
    "PS_Male": 2,
    "PS_Female": 1,
    "PS_Total": 3,
    "ولسوالي": "درز آب",
    "Region": "Northern Region"
   },
   "geometry": {
    "x": 7285616.3083263515,
    "y": 4295086.2619169941
   }
  },
  {
   "attributes": {
    "OBJECTID": 4199,
    "ولایت": "جوزجان",
    "Province": "JAWZJAN",
    "PC_Code": "2811099",
    "District": "DARZAB",
    "د_مرکز_نوم__نام_مرکز": "مکتب آق بولاق",
    "Polling_Center_Name": "Aaq Bolaq School",
    "د_مرکز_ځای__موقعیت_مرکز": "آق بولاق",
    "Polling_Center_Location": "Aaq Bolaq",
    "Map_Accuracy": "Village",
    "Map_Accuracy_Dari": "قریه",
    "Status": "Open",
    "Status_Dari": null,
    "PS_Male": 1,
    "PS_Female": 1,
    "PS_Total": 2,
    "ولسوالي": "درز آب",
    "Region": "Northern Region"
   },
   "geometry": {
    "x": 7295444.3543989016,
    "y": 4308478.174637516
   }
  },
  {
   "attributes": {
    "OBJECTID": 4200,
    "ولایت": "جوزجان",
    "Province": "JAWZJAN",
    "PC_Code": "2811108",
    "District": "DARZAB",
    "د_مرکز_نوم__نام_مرکز": "مکتب ترکمن قدوق",
    "Polling_Center_Name": "Turkman Qadoq School",
    "د_مرکز_ځای__موقعیت_مرکز": "ترکمن قدوق",
    "Polling_Center_Location": "Turkman Qadoq",
    "Map_Accuracy": "Building",
    "Map_Accuracy_Dari": "تعمیر",
    "Status": "Open",
    "Status_Dari": null,
    "PS_Male": 1,
    "PS_Female": 1,
    "PS_Total": 2,
    "ولسوالي": "درز آب",
    "Region": "Northern Region"
   },
   "geometry": {
    "x": 7277592.6392121548,
    "y": 4297793.767110208
   }
  }
 ]
}