{
 "displayFieldName": "Polling_Center_Name",
 "fieldAliases": {
  "OBJECTID": "OBJECTID",
  "ولایت": "ولایت",
  "Province": "Province",
  "PC_Code": "PC_Code",
  "District": "District",
  "د_مرکز_نوم__نام_مرکز": "د_مرکز_نوم__نام_مرکز",
  "Polling_Center_Name": "Polling_Center_Name",
  "د_مرکز_ځای__موقعیت_مرکز": "د_مرکز_ځای__موقعیت_مرکز",
  "Polling_Center_Location": "Polling_Center_Location",
  "Map_Accuracy": "Map_Accuracy",
  "Map_Accuracy_Dari": "Map_Accuracy_Dari",
  "Status": "Status",
  "Status_Dari": "Status_Dari",
  "PS_Male": "PS_Male",
  "PS_Female": "PS_Female",
  "PS_Total": "PS_Total",
  "ولسوالي": "ولسوالي",
  "Region": "Region"
 },
 "geometryType": "esriGeometryPoint",
 "spatialReference": {
  "wkid": 102100,
  "latestWkid": 3857
 },
 "fields": [
  {
   "name": "OBJECTID",
   "type": "esriFieldTypeOID",
   "alias": "OBJECTID"
  },
  {
   "name": "ولایت",
   "type": "esriFieldTypeString",
   "alias": "ولایت",
   "length": 255
  },
  {
   "name": "Province",
   "type": "esriFieldTypeString",
   "alias": "Province",
   "length": 255
  },
  {
   "name": "PC_Code",
   "type": "esriFieldTypeString",
   "alias": "PC_Code",
   "length": 255
  },
  {
   "name": "District",
   "type": "esriFieldTypeString",
   "alias": "District",
   "length": 255
  },
  {
   "name": "د_مرکز_نوم__نام_مرکز",
   "type": "esriFieldTypeString",
   "alias": "د_مرکز_نوم__نام_مرکز",
   "length": 255
  },
  {
   "name": "Polling_Center_Name",
   "type": "esriFieldTypeString",
   "alias": "Polling_Center_Name",
   "length": 255
  },
  {
   "name": "د_مرکز_ځای__موقعیت_مرکز",
   "type": "esriFieldTypeString",
   "alias": "د_مرکز_ځای__موقعیت_مرکز",
   "length": 255
  },
  {
   "name": "Polling_Center_Location",
   "type": "esriFieldTypeString",
   "alias": "Polling_Center_Location",
   "length": 255
  },
  {
   "name": "Map_Accuracy",
   "type": "esriFieldTypeString",
   "alias": "Map_Accuracy",
   "length": 10
  },
  {
   "name": "Map_Accuracy_Dari",
   "type": "esriFieldTypeString",
   "alias": "Map_Accuracy_Dari",
   "length": 50
  },
  {
   "name": "Status",
   "type": "esriFieldTypeString",
   "alias": "Status",
   "length": 6
  },
  {
   "name": "Status_Dari",
   "type": "esriFieldTypeString",
   "alias": "Status_Dari",
   "length": 8
  },
  {
   "name": "PS_Male",
   "type": "esriFieldTypeSmallInteger",
   "alias": "PS_Male"
  },
  {
   "name": "PS_Female",
   "type": "esriFieldTypeSmallInteger",
   "alias": "PS_Female"
  },
  {
   "name": "PS_Total",
   "type": "esriFieldTypeSmallInteger",
   "alias": "PS_Total"
  },
  {
   "name": "ولسوالي",
   "type": "esriFieldTypeString",
   "alias": "ولسوالي",
   "length": 255
  },
  {
   "name": "Region",
   "type": "esriFieldTypeString",
   "alias": "Region",
   "length": 50
  }
 ],
 "features": [
  {
   "attributes": {
    "OBJECTID": 3601,
    "ولایت": "کندز",
    "Province": "KUNDUZ",
    "PC_Code": "1901001",
    "District": "KUNDUZ",
    "د_مرکز_نوم__نام_مرکز": "مسجد جامع تخارستان",
    "Polling_Center_Name": "Takharestan Mosque",
    "د_مرکز_ځای__موقعیت_مرکز": "ناحیه دوم",
    "Polling_Center_Location": "D02 - Nahia 2",
    "Map_Accuracy": "Building",
    "Map_Accuracy_Dari": "تعمیر",
    "Status": "Open",
    "Status_Dari": null,
    "PS_Male": 7,
    "PS_Female": 0,
    "PS_Total": 7,
    "ولسوالي": "کندز",
    "Region": "North Eastern Region"
   },
   "geometry": {
    "x": 7665683.4173198724,
    "y": 4400927.922624981
   }
  },
  {
   "attributes": {
    "OBJECTID": 3602,
    "ولایت": "کندز",
    "Province": "KUNDUZ",
    "PC_Code": "1901005",
    "District": "KUNDUZ",
    "د_مرکز_نوم__نام_مرکز": "شرکت سپین زر",
    "Polling_Center_Name": "Speen Zar Company",
    "د_مرکز_ځای__موقعیت_مرکز": "ناحیه سوم",
    "Polling_Center_Location": "D03 - Nahia 3",
    "Map_Accuracy": "Building",
    "Map_Accuracy_Dari": "تعمیر",
    "Status": "Open",
    "Status_Dari": null,
    "PS_Male": 3,
    "PS_Female": 2,
    "PS_Total": 5,
    "ولسوالي": "کندز",
    "Region": "North Eastern Region"
   },
   "geometry": {
    "x": 7665137.2527285833,
    "y": 4401288.338920461
   }
  },
  {
   "attributes": {
    "OBJECTID": 3603,
    "ولایت": "کندز",
    "Province": "KUNDUZ",
    "PC_Code": "1901022",
    "District": "KUNDUZ",
    "د_مرکز_نوم__نام_مرکز": "لیسه بته کشان",
    "Polling_Center_Name": "Bota Kashan High School",
    "د_مرکز_ځای__موقعیت_مرکز": "قریه بته کشان",
    "Polling_Center_Location": "Bota Kashan Village",
    "Map_Accuracy": "Building",
    "Map_Accuracy_Dari": "تعمیر",
    "Status": "Open",
    "Status_Dari": null,
    "PS_Male": 3,
    "PS_Female": 2,
    "PS_Total": 5,
    "ولسوالي": "کندز",
    "Region": "North Eastern Region"
   },
   "geometry": {
    "x": 7673036.6418689508,
    "y": 4405077.1415296914
   }
  },
  {
   "attributes": {
    "OBJECTID": 3604,
    "ولایت": "کندز",
    "Province": "KUNDUZ",
    "PC_Code": "1901023",
    "District": "KUNDUZ",
    "د_مرکز_نوم__نام_مرکز": "لیسه عسقلان",
    "Polling_Center_Name": "Asqalan High School",
    "د_مرکز_ځای__موقعیت_مرکز": "قریه عسقلان",
    "Polling_Center_Location": "Asqalan Village",
    "Map_Accuracy": "Building",
    "Map_Accuracy_Dari": "تعمیر",
    "Status": "Open",
    "Status_Dari": null,
    "PS_Male": 3,
    "PS_Female": 2,
    "PS_Total": 5,
    "ولسوالي": "کندز",
    "Region": "North Eastern Region"
   },
   "geometry": {
    "x": 7656831.744482317,
    "y": 4414737.6704821559
   }
  },
  {
   "attributes": {
    "OBJECTID": 3605,
    "ولایت": "کندز",
    "Province": "KUNDUZ",
    "PC_Code": "1901027",
    "District": "KUNDUZ",
    "د_مرکز_نوم__نام_مرکز": "لیسه حضرت سلطان",
    "Polling_Center_Name": "Hazrat Sultan High School",
    "د_مرکز_ځای__موقعیت_مرکز": "حضرت سلطان",
    "Polling_Center_Location": "Hazrat Sultan",
    "Map_Accuracy": "Building",
    "Map_Accuracy_Dari": "تعمیر",
    "Status": "Open",
    "Status_Dari": null,
    "PS_Male": 5,
    "PS_Female": 3,
    "PS_Total": 8,
    "ولسوالي": "کندز",
    "Region": "North Eastern Region"
   },
   "geometry": {
    "x": 7670964.2659081845,
    "y": 4405590.6790089123
   }
  },
  {
   "attributes": {
    "OBJECTID": 3606,
    "ولایت": "کندز",
    "Province": "KUNDUZ",
    "PC_Code": "1901045",
    "District": "KUNDUZ",
    "د_مرکز_نوم__نام_مرکز": "مکتب ترنو",
    "Polling_Center_Name": "Tarno School",
    "د_مرکز_ځای__موقعیت_مرکز": "قریه ترنو",
    "Polling_Center_Location": "Tarnaw Village",
    "Map_Accuracy": "Building",
    "Map_Accuracy_Dari": "تعمیر",
    "Status": "Open",
    "Status_Dari": null,
    "PS_Male": 2,
    "PS_Female": 2,
    "PS_Total": 4,
    "ولسوالي": "کندز",
    "Region": "North Eastern Region"
   },
   "geometry": {
    "x": 7678492.4535273286,
    "y": 4397812.7759997575
   }
  },
  {
   "attributes": {
    "OBJECTID": 3607,
    "ولایت": "کندز",
    "Province": "KUNDUZ",
    "PC_Code": "1901046",
    "District": "KUNDUZ",
    "د_مرکز_نوم__نام_مرکز": "مکتب متوسطه باغ شرکت",
    "Polling_Center_Name": "Bagh Shirkat Secondary School",
    "د_مرکز_ځای__موقعیت_مرکز": "باغ شرکت",
    "Polling_Center_Location": "Bagh Shirkat",
    "Map_Accuracy": "Building",
    "Map_Accuracy_Dari": "تعمیر",
    "Status": "Open",
    "Status_Dari": null,
    "PS_Male": 2,
    "PS_Female": 1,
    "PS_Total": 3,
    "ولسوالي": "کندز",
    "Region": "North Eastern Region"
   },
   "geometry": {
    "x": 7660178.9646099936,
    "y": 4405327.4740305934
   }
  },
  {
   "attributes": {
    "OBJECTID": 3608,
    "ولایت": "کندز",
    "Province": "KUNDUZ",
    "PC_Code": "1902120",
    "District": "CHAR DARA",
    "د_مرکز_نوم__نام_مرکز": "مکتب قریه یتیم",
    "Polling_Center_Name": "Yateem Village School",
    "د_مرکز_ځای__موقعیت_مرکز": "قریه یتیم",
    "Polling_Center_Location": "Yateem Village",
    "Map_Accuracy": "Building",
    "Map_Accuracy_Dari": "تعمیر",
    "Status": "Open",
    "Status_Dari": null,
    "PS_Male": 5,
    "PS_Female": 2,
    "PS_Total": 7,
    "ولسوالي": "چاردره",
    "Region": "North Eastern Region"
   },
   "geometry": {
    "x": 7660674.5968316318,
    "y": 4402190.9386681924
   }
  },
  {
   "attributes": {
    "OBJECTID": 3609,
    "ولایت": "کندز",
    "Province": "KUNDUZ",
    "PC_Code": "1904141",
    "District": "KHAN ABAD",
    "د_مرکز_نوم__نام_مرکز": "لیسه محمد حسن میاخیل",
    "Polling_Center_Name": "Mohammad Hassan Miakhel High School",
    "د_مرکز_ځای__موقعیت_مرکز": "ناحیه اول",
    "Polling_Center_Location": "D01 - Nahia 1",
    "Map_Accuracy": "Building",
    "Map_Accuracy_Dari": "تعمیر",
    "Status": "Open",
    "Status_Dari": null,
    "PS_Male": 5,
    "PS_Female": 0,
    "PS_Total": 5,
    "ولسوالي": "خان آباد",
    "Region": "North Eastern Region"
   },
   "geometry": {
    "x": 7694398.3478748901,
    "y": 4395166.8121730015
   }
  },
  {
   "attributes": {
    "OBJECTID": 3610,
    "ولایت": "کندز",
    "Province": "KUNDUZ",
    "PC_Code": "1904142",
    "District": "KHAN ABAD",
    "د_مرکز_نوم__نام_مرکز": "لیسه چوغه",
    "Polling_Center_Name": "Chogha High School",
    "د_مرکز_ځای__موقعیت_مرکز": "قریه چوغه",
    "Polling_Center_Location": "Chogha Village",
    "Map_Accuracy": "Building",
    "Map_Accuracy_Dari": "تعمیر",
    "Status": "Open",
    "Status_Dari": null,
    "PS_Male": 2,
    "PS_Female": 1,
    "PS_Total": 3,
    "ولسوالي": "خان آباد",
    "Region": "North Eastern Region"
   },
   "geometry": {
    "x": 7701527.0198603347,
    "y": 4397336.8860063348
   }
  },
  {
   "attributes": {
    "OBJECTID": 3611,
    "ولایت": "کندز",
    "Province": "KUNDUZ",
    "PC_Code": "1904176",
    "District": "KHAN ABAD",
    "د_مرکز_نوم__نام_مرکز": "مدرسه سرای قشلاق",
    "Polling_Center_Name": "Srai Qeshlaq Madrassa",
    "د_مرکز_ځای__موقعیت_مرکز": "قریه سرای قشلاق",
    "Polling_Center_Location": "Srai Qeshlaq Village",
    "Map_Accuracy": "Building",
    "Map_Accuracy_Dari": "تعمیر",
    "Status": "Open",
    "Status_Dari": null,
    "PS_Male": 2,
    "PS_Female": 1,
    "PS_Total": 3,
    "ولسوالي": "خان آباد",
    "Region": "North Eastern Region"
   },
   "geometry": {
    "x": 7688887.6223117011,
    "y": 4401954.5129291257
   }
  },
  {
   "attributes": {
    "OBJECTID": 3612,
    "ولایت": "کندز",
    "Province": "KUNDUZ",
    "PC_Code": "1904212",
    "District": "KHAN ABAD",
    "د_مرکز_نوم__نام_مرکز": "مکتب متوسطه دگری ",
    "Polling_Center_Name": "Dagaree Secondary School",
    "د_مرکز_ځای__موقعیت_مرکز": "قریه دگری چهار توت",
    "Polling_Center_Location": "Dagaree Chahartoot Village",
    "Map_Accuracy": "Building",
    "Map_Accuracy_Dari": "تعمیر",
    "Status": "Open",
    "Status_Dari": null,
    "PS_Male": 3,
    "PS_Female": 1,
    "PS_Total": 4,
    "ولسوالي": "خان آباد",
    "Region": "North Eastern Region"
   },
   "geometry": {
    "x": 7691428.0321659511,
    "y": 4389137.6438488858
   }
  },
  {
   "attributes": {
    "OBJECTID": 3613,
    "ولایت": "کندز",
    "Province": "KUNDUZ",
    "PC_Code": "1905071",
    "District": "HAZRAT-E-IMAM SAHIB",
    "د_مرکز_نوم__نام_مرکز": "مکتب گجر",
    "Polling_Center_Name": "Gujar School",
    "د_مرکز_ځای__موقعیت_مرکز": "قریه گجر",
    "Polling_Center_Location": "Gujar Village",
    "Map_Accuracy": "Building",
    "Map_Accuracy_Dari": "تعمیر",
    "Status": "Open",
    "Status_Dari": null,
    "PS_Male": 2,
    "PS_Female": 2,
    "PS_Total": 4,
    "ولسوالي": "حضرت امام صاحب",
    "Region": "North Eastern Region"
   },
   "geometry": {
    "x": 7684198.916603962,
    "y": 4463488.8743969975
   }
  },
  {
   "attributes": {
    "OBJECTID": 3614,
    "ولایت": "کندز",
    "Province": "KUNDUZ",
    "PC_Code": "1905091",
    "District": "HAZRAT-E-IMAM SAHIB",
    "د_مرکز_نوم__نام_مرکز": "لیسه ذکور امام صاحب",
    "Polling_Center_Name": "Imam Sahib Boys High School",
    "د_مرکز_ځای__موقعیت_مرکز": "ناحیه سوم مرکز شهر امام صاحب",
    "Polling_Center_Location": "D03 - Nahia 3",
    "Map_Accuracy": "Building",
    "Map_Accuracy_Dari": "تعمیر",
    "Status": "Open",
    "Status_Dari": null,
    "PS_Male": 4,
    "PS_Female": 1,
    "PS_Total": 5,
    "ولسوالي": "حضرت امام صاحب",
    "Region": "North Eastern Region"
   },
   "geometry": {
    "x": 7670179.8987572994,
    "y": 4464314.0770999426
   }
  },
  {
   "attributes": {
    "OBJECTID": 3615,
    "ولایت": "کندز",
    "Province": "KUNDUZ",
    "PC_Code": "1907106",
    "District": "QALA-E-ZAL",
    "د_مرکز_نوم__نام_مرکز": "مکتب سافی کوت",
    "Polling_Center_Name": "Safi Kot School",
    "د_مرکز_ځای__موقعیت_مرکز": "سافی کوت",
    "Polling_Center_Location": "Safi Kot",
    "Map_Accuracy": "Building",
    "Map_Accuracy_Dari": "تعمیر",
    "Status": "Open",
    "Status_Dari": null,
    "PS_Male": 1,
    "PS_Female": 1,
    "PS_Total": 2,
    "ولسوالي": "قلعه ذال",
    "Region": "North Eastern Region"
   },
   "geometry": {
    "x": 7636668.8547706613,
    "y": 4424538.3288739864
   }
  },
  {
   "attributes": {
    "OBJECTID": 3616,
    "ولایت": "کندز",
    "Province": "KUNDUZ",
    "PC_Code": "1907107",
    "District": "QALA-E-ZAL",
    "د_مرکز_نوم__نام_مرکز": "لیسه چار گل تپه",
    "Polling_Center_Name": "Char Gul Tapa High School",
    "د_مرکز_ځای__موقعیت_مرکز": "چار گل تپه",
    "Polling_Center_Location": "Char Gul Tapa ",
    "Map_Accuracy": "Building",
    "Map_Accuracy_Dari": "تعمیر",
    "Status": "Open",
    "Status_Dari": null,
    "PS_Male": 2,
    "PS_Female": 1,
    "PS_Total": 3,
    "ولسوالي": "قلعه ذال",
    "Region": "North Eastern Region"
   },
   "geometry": {
    "x": 7634709.6528833983,
    "y": 4429928.3579674484
   }
  },
  {
   "attributes": {
    "OBJECTID": 3617,
    "ولایت": "کندز",
    "Province": "KUNDUZ",
    "PC_Code": "1907111",
    "District": "QALA-E-ZAL",
    "د_مرکز_نوم__نام_مرکز": "مکتب خشت تپه",
    "Polling_Center_Name": "Khesht Tapa School",
    "د_مرکز_ځای__موقعیت_مرکز": "خشت تپه",
    "Polling_Center_Location": "Khesh Tapa",
    "Map_Accuracy": "Building",
    "Map_Accuracy_Dari": "تعمیر",
    "Status": "Open",
    "Status_Dari": null,
    "PS_Male": 1,
    "PS_Female": 1,
    "PS_Total": 2,
    "ولسوالي": "قلعه ذال",
    "Region": "North Eastern Region"
   },
   "geometry": {
    "x": 7577378.3184282808,
    "y": 4428252.3562743841
   }
  },
  {
   "attributes": {
    "OBJECTID": 3618,
    "ولایت": "سمنگان",
    "Province": "SAMANGAN",
    "PC_Code": "2001012",
    "District": "AYBAK",
    "د_مرکز_نوم__نام_مرکز": "لیسه نسوان دره زندان ",
    "Polling_Center_Name": "Dara Zandan Girls School",
    "د_مرکز_ځای__موقعیت_مرکز": "قریه دره زندان",
    "Polling_Center_Location": "Dare-e-Zendan Village",
    "Map_Accuracy": "Building",
    "Map_Accuracy_Dari": "تعمیر",
    "Status": "Open",
    "Status_Dari": null,
    "PS_Male": 4,
    "PS_Female": 2,
    "PS_Total": 6,
    "ولسوالي": "ایبک",
    "Region": "Northern Region"
   },
   "geometry": {
    "x": 7576266.0753019974,
    "y": 4330566.4013382802
   }
  },
  {
   "attributes": {
    "OBJECTID": 3619,
    "ولایت": "سمنگان",
    "Province": "SAMANGAN",
    "PC_Code": "2001016",
    "District": "AYBAK",
    "د_مرکز_نوم__نام_مرکز": "مکتب متوسطه ربا طک",
    "Polling_Center_Name": "Rabatak Secondary School",
    "د_مرکز_ځای__موقعیت_مرکز": "قریه رباطک",
    "Polling_Center_Location": "Rabatak Village",
    "Map_Accuracy": "Building",
    "Map_Accuracy_Dari": "تعمیر",
    "Status": "Open",
    "Status_Dari": null,
    "PS_Male": 2,
    "PS_Female": 1,
    "PS_Total": 3,
    "ولسوالي": "ایبک",
    "Region": "Northern Region"
   },
   "geometry": {
    "x": 7613834.5332772834,
    "y": 4320702.0129766669
   }
  },
  {
   "attributes": {
    "OBJECTID": 3620,
    "ولایت": "سمنگان",
    "Province": "SAMANGAN",
    "PC_Code": "2002029",
    "District": "HAZRAT-E-SULTAN",
    "د_مرکز_نوم__نام_مرکز": "مسجد گاودره ",
    "Polling_Center_Name": "Gawdara Mosque",
    "د_مرکز_ځای__موقعیت_مرکز": "قریه اوچ قدوق",
    "Polling_Center_Location": "Och Qadoq Village",
    "Map_Accuracy": "Village",
    "Map_Accuracy_Dari": "قریه",
    "Status": "Open",
    "Status_Dari": null,
    "PS_Male": 1,
    "PS_Female": 1,
    "PS_Total": 2,
    "ولسوالي": "حضرت سلطان",
    "Region": "North Eastern Region"
   },
   "geometry": {
    "x": 7609908.6143239392,
    "y": 4374104.3225304196
   }
  },
  {
   "attributes": {
    "OBJECTID": 3621,
    "ولایت": "سمنگان",
    "Province": "SAMANGAN",
    "PC_Code": "2005069",
    "District": "ROI-DO-AB",
    "د_مرکز_نوم__نام_مرکز": "مدرسه قشقه",
    "Polling_Center_Name": "Qashqa Madrassa",
    "د_مرکز_ځای__موقعیت_مرکز": "قریه قشقه",
    "Polling_Center_Location": "Qashqa Village",
    "Map_Accuracy": "Building",
    "Map_Accuracy_Dari": "تعمیر",
    "Status": "Open",
    "Status_Dari": null,
    "PS_Male": 2,
    "PS_Female": 2,
    "PS_Total": 4,
    "ولسوالي": "روی دوآب",
    "Region": "Northern Region"
   },
   "geometry": {
    "x": 7531971.1448878916,
    "y": 4252446.6887076683
   }
  },
  {
   "attributes": {
    "OBJECTID": 3622,
    "ولایت": "سمنگان",
    "Province": "SAMANGAN",
    "PC_Code": "2005070",
    "District": "ROI-DO-AB",
    "د_مرکز_نوم__نام_مرکز": "مدرسه علاوالدین ",
    "Polling_Center_Name": "Alauddin Madrassa",
    "د_مرکز_ځای__موقعیت_مرکز": "قریه علاوالدین",
    "Polling_Center_Location": "Alauddin Village",
    "Map_Accuracy": "Building",
    "Map_Accuracy_Dari": "تعمیر",
    "Status": "Open",
    "Status_Dari": null,
    "PS_Male": 2,
    "PS_Female": 2,
    "PS_Total": 4,
    "ولسوالي": "روی دوآب",
    "Region": "Northern Region"
   },
   "geometry": {
    "x": 7522219.0966317095,
    "y": 4241147.3435900435
   }
  },
  {
   "attributes": {
    "OBJECTID": 3623,
    "ولایت": "سمنگان",
    "Province": "SAMANGAN",
    "PC_Code": "2005074",
    "District": "ROI-DO-AB",
    "د_مرکز_نوم__نام_مرکز": "مدرسه مدیرک",
    "Polling_Center_Name": "Mudirak Madrassa",
    "د_مرکز_ځای__موقعیت_مرکز": "قریه مدیرک",
    "Polling_Center_Location": "Mudeerak Village",
    "Map_Accuracy": "Building",
    "Map_Accuracy_Dari": "تعمیر",
    "Status": "Open",
    "Status_Dari": null,
    "PS_Male": 2,
    "PS_Female": 1,
    "PS_Total": 3,
    "ولسوالي": "روی دوآب",
    "Region": "Northern Region"
   },
   "geometry": {
    "x": 7558441.0396123333,
    "y": 4232949.8395533226
   }
  },
  {
   "attributes": {
    "OBJECTID": 3624,
    "ولایت": "سمنگان",
    "Province": "SAMANGAN",
    "PC_Code": "2005075",
    "District": "ROI-DO-AB",
    "د_مرکز_نوم__نام_مرکز": "مدرسه خمی بیاض",
    "Polling_Center_Name": "Khami Bayaz Madrassa",
    "د_مرکز_ځای__موقعیت_مرکز": "قریه خمی بیاض",
    "Polling_Center_Location": "Khami Bayaz Village",
    "Map_Accuracy": "Building",
    "Map_Accuracy_Dari": "تعمیر",
    "Status": "Open",
    "Status_Dari": null,
    "PS_Male": 2,
    "PS_Female": 1,
    "PS_Total": 3,
    "ولسوالي": "روی دوآب",
    "Region": "Northern Region"
   },
   "geometry": {
    "x": 7570787.3796958933,
    "y": 4233020.4482806912
   }
  },
  {
   "attributes": {
    "OBJECTID": 3625,
    "ولایت": "سمنگان",
    "Province": "SAMANGAN",
    "PC_Code": "2006058",
    "District": "DARA-E-SOOF-E-PAYIN",
    "د_مرکز_نوم__نام_مرکز": "مسجد خانه سنگی",
    "Polling_Center_Name": "Khana Sangi Mosque",
    "د_مرکز_ځای__موقعیت_مرکز": "قریه خانه سنگی",
    "Polling_Center_Location": "Khana Sangi Village",
    "Map_Accuracy": "Building",
    "Map_Accuracy_Dari": "تعمیر",
    "Status": "Open",
    "Status_Dari": null,
    "PS_Male": 2,
    "PS_Female": 2,
    "PS_Total": 4,
    "ولسوالي": "دره صوف پائین",
    "Region": "Northern Region"
   },
   "geometry": {
    "x": 7504846.5368234972,
    "y": 4317874.8568805223
   }
  },
  {
   "attributes": {
    "OBJECTID": 3626,
    "ولایت": "سمنگان",
    "Province": "SAMANGAN",
    "PC_Code": "2007044",
    "District": "DARA-E-SOOF-E-BALA",
    "د_مرکز_نوم__نام_مرکز": "منبر اوی بلاق",
    "Polling_Center_Name": "Menbar Oye Balaq",
    "د_مرکز_ځای__موقعیت_مرکز": "قریه اوی بلاق",
    "Polling_Center_Location": "Oye Balaq Village",
    "Map_Accuracy": "Building",
    "Map_Accuracy_Dari": "تعمیر",
    "Status": "Open",
    "Status_Dari": null,
    "PS_Male": 2,
    "PS_Female": 1,
    "PS_Total": 3,
    "ولسوالي": "دره صوف بالا",
    "Region": "Northern Region"
   },
   "geometry": {
    "x": 7466916.0867884643,
    "y": 4255969.1933095939
   }
  },
  {
   "attributes": {
    "OBJECTID": 3627,
    "ولایت": "بلخ",
    "Province": "BALKH",
    "PC_Code": "2101014",
    "District": "MAZAR-E-SHARIF",
    "د_مرکز_نوم__نام_مرکز": "لیسه فاطمه بلخی",
    "Polling_Center_Name": "Fatima Balkhi High School",
    "د_مرکز_ځای__موقعیت_مرکز": "ناحیه دوم مزار شاروالی ",
    "Polling_Center_Location": "D02 - Nahia 2",
    "Map_Accuracy": "Building",
    "Map_Accuracy_Dari": "تعمیر",
    "Status": "Open",
    "Status_Dari": null,
    "PS_Male": 5,
    "PS_Female": 3,
    "PS_Total": 8,
    "ولسوالي": "مزار شریف",
    "Region": "Northern Region"
   },
   "geometry": {
    "x": 7469346.4595524548,
    "y": 4398289.5522707757
   }
  },
  {
   "attributes": {
    "OBJECTID": 3628,
    "ولایت": "بلخ",
    "Province": "BALKH",
    "PC_Code": "2101018",
    "District": "MAZAR-E-SHARIF",
    "د_مرکز_نوم__نام_مرکز": "لیسه استقلال",
    "Polling_Center_Name": "Esteqlal High School",
    "د_مرکز_ځای__موقعیت_مرکز": "ناحیه پنجم",
    "Polling_Center_Location": "D05 - Nahia 5",
    "Map_Accuracy": "Building",
    "Map_Accuracy_Dari": "تعمیر",
    "Status": "Open",
    "Status_Dari": null,
    "PS_Male": 6,
    "PS_Female": 4,
    "PS_Total": 10,
    "ولسوالي": "مزار شریف",
    "Region": "Northern Region"
   },
   "geometry": {
    "x": 7470421.8603800666,
    "y": 4397617.8686351068
   }
  },
  {
   "attributes": {
    "OBJECTID": 3629,
    "ولایت": "بلخ",
    "Province": "BALKH",
    "PC_Code": "2101034",
    "District": "MAZAR-E-SHARIF",
    "د_مرکز_نوم__نام_مرکز": "مکتب شهید عبد العلی مزاری",
    "Polling_Center_Name": "Shahid Abdul Ali Mazari School",
    "د_مرکز_ځای__موقعیت_مرکز": "سید آباد . ناحیه سوم مزار شاروالی ",
    "Polling_Center_Location": "D03 - Nahia 3 Sayed Abad",
    "Map_Accuracy": "Building",
    "Map_Accuracy_Dari": "تعمیر",
    "Status": "Open",
    "Status_Dari": null,
    "PS_Male": 5,
    "PS_Female": 4,
    "PS_Total": 9,
    "ولسوالي": "مزار شریف",
    "Region": "Northern Region"
   },
   "geometry": {
    "x": 7471990.7416235618,
    "y": 4401245.1560454769
   }
  },
  {
   "attributes": {
    "OBJECTID": 3630,
    "ولایت": "بلخ",
    "Province": "BALKH",
    "PC_Code": "2101038",
    "District": "MAZAR-E-SHARIF",
    "د_مرکز_نوم__نام_مرکز": "مکتب سید یحیی عمری",
    "Polling_Center_Name": "Sayed Yahya Omari School",
    "د_مرکز_ځای__موقعیت_مرکز": "ناحیه نهم مزار شاروالی ",
    "Polling_Center_Location": "D09- Nahia 9",
    "Map_Accuracy": "Building",
    "Map_Accuracy_Dari": "تعمیر",
    "Status": "Open",
    "Status_Dari": null,
    "PS_Male": 4,
    "PS_Female": 2,
    "PS_Total": 6,
    "ولسوالي": "مزار شریف",
    "Region": "Northern Region"
   },
   "geometry": {
    "x": 7469301.9484540606,
    "y": 4402688.4930001218
   }
  },
  {
   "attributes": {
    "OBJECTID": 3631,
    "ولایت": "بلخ",
    "Province": "BALKH",
    "PC_Code": "2101039",
    "District": "MAZAR-E-SHARIF",
    "د_مرکز_نوم__نام_مرکز": "مکتب نور خدا",
    "Polling_Center_Name": "Noor Khuda School",
    "د_مرکز_ځای__موقعیت_مرکز": "ناحیه هشتم مزار شاروالی ",
    "Polling_Center_Location": "D08 - Nahia 8",
    "Map_Accuracy": "Building",
    "Map_Accuracy_Dari": "تعمیر",
    "Status": "Open",
    "Status_Dari": null,
    "PS_Male": 4,
    "PS_Female": 5,
    "PS_Total": 9,
    "ولسوالي": "مزار شریف",
    "Region": "Northern Region"
   },
   "geometry": {
    "x": 7471616.3430065699,
    "y": 4402368.8635709686
   }
  },
  {
   "attributes": {
    "OBJECTID": 3632,
    "ولایت": "بلخ",
    "Province": "BALKH",
    "PC_Code": "2102066",
    "District": "NAHR-E-SHAHI",
    "د_مرکز_نوم__نام_مرکز": "مکتب شهرک ترکمنیه",
    "Polling_Center_Name": "Shahrak Turkmania School",
    "د_مرکز_ځای__موقعیت_مرکز": "شهرک ترکمنیه",
    "Polling_Center_Location": "Shahrak Turkmania",
    "Map_Accuracy": "Building",
    "Map_Accuracy_Dari": "تعمیر",
    "Status": "Open",
    "Status_Dari": null,
    "PS_Male": 2,
    "PS_Female": 1,
    "PS_Total": 3,
    "ولسوالي": "نهر شاهی ",
    "Region": "Northern Region"
   },
   "geometry": {
    "x": 7467604.5221417667,
    "y": 4419534.479071606
   }
  },
  {
   "attributes": {
    "OBJECTID": 3633,
    "ولایت": "بلخ",
    "Province": "BALKH",
    "PC_Code": "2102070",
    "District": "NAHR-E-SHAHI",
    "د_مرکز_نوم__نام_مرکز": "مکتب ابتدائیه علی سینا بلخی ",
    "Polling_Center_Name": "Ali Sena Balkhi Primary School",
    "د_مرکز_ځای__موقعیت_مرکز": "قریه سینا",
    "Polling_Center_Location": "Seena Village",
    "Map_Accuracy": "Building",
    "Map_Accuracy_Dari": "تعمیر",
    "Status": "Open",
    "Status_Dari": null,
    "PS_Male": 3,
    "PS_Female": 2,
    "PS_Total": 5,
    "ولسوالي": "نهر شاهی ",
    "Region": "Northern Region"
   },
   "geometry": {
    "x": 7477437.1914240848,
    "y": 4400056.7694633389
   }
  },
  {
   "attributes": {
    "OBJECTID": 3634,
    "ولایت": "بلخ",
    "Province": "BALKH",
    "PC_Code": "2104275",
    "District": "CHAR KENT",
    "د_مرکز_نوم__نام_مرکز": "مکتب نان وایی",
    "Polling_Center_Name": "Naan Wayee School",
    "د_مرکز_ځای__موقعیت_مرکز": "قریه نان وایی",
    "Polling_Center_Location": "Naan Wayee Village",
    "Map_Accuracy": "Building",
    "Map_Accuracy_Dari": "تعمیر",
    "Status": "Open",
    "Status_Dari": null,
    "PS_Male": 2,
    "PS_Female": 1,
    "PS_Total": 3,
    "ولسوالي": "چارکنت",
    "Region": "Northern Region"
   },
   "geometry": {
    "x": 7481272.3481456777,
    "y": 4366220.6720969062
   }
  },
  {
   "attributes": {
    "OBJECTID": 3635,
    "ولایت": "بلخ",
    "Province": "BALKH",
    "PC_Code": "2104276",
    "District": "CHAR KENT",
    "د_مرکز_نوم__نام_مرکز": "مکتب یکه تال",
    "Polling_Center_Name": "Yaka Taal School",
    "د_مرکز_ځای__موقعیت_مرکز": "قریه یکه تال",
    "Polling_Center_Location": "Yaka Taal Village",
    "Map_Accuracy": "Building",
    "Map_Accuracy_Dari": "تعمیر",
    "Status": "Open",
    "Status_Dari": null,
    "PS_Male": 1,
    "PS_Female": 1,
    "PS_Total": 2,
    "ولسوالي": "چارکنت",
    "Region": "Northern Region"
   },
   "geometry": {
    "x": 7477680.2095535323,
    "y": 4354571.2752309609
   }
  },
  {
   "attributes": {
    "OBJECTID": 3636,
    "ولایت": "بلخ",
    "Province": "BALKH",
    "PC_Code": "2104280",
    "District": "CHAR KENT",
    "د_مرکز_نوم__نام_مرکز": "مکتب پس قدوق",
    "Polling_Center_Name": "Pas Qadoq School",
    "د_مرکز_ځای__موقعیت_مرکز": "قریه پس قدوق",
    "Polling_Center_Location": "Pas Qadoq Village",
    "Map_Accuracy": "Building",
    "Map_Accuracy_Dari": "تعمیر",
    "Status": "Open",
    "Status_Dari": null,
    "PS_Male": 1,
    "PS_Female": 1,
    "PS_Total": 2,
    "ولسوالي": "چارکنت",
    "Region": "Northern Region"
   },
   "geometry": {
    "x": 7494310.9952744301,
    "y": 4352253.979910315
   }
  },
  {
   "attributes": {
    "OBJECTID": 3637,
    "ولایت": "بلخ",
    "Province": "BALKH",
    "PC_Code": "2104281",
    "District": "CHAR KENT",
    "د_مرکز_نوم__نام_مرکز": "مکتب شاه انجیر",
    "Polling_Center_Name": "Shah Enjir School",
    "د_مرکز_ځای__موقعیت_مرکز": "قریه شاه انجیر",
    "Polling_Center_Location": "Shah Enjir Village",
    "Map_Accuracy": "Building",
    "Map_Accuracy_Dari": "تعمیر",
    "Status": "Open",
    "Status_Dari": null,
    "PS_Male": 1,
    "PS_Female": 1,
    "PS_Total": 2,
    "ولسوالي": "چارکنت",
    "Region": "Northern Region"
   },
   "geometry": {
    "x": 7483100.50584157,
    "y": 4347916.1315614861
   }
  },
  {
   "attributes": {
    "OBJECTID": 3638,
    "ولایت": "بلخ",
    "Province": "BALKH",
    "PC_Code": "2106152",
    "District": "BALKH",
    "د_مرکز_نوم__نام_مرکز": "مکتب کشکک",
    "Polling_Center_Name": "Kashkak School",
    "د_مرکز_ځای__موقعیت_مرکز": "قریه کشکک",
    "Polling_Center_Location": "Kashkak Village",
    "Map_Accuracy": "Building",
    "Map_Accuracy_Dari": "تعمیر",
    "Status": "Open",
    "Status_Dari": null,
    "PS_Male": 2,
    "PS_Female": 1,
    "PS_Total": 3,
    "ولسوالي": "بلخ",
    "Region": "Northern Region"
   },
   "geometry": {
    "x": 7448280.8222038196,
    "y": 4396518.7719735475
   }
  },
  {
   "attributes": {
    "OBJECTID": 3639,
    "ولایت": "بلخ",
    "Province": "BALKH",
    "PC_Code": "2106153",
    "District": "BALKH",
    "د_مرکز_نوم__نام_مرکز": "مکتب سپین کوت",
    "Polling_Center_Name": "Speen Kot School",
    "د_مرکز_ځای__موقعیت_مرکز": "قریه قلعچه",
    "Polling_Center_Location": "Qalacha Village",
    "Map_Accuracy": "Building",
    "Map_Accuracy_Dari": "تعمیر",
    "Status": "Open",
    "Status_Dari": null,
    "PS_Male": 1,
    "PS_Female": 1,
    "PS_Total": 2,
    "ولسوالي": "بلخ",
    "Region": "Northern Region"
   },
   "geometry": {
    "x": 7444601.7019011509,
    "y": 4408221.6104157427
   }
  },
  {
   "attributes": {
    "OBJECTID": 3640,
    "ولایت": "بلخ",
    "Province": "BALKH",
    "PC_Code": "2106157",
    "District": "BALKH",
    "د_مرکز_نوم__نام_مرکز": "مکتب شهید رحمت الله",
    "Polling_Center_Name": "Shaheed Rahmatullah School",
    "د_مرکز_ځای__موقعیت_مرکز": "علم خیل ",
    "Polling_Center_Location": "Alam Khel",
    "Map_Accuracy": "Building",
    "Map_Accuracy_Dari": "تعمیر",
    "Status": "Open",
    "Status_Dari": null,
    "PS_Male": 2,
    "PS_Female": 1,
    "PS_Total": 3,
    "ولسوالي": "بلخ",
    "Region": "Northern Region"
   },
   "geometry": {
    "x": 7438183.3295301935,
    "y": 4401163.8089341056
   }
  },
  {
   "attributes": {
    "OBJECTID": 3641,
    "ولایت": "بلخ",
    "Province": "BALKH",
    "PC_Code": "2106158",
    "District": "BALKH",
    "د_مرکز_نوم__نام_مرکز": "مکتب ذکور چهارسنگ",
    "Polling_Center_Name": "Chahar Sang Boys School",
    "د_مرکز_ځای__موقعیت_مرکز": "چهارسنگ",
    "Polling_Center_Location": "Chahar Sang",
    "Map_Accuracy": "Building",
    "Map_Accuracy_Dari": "تعمیر",
    "Status": "Open",
    "Status_Dari": null,
    "PS_Male": 3,
    "PS_Female": 1,
    "PS_Total": 4,
    "ولسوالي": "بلخ",
    "Region": "Northern Region"
   },
   "geometry": {
    "x": 7439629.6068261182,
    "y": 4398210.1063618213
   }
  },
  {
   "attributes": {
    "OBJECTID": 3642,
    "ولایت": "بلخ",
    "Province": "BALKH",
    "PC_Code": "2106176",
    "District": "BALKH",
    "د_مرکز_نوم__نام_مرکز": "تعمیر مهمانخانه شاروالی",
    "Polling_Center_Name": "Municipality Guesthouse",
    "د_مرکز_ځای__موقعیت_مرکز": "مرکز ولسوالی بلخ",
    "Polling_Center_Location": "Balk District Compound",
    "Map_Accuracy": "Building",
    "Map_Accuracy_Dari": "تعمیر",
    "Status": "Open",
    "Status_Dari": null,
    "PS_Male": 3,
    "PS_Female": 3,
    "PS_Total": 6,
    "ولسوالي": "بلخ",
    "Region": "Northern Region"
   },
   "geometry": {
    "x": 7447235.5945241852,
    "y": 4405342.3786487579
   }
  },
  {
   "attributes": {
    "OBJECTID": 3643,
    "ولایت": "بلخ",
    "Province": "BALKH",
    "PC_Code": "2107239",
    "District": "SHOLGARA",
    "د_مرکز_نوم__نام_مرکز": "تکیه خانه محمودیه",
    "Polling_Center_Name": "Takya Khana Mahmudia",
    "د_مرکز_ځای__موقعیت_مرکز": "قریه قیپچاق",
    "Polling_Center_Location": "Qepchaq Village",
    "Map_Accuracy": "Village",
    "Map_Accuracy_Dari": "قریه",
    "Status": "Open",
    "Status_Dari": null,
    "PS_Male": 2,
    "PS_Female": 1,
    "PS_Total": 3,
    "ولسوالي": "شولگره",
    "Region": "Northern Region"
   },
   "geometry": {
    "x": 7445049.7984738285,
    "y": 4347549.300031228
   }
  },
  {
   "attributes": {
    "OBJECTID": 3644,
    "ولایت": "بلخ",
    "Province": "BALKH",
    "PC_Code": "2107263",
    "District": "SHOLGARA",
    "د_مرکز_نوم__نام_مرکز": "لیسه سید جمال الدین افغانی",
    "Polling_Center_Name": "Sayed Jamaluddin Afghani High School",
    "د_مرکز_ځای__موقعیت_مرکز": "قریه رحیم سرخیل",
    "Polling_Center_Location": "Raheem Sar Khel Village",
    "Map_Accuracy": "Building",
    "Map_Accuracy_Dari": "تعمیر",
    "Status": "Open",
    "Status_Dari": null,
    "PS_Male": 2,
    "PS_Female": 1,
    "PS_Total": 3,
    "ولسوالي": "شولگره",
    "Region": "Northern Region"
   },
   "geometry": {
    "x": 7448849.9753831523,
    "y": 4348005.3081342438
   }
  },
  {
   "attributes": {
    "OBJECTID": 3645,
    "ولایت": "بلخ",
    "Province": "BALKH",
    "PC_Code": "2108223",
    "District": "CHIMTAL",
    "د_مرکز_نوم__نام_مرکز": "مسجد نوشار بلوچ",
    "Polling_Center_Name": "Nawshar Baloch Mosque",
    "د_مرکز_ځای__موقعیت_مرکز": "قریه نوشار بلوچ",
    "Polling_Center_Location": "Nawshar Baloch Village",
    "Map_Accuracy": "Village",
    "Map_Accuracy_Dari": "قریه",
    "Status": "Open",
    "Status_Dari": null,
    "PS_Male": 1,
    "PS_Female": 1,
    "PS_Total": 2,
    "ولسوالي": "چمتال",
    "Region": "Northern Region"
   },
   "geometry": {
    "x": 7417669.305861922,
    "y": 4398196.6252206806
   }
  },
  {
   "attributes": {
    "OBJECTID": 3646,
    "ولایت": "بلخ",
    "Province": "BALKH",
    "PC_Code": "2109120",
    "District": "DAWLAT ABAD",
    "د_مرکز_نوم__نام_مرکز": "کلینیک قرشی گک",
    "Polling_Center_Name": "Qarshigak Clinic",
    "د_مرکز_ځای__موقعیت_مرکز": "قریه قرشی گک",
    "Polling_Center_Location": "Qarshi Gak Village",
    "Map_Accuracy": "Building",
    "Map_Accuracy_Dari": "تعمیر",
    "Status": "Open",
    "Status_Dari": null,
    "PS_Male": 2,
    "PS_Female": 2,
    "PS_Total": 4,
    "ولسوالي": "دولت آباد",
    "Region": "Northern Region"
   },
   "geometry": {
    "x": 7434151.0770860529,
    "y": 4444467.5299561769
   }
  },
  {
   "attributes": {
    "OBJECTID": 3647,
    "ولایت": "بلخ",
    "Province": "BALKH",
    "PC_Code": "2109124",
    "District": "DAWLAT ABAD",
    "د_مرکز_نوم__نام_مرکز": "مکتب چاهی",
    "Polling_Center_Name": "Chaahee School",
    "د_مرکز_ځای__موقعیت_مرکز": "قریه چاهی",
    "Polling_Center_Location": "Chaahee Village",
    "Map_Accuracy": "Building",
    "Map_Accuracy_Dari": "تعمیر",
    "Status": "Open",
    "Status_Dari": null,
    "PS_Male": 2,
    "PS_Female": 2,
    "PS_Total": 4,
    "ولسوالي": "دولت آباد",
    "Region": "Northern Region"
   },
   "geometry": {
    "x": 7423411.9255091641,
    "y": 4437603.6429558117
   }
  },
  {
   "attributes": {
    "OBJECTID": 3648,
    "ولایت": "بلخ",
    "Province": "BALKH",
    "PC_Code": "2109141",
    "District": "DAWLAT ABAD",
    "د_مرکز_نوم__نام_مرکز": "مکتب نخچیرآباد",
    "Polling_Center_Name": "Nakhchir Abad School",
    "د_مرکز_ځای__موقعیت_مرکز": "قریه نخچیرآباد",
    "Polling_Center_Location": "Nakhchir Abad Village",
    "Map_Accuracy": "Building",
    "Map_Accuracy_Dari": "تعمیر",
    "Status": "Open",
    "Status_Dari": null,
    "PS_Male": 1,
    "PS_Female": 1,
    "PS_Total": 2,
    "ولسوالي": "دولت آباد",
    "Region": "Northern Region"
   },
   "geometry": {
    "x": 7446205.6821800936,
    "y": 4439517.3083426803
   }
  },
  {
   "attributes": {
    "OBJECTID": 3649,
    "ولایت": "بلخ",
    "Province": "BALKH",
    "PC_Code": "2109142",
    "District": "DAWLAT ABAD",
    "د_مرکز_نوم__نام_مرکز": "مکتب چهار باغ سیدان",
    "Polling_Center_Name": "Chahar Bagh Saydan School",
    "د_مرکز_ځای__موقعیت_مرکز": "قریه چهار باغ سیدان",
    "Polling_Center_Location": "Chahar Bagh Saydan Village",
    "Map_Accuracy": "Building",
    "Map_Accuracy_Dari": "تعمیر",
    "Status": "Open",
    "Status_Dari": null,
    "PS_Male": 1,
    "PS_Female": 1,
    "PS_Total": 2,
    "ولسوالي": "دولت آباد",
    "Region": "Northern Region"
   },
   "geometry": {
    "x": 7434545.8137740176,
    "y": 4436038.2215297138
   }
  },
  {
   "attributes": {
    "OBJECTID": 3650,
    "ولایت": "بلخ",
    "Province": "BALKH",
    "PC_Code": "2109146",
    "District": "DAWLAT ABAD",
    "د_مرکز_نوم__نام_مرکز": "منزل صوفی تاج الدین",
    "Polling_Center_Name": "Sufi Tajuddin Private House",
    "د_مرکز_ځای__موقعیت_مرکز": "هاشم آباد افغانیه",
    "Polling_Center_Location": "Hashim Abad Afghania",
    "Map_Accuracy": "Building",
    "Map_Accuracy_Dari": "تعمیر",
    "Status": "Open",
    "Status_Dari": null,
    "PS_Male": 1,
    "PS_Female": 1,
    "PS_Total": 2,
    "ولسوالي": "دولت آباد",
    "Region": "Northern Region"
   },
   "geometry": {
    "x": 7444227.3923397511,
    "y": 4434722.6383881364
   }
  },
  {
   "attributes": {
    "OBJECTID": 3651,
    "ولایت": "بلخ",
    "Province": "BALKH",
    "PC_Code": "2110076",
    "District": "KHULM",
    "د_مرکز_نوم__نام_مرکز": "لیسه ذکور خلم",
    "Polling_Center_Name": "Khulm Boys High School",
    "د_مرکز_ځای__موقعیت_مرکز": "قریه آبدار مرکز خلم ",
    "Polling_Center_Location": "Abdar Markaz Khulm Village",
    "Map_Accuracy": "Building",
    "Map_Accuracy_Dari": "تعمیر",
    "Status": "Open",
    "Status_Dari": null,
    "PS_Male": 5,
    "PS_Female": 2,
    "PS_Total": 7,
    "ولسوالي": "خلم",
    "Region": "Northern Region"
   },
   "geometry": {
    "x": 7535507.4022088572,
    "y": 4397059.7829417447
   }
  },
  {
   "attributes": {
    "OBJECTID": 3652,
    "ولایت": "بلخ",
    "Province": "BALKH",
    "PC_Code": "2110091",
    "District": "KHULM",
    "د_مرکز_نوم__نام_مرکز": "شفاخانه خلم",
    "Polling_Center_Name": "Khulm Hospital",
    "د_مرکز_ځای__موقعیت_مرکز": "مرکز خلم  گذر آبدار ",
    "Polling_Center_Location": "Markaz Khulm Guzar Aabdar",
    "Map_Accuracy": "Building",
    "Map_Accuracy_Dari": "تعمیر",
    "Status": "Open",
    "Status_Dari": null,
    "PS_Male": 1,
    "PS_Female": 1,
    "PS_Total": 2,
    "ولسوالي": "خلم",
    "Region": "Northern Region"
   },
   "geometry": {
    "x": 7535115.7735610781,
    "y": 4397049.6506130537
   }
  },
  {
   "attributes": {
    "OBJECTID": 3653,
    "ولایت": "بلخ",
    "Province": "BALKH",
    "PC_Code": "2110092",
    "District": "KHULM",
    "د_مرکز_نوم__نام_مرکز": "مکتب ابتدائیه قریه کهنه خلم",
    "Polling_Center_Name": "Khulm Old Village Primary School",
    "د_مرکز_ځای__موقعیت_مرکز": "سلوزی - کهنه خلم ",
    "Polling_Center_Location": "Salozai - Khulm Old Village",
    "Map_Accuracy": "Building",
    "Map_Accuracy_Dari": "تعمیر",
    "Status": "Open",
    "Status_Dari": null,
    "PS_Male": 1,
    "PS_Female": 1,
    "PS_Total": 2,
    "ولسوالي": "خلم",
    "Region": "Northern Region"
   },
   "geometry": {
    "x": 7537947.9351027692,
    "y": 4406420.9950675117
   }
  },
  {
   "attributes": {
    "OBJECTID": 3654,
    "ولایت": "بلخ",
    "Province": "BALKH",
    "PC_Code": "2110097",
    "District": "KHULM",
    "د_مرکز_نوم__نام_مرکز": "لیسه ذکور خواجه برهان",
    "Polling_Center_Name": "Khwaja Burhan Boys High School",
    "د_مرکز_ځای__موقعیت_مرکز": "قریه سرهنگ اسماعیل خیل ",
    "Polling_Center_Location": "Sarhang Ismail Khel Village",
    "Map_Accuracy": "Building",
    "Map_Accuracy_Dari": "تعمیر",
    "Status": "Open",
    "Status_Dari": null,
    "PS_Male": 1,
    "PS_Female": 1,
    "PS_Total": 2,
    "ولسوالي": "خلم",
    "Region": "Northern Region"
   },
   "geometry": {
    "x": 7541170.7067189049,
    "y": 4398581.6088249907
   }
  },
  {
   "attributes": {
    "OBJECTID": 3655,
    "ولایت": "بلخ",
    "Province": "BALKH",
    "PC_Code": "2110098",
    "District": "KHULM",
    "د_مرکز_نوم__نام_مرکز": "مکتب متوسط ناهید شهید",
    "Polling_Center_Name": "Nahid Shaheed Secondary School",
    "د_مرکز_ځای__موقعیت_مرکز": "قریه سلوزی",
    "Polling_Center_Location": "Salozai Village",
    "Map_Accuracy": "Building",
    "Map_Accuracy_Dari": "تعمیر",
    "Status": "Open",
    "Status_Dari": null,
    "PS_Male": 1,
    "PS_Female": 1,
    "PS_Total": 2,
    "ولسوالي": "خلم",
    "Region": "Northern Region"
   },
   "geometry": {
    "x": 7536938.8918236187,
    "y": 4401468.2099550981
   }
  },
  {
   "attributes": {
    "OBJECTID": 3656,
    "ولایت": "بلخ",
    "Province": "BALKH",
    "PC_Code": "2111192",
    "District": "CHAR BOLAK",
    "د_مرکز_نوم__نام_مرکز": "مکتب بیست پیکال",
    "Polling_Center_Name": "Bist Paikal School",
    "د_مرکز_ځای__موقعیت_مرکز": "قریه بیست پیکال",
    "Polling_Center_Location": "Bist Paikal Village",
    "Map_Accuracy": "Building",
    "Map_Accuracy_Dari": "تعمیر",
    "Status": "Open",
    "Status_Dari": null,
    "PS_Male": 2,
    "PS_Female": 1,
    "PS_Total": 3,
    "ولسوالي": "چار بولک",
    "Region": "Northern Region"
   },
   "geometry": {
    "x": 7403831.4927691771,
    "y": 4405555.1041548811
   }
  },
  {
   "attributes": {
    "OBJECTID": 3657,
    "ولایت": "بلخ",
    "Province": "BALKH",
    "PC_Code": "2111193",
    "District": "CHAR BOLAK",
    "د_مرکز_نوم__نام_مرکز": "مکتب چوبه",
    "Polling_Center_Name": "Choba School",
    "د_مرکز_ځای__موقعیت_مرکز": "قریه چوبه",
    "Polling_Center_Location": "Choba Village",
    "Map_Accuracy": "Building",
    "Map_Accuracy_Dari": "تعمیر",
    "Status": "Open",
    "Status_Dari": null,
    "PS_Male": 2,
    "PS_Female": 1,
    "PS_Total": 3,
    "ولسوالي": "چار بولک",
    "Region": "Northern Region"
   },
   "geometry": {
    "x": 7409933.6287306882,
    "y": 4408000.470650957
   }
  },
  {
   "attributes": {
    "OBJECTID": 3658,
    "ولایت": "بلخ",
    "Province": "BALKH",
    "PC_Code": "2111197",
    "District": "CHAR BOLAK",
    "د_مرکز_نوم__نام_مرکز": "مکتب قاضی فاروق شهید",
    "Polling_Center_Name": "Qazi Farooq Shaheed School",
    "د_مرکز_ځای__موقعیت_مرکز": "قریه ارزنکار",
    "Polling_Center_Location": "Arzankar Village",
    "Map_Accuracy": "Building",
    "Map_Accuracy_Dari": "تعمیر",
    "Status": "Open",
    "Status_Dari": null,
    "PS_Male": 1,
    "PS_Female": 1,
    "PS_Total": 2,
    "ولسوالي": "چار بولک",
    "Region": "Northern Region"
   },
   "geometry": {
    "x": 7422224.1020145984,
    "y": 4400371.3761653882
   }
  },
  {
   "attributes": {
    "OBJECTID": 3659,
    "ولایت": "بلخ",
    "Province": "BALKH",
    "PC_Code": "2111198",
    "District": "CHAR BOLAK",
    "د_مرکز_نوم__نام_مرکز": "مکتب نوی کوت",
    "Polling_Center_Name": "Nawai Kot School",
    "د_مرکز_ځای__موقعیت_مرکز": "قریه نوی کوت ( ینگاریق)",
    "Polling_Center_Location": "Nawai Kot (Yangareq) Village",
    "Map_Accuracy": "Building",
    "Map_Accuracy_Dari": "تعمیر",
    "Status": "Open",
    "Status_Dari": null,
    "PS_Male": 2,
    "PS_Female": 1,
    "PS_Total": 3,
    "ولسوالي": "چار بولک",
    "Region": "Northern Region"
   },
   "geometry": {
    "x": 7429046.6164572975,
    "y": 4399603.0351136476
   }
  },
  {
   "attributes": {
    "OBJECTID": 3660,
    "ولایت": "بلخ",
    "Province": "BALKH",
    "PC_Code": "2112111",
    "District": "SHORTEPA",
    "د_مرکز_نوم__نام_مرکز": "مکتب ابو جعفر",
    "Polling_Center_Name": "Abu Jafar School",
    "د_مرکز_ځای__موقعیت_مرکز": "قریه جوی وکیل",
    "Polling_Center_Location": "Joy Wakeel Village",
    "Map_Accuracy": "Building",
    "Map_Accuracy_Dari": "تعمیر",
    "Status": "Open",
    "Status_Dari": null,
    "PS_Male": 2,
    "PS_Female": 1,
    "PS_Total": 3,
    "ولسوالي": "شور تیپه",
    "Region": "Northern Region"
   },
   "geometry": {
    "x": 7455227.887571984,
    "y": 4487755.827855967
   }
  },
  {
   "attributes": {
    "OBJECTID": 3661,
    "ولایت": "بلخ",
    "Province": "BALKH",
    "PC_Code": "2112112",
    "District": "SHORTEPA",
    "د_مرکز_نوم__نام_مرکز": "مکتب شور آریق",
    "Polling_Center_Name": "Shor Aareeq School",
    "د_مرکز_ځای__موقعیت_مرکز": "قریه شور آریق",
    "Polling_Center_Location": "Shor Aareeq Village",
    "Map_Accuracy": "Building",
    "Map_Accuracy_Dari": "تعمیر",
    "Status": "Open",
    "Status_Dari": null,
    "PS_Male": 2,
    "PS_Female": 1,
    "PS_Total": 3,
    "ولسوالي": "شور تیپه",
    "Region": "Northern Region"
   },
   "geometry": {
    "x": 7427848.0261415858,
    "y": 4481335.5056992881
   }
  },
  {
   "attributes": {
    "OBJECTID": 3662,
    "ولایت": "بلخ",
    "Province": "BALKH",
    "PC_Code": "2112116",
    "District": "SHORTEPA",
    "د_مرکز_نوم__نام_مرکز": "مکتب ارنجی بشیرلی",
    "Polling_Center_Name": "Arenji Bashirli School",
    "د_مرکز_ځای__موقعیت_مرکز": "سید آباد کامه گذر",
    "Polling_Center_Location": "Sayed Abad Kama Guzar ",
    "Map_Accuracy": "Building",
    "Map_Accuracy_Dari": "تعمیر",
    "Status": "Open",
    "Status_Dari": null,
    "PS_Male": 1,
    "PS_Female": 1,
    "PS_Total": 2,
    "ولسوالي": "شور تیپه",
    "Region": "Northern Region"
   },
   "geometry": {
    "x": 7485825.2451878469,
    "y": 4462303.7395152068
   }
  },
  {
   "attributes": {
    "OBJECTID": 3663,
    "ولایت": "بلخ",
    "Province": "BALKH",
    "PC_Code": "2112117",
    "District": "SHORTEPA",
    "د_مرکز_نوم__نام_مرکز": "کلینیک اسلام سفلی",
    "Polling_Center_Name": "Islam Sufla Clinic",
    "د_مرکز_ځای__موقعیت_مرکز": "قریه اسلام سفلی",
    "Polling_Center_Location": "Islam Sufla Village",
    "Map_Accuracy": "Building",
    "Map_Accuracy_Dari": "تعمیر",
    "Status": "Open",
    "Status_Dari": null,
    "PS_Male": 1,
    "PS_Female": 1,
    "PS_Total": 2,
    "ولسوالي": "شور تیپه",
    "Region": "Northern Region"
   },
   "geometry": {
    "x": 7384683.5551752402,
    "y": 4479441.6949203536
   }
  },
  {
   "attributes": {
    "OBJECTID": 3664,
    "ولایت": "بلخ",
    "Province": "BALKH",
    "PC_Code": "2114292",
    "District": "KISHINDEH",
    "د_مرکز_نوم__نام_مرکز": "مکتب چکانه بالا",
    "Polling_Center_Name": "Chakana Bala School",
    "د_مرکز_ځای__موقعیت_مرکز": "قریه چکانه بالا",
    "Polling_Center_Location": "Chakana Bala Village",
    "Map_Accuracy": "Building",
    "Map_Accuracy_Dari": "تعمیر",
    "Status": "Open",
    "Status_Dari": null,
    "PS_Male": 1,
    "PS_Female": 1,
    "PS_Total": 2,
    "ولسوالي": "کشنده",
    "Region": "Northern Region"
   },
   "geometry": {
    "x": 7457447.6817080183,
    "y": 4315619.7747801887
   }
  },
  {
   "attributes": {
    "OBJECTID": 3665,
    "ولایت": "بلخ",
    "Province": "BALKH",
    "PC_Code": "2114293",
    "District": "KISHINDEH",
    "د_مرکز_نوم__نام_مرکز": "مکتب تونج",
    "Polling_Center_Name": "Tonj School",
    "د_مرکز_ځای__موقعیت_مرکز": "قریه تونج",
    "Polling_Center_Location": "Tonj Village",
    "Map_Accuracy": "Building",
    "Map_Accuracy_Dari": "تعمیر",
    "Status": "Open",
    "Status_Dari": null,
    "PS_Male": 2,
    "PS_Female": 1,
    "PS_Total": 3,
    "ولسوالي": "کشنده",
    "Region": "Northern Region"
   },
   "geometry": {
    "x": 7444065.25550141,
    "y": 4286638.7842004234
   }
  },
  {
   "attributes": {
    "OBJECTID": 3666,
    "ولایت": "بلخ",
    "Province": "BALKH",
    "PC_Code": "2115314",
    "District": "ZARI",
    "د_مرکز_نوم__نام_مرکز": "مکتب پسته بلوچ",
    "Polling_Center_Name": "Pasta Baloch School",
    "د_مرکز_ځای__موقعیت_مرکز": "قریه پسته بلوچ",
    "Polling_Center_Location": "Pasta Baloch Village",
    "Map_Accuracy": "Building",
    "Map_Accuracy_Dari": "تعمیر",
    "Status": "Open",
    "Status_Dari": null,
    "PS_Male": 1,
    "PS_Female": 1,
    "PS_Total": 2,
    "ولسوالي": "زاری",
    "Region": "Northern Region"
   },
   "geometry": {
    "x": 7433703.6405266356,
    "y": 4306612.5532427225
   }
  },
  {
   "attributes": {
    "OBJECTID": 3667,
    "ولایت": "بلخ",
    "Province": "BALKH",
    "PC_Code": "2115315",
    "District": "ZARI",
    "د_مرکز_نوم__نام_مرکز": "مکتب بایه",
    "Polling_Center_Name": "Baya School",
    "د_مرکز_ځای__موقعیت_مرکز": "قریه بایه",
    "Polling_Center_Location": "Baya Village",
    "Map_Accuracy": "Building",
    "Map_Accuracy_Dari": "تعمیر",
    "Status": "Open",
    "Status_Dari": null,
    "PS_Male": 1,
    "PS_Female": 1,
    "PS_Total": 2,
    "ولسوالي": "زاری",
    "Region": "Northern Region"
   },
   "geometry": {
    "x": 7435307.343731367,
    "y": 4268279.1985295853
   }
  },
  {
   "attributes": {
    "OBJECTID": 3668,
    "ولایت": "سرپل",
    "Province": "SAR-E-PUL",
    "PC_Code": "2204038",
    "District": "SOZMA QALA",
    "د_مرکز_نوم__نام_مرکز": "لیسه چارک",
    "Polling_Center_Name": "Charak High School",
    "د_مرکز_ځای__موقعیت_مرکز": "چارک سفلی ",
    "Polling_Center_Location": "Charak Sufla",
    "Map_Accuracy": "Building",
    "Map_Accuracy_Dari": "تعمیر",
    "Status": "Open",
    "Status_Dari": null,
    "PS_Male": 2,
    "PS_Female": 1,
    "PS_Total": 3,
    "ولسوالي": "سوزمه قلعه",
    "Region": "Northern Region"
   },
   "geometry": {
    "x": 7370534.7644057963,
    "y": 4297969.9906532345
   }
  },
  {
   "attributes": {
    "OBJECTID": 3669,
    "ولایت": "سرپل",
    "Province": "SAR-E-PUL",
    "PC_Code": "2204039",
    "District": "SOZMA QALA",
    "د_مرکز_نوم__نام_مرکز": "مسجد کته قلعه",
    "Polling_Center_Name": "Kata Qala Mosque",
    "د_مرکز_ځای__موقعیت_مرکز": "کته قلعه",
    "Polling_Center_Location": "Kata Qala",
    "Map_Accuracy": "Building",
    "Map_Accuracy_Dari": "تعمیر",
    "Status": "Open",
    "Status_Dari": null,
    "PS_Male": 2,
    "PS_Female": 1,
    "PS_Total": 3,
    "ولسوالي": "سوزمه قلعه",
    "Region": "Northern Region"
   },
   "geometry": {
    "x": 7368073.2054864634,
    "y": 4289758.8642404936
   }
  },
  {
   "attributes": {
    "OBJECTID": 3670,
    "ولایت": "سرپل",
    "Province": "SAR-E-PUL",
    "PC_Code": "2205110",
    "District": "SANG CHARAK",
    "د_مرکز_نوم__نام_مرکز": "مسجد قریه شبوکند",
    "Polling_Center_Name": "Shbokand Village Mosque",
    "د_مرکز_ځای__موقعیت_مرکز": "قریه شبوکند",
    "Polling_Center_Location": "Shabokand Village",
    "Map_Accuracy": "Building",
    "Map_Accuracy_Dari": "تعمیر",
    "Status": "Open",
    "Status_Dari": null,
    "PS_Male": 1,
    "PS_Female": 1,
    "PS_Total": 2,
    "ولسوالي": "سنگ چارک",
    "Region": "Northern Region"
   },
   "geometry": {
    "x": 7390325.5765118431,
    "y": 4281437.2723548887
   }
  },
  {
   "attributes": {
    "OBJECTID": 3671,
    "ولایت": "سرپل",
    "Province": "SAR-E-PUL",
    "PC_Code": "2206131",
    "District": "GOSFANDI",
    "د_مرکز_نوم__نام_مرکز": "مسجد جامع خواجه\u064E نهان",
    "Polling_Center_Name": "Khwaja Nahan Mosque",
    "د_مرکز_ځای__موقعیت_مرکز": "قریه خاسار",
    "Polling_Center_Location": "Khasar Village",
    "Map_Accuracy": "Building",
    "Map_Accuracy_Dari": "تعمیر",
    "Status": "Open",
    "Status_Dari": null,
    "PS_Male": 2,
    "PS_Female": 1,
    "PS_Total": 3,
    "ولسوالي": "گوسفندی ",
    "Region": "Northern Region"
   },
   "geometry": {
    "x": 7404823.734597587,
    "y": 4283402.1762544475
   }
  },
  {
   "attributes": {
    "OBJECTID": 3672,
    "ولایت": "غور",
    "Province": "GHOR",
    "PC_Code": "2301002",
    "District": "CHIGHCHERAN",
    "د_مرکز_نوم__نام_مرکز": "لیسه سلطان رضیه غوری ",
    "Polling_Center_Name": "Sultan Razia Ghori High School",
    "د_مرکز_ځای__موقعیت_مرکز": "دهن کاسی ",
    "Polling_Center_Location": "Dahn Kasi",
    "Map_Accuracy": "Building",
    "Map_Accuracy_Dari": "تعمیر",
    "Status": "Open",
    "Status_Dari": null,
    "PS_Male": 5,
    "PS_Female": 4,
    "PS_Total": 9,
    "ولسوالي": "چغچران",
    "Region": "Western Region"
   },
   "geometry": {
    "x": 7264446.7520066667,
    "y": 4099498.7264983654
   }
  },
  {
   "attributes": {
    "OBJECTID": 3673,
    "ولایت": "غور",
    "Province": "GHOR",
    "PC_Code": "2301003",
    "District": "CHIGHCHERAN",
    "د_مرکز_نوم__نام_مرکز": "مکتب الندر",
    "Polling_Center_Name": "Alandar School",
    "د_مرکز_ځای__موقعیت_مرکز": " الندر",
    "Polling_Center_Location": "Alandar",
    "Map_Accuracy": "Building",
    "Map_Accuracy_Dari": "تعمیر",
    "Status": "Open",
    "Status_Dari": null,
    "PS_Male": 4,
    "PS_Female": 2,
    "PS_Total": 6,
    "ولسوالي": "چغچران",
    "Region": "Western Region"
   },
   "geometry": {
    "x": 7248771.0730452416,
    "y": 4102095.418493527
   }
  },
  {
   "attributes": {
    "OBJECTID": 3674,
    "ولایت": "غور",
    "Province": "GHOR",
    "PC_Code": "2301007",
    "District": "CHIGHCHERAN",
    "د_مرکز_نوم__نام_مرکز": "مکتب ابتدای خوا جه غار",
    "Polling_Center_Name": "Khwaja Ghaar Primary School",
    "د_مرکز_ځای__موقعیت_مرکز": " خواجه غار",
    "Polling_Center_Location": "Khwaja Ghaar",
    "Map_Accuracy": "Building",
    "Map_Accuracy_Dari": "تعمیر",
    "Status": "Open",
    "Status_Dari": null,
    "PS_Male": 4,
    "PS_Female": 2,
    "PS_Total": 6,
    "ولسوالي": "چغچران",
    "Region": "Western Region"
   },
   "geometry": {
    "x": 7245358.3480764087,
    "y": 4117211.5813419907
   }
  },
  {
   "attributes": {
    "OBJECTID": 3675,
    "ولایت": "غور",
    "Province": "GHOR",
    "PC_Code": "2301025",
    "District": "CHIGHCHERAN",
    "د_مرکز_نوم__نام_مرکز": "مسجد سوخته سفلی",
    "Polling_Center_Name": "Sokhta-e-Sufla Mosque",
    "د_مرکز_ځای__موقعیت_مرکز": " سوخته سفلی",
    "Polling_Center_Location": "Sokhta-e-Sufla",
    "Map_Accuracy": "Building",
    "Map_Accuracy_Dari": "تعمیر",
    "Status": "Open",
    "Status_Dari": null,
    "PS_Male": 2,
    "PS_Female": 2,
    "PS_Total": 4,
    "ولسوالي": "چغچران",
    "Region": "Western Region"
   },
   "geometry": {
    "x": 7229954.3621433824,
    "y": 4089206.0093379207
   }
  },
  {
   "attributes": {
    "OBJECTID": 3676,
    "ولایت": "غور",
    "Province": "GHOR",
    "PC_Code": "2301026",
    "District": "CHIGHCHERAN",
    "د_مرکز_نوم__نام_مرکز": "مسجد دهک غوری ها",
    "Polling_Center_Name": "Dahak Ghoriha Mosque",
    "د_مرکز_ځای__موقعیت_مرکز": "دهنه",
    "Polling_Center_Location": "Dahna",
    "Map_Accuracy": "Building",
    "Map_Accuracy_Dari": "تعمیر",
    "Status": "Open",
    "Status_Dari": null,
    "PS_Male": 2,
    "PS_Female": 2,
    "PS_Total": 4,
    "ولسوالي": "چغچران",
    "Region": "Western Region"
   },
   "geometry": {
    "x": 7253251.2569752615,
    "y": 4060979.834268555
   }
  },
  {
   "attributes": {
    "OBJECTID": 3677,
    "ولایت": "غور",
    "Province": "GHOR",
    "PC_Code": "2301236",
    "District": "CHIGHCHERAN",
    "د_مرکز_نوم__نام_مرکز": "دهن کندیوال",
    "Polling_Center_Name": "Dahn Kandiwal",
    "د_مرکز_ځای__موقعیت_مرکز": "دهن کندیوال",
    "Polling_Center_Location": "Dahn Kandiwal",
    "Map_Accuracy": "Village",
    "Map_Accuracy_Dari": "قریه",
    "Status": "Open",
    "Status_Dari": null,
    "PS_Male": 3,
    "PS_Female": 2,
    "PS_Total": 5,
    "ولسوالي": "چغچران",
    "Region": "Western Region"
   },
   "geometry": {
    "x": 7265036.6462335251,
    "y": 4092244.713030587
   }
  },
  {
   "attributes": {
    "OBJECTID": 3678,
    "ولایت": "غور",
    "Province": "GHOR",
    "PC_Code": "2302098",
    "District": "DULEENA",
    "د_مرکز_نوم__نام_مرکز": "زمین دشت فراه رود",
    "Polling_Center_Name": "Zameen Dasht Farah Rod ",
    "د_مرکز_ځای__موقعیت_مرکز": " فراه رود",
    "Polling_Center_Location": "Farah Rod",
    "Map_Accuracy": "Village",
    "Map_Accuracy_Dari": "قریه",
    "Status": "Open",
    "Status_Dari": null,
    "PS_Male": 2,
    "PS_Female": 1,
    "PS_Total": 3,
    "ولسوالي": "دولینه",
    "Region": "Western Region"
   },
   "geometry": {
    "x": 7217131.2139640786,
    "y": 4018458.3745093746
   }
  },
  {
   "attributes": {
    "OBJECTID": 3679,
    "ولایت": "غور",
    "Province": "GHOR",
    "PC_Code": "2302102",
    "District": "DULEENA",
    "د_مرکز_نوم__نام_مرکز": "مکتب دولینه",
    "Polling_Center_Name": "Dolina School",
    "د_مرکز_ځای__موقعیت_مرکز": " مرکز دولینه",
    "Polling_Center_Location": "Markaz Dolina",
    "Map_Accuracy": "Building",
    "Map_Accuracy_Dari": "تعمیر",
    "Status": "Open",
    "Status_Dari": null,
    "PS_Male": 2,
    "PS_Female": 1,
    "PS_Total": 3,
    "ولسوالي": "دولینه",
    "Region": "Western Region"
   },
   "geometry": {
    "x": 7211651.2982963547,
    "y": 4049865.9306567386
   }
  },
  {
   "attributes": {
    "OBJECTID": 3680,
    "ولایت": "غور",
    "Province": "GHOR",
    "PC_Code": "2302103",
    "District": "DULEENA",
    "د_مرکز_نوم__نام_مرکز": "گرما بک ارباب معاذالله ",
    "Polling_Center_Name": "Garma Bak Arbab Maazallah",
    "د_مرکز_ځای__موقعیت_مرکز": "قلعه نقشی ",
    "Polling_Center_Location": "Qala-e-Naqshi",
    "Map_Accuracy": "Building",
    "Map_Accuracy_Dari": "تعمیر",
    "Status": "Open",
    "Status_Dari": null,
    "PS_Male": 2,
    "PS_Female": 1,
    "PS_Total": 3,
    "ولسوالي": "دولینه",
    "Region": "Western Region"
   },
   "geometry": {
    "x": 7247390.7970754169,
    "y": 4053774.5951974299
   }
  },
  {
   "attributes": {
    "OBJECTID": 3681,
    "ولایت": "غور",
    "Province": "GHOR",
    "PC_Code": "2303054",
    "District": "DAWLATYAR",
    "د_مرکز_نوم__نام_مرکز": "مکتب گری امام داد",
    "Polling_Center_Name": "Geri Imam Dad School",
    "د_مرکز_ځای__موقعیت_مرکز": " گری امام داد",
    "Polling_Center_Location": "Geri Imam Dad",
    "Map_Accuracy": "Village",
    "Map_Accuracy_Dari": "قریه",
    "Status": "Open",
    "Status_Dari": null,
    "PS_Male": 1,
    "PS_Female": 1,
    "PS_Total": 2,
    "ولسوالي": "دولت یار ",
    "Region": "Western Region"
   },
   "geometry": {
    "x": 7310248.7212343523,
    "y": 4088558.6758284229
   }
  },
  {
   "attributes": {
    "OBJECTID": 3682,
    "ولایت": "غور",
    "Province": "GHOR",
    "PC_Code": "2303055",
    "District": "DAWLATYAR",
    "د_مرکز_نوم__نام_مرکز": "مسجد قریه علی بازار ",
    "Polling_Center_Name": "Ali Bazar Village Mosque",
    "د_مرکز_ځای__موقعیت_مرکز": "قریه علی بازار ",
    "Polling_Center_Location": "Ali Bazar Village",
    "Map_Accuracy": "Village",
    "Map_Accuracy_Dari": "قریه",
    "Status": "Open",
    "Status_Dari": null,
    "PS_Male": 2,
    "PS_Female": 1,
    "PS_Total": 3,
    "ولسوالي": "دولت یار ",
    "Region": "Western Region"
   },
   "geometry": {
    "x": 7331181.2438490922,
    "y": 4103139.4162502978
   }
  },
  {
   "attributes": {
    "OBJECTID": 3683,
    "ولایت": "غور",
    "Province": "GHOR",
    "PC_Code": "2303237",
    "District": "DAWLATYAR",
    "د_مرکز_نوم__نام_مرکز": "خیمه بازار",
    "Polling_Center_Name": "Bazar Tent",
    "د_مرکز_ځای__موقعیت_مرکز": "بازار",
    "Polling_Center_Location": "Bazar",
    "Map_Accuracy": "Building",
    "Map_Accuracy_Dari": "تعمیر",
    "Status": "Open",
    "Status_Dari": null,
    "PS_Male": 1,
    "PS_Female": 1,
    "PS_Total": 2,
    "ولسوالي": "دولت یار ",
    "Region": "Western Region"
   },
   "geometry": {
    "x": 7324322.7175511243,
    "y": 4103101.9621702917
   }
  },
  {
   "attributes": {
    "OBJECTID": 3684,
    "ولایت": "غور",
    "Province": "GHOR",
    "PC_Code": "2305115",
    "District": "PASABAND",
    "د_مرکز_نوم__نام_مرکز": "مکتب خم بولاق",
    "Polling_Center_Name": "Khum Bolaq School",
    "د_مرکز_ځای__موقعیت_مرکز": " خم بولاق",
    "Polling_Center_Location": "Khum Bolaq",
    "Map_Accuracy": "Building",
    "Map_Accuracy_Dari": "تعمیر",
    "Status": "Open",
    "Status_Dari": null,
    "PS_Male": 2,
    "PS_Female": 1,
    "PS_Total": 3,
    "ولسوالي": "پسابند ",
    "Region": "Western Region"
   },
   "geometry": {
    "x": 7264286.7291254606,
    "y": 4009446.2281579836
   }
  },
  {
   "attributes": {
    "OBJECTID": 3685,
    "ولایت": "غور",
    "Province": "GHOR",
    "PC_Code": "2305116",
    "District": "PASABAND",
    "د_مرکز_نوم__نام_مرکز": "مکتب تلمستان",
    "Polling_Center_Name": "Talmestan School",
    "د_مرکز_ځای__موقعیت_مرکز": "تلمستان",
    "Polling_Center_Location": "Talmestan ",
    "Map_Accuracy": "Building",
    "Map_Accuracy_Dari": "تعمیر",
    "Status": "Open",
    "Status_Dari": null,
    "PS_Male": 1,
    "PS_Female": 3,
    "PS_Total": 4,
    "ولسوالي": "پسابند ",
    "Region": "Western Region"
   },
   "geometry": {
    "x": 7280766.0335096736,
    "y": 3985484.8529832978
   }
  },
  {
   "attributes": {
    "OBJECTID": 3686,
    "ولایت": "غور",
    "Province": "GHOR",
    "PC_Code": "2306076",
    "District": "SHAHRAK",
    "د_مرکز_نوم__نام_مرکز": "زمین زراعتی",
    "Polling_Center_Name": "Agricultural Land / Open Space",
    "د_مرکز_ځای__موقعیت_مرکز": " دهنه مرغا",
    "Polling_Center_Location": "Dahn Murgha",
    "Map_Accuracy": "Village",
    "Map_Accuracy_Dari": "قریه",
    "Status": "Open",
    "Status_Dari": null,
    "PS_Male": 2,
    "PS_Female": 1,
    "PS_Total": 3,
    "ولسوالي": "شهرک ",
    "Region": "Western Region"
   },
   "geometry": {
    "x": 7155104.7039124155,
    "y": 4078886.0541017428
   }
  },
  {
   "attributes": {
    "OBJECTID": 3687,
    "ولایت": "غور",
    "Province": "GHOR",
    "PC_Code": "2307139",
    "District": "LAL WA SARJANGAL",
    "د_مرکز_نوم__نام_مرکز": "مسجد  قلعه جنگل",
    "Polling_Center_Name": "Qala-e-Jangal Mosque",
    "د_مرکز_ځای__موقعیت_مرکز": "قریه  قلعه جنگل",
    "Polling_Center_Location": "Qala-e-Jangal Village",
    "Map_Accuracy": "Building",
    "Map_Accuracy_Dari": "تعمیر",
    "Status": "Open",
    "Status_Dari": null,
    "PS_Male": 1,
    "PS_Female": 1,
    "PS_Total": 2,
    "ولسوالي": "لعل و سرجنگل ",
    "Region": "Western Region"
   },
   "geometry": {
    "x": 7340892.0137248952,
    "y": 4079243.389279834
   }
  },
  {
   "attributes": {
    "OBJECTID": 3688,
    "ولایت": "غور",
    "Province": "GHOR",
    "PC_Code": "2307155",
    "District": "LAL WA SARJANGAL",
    "د_مرکز_نوم__نام_مرکز": "مسجد جامع سفید اب ",
    "Polling_Center_Name": "Safid Aab Mosque",
    "د_مرکز_ځای__موقعیت_مرکز": "قریه سر بغندی",
    "Polling_Center_Location": "Sar Baghandi Village",
    "Map_Accuracy": "Building",
    "Map_Accuracy_Dari": "تعمیر",
    "Status": "Open",
    "Status_Dari": null,
    "PS_Male": 2,
    "PS_Female": 3,
    "PS_Total": 5,
    "ولسوالي": "لعل و سرجنگل ",
    "Region": "Western Region"
   },
   "geometry": {
    "x": 7383935.7909861272,
    "y": 4117329.6094060116
   }
  },
  {
   "attributes": {
    "OBJECTID": 3689,
    "ولایت": "غور",
    "Province": "GHOR",
    "PC_Code": "2307174",
    "District": "LAL WA SARJANGAL",
    "د_مرکز_نوم__نام_مرکز": "مکتب شنیه چپرقل   ",
    "Polling_Center_Name": "Shinya Chaparqul School",
    "د_مرکز_ځای__موقعیت_مرکز": "شینیه چپرقل ",
    "Polling_Center_Location": "Shinya Chaparqul",
    "Map_Accuracy": "Village",
    "Map_Accuracy_Dari": "قریه",
    "Status": "Open",
    "Status_Dari": null,
    "PS_Male": 1,
    "PS_Female": 1,
    "PS_Total": 2,
    "ولسوالي": "لعل و سرجنگل ",
    "Region": "Western Region"
   },
   "geometry": {
    "x": 7392684.0702806339,
    "y": 4109515.9597185981
   }
  },
  {
   "attributes": {
    "OBJECTID": 3690,
    "ولایت": "غور",
    "Province": "GHOR",
    "PC_Code": "2308228",
    "District": "TAYWARA",
    "د_مرکز_نوم__نام_مرکز": "مکتب قبه",
    "Polling_Center_Name": "Qoba School",
    "د_مرکز_ځای__موقعیت_مرکز": "قبه",
    "Polling_Center_Location": "Qoba",
    "Map_Accuracy": "Building",
    "Map_Accuracy_Dari": "تعمیر",
    "Status": "Open",
    "Status_Dari": null,
    "PS_Male": 2,
    "PS_Female": 1,
    "PS_Total": 3,
    "ولسوالي": "تیوره",
    "Region": "Western Region"
   },
   "geometry": {
    "x": 7157155.4115343019,
    "y": 3957967.7069058488
   }
  },
  {
   "attributes": {
    "OBJECTID": 3691,
    "ولایت": "غور",
    "Province": "GHOR",
    "PC_Code": "2308229",
    "District": "TAYWARA",
    "د_مرکز_نوم__نام_مرکز": "مکتب زهی نوروز",
    "Polling_Center_Name": "Zahi Nawroz School",
    "د_مرکز_ځای__موقعیت_مرکز": " زهی نوروز",
    "Polling_Center_Location": "Zahi Nawroz",
    "Map_Accuracy": "Building",
    "Map_Accuracy_Dari": "تعمیر",
    "Status": "Open",
    "Status_Dari": null,
    "PS_Male": 2,
    "PS_Female": 1,
    "PS_Total": 3,
    "ولسوالي": "تیوره",
    "Region": "Western Region"
   },
   "geometry": {
    "x": 7165436.5920190448,
    "y": 3963770.8019897295
   }
  },
  {
   "attributes": {
    "OBJECTID": 3692,
    "ولایت": "غور",
    "Province": "GHOR",
    "PC_Code": "2309194",
    "District": "TULAK",
    "د_مرکز_نوم__نام_مرکز": "مکتب گزک",
    "Polling_Center_Name": "Gazak School",
    "د_مرکز_ځای__موقعیت_مرکز": "گزک",
    "Polling_Center_Location": "Gazak",
    "Map_Accuracy": "Village",
    "Map_Accuracy_Dari": "قریه",
    "Status": "Open",
    "Status_Dari": null,
    "PS_Male": 2,
    "PS_Female": 1,
    "PS_Total": 3,
    "ولسوالي": "تولک ",
    "Region": "Western Region"
   },
   "geometry": {
    "x": 7085647.6390010072,
    "y": 4046067.1146391993
   }
  },
  {
   "attributes": {
    "OBJECTID": 3693,
    "ولایت": "غور",
    "Province": "GHOR",
    "PC_Code": "2309195",
    "District": "TULAK",
    "د_مرکز_نوم__نام_مرکز": "منزل ارباب رسول",
    "Polling_Center_Name": "Arbab Rasool Private House",
    "د_مرکز_ځای__موقعیت_مرکز": "خا کچه",
    "Polling_Center_Location": "Khakchah",
    "Map_Accuracy": "Village",
    "Map_Accuracy_Dari": "قریه",
    "Status": "Open",
    "Status_Dari": null,
    "PS_Male": 2,
    "PS_Female": 1,
    "PS_Total": 3,
    "ولسوالي": "تولک ",
    "Region": "Western Region"
   },
   "geometry": {
    "x": 7081447.9319864511,
    "y": 4009297.3014412243
   }
  },
  {
   "attributes": {
    "OBJECTID": 3694,
    "ولایت": "دایکندی",
    "Province": "DAYKUNDI",
    "PC_Code": "2401009",
    "District": "NILI",
    "د_مرکز_نوم__نام_مرکز": "مسجد حقداد سیوک",
    "Polling_Center_Name": "Siyok Haqdad Mosque",
    "د_مرکز_ځای__موقعیت_مرکز": "سیوک",
    "Polling_Center_Location": "Siyok",
    "Map_Accuracy": "Building",
    "Map_Accuracy_Dari": "تعمیر",
    "Status": "Open",
    "Status_Dari": null,
    "PS_Male": 2,
    "PS_Female": 2,
    "PS_Total": 4,
    "ولسوالي": "نیلی",
    "Region": "Central Highlands Region"
   },
   "geometry": {
    "x": 7341082.6182966167,
    "y": 3996620.4511909494
   }
  },
  {
   "attributes": {
    "OBJECTID": 3695,
    "ولایت": "دایکندی",
    "Province": "DAYKUNDI",
    "PC_Code": "2401010",
    "District": "NILI",
    "د_مرکز_نوم__نام_مرکز": "مسجد قول قدیر",
    "Polling_Center_Name": "Qol Qadir Mosque",
    "د_مرکز_ځای__موقعیت_مرکز": "قول قدیر",
    "Polling_Center_Location": "Qol Qadir",
    "Map_Accuracy": "Building",
    "Map_Accuracy_Dari": "تعمیر",
    "Status": "Open",
    "Status_Dari": null,
    "PS_Male": 2,
    "PS_Female": 2,
    "PS_Total": 4,
    "ولسوالي": "نیلی",
    "Region": "Central Highlands Region"
   },
   "geometry": {
    "x": 7361405.2269872753,
    "y": 4012268.7705072132
   }
  },
  {
   "attributes": {
    "OBJECTID": 3696,
    "ولایت": "دایکندی",
    "Province": "DAYKUNDI",
    "PC_Code": "2402014",
    "District": "SHAHRISTAN",
    "د_مرکز_نوم__نام_مرکز": "مسجد اولک",
    "Polling_Center_Name": "Olak Mosque",
    "د_مرکز_ځای__موقعیت_مرکز": "اولک",
    "Polling_Center_Location": "Olak",
    "Map_Accuracy": "Building",
    "Map_Accuracy_Dari": "تعمیر",
    "Status": "Open",
    "Status_Dari": null,
    "PS_Male": 1,
    "PS_Female": 1,
    "PS_Total": 2,
    "ولسوالي": "شهرستان",
    "Region": "Central Highlands Region"
   },
   "geometry": {
    "x": 7429224.8623391502,
    "y": 3973366.1610838836
   }
  },
  {
   "attributes": {
    "OBJECTID": 3697,
    "ولایت": "دایکندی",
    "Province": "DAYKUNDI",
    "PC_Code": "2402032",
    "District": "SHAHRISTAN",
    "د_مرکز_نوم__نام_مرکز": "مسجد منگور",
    "Polling_Center_Name": "Mangor Mosque",
    "د_مرکز_ځای__موقعیت_مرکز": "میانه منگور",
    "Polling_Center_Location": "Miyana Mangor",
    "Map_Accuracy": "Building",
    "Map_Accuracy_Dari": "تعمیر",
    "Status": "Open",
    "Status_Dari": null,
    "PS_Male": 1,
    "PS_Female": 1,
    "PS_Total": 2,
    "ولسوالي": "شهرستان",
    "Region": "Central Highlands Region"
   },
   "geometry": {
    "x": 7425468.3471605098,
    "y": 3966074.1191084734
   }
  },
  {
   "attributes": {
    "OBJECTID": 3698,
    "ولایت": "دایکندی",
    "Province": "DAYKUNDI",
    "PC_Code": "2402033",
    "District": "SHAHRISTAN",
    "د_مرکز_نوم__نام_مرکز": "مسجد یامه تگابلور",
    "Polling_Center_Name": "Yama Tagablor Mosque",
    "د_مرکز_ځای__موقعیت_مرکز": "یامه تگابلور",
    "Polling_Center_Location": "Yama Tagablor",
    "Map_Accuracy": "Building",
    "Map_Accuracy_Dari": "تعمیر",
    "Status": "Open",
    "Status_Dari": null,
    "PS_Male": 1,
    "PS_Female": 1,
    "PS_Total": 2,
    "ولسوالي": "شهرستان",
    "Region": "Central Highlands Region"
   },
   "geometry": {
    "x": 7397542.8933210028,
    "y": 3995957.8378276061
   }
  },
  {
   "attributes": {
    "OBJECTID": 3699,
    "ولایت": "دایکندی",
    "Province": "DAYKUNDI",
    "PC_Code": "2405090",
    "District": "KHEDIR",
    "د_مرکز_نوم__نام_مرکز": "مسجد دشتک",
    "Polling_Center_Name": "Dashtak Mosque",
    "د_مرکز_ځای__موقعیت_مرکز": "دشتک",
    "Polling_Center_Location": "Dashtak",
    "Map_Accuracy": "Building",
    "Map_Accuracy_Dari": "تعمیر",
    "Status": "Open",
    "Status_Dari": null,
    "PS_Male": 1,
    "PS_Female": 2,
    "PS_Total": 3,
    "ولسوالي": "خدیر",
    "Region": "Central Highlands Region"
   },
   "geometry": {
    "x": 7325818.7056788579,
    "y": 4022610.8349718708
   }
  },
  {
   "attributes": {
    "OBJECTID": 3700,
    "ولایت": "دایکندی",
    "Province": "DAYKUNDI",
    "PC_Code": "2406128",
    "District": "KITI",
    "د_مرکز_نوم__نام_مرکز": "مسجد ارگان",
    "Polling_Center_Name": "Argan Mosque",
    "د_مرکز_ځای__موقعیت_مرکز": "ارگان",
    "Polling_Center_Location": "Argan",
    "Map_Accuracy": "Building",
    "Map_Accuracy_Dari": "تعمیر",
    "Status": "Open",
    "Status_Dari": null,
    "PS_Male": 2,
    "PS_Female": 1,
    "PS_Total": 3,
    "ولسوالي": "کیتی",
    "Region": "Central Highlands Region"
   },
   "geometry": {
    "x": 7313904.1460702084,
    "y": 3950005.0565070398
   }
  },
  {
   "attributes": {
    "OBJECTID": 3701,
    "ولایت": "دایکندی",
    "Province": "DAYKUNDI",
    "PC_Code": "2407151",
    "District": "MIRAMOR",
    "د_مرکز_نوم__نام_مرکز": "مکتب جوی توت",
    "Polling_Center_Name": "Joy Toot School",
    "د_مرکز_ځای__موقعیت_مرکز": "جوی توت",
    "Polling_Center_Location": "Joy Toot",
    "Map_Accuracy": "Building",
    "Map_Accuracy_Dari": "تعمیر",
    "Status": "Open",
    "Status_Dari": null,
    "PS_Male": 1,
    "PS_Female": 1,
    "PS_Total": 2,
    "ولسوالي": "میرامور",
    "Region": "Central Highlands Region"
   },
   "geometry": {
    "x": 7417676.6061941301,
    "y": 4009448.3461216646
   }
  },
  {
   "attributes": {
    "OBJECTID": 3702,
    "ولایت": "دایکندی",
    "Province": "DAYKUNDI",
    "PC_Code": "2407152",
    "District": "MIRAMOR",
    "د_مرکز_نوم__نام_مرکز": "لیسه زکور نهال",
    "Polling_Center_Name": "Nihal Boys High School",
    "د_مرکز_ځای__موقعیت_مرکز": "کیل جوی نهال",
    "Polling_Center_Location": "Kel Joy Nihal",
    "Map_Accuracy": "Building",
    "Map_Accuracy_Dari": "تعمیر",
    "Status": "Open",
    "Status_Dari": null,
    "PS_Male": 2,
    "PS_Female": 1,
    "PS_Total": 3,
    "ولسوالي": "میرامور",
    "Region": "Central Highlands Region"
   },
   "geometry": {
    "x": 7484385.7350037694,
    "y": 4012782.0375071894
   }
  },
  {
   "attributes": {
    "OBJECTID": 3703,
    "ولایت": "دایکندی",
    "Province": "DAYKUNDI",
    "PC_Code": "2407156",
    "District": "MIRAMOR",
    "د_مرکز_نوم__نام_مرکز": "متوسطه نر خسی",
    "Polling_Center_Name": "Nar Khasi Secondary School",
    "د_مرکز_ځای__موقعیت_مرکز": "نر خسی",
    "Polling_Center_Location": "Nar Khasi",
    "Map_Accuracy": "Building",
    "Map_Accuracy_Dari": "تعمیر",
    "Status": "Open",
    "Status_Dari": null,
    "PS_Male": 1,
    "PS_Female": 2,
    "PS_Total": 3,
    "ولسوالي": "میرامور",
    "Region": "Central Highlands Region"
   },
   "geometry": {
    "x": 7469730.9570736522,
    "y": 4004607.7427221993
   }
  },
  {
   "attributes": {
    "OBJECTID": 3704,
    "ولایت": "دایکندی",
    "Province": "DAYKUNDI",
    "PC_Code": "2409067",
    "District": "KEJRAN",
    "د_مرکز_نوم__نام_مرکز": "مسجد جامع بوکه",
    "Polling_Center_Name": "Boka Mosque",
    "د_مرکز_ځای__موقعیت_مرکز": "بوکه",
    "Polling_Center_Location": "Boka",
    "Map_Accuracy": "Building",
    "Map_Accuracy_Dari": "تعمیر",
    "Status": "Open",
    "Status_Dari": null,
    "PS_Male": 1,
    "PS_Female": 2,
    "PS_Total": 3,
    "ولسوالي": "کجران",
    "Region": "Central Highlands Region"
   },
   "geometry": {
    "x": 7288713.5048776995,
    "y": 3927746.7432882343
   }
  },
  {
   "attributes": {
    "OBJECTID": 3705,
    "ولایت": "ارزگان",
    "Province": "UROZGAN",
    "PC_Code": "2501001",
    "District": "TIRINKOT",
    "د_مرکز_نوم__نام_مرکز": "مکتب متوسطه سفيدخار",
    "Polling_Center_Name": "Safid Khaar Secondary School",
    "د_مرکز_ځای__موقعیت_مرکز": "سفيدخار",
    "Polling_Center_Location": "Safid Khaar",
    "Map_Accuracy": "Building",
    "Map_Accuracy_Dari": "تعمیر",
    "Status": "Open",
    "Status_Dari": null,
    "PS_Male": 4,
    "PS_Female": 3,
    "PS_Total": 7,
    "ولسوالي": "ترینکوټ",
    "Region": "Southern Region"
   },
   "geometry": {
    "x": 7329229.2454460869,
    "y": 3846628.3749866229
   }
  },
  {
   "attributes": {
    "OBJECTID": 3706,
    "ولایت": "ارزگان",
    "Province": "UROZGAN",
    "PC_Code": "2502037",
    "District": "DEHRAOUD",
    "د_مرکز_نوم__نام_مرکز": "لیسه بازار شهرنو",
    "Polling_Center_Name": "Bazar Shahr-e-Naw High School",
    "د_مرکز_ځای__موقعیت_مرکز": "بازار دهراود ",
    "Polling_Center_Location": "Bazar Dehrawood",
    "Map_Accuracy": "Building",
    "Map_Accuracy_Dari": "تعمیر",
    "Status": "Open",
    "Status_Dari": null,
    "PS_Male": 5,
    "PS_Female": 1,
    "PS_Total": 6,
    "ولسوالي": "دهراود",
    "Region": "Southern Region"
   },
   "geometry": {
    "x": 7286371.5231289845,
    "y": 3845705.3191625276
   }
  },
  {
   "attributes": {
    "OBJECTID": 3707,
    "ولایت": "ارزگان",
    "Province": "UROZGAN",
    "PC_Code": "2502038",
    "District": "DEHRAOUD",
    "د_مرکز_نوم__نام_مرکز": "د دیب سنګ کلی لیسه ",
    "Polling_Center_Name": "Deb Sang Village High School",
    "د_مرکز_ځای__موقعیت_مرکز": "دیب سنګ کلی",
    "Polling_Center_Location": "Deb Sang Village",
    "Map_Accuracy": "Building",
    "Map_Accuracy_Dari": "تعمیر",
    "Status": "Open",
    "Status_Dari": null,
    "PS_Male": 6,
    "PS_Female": 1,
    "PS_Total": 7,
    "ولسوالي": "دهراود",
    "Region": "Southern Region"
   },
   "geometry": {
    "x": 7293437.7270689802,
    "y": 3850162.7709165616
   }
  },
  {
   "attributes": {
    "OBJECTID": 3708,
    "ولایت": "ارزگان",
    "Province": "UROZGAN",
    "PC_Code": "2502043",
    "District": "DEHRAOUD",
    "د_مرکز_نوم__نام_مرکز": "د کښته لدیاني د ملک زلمی کور",
    "Polling_Center_Name": "Kakhtia Ladyani Malak Zalmai Private House",
    "د_مرکز_ځای__موقعیت_مرکز": "مکتب لنډیانه ",
    "Polling_Center_Location": "Maktab Landiyana",
    "Map_Accuracy": "Building",
    "Map_Accuracy_Dari": "تعمیر",
    "Status": "Open",
    "Status_Dari": null,
    "PS_Male": 5,
    "PS_Female": 1,
    "PS_Total": 6,
    "ولسوالي": "دهراود",
    "Region": "Southern Region"
   },
   "geometry": {
    "x": 7284292.4735647477,
    "y": 3844435.31531459
   }
  },
  {
   "attributes": {
    "OBJECTID": 3709,
    "ولایت": "ارزگان",
    "Province": "UROZGAN",
    "PC_Code": "2502044",
    "District": "DEHRAOUD",
    "د_مرکز_نوم__نام_مرکز": "لبنان مکتب",
    "Polling_Center_Name": "Lebnan School",
    "د_مرکز_ځای__موقعیت_مرکز": "لبنان",
    "Polling_Center_Location": "Lebnan",
    "Map_Accuracy": "Building",
    "Map_Accuracy_Dari": "تعمیر",
    "Status": "Open",
    "Status_Dari": null,
    "PS_Male": 5,
    "PS_Female": 1,
    "PS_Total": 6,
    "ولسوالي": "دهراود",
    "Region": "Southern Region"
   },
   "geometry": {
    "x": 7293335.3543256614,
    "y": 3846545.8030017731
   }
  },
  {
   "attributes": {
    "OBJECTID": 3710,
    "ولایت": "ارزگان",
    "Province": "UROZGAN",
    "PC_Code": "2505024",
    "District": "KHAS UROZGAN",
    "د_مرکز_نوم__نام_مرکز": "لیسه شاه زمان",
    "Polling_Center_Name": "Shah Zaman High School",
    "د_مرکز_ځای__موقعیت_مرکز": "بازار ولسوالی",
    "Polling_Center_Location": "District Bazar",
    "Map_Accuracy": "Building",
    "Map_Accuracy_Dari": "تعمیر",
    "Status": "Open",
    "Status_Dari": null,
    "PS_Male": 6,
    "PS_Female": 2,
    "PS_Total": 8,
    "ولسوالي": "خاص ارزگان",
    "Region": "Southern Region"
   },
   "geometry": {
    "x": 7418427.6097804261,
    "y": 3887148.9458639924
   }
  },
  {
   "attributes": {
    "OBJECTID": 3711,
    "ولایت": "زابل",
    "Province": "ZABUL",
    "PC_Code": "2603031",
    "District": "SHINKAI",
    "د_مرکز_نوم__نام_مرکز": "شاه علم ليسه",
    "Polling_Center_Name": "Shah Alam High School",
    "د_مرکز_ځای__موقعیت_مرکز": "د ولسوالي مركز",
    "Polling_Center_Location": "District Compound",
    "Map_Accuracy": "Building",
    "Map_Accuracy_Dari": "تعمیر",
    "Status": "Open",
    "Status_Dari": null,
    "PS_Male": 5,
    "PS_Female": 5,
    "PS_Total": 10,
    "ولسوالي": "شینکې",
    "Region": "Southern Region"
   },
   "geometry": {
    "x": 7495901.6817797851,
    "y": 3761182.0046554809
   }
  },
  {
   "attributes": {
    "OBJECTID": 3712,
    "ولایت": "کندهار",
    "Province": "کندهار",
    "PC_Code": "2701003",
    "District": "KANDAHAR",
    "د_مرکز_نوم__نام_مرکز": "د محمود طرزي ليسه",
    "Polling_Center_Name": "Mohamood Tarzi High School",
    "د_مرکز_ځای__موقعیت_مرکز": "نهمه ناحيه",
    "Polling_Center_Location": "D09 - Nahia 9",
    "Map_Accuracy": "Building",
    "Map_Accuracy_Dari": "تعمیر",
    "Status": "Open",
    "Status_Dari": null,
    "PS_Male": 10,
    "PS_Female": 0,
    "PS_Total": 10,
    "ولسوالي": "کندهار",
    "Region": "Southern Region"
   },
   "geometry": {
    "x": 7314738.634821821,
    "y": 3714183.0545598948
   }
  },
  {
   "attributes": {
    "OBJECTID": 3713,
    "ولایت": "کندهار",
    "Province": "کندهار",
    "PC_Code": "2701036",
    "District": "KANDAHAR",
    "د_مرکز_نوم__نام_مرکز": "د فاضل كندهاري مكتب",
    "Polling_Center_Name": "Fazil Kandahari School",
    "د_مرکز_ځای__موقعیت_مرکز": "شپږمه ناحيه",
    "Polling_Center_Location": "D06 - Nahia 6",
    "Map_Accuracy": "Building",
    "Map_Accuracy_Dari": "تعمیر",
    "Status": "Open",
    "Status_Dari": null,
    "PS_Male": 5,
    "PS_Female": 4,
    "PS_Total": 9,
    "ولسوالي": "کندهار",
    "Region": "Southern Region"
   },
   "geometry": {
    "x": 7307799.1892728033,
    "y": 3713087.2056400282
   }
  },
  {
   "attributes": {
    "OBJECTID": 3714,
    "ولایت": "کندهار",
    "Province": "کندهار",
    "PC_Code": "2701045",
    "District": "KANDAHAR",
    "د_مرکز_نوم__نام_مرکز": "مشرقي ليسه",
    "Polling_Center_Name": "Mashriqi High School",
    "د_مرکز_ځای__موقعیت_مرکز": "دريمه ناحيه",
    "Polling_Center_Location": "D03 - Nahia 3",
    "Map_Accuracy": "Building",
    "Map_Accuracy_Dari": "تعمیر",
    "Status": "Open",
    "Status_Dari": null,
    "PS_Male": 7,
    "PS_Female": 4,
    "PS_Total": 11,
    "ولسوالي": "کندهار",
    "Region": "Southern Region"
   },
   "geometry": {
    "x": 7314501.6757009421,
    "y": 3711550.373045437
   }
  },
  {
   "attributes": {
    "OBJECTID": 3715,
    "ولایت": "کندهار",
    "Province": "کندهار",
    "PC_Code": "2701048",
    "District": "KANDAHAR",
    "د_مرکز_نوم__نام_مرکز": "شهيد عبدالطيف لیسه",
    "Polling_Center_Name": "Shaheed Abdul Latif High School",
    "د_مرکز_ځای__موقعیت_مرکز": "څلورمه ناحيه",
    "Polling_Center_Location": "D04 - Nahia 4",
    "Map_Accuracy": "Building",
    "Map_Accuracy_Dari": "تعمیر",
    "Status": "Open",
    "Status_Dari": null,
    "PS_Male": 6,
    "PS_Female": 0,
    "PS_Total": 6,
    "ولسوالي": "کندهار",
    "Region": "Southern Region"
   },
   "geometry": {
    "x": 7318119.514623926,
    "y": 3713210.7044418482
   }
  },
  {
   "attributes": {
    "OBJECTID": 3716,
    "ولایت": "کندهار",
    "Province": "کندهار",
    "PC_Code": "2702104",
    "District": "ARGHANDAB",
    "د_مرکز_نوم__نام_مرکز": "د شهيد فيض مكتب",
    "Polling_Center_Name": "Shaheed Faiz School",
    "د_مرکز_ځای__موقعیت_مرکز": "چهارغولبه",
    "Polling_Center_Location": "Chahar Gholba",
    "Map_Accuracy": "Building",
    "Map_Accuracy_Dari": "تعمیر",
    "Status": "Open",
    "Status_Dari": null,
    "PS_Male": 2,
    "PS_Female": 1,
    "PS_Total": 3,
    "ولسوالي": "ارغنداب",
    "Region": "Southern Region"
   },
   "geometry": {
    "x": 7306514.6937060487,
    "y": 3724311.5598010994
   }
  },
  {
   "attributes": {
    "OBJECTID": 3717,
    "ولایت": "کندهار",
    "Province": "کندهار",
    "PC_Code": "2702105",
    "District": "ARGHANDAB",
    "د_مرکز_نوم__نام_مرکز": "مكتب كوهك",
    "Polling_Center_Name": "Kohak School",
    "د_مرکز_ځای__موقعیت_مرکز": "كوهك",
    "Polling_Center_Location": "Kohak",
    "Map_Accuracy": "Building",
    "Map_Accuracy_Dari": "تعمیر",
    "Status": "Open",
    "Status_Dari": null,
    "PS_Male": 2,
    "PS_Female": 1,
    "PS_Total": 3,
    "ولسوالي": "ارغنداب",
    "Region": "Southern Region"
   },
   "geometry": {
    "x": 7303933.3249583524,
    "y": 3717276.6687225127
   }
  },
  {
   "attributes": {
    "OBJECTID": 3718,
    "ولایت": "کندهار",
    "Province": "کندهار",
    "PC_Code": "2703081",
    "District": "DAMAN",
    "د_مرکز_نوم__نام_مرکز": "دكريم شاه خان سراچه",
    "Polling_Center_Name": "Karim Shah Khan Saracha ",
    "د_مرکز_ځای__موقعیت_مرکز": "ښوراندام",
    "Polling_Center_Location": "Shorandam",
    "Map_Accuracy": "Building",
    "Map_Accuracy_Dari": "تعمیر",
    "Status": "Open",
    "Status_Dari": null,
    "PS_Male": 0,
    "PS_Female": 3,
    "PS_Total": 3,
    "ولسوالي": "دامان",
    "Region": "Southern Region"
   },
   "geometry": {
    "x": 7326949.2096544122,
    "y": 3709164.8680666974
   }
  },
  {
   "attributes": {
    "OBJECTID": 3719,
    "ولایت": "کندهار",
    "Province": "کندهار",
    "PC_Code": "2704184",
    "District": "PANJWAYEE",
    "د_مرکز_نوم__نام_مرکز": "سليمان ماكو مكتب",
    "Polling_Center_Name": "Sulaiman Makoo School",
    "د_مرکز_ځای__موقعیت_مرکز": "زنګي آباد",
    "Polling_Center_Location": "Zangi Abad",
    "Map_Accuracy": "Village",
    "Map_Accuracy_Dari": "قریه",
    "Status": "Open",
    "Status_Dari": null,
    "PS_Male": 2,
    "PS_Female": 1,
    "PS_Total": 3,
    "ولسوالي": "پنجوایې",
    "Region": "Southern Region"
   },
   "geometry": {
    "x": 7278335.949063166,
    "y": 3695995.1976516363
   }
  },
  {
   "attributes": {
    "OBJECTID": 3720,
    "ولایت": "کندهار",
    "Province": "کندهار",
    "PC_Code": "2704195",
    "District": "PANJWAYEE",
    "د_مرکز_نوم__نام_مرکز": "د ملا عبدالرحم\u0652ن دربار",
    "Polling_Center_Name": "Mullah Abdul Rahman Darbar",
    "د_مرکز_ځای__موقعیت_مرکز": "هراسي ",
    "Polling_Center_Location": "Herasi",
    "Map_Accuracy": "Building",
    "Map_Accuracy_Dari": "تعمیر",
    "Status": "Open",
    "Status_Dari": null,
    "PS_Male": 2,
    "PS_Female": 1,
    "PS_Total": 3,
    "ولسوالي": "پنجوایې",
    "Region": "Southern Region"
   },
   "geometry": {
    "x": 7291977.1196150081,
    "y": 3703481.7608089098
   }
  },
  {
   "attributes": {
    "OBJECTID": 3721,
    "ولایت": "کندهار",
    "Province": "کندهار",
    "PC_Code": "2705162",
    "District": "ZHIRE",
    "د_مرکز_نوم__نام_مرکز": "مكتب نلغام",
    "Polling_Center_Name": "Nalgham School",
    "د_مرکز_ځای__موقعیت_مرکز": "نلغام",
    "Polling_Center_Location": "Nalgham",
    "Map_Accuracy": "Village",
    "Map_Accuracy_Dari": "قریه",
    "Status": "Open",
    "Status_Dari": null,
    "PS_Male": 1,
    "PS_Female": 1,
    "PS_Total": 2,
    "ولسوالي": "ژیړی",
    "Region": "Southern Region"
   },
   "geometry": {
    "x": 7271158.2386156376,
    "y": 3697149.8278143294
   }
  },
  {
   "attributes": {
    "OBJECTID": 3722,
    "ولایت": "کندهار",
    "Province": "کندهار",
    "PC_Code": "2706097",
    "District": "SHAH WALI KOT",
    "د_مرکز_نوم__نام_مرکز": "مسجد كجور",
    "Polling_Center_Name": "Kajoor Mosque",
    "د_مرکز_ځای__موقعیت_مرکز": "كجور",
    "Polling_Center_Location": "Kajoor",
    "Map_Accuracy": "Village",
    "Map_Accuracy_Dari": "قریه",
    "Status": "Open",
    "Status_Dari": null,
    "PS_Male": 2,
    "PS_Female": 0,
    "PS_Total": 2,
    "ولسوالي": "شاه ولي كوټ",
    "Region": "Southern Region"
   },
   "geometry": {
    "x": 7337192.9360639229,
    "y": 3795235.403734332
   }
  },
  {
   "attributes": {
    "OBJECTID": 3723,
    "ولایت": "کندهار",
    "Province": "کندهار",
    "PC_Code": "2706098",
    "District": "SHAH WALI KOT",
    "د_مرکز_نوم__نام_مرکز": "مكتب زرتاله",
    "Polling_Center_Name": "Zartala School",
    "د_مرکز_ځای__موقعیت_مرکز": "زرتاله",
    "Polling_Center_Location": "Zartala",
    "Map_Accuracy": "Village",
    "Map_Accuracy_Dari": "قریه",
    "Status": "Open",
    "Status_Dari": null,
    "PS_Male": 2,
    "PS_Female": 1,
    "PS_Total": 3,
    "ولسوالي": "شاه ولي كوټ",
    "Region": "Southern Region"
   },
   "geometry": {
    "x": 7350023.4847629741,
    "y": 3751584.2597689163
   }
  },
  {
   "attributes": {
    "OBJECTID": 3724,
    "ولایت": "کندهار",
    "Province": "کندهار",
    "PC_Code": "2707119",
    "District": "KHAKREZ",
    "د_مرکز_نوم__نام_مرکز": "د ملك محمد شاه كور",
    "Polling_Center_Name": "Malak Mohammad Shah Private House",
    "د_مرکز_ځای__موقعیت_مرکز": "لام",
    "Polling_Center_Location": "Laam",
    "Map_Accuracy": "Village",
    "Map_Accuracy_Dari": "قریه",
    "Status": "Open",
    "Status_Dari": null,
    "PS_Male": 2,
    "PS_Female": 0,
    "PS_Total": 2,
    "ولسوالي": "خاک ریز",
    "Region": "Southern Region"
   },
   "geometry": {
    "x": 7278007.6723376,
    "y": 3784413.223019219
   }
  },
  {
   "attributes": {
    "OBJECTID": 3725,
    "ولایت": "کندهار",
    "Province": "کندهار",
    "PC_Code": "2709127",
    "District": "GHORAK",
    "د_مرکز_نوم__نام_مرکز": "كلينيك شاه كاريز",
    "Polling_Center_Name": "Shah Karez Clinic",
    "د_مرکز_ځای__موقعیت_مرکز": "شاه كاريز",
    "Polling_Center_Location": "Shah Karez",
    "Map_Accuracy": "Building",
    "Map_Accuracy_Dari": "تعمیر",
    "Status": "Open",
    "Status_Dari": null,
    "PS_Male": 2,
    "PS_Female": 1,
    "PS_Total": 3,
    "ولسوالي": "غورك",
    "Region": "Southern Region"
   },
   "geometry": {
    "x": 7253154.900271181,
    "y": 3774369.1542262114
   }
  },
  {
   "attributes": {
    "OBJECTID": 3726,
    "ولایت": "کندهار",
    "Province": "کندهار",
    "PC_Code": "2709128",
    "District": "GHORAK",
    "د_مرکز_نوم__نام_مرکز": "باران مكتب",
    "Polling_Center_Name": "Baran School",
    "د_مرکز_ځای__موقعیت_مرکز": "شاه كاريز",
    "Polling_Center_Location": "Shah Karez",
    "Map_Accuracy": "Village",
    "Map_Accuracy_Dari": "قریه",
    "Status": "Open",
    "Status_Dari": null,
    "PS_Male": 1,
    "PS_Female": 1,
    "PS_Total": 2,
    "ولسوالي": "غورك",
    "Region": "Southern Region"
   },
   "geometry": {
    "x": 7252954.3682272723,
    "y": 3774021.0748092043
   }
  },
  {
   "attributes": {
    "OBJECTID": 3727,
    "ولایت": "کندهار",
    "Province": "کندهار",
    "PC_Code": "2710146",
    "District": "MAIWAND",
    "د_مرکز_نوم__نام_مرکز": "د پيرزاده كلي هوټل",
    "Polling_Center_Name": "Pirzada Village Hotel",
    "د_مرکز_ځای__موقعیت_مرکز": "پيرزاده كلي",
    "Polling_Center_Location": "Pirzada Village",
    "Map_Accuracy": "Building",
    "Map_Accuracy_Dari": "تعمیر",
    "Status": "Open",
    "Status_Dari": null,
    "PS_Male": 3,
    "PS_Female": 0,
    "PS_Total": 3,
    "ولسوالي": "میوند",
    "Region": "Southern Region"
   },
   "geometry": {
    "x": 7243067.5131809348,
    "y": 3712833.2235500077
   }
  },
  {
   "attributes": {
    "OBJECTID": 3728,
    "ولایت": "کندهار",
    "Province": "کندهار",
    "PC_Code": "2710147",
    "District": "MAIWAND",
    "د_مرکز_نوم__نام_مرکز": "د ملك عطاءالله كور",
    "Polling_Center_Name": "Malak Ataullah Private House",
    "د_مرکز_ځای__موقعیت_مرکز": "شاهي كاريز",
    "Polling_Center_Location": "Shahee Karez",
    "Map_Accuracy": "Village",
    "Map_Accuracy_Dari": "قریه",
    "Status": "Open",
    "Status_Dari": null,
    "PS_Male": 2,
    "PS_Female": 0,
    "PS_Total": 2,
    "ولسوالي": "میوند",
    "Region": "Southern Region"
   },
   "geometry": {
    "x": 7261265.6149932863,
    "y": 3700691.3177973363
   }
  },
  {
   "attributes": {
    "OBJECTID": 3729,
    "ولایت": "کندهار",
    "Province": "کندهار",
    "PC_Code": "2711223",
    "District": "SPIN BOLDAK",
    "د_مرکز_نوم__نام_مرکز": "د حاجي محمد ايوب مكتب",
    "Polling_Center_Name": "Haji Mohammad Ayub School",
    "د_مرکز_ځای__موقعیت_مرکز": "رباط",
    "Polling_Center_Location": "Rabat",
    "Map_Accuracy": "Village",
    "Map_Accuracy_Dari": "قریه",
    "Status": "Open",
    "Status_Dari": null,
    "PS_Male": 3,
    "PS_Female": 1,
    "PS_Total": 4,
    "ولسوالي": "سپین بولدک",
    "Region": "Southern Region"
   },
   "geometry": {
    "x": 7394219.7972401837,
    "y": 3638810.8204572736
   }
  },
  {
   "attributes": {
    "OBJECTID": 3730,
    "ولایت": "کندهار",
    "Province": "کندهار",
    "PC_Code": "2714201",
    "District": "SHORABAK",
    "د_مرکز_نوم__نام_مرکز": "د ولسوالي مركز",
    "Polling_Center_Name": "District Building Office",
    "د_مرکز_ځای__موقعیت_مرکز": "ابوزي",
    "Polling_Center_Location": "Abozi",
    "Map_Accuracy": "Village",
    "Map_Accuracy_Dari": "قریه",
    "Status": "Open",
    "Status_Dari": null,
    "PS_Male": 4,
    "PS_Female": 2,
    "PS_Total": 6,
    "ولسوالي": "شورابك",
    "Region": "Southern Region"
   },
   "geometry": {
    "x": 7346475.9107025759,
    "y": 3520626.0091048074
   }
  },
  {
   "attributes": {
    "OBJECTID": 3731,
    "ولایت": "کندهار",
    "Province": "کندهار",
    "PC_Code": "2714202",
    "District": "SHORABAK",
    "د_مرکز_نوم__نام_مرکز": "كسمزي",
    "Polling_Center_Name": "Kasamzai ",
    "د_مرکز_ځای__موقعیت_مرکز": "د كسمزو كلي",
    "Polling_Center_Location": "Kasamzo Village",
    "Map_Accuracy": "Village",
    "Map_Accuracy_Dari": "قریه",
    "Status": "Open",
    "Status_Dari": null,
    "PS_Male": 3,
    "PS_Female": 2,
    "PS_Total": 5,
    "ولسوالي": "شورابك",
    "Region": "Southern Region"
   },
   "geometry": {
    "x": 7356109.3357961727,
    "y": 3481536.215469643
   }
  },
  {
   "attributes": {
    "OBJECTID": 3732,
    "ولایت": "کندهار",
    "Province": "کندهار",
    "PC_Code": "2715256",
    "District": "MARUF",
    "د_مرکز_نوم__نام_مرکز": "ټي بي سي",
    "Polling_Center_Name": "TBC",
    "د_مرکز_ځای__موقعیت_مرکز": " ټي بي سي سرطانه",
    "Polling_Center_Location": "TBC Saratan",
    "Map_Accuracy": "Village",
    "Map_Accuracy_Dari": "قریه",
    "Status": "Open",
    "Status_Dari": null,
    "PS_Male": 3,
    "PS_Female": 2,
    "PS_Total": 5,
    "ولسوالي": "معروف",
    "Region": "Southern Region"
   },
   "geometry": {
    "x": 7485868.8701830944,
    "y": 3713272.0961295092
   }
  },
  {
   "attributes": {
    "OBJECTID": 3733,
    "ولایت": "جوزجان",
    "Province": "JAWZJAN",
    "PC_Code": "2801002",
    "District": "SHEBERGHAN",
    "د_مرکز_نوم__نام_مرکز": "لیسه خدیجه",
    "Polling_Center_Name": "Khadija High School",
    "د_مرکز_ځای__موقعیت_مرکز": "ناحیه سوم",
    "Polling_Center_Location": "D03 - Nahia 3",
    "Map_Accuracy": "Building",
    "Map_Accuracy_Dari": "تعمیر",
    "Status": "Open",
    "Status_Dari": null,
    "PS_Male": 8,
    "PS_Female": 5,
    "PS_Total": 13,
    "ولسوالي": "شبرغان",
    "Region": "Northern Region"
   },
   "geometry": {
    "x": 7318850.8925839923,
    "y": 4392308.2637604503
   }
  },
  {
   "attributes": {
    "OBJECTID": 3734,
    "ولایت": "جوزجان",
    "Province": "JAWZJAN",
    "PC_Code": "2801003",
    "District": "SHEBERGHAN",
    "د_مرکز_نوم__نام_مرکز": "لیسه میرویس مینه",
    "Polling_Center_Name": "Mirwais Neeka High Schoo",
    "د_مرکز_ځای__موقعیت_مرکز": "ناحیه دوم",
    "Polling_Center_Location": "D02 - Nahia 2",
    "Map_Accuracy": "Building",
    "Map_Accuracy_Dari": "تعمیر",
    "Status": "Open",
    "Status_Dari": null,
    "PS_Male": 4,
    "PS_Female": 3,
    "PS_Total": 7,
    "ولسوالي": "شبرغان",
    "Region": "Northern Region"
   },
   "geometry": {
    "x": 7319377.3213427654,
    "y": 4393808.9970752448
   }
  },
  {
   "attributes": {
    "OBJECTID": 3735,
    "ولایت": "جوزجان",
    "Province": "JAWZJAN",
    "PC_Code": "2801006",
    "District": "SHEBERGHAN",
    "د_مرکز_نوم__نام_مرکز": "لیسه فرزام شهید",
    "Polling_Center_Name": "Farzam Shaheed High School",
    "د_مرکز_ځای__موقعیت_مرکز": "ناحیه سوم",
    "Polling_Center_Location": "D03 - Nahia 3",
    "Map_Accuracy": "Building",
    "Map_Accuracy_Dari": "تعمیر",
    "Status": "Open",
    "Status_Dari": null,
    "PS_Male": 5,
    "PS_Female": 3,
    "PS_Total": 8,
    "ولسوالي": "شبرغان",
    "Region": "Northern Region"
   },
   "geometry": {
    "x": 7319660.8654441508,
    "y": 4389715.3569160663
   }
  },
  {
   "attributes": {
    "OBJECTID": 3736,
    "ولایت": "جوزجان",
    "Province": "JAWZJAN",
    "PC_Code": "2801022",
    "District": "SHEBERGHAN",
    "د_مرکز_نوم__نام_مرکز": "لیسه تونکه",
    "Polling_Center_Name": "Tonka High School",
    "د_مرکز_ځای__موقعیت_مرکز": "ناحیه اول",
    "Polling_Center_Location": "D01 - Nahia 1",
    "Map_Accuracy": "Building",
    "Map_Accuracy_Dari": "تعمیر",
    "Status": "Open",
    "Status_Dari": null,
    "PS_Male": 3,
    "PS_Female": 2,
    "PS_Total": 5,
    "ولسوالي": "شبرغان",
    "Region": "Northern Region"
   },
   "geometry": {
    "x": 7324382.5629093777,
    "y": 4384281.288836265
   }
  },
  {
   "attributes": {
    "OBJECTID": 3737,
    "ولایت": "جوزجان",
    "Province": "JAWZJAN",
    "PC_Code": "2801023",
    "District": "SHEBERGHAN",
    "د_مرکز_نوم__نام_مرکز": "مسجد منگوتی افغانیه",
    "Polling_Center_Name": "Mangotai Afghania Mosque",
    "د_مرکز_ځای__موقعیت_مرکز": "ناحیه سوم",
    "Polling_Center_Location": "D03 - Nahia 3",
    "Map_Accuracy": "Building",
    "Map_Accuracy_Dari": "تعمیر",
    "Status": "Open",
    "Status_Dari": null,
    "PS_Male": 2,
    "PS_Female": 1,
    "PS_Total": 3,
    "ولسوالي": "شبرغان",
    "Region": "Northern Region"
   },
   "geometry": {
    "x": 7325529.4263972994,
    "y": 4368633.4800023129
   }
  },
  {
   "attributes": {
    "OBJECTID": 3738,
    "ولایت": "جوزجان",
    "Province": "JAWZJAN",
    "PC_Code": "2804071",
    "District": "MINGAJIK",
    "د_مرکز_نوم__نام_مرکز": "مکتب بالجه عبدالرحمن",
    "Polling_Center_Name": "Balja Abdul Rahman School",
    "د_مرکز_ځای__موقعیت_مرکز": "بالجه عبدالرحمن",
    "Polling_Center_Location": "Balja Abdul Rahman",
    "Map_Accuracy": "Building",
    "Map_Accuracy_Dari": "تعمیر",
    "Status": "Open",
    "Status_Dari": null,
    "PS_Male": 2,
    "PS_Female": 1,
    "PS_Total": 3,
    "ولسوالي": "منگجیک",
    "Region": "Northern Region"
   },
   "geometry": {
    "x": 7350708.0740278671,
    "y": 4448178.8028135942
   }
  },
  {
   "attributes": {
    "OBJECTID": 3739,
    "ولایت": "جوزجان",
    "Province": "JAWZJAN",
    "PC_Code": "2806084",
    "District": "KHAMYAB",
    "د_مرکز_نوم__نام_مرکز": "مکتب خم آب",
    "Polling_Center_Name": "Khum Aab",
    "د_مرکز_ځای__موقعیت_مرکز": "خم آب",
    "Polling_Center_Location": "Khum Aab",
    "Map_Accuracy": "Building",
    "Map_Accuracy_Dari": "تعمیر",
    "Status": "Open",
    "Status_Dari": null,
    "PS_Male": 3,
    "PS_Female": 2,
    "PS_Total": 5,
    "ولسوالي": "خم آب",
    "Region": "Northern Region"
   },
   "geometry": {
    "x": 7317799.9965158887,
    "y": 4512650.319221247
   }
  },
  {
   "attributes": {
    "OBJECTID": 3740,
    "ولایت": "جوزجان",
    "Province": "JAWZJAN",
    "PC_Code": "2807033",
    "District": "AQCHAH",
    "د_مرکز_نوم__نام_مرکز": "لیسه ذکور آقچه",
    "Polling_Center_Name": "Aaqcha Boys High School",
    "د_مرکز_ځای__موقعیت_مرکز": "ناحیه اول",
    "Polling_Center_Location": "D01 - Nahia 1",
    "Map_Accuracy": "Building",
    "Map_Accuracy_Dari": "تعمیر",
    "Status": "Open",
    "Status_Dari": null,
    "PS_Male": 6,
    "PS_Female": 3,
    "PS_Total": 9,
    "ولسوالي": "آقچه",
    "Region": "Northern Region"
   },
   "geometry": {
    "x": 7366847.370838576,
    "y": 4425790.03371807
   }
  },
  {
   "attributes": {
    "OBJECTID": 3741,
    "ولایت": "جوزجان",
    "Province": "JAWZJAN",
    "PC_Code": "2808050",
    "District": "FAIZABAD",
    "د_مرکز_نوم__نام_مرکز": "مکتب متوسطه ذکور حیدر آباد",
    "Polling_Center_Name": "Haidar Abad Boys Secondary School",
    "د_مرکز_ځای__موقعیت_مرکز": "حیدر آباد",
    "Polling_Center_Location": "Haidar Abad",
    "Map_Accuracy": "Building",
    "Map_Accuracy_Dari": "تعمیر",
    "Status": "Open",
    "Status_Dari": null,
    "PS_Male": 1,
    "PS_Female": 1,
    "PS_Total": 2,
    "ولسوالي": "فیض آباد",
    "Region": "Northern Region"
   },
   "geometry": {
    "x": 7402765.060952941,
    "y": 4410453.899649037
   }
  },
  {
   "attributes": {
    "OBJECTID": 3742,
    "ولایت": "فارياب",
    "Province": "FARYAB",
    "PC_Code": "2901005",
    "District": "MAIMANA",
    "د_مرکز_نوم__نام_مرکز": "لیسه ذکور تورپاختو ",
    "Polling_Center_Name": "Tor Pakhto Boys High School",
    "د_مرکز_ځای__موقعیت_مرکز": "ناحیه هفتم",
    "Polling_Center_Location": "D07 - Nahia 7",
    "Map_Accuracy": "Building",
    "Map_Accuracy_Dari": "تعمیر",
    "Status": "Open",
    "Status_Dari": null,
    "PS_Male": 3,
    "PS_Female": 3,
    "PS_Total": 6,
    "ولسوالي": "میمنه ",
    "Region": "Northern Region"
   },
   "geometry": {
    "x": 7207612.7908100253,
    "y": 4290455.2456676727
   }
  },
  {
   "attributes": {
    "OBJECTID": 3743,
    "ولایت": "فارياب",
    "Province": "FARYAB",
    "PC_Code": "2901006",
    "District": "MAIMANA",
    "د_مرکز_نوم__نام_مرکز": "لیسه ستاره",
    "Polling_Center_Name": "Sitara High School",
    "د_مرکز_ځای__موقعیت_مرکز": "ناحیه جهارم",
    "Polling_Center_Location": "D04 - Nahia 4",
    "Map_Accuracy": "Building",
    "Map_Accuracy_Dari": "تعمیر",
    "Status": "Open",
    "Status_Dari": null,
    "PS_Male": 0,
    "PS_Female": 6,
    "PS_Total": 6,
    "ولسوالي": "میمنه ",
    "Region": "Northern Region"
   },
   "geometry": {
    "x": 7211188.2214597994,
    "y": 4290114.1226581894
   }
  },
  {
   "attributes": {
    "OBJECTID": 3744,
    "ولایت": "فارياب",
    "Province": "FARYAB",
    "PC_Code": "2902025",
    "District": "PASHTUN KOT",
    "د_مرکز_نوم__نام_مرکز": "مسجد قلعه سر حوض",
    "Polling_Center_Name": "Sar Hawz Qala Mosque",
    "د_مرکز_ځای__موقعیت_مرکز": " سر حوض",
    "Polling_Center_Location": "Sar Hawz",
    "Map_Accuracy": "Village",
    "Map_Accuracy_Dari": "قریه",
    "Status": "Open",
    "Status_Dari": null,
    "PS_Male": 1,
    "PS_Female": 1,
    "PS_Total": 2,
    "ولسوالي": "پشتون کوت",
    "Region": "Northern Region"
   },
   "geometry": {
    "x": 7211718.3215353731,
    "y": 4245473.0826799404
   }
  },
  {
   "attributes": {
    "OBJECTID": 3745,
    "ولایت": "فارياب",
    "Province": "FARYAB",
    "PC_Code": "2902026",
    "District": "PASHTUN KOT",
    "د_مرکز_نوم__نام_مرکز": "مسجد آقدره",
    "Polling_Center_Name": "Aaqdara Mosque",
    "د_مرکز_ځای__موقعیت_مرکز": "آقدره",
    "Polling_Center_Location": "Aaqdara",
    "Map_Accuracy": "Village",
    "Map_Accuracy_Dari": "قریه",
    "Status": "Open",
    "Status_Dari": null,
    "PS_Male": 1,
    "PS_Female": 1,
    "PS_Total": 2,
    "ولسوالي": "پشتون کوت",
    "Region": "Northern Region"
   },
   "geometry": {
    "x": 7225006.2152304007,
    "y": 4259195.2393907374
   }
  },
  {
   "attributes": {
    "OBJECTID": 3746,
    "ولایت": "فارياب",
    "Province": "FARYAB",
    "PC_Code": "2902046",
    "District": "PASHTUN KOT",
    "د_مرکز_نوم__نام_مرکز": "مکتب سرخاب گل قدوق",
    "Polling_Center_Name": "Sarkhab Gul Qadoq School",
    "د_مرکز_ځای__موقعیت_مرکز": "سرخاب گل قدوق",
    "Polling_Center_Location": "Sarkhab Gul Qadoq",
    "Map_Accuracy": "Village",
    "Map_Accuracy_Dari": "قریه",
    "Status": "Open",
    "Status_Dari": null,
    "PS_Male": 2,
    "PS_Female": 1,
    "PS_Total": 3,
    "ولسوالي": "پشتون کوت",
    "Region": "Northern Region"
   },
   "geometry": {
    "x": 7204907.4277343163,
    "y": 4277423.5713814469
   }
  },
  {
   "attributes": {
    "OBJECTID": 3747,
    "ولایت": "فارياب",
    "Province": "FARYAB",
    "PC_Code": "2904067",
    "District": "ALMAR",
    "د_مرکز_نوم__نام_مرکز": "مسجد جامع حاجی سعید احمد ",
    "Polling_Center_Name": "Haji Sayeed Ahmad Mosque",
    "د_مرکز_ځای__موقعیت_مرکز": "بخار قلعه",
    "Polling_Center_Location": "Bukhar Qala",
    "Map_Accuracy": "Building",
    "Map_Accuracy_Dari": "تعمیر",
    "Status": "Open",
    "Status_Dari": null,
    "PS_Male": 2,
    "PS_Female": 1,
    "PS_Total": 3,
    "ولسوالي": "المار",
    "Region": "Northern Region"
   },
   "geometry": {
    "x": 7180832.0620110277,
    "y": 4280940.1147189708
   }
  },
  {
   "attributes": {
    "OBJECTID": 3748,
    "ولایت": "فارياب",
    "Province": "FARYAB",
    "PC_Code": "2905140",
    "District": "BIL CHIRAGH",
    "د_مرکز_نوم__نام_مرکز": "مکتب متوسطه قورچی",
    "Polling_Center_Name": "Qorchi Secondary School",
    "د_مرکز_ځای__موقعیت_مرکز": "قورچی",
    "Polling_Center_Location": "Qorchi",
    "Map_Accuracy": "Village",
    "Map_Accuracy_Dari": "قریه",
    "Status": "Open",
    "Status_Dari": null,
    "PS_Male": 3,
    "PS_Female": 2,
    "PS_Total": 5,
    "ولسوالي": "بل چراغ",
    "Region": "Northern Region"
   },
   "geometry": {
    "x": 7301491.40613678,
    "y": 4287793.0182290729
   }
  },
  {
   "attributes": {
    "OBJECTID": 3749,
    "ولایت": "فارياب",
    "Province": "FARYAB",
    "PC_Code": "2905141",
    "District": "BIL CHIRAGH",
    "د_مرکز_نوم__نام_مرکز": "مکتب نسوان کولیان",
    "Polling_Center_Name": "Koliyan Girls School",
    "د_مرکز_ځای__موقعیت_مرکز": "کولیان",
    "Polling_Center_Location": "Kolyan",
    "Map_Accuracy": "Village",
    "Map_Accuracy_Dari": "قریه",
    "Status": "Open",
    "Status_Dari": null,
    "PS_Male": 3,
    "PS_Female": 1,
    "PS_Total": 4,
    "ولسوالي": "بل چراغ",
    "Region": "Northern Region"
   },
   "geometry": {
    "x": 7280762.6460575704,
    "y": 4284891.5842678035
   }
  },
  {
   "attributes": {
    "OBJECTID": 3750,
    "ولایت": "فارياب",
    "Province": "FARYAB",
    "PC_Code": "2907086",
    "District": "QAISAR",
    "د_مرکز_نوم__نام_مرکز": "مسجد جامع شاخ",
    "Polling_Center_Name": "Shakh Mosque",
    "د_مرکز_ځای__موقعیت_مرکز": "بازار کهنه شاخ",
    "Polling_Center_Location": "Bazar Kuhna Shakh",
    "Map_Accuracy": "Building",
    "Map_Accuracy_Dari": "تعمیر",
    "Status": "Open",
    "Status_Dari": null,
    "PS_Male": 2,
    "PS_Female": 2,
    "PS_Total": 4,
    "ولسوالي": "قیصار ",
    "Region": "Northern Region"
   },
   "geometry": {
    "x": 7137630.1643186826,
    "y": 4246318.6046582535
   }
  },
  {
   "attributes": {
    "OBJECTID": 3751,
    "ولایت": "فارياب",
    "Province": "FARYAB",
    "PC_Code": "2907103",
    "District": "QAISAR",
    "د_مرکز_نوم__نام_مرکز": "مسجد جامع صیاد بورغن",
    "Polling_Center_Name": "Sayad Borghan Mosque",
    "د_مرکز_ځای__موقعیت_مرکز": "صیاد بورغن",
    "Polling_Center_Location": "Sayad Borghan ",
    "Map_Accuracy": "Building",
    "Map_Accuracy_Dari": "تعمیر",
    "Status": "Open",
    "Status_Dari": null,
    "PS_Male": 2,
    "PS_Female": 1,
    "PS_Total": 3,
    "ولسوالي": "قیصار ",
    "Region": "Northern Region"
   },
   "geometry": {
    "x": 7167709.5746077858,
    "y": 4247452.43601334
   }
  },
  {
   "attributes": {
    "OBJECTID": 3752,
    "ولایت": "فارياب",
    "Province": "FARYAB",
    "PC_Code": "2907104",
    "District": "QAISAR",
    "د_مرکز_نوم__نام_مرکز": "لیسه نادم قیصاری",
    "Polling_Center_Name": "Naadim Qaisari High School",
    "د_مرکز_ځای__موقعیت_مرکز": "مرکز ولسوالی قیصار",
    "Polling_Center_Location": "District Compound",
    "Map_Accuracy": "Building",
    "Map_Accuracy_Dari": "تعمیر",
    "Status": "Open",
    "Status_Dari": null,
    "PS_Male": 3,
    "PS_Female": 2,
    "PS_Total": 5,
    "ولسوالي": "قیصار ",
    "Region": "Northern Region"
   },
   "geometry": {
    "x": 7157112.3676267955,
    "y": 4257968.0198002942
   }
  },
  {
   "attributes": {
    "OBJECTID": 3753,
    "ولایت": "فارياب",
    "Province": "FARYAB",
    "PC_Code": "2909160",
    "District": "DAWLAT ABAD",
    "د_مرکز_نوم__نام_مرکز": "مسجد جامع بازار قلعه",
    "Polling_Center_Name": "Bazar Qala Mosque",
    "د_مرکز_ځای__موقعیت_مرکز": "بازار قلعه",
    "Polling_Center_Location": "Bazar Qala",
    "Map_Accuracy": "Building",
    "Map_Accuracy_Dari": "تعمیر",
    "Status": "Open",
    "Status_Dari": null,
    "PS_Male": 2,
    "PS_Female": 1,
    "PS_Total": 3,
    "ولسوالي": "دولت آباد",
    "Region": "Northern Region"
   },
   "geometry": {
    "x": 7223242.3467668341,
    "y": 4351794.3533775182
   }
  },
  {
   "attributes": {
    "OBJECTID": 3754,
    "ولایت": "فارياب",
    "Province": "FARYAB",
    "PC_Code": "2910118",
    "District": "KOHISTAN",
    "د_مرکز_نوم__نام_مرکز": "مسجد خواجه هشتمین",
    "Polling_Center_Name": "Khwaja Hashtumeen Mosque",
    "د_مرکز_ځای__موقعیت_مرکز": "قریه هشتمین",
    "Polling_Center_Location": "Hashtumeen Village",
    "Map_Accuracy": "Building",
    "Map_Accuracy_Dari": "تعمیر",
    "Status": "Open",
    "Status_Dari": null,
    "PS_Male": 1,
    "PS_Female": 1,
    "PS_Total": 2,
    "ولسوالي": "کوهستان",
    "Region": "Northern Region"
   },
   "geometry": {
    "x": 7238070.0372619964,
    "y": 4224416.0474697379
   }
  },
  {
   "attributes": {
    "OBJECTID": 3755,
    "ولایت": "فارياب",
    "Province": "FARYAB",
    "PC_Code": "2913182",
    "District": "ANDKHOY",
    "د_مرکز_نوم__نام_مرکز": "لیسه ابو مسلم",
    "Polling_Center_Name": "Abu Muslim High School",
    "د_مرکز_ځای__موقعیت_مرکز": "بازار اندخوی",
    "Polling_Center_Location": "Bazar Andkhoy",
    "Map_Accuracy": "Building",
    "Map_Accuracy_Dari": "تعمیر",
    "Status": "Open",
    "Status_Dari": null,
    "PS_Male": 2,
    "PS_Female": 3,
    "PS_Total": 5,
    "ولسوالي": "اندخوی",
    "Region": "Northern Region"
   },
   "geometry": {
    "x": 7249555.8776817257,
    "y": 4432536.1948982971
   }
  },
  {
   "attributes": {
    "OBJECTID": 3756,
    "ولایت": "فارياب",
    "Province": "FARYAB",
    "PC_Code": "2913187",
    "District": "ANDKHOY",
    "د_مرکز_نوم__نام_مرکز": "لیسه نسوان تواچی ",
    "Polling_Center_Name": "Tawachi Girls High School",
    "د_مرکز_ځای__موقعیت_مرکز": "تواچی ",
    "Polling_Center_Location": "Tawachi",
    "Map_Accuracy": "Building",
    "Map_Accuracy_Dari": "تعمیر",
    "Status": "Open",
    "Status_Dari": null,
    "PS_Male": 3,
    "PS_Female": 2,
    "PS_Total": 5,
    "ولسوالي": "اندخوی",
    "Region": "Northern Region"
   },
   "geometry": {
    "x": 7251014.0060506389,
    "y": 4429404.4362720568
   }
  },
  {
   "attributes": {
    "OBJECTID": 3757,
    "ولایت": "فارياب",
    "Province": "FARYAB",
    "PC_Code": "2913188",
    "District": "ANDKHOY",
    "د_مرکز_نوم__نام_مرکز": "لیسه نسوان کلال خانه",
    "Polling_Center_Name": "Kulal Khana Girls High School",
    "د_مرکز_ځای__موقعیت_مرکز": "کلال خانه",
    "Polling_Center_Location": "Kulal Khana",
    "Map_Accuracy": "Building",
    "Map_Accuracy_Dari": "تعمیر",
    "Status": "Open",
    "Status_Dari": null,
    "PS_Male": 3,
    "PS_Female": 2,
    "PS_Total": 5,
    "ولسوالي": "اندخوی",
    "Region": "Northern Region"
   },
   "geometry": {
    "x": 7248778.6505629802,
    "y": 4433104.6338480283
   }
  },
  {
   "attributes": {
    "OBJECTID": 3758,
    "ولایت": "هلمند",
    "Province": "HELMAND",
    "PC_Code": "3001008",
    "District": "LASHKARGAH",
    "د_مرکز_نوم__نام_مرکز": "لیسه ملالی",
    "Polling_Center_Name": "Malalai High School",
    "د_مرکز_ځای__موقعیت_مرکز": "کارته لگن ناحیه 2",
    "Polling_Center_Location": "Karta-e-Lagan Nahia 2",
    "Map_Accuracy": "Building",
    "Map_Accuracy_Dari": "تعمیر",
    "Status": "Open",
    "Status_Dari": null,
    "PS_Male": 3,
    "PS_Female": 2,
    "PS_Total": 5,
    "ولسوالي": "لشکرگاه",
    "Region": "Southern Region"
   },
   "geometry": {
    "x": 7166414.8665909441,
    "y": 3710777.8008148265
   }
  },
  {
   "attributes": {
    "OBJECTID": 3759,
    "ولایت": "هلمند",
    "Province": "HELMAND",
    "PC_Code": "3001014",
    "District": "LASHKARGAH",
    "د_مرکز_نوم__نام_مرکز": "د تور تانک د نجونو مکتب",
    "Polling_Center_Name": "Tor Tank Girls School",
    "د_مرکز_ځای__موقعیت_مرکز": "تور تانک",
    "Polling_Center_Location": "Tor Tank",
    "Map_Accuracy": "Building",
    "Map_Accuracy_Dari": "تعمیر",
    "Status": "Open",
    "Status_Dari": null,
    "PS_Male": 0,
    "PS_Female": 6,
    "PS_Total": 6,
    "ولسوالي": "لشکرگاه",
    "Region": "Southern Region"
   },
   "geometry": {
    "x": 7164788.5066415733,
    "y": 3710699.5906378538
   }
  },
  {
   "attributes": {
    "OBJECTID": 3760,
    "ولایت": "هلمند",
    "Province": "HELMAND",
    "PC_Code": "3001015",
    "District": "LASHKARGAH",
    "د_مرکز_نوم__نام_مرکز": "د کلا کهنه د هلکانو مکتب",
    "Polling_Center_Name": "Kala Kuhna Boys School",
    "د_مرکز_ځای__موقعیت_مرکز": "کلا کهنه",
    "Polling_Center_Location": "Kala Kuhna",
    "Map_Accuracy": "Building",
    "Map_Accuracy_Dari": "تعمیر",
    "Status": "Open",
    "Status_Dari": null,
    "PS_Male": 4,
    "PS_Female": 4,
    "PS_Total": 8,
    "ولسوالي": "لشکرگاه",
    "Region": "Southern Region"
   },
   "geometry": {
    "x": 7163839.0671573738,
    "y": 3707327.8859004634
   }
  },
  {
   "attributes": {
    "OBJECTID": 3761,
    "ولایت": "هلمند",
    "Province": "HELMAND",
    "PC_Code": "3001031",
    "District": "LASHKARGAH",
    "د_مرکز_نوم__نام_مرکز": "د حاجی عبدالله مسجد",
    "Polling_Center_Name": "Haji Abdullah Mosque",
    "د_مرکز_ځای__موقعیت_مرکز": "د مهاجرینو کلی",
    "Polling_Center_Location": "Muhajereeno Village",
    "Map_Accuracy": "Building",
    "Map_Accuracy_Dari": "تعمیر",
    "Status": "Open",
    "Status_Dari": null,
    "PS_Male": 4,
    "PS_Female": 3,
    "PS_Total": 7,
    "ولسوالي": "لشکرگاه",
    "Region": "Southern Region"
   },
   "geometry": {
    "x": 7165151.1777502103,
    "y": 3716339.9809226454
   }
  },
  {
   "attributes": {
    "OBJECTID": 3762,
    "ولایت": "هلمند",
    "Province": "HELMAND",
    "PC_Code": "3002066",
    "District": "NAD ALI",
    "د_مرکز_نوم__نام_مرکز": "کلینیک ولسوالی ناد علی",
    "Polling_Center_Name": "Nad Ali District Clinic",
    "د_مرکز_ځای__موقعیت_مرکز": "مرکز ولسوالی",
    "Polling_Center_Location": "District Compound",
    "Map_Accuracy": "Building",
    "Map_Accuracy_Dari": "تعمیر",
    "Status": "Open",
    "Status_Dari": null,
    "PS_Male": 3,
    "PS_Female": 1,
    "PS_Total": 4,
    "ولسوالي": "نادعلی",
    "Region": "Southern Region"
   },
   "geometry": {
    "x": 7150974.3077524137,
    "y": 3716197.297290633
   }
  },
  {
   "attributes": {
    "OBJECTID": 3763,
    "ولایت": "هلمند",
    "Province": "HELMAND",
    "PC_Code": "3002067",
    "District": "NAD ALI",
    "د_مرکز_نوم__نام_مرکز": "ليسه مركزي ",
    "Polling_Center_Name": "Central High School",
    "د_مرکز_ځای__موقعیت_مرکز": "مرکز ولسوالی",
    "Polling_Center_Location": "District Compound",
    "Map_Accuracy": "Building",
    "Map_Accuracy_Dari": "تعمیر",
    "Status": "Open",
    "Status_Dari": null,
    "PS_Male": 4,
    "PS_Female": 4,
    "PS_Total": 8,
    "ولسوالي": "نادعلی",
    "Region": "Southern Region"
   },
   "geometry": {
    "x": 7150988.0056157503,
    "y": 3716719.8171445159
   }
  },
  {
   "attributes": {
    "OBJECTID": 3764,
    "ولایت": "هلمند",
    "Province": "HELMAND",
    "PC_Code": "3003094",
    "District": "NAWA-E-BARAKZAYI",
    "د_مرکز_نوم__نام_مرکز": "د نبی خان مسجد",
    "Polling_Center_Name": "Nabi Khan Mosque",
    "د_مرکز_ځای__موقعیت_مرکز": "خلج",
    "Polling_Center_Location": "Khalj",
    "Map_Accuracy": "Village",
    "Map_Accuracy_Dari": "قریه",
    "Status": "Open",
    "Status_Dari": null,
    "PS_Male": 4,
    "PS_Female": 1,
    "PS_Total": 5,
    "ولسوالي": "ناوه بارکزایی",
    "Region": "Southern Region"
   },
   "geometry": {
    "x": 7157922.3171098614,
    "y": 3683591.9273597286
   }
  },
  {
   "attributes": {
    "OBJECTID": 3765,
    "ولایت": "هلمند",
    "Province": "HELMAND",
    "PC_Code": "3003095",
    "District": "NAWA-E-BARAKZAYI",
    "د_مرکز_نوم__نام_مرکز": "د عبدالحكيم مسجد",
    "Polling_Center_Name": "Abdul Hakeem Mosque",
    "د_مرکز_ځای__موقعیت_مرکز": "خلج",
    "Polling_Center_Location": "Khalj",
    "Map_Accuracy": "Building",
    "Map_Accuracy_Dari": "تعمیر",
    "Status": "Open",
    "Status_Dari": null,
    "PS_Male": 4,
    "PS_Female": 0,
    "PS_Total": 4,
    "ولسوالي": "ناوه بارکزایی",
    "Region": "Southern Region"
   },
   "geometry": {
    "x": 7158330.9498098558,
    "y": 3681996.1418263186
   }
  },
  {
   "attributes": {
    "OBJECTID": 3766,
    "ولایت": "هلمند",
    "Province": "HELMAND",
    "PC_Code": "3003099",
    "District": "NAWA-E-BARAKZAYI",
    "د_مرکز_نوم__نام_مرکز": "د نیک محمد مسجد",
    "Polling_Center_Name": "Nek Mohammad Mosque",
    "د_مرکز_ځای__موقعیت_مرکز": "هزار اسپ",
    "Polling_Center_Location": "Hazar Asp",
    "Map_Accuracy": "Building",
    "Map_Accuracy_Dari": "تعمیر",
    "Status": "Open",
    "Status_Dari": null,
    "PS_Male": 3,
    "PS_Female": 1,
    "PS_Total": 4,
    "ولسوالي": "ناوه بارکزایی",
    "Region": "Southern Region"
   },
   "geometry": {
    "x": 7156056.7538386704,
    "y": 3677690.1794930524
   }
  },
  {
   "attributes": {
    "OBJECTID": 3767,
    "ولایت": "هلمند",
    "Province": "HELMAND",
    "PC_Code": "3003100",
    "District": "NAWA-E-BARAKZAYI",
    "د_مرکز_نوم__نام_مرکز": "كلينيك بلاک ـ ۱",
    "Polling_Center_Name": "Clinic Block 1",
    "د_مرکز_ځای__موقعیت_مرکز": "بلاک ـ ۱",
    "Polling_Center_Location": "Block 1",
    "Map_Accuracy": "Building",
    "Map_Accuracy_Dari": "تعمیر",
    "Status": "Open",
    "Status_Dari": null,
    "PS_Male": 3,
    "PS_Female": 1,
    "PS_Total": 4,
    "ولسوالي": "ناوه بارکزایی",
    "Region": "Southern Region"
   },
   "geometry": {
    "x": 7159904.5532261506,
    "y": 3683906.1063822922
   }
  },
  {
   "attributes": {
    "OBJECTID": 3768,
    "ولایت": "هلمند",
    "Province": "HELMAND",
    "PC_Code": "3004034",
    "District": "NAHR-E-SARAJ",
    "د_مرکز_نوم__نام_مرکز": "مكتب وزير فتح خان ",
    "Polling_Center_Name": "Wazir Fateh Khan School",
    "د_مرکز_ځای__موقعیت_مرکز": "مالگیر",
    "Polling_Center_Location": "Malgeer",
    "Map_Accuracy": "Village",
    "Map_Accuracy_Dari": "قریه",
    "Status": "Open",
    "Status_Dari": null,
    "PS_Male": 3,
    "PS_Female": 2,
    "PS_Total": 5,
    "ولسوالي": "نهرسراج",
    "Region": "Southern Region"
   },
   "geometry": {
    "x": 7181114.6476516034,
    "y": 3735948.1669292138
   }
  },
  {
   "attributes": {
    "OBJECTID": 3769,
    "ولایت": "هلمند",
    "Province": "HELMAND",
    "PC_Code": "3004035",
    "District": "NAHR-E-SARAJ",
    "د_مرکز_نوم__نام_مرکز": "ليسه ابوالفتح بستي ",
    "Polling_Center_Name": "Abul Fath Basti High School",
    "د_مرکز_ځای__موقعیت_مرکز": "گرشک",
    "Polling_Center_Location": "Gereshk",
    "Map_Accuracy": "Building",
    "Map_Accuracy_Dari": "تعمیر",
    "Status": "Open",
    "Status_Dari": null,
    "PS_Male": 5,
    "PS_Female": 2,
    "PS_Total": 7,
    "ولسوالي": "نهرسراج",
    "Region": "Southern Region"
   },
   "geometry": {
    "x": 7188361.1246013734,
    "y": 3739180.784330932
   }
  },
  {
   "attributes": {
    "OBJECTID": 3770,
    "ولایت": "هلمند",
    "Province": "HELMAND",
    "PC_Code": "3004049",
    "District": "NAHR-E-SARAJ",
    "د_مرکز_نوم__نام_مرکز": "خانه علاوالدين",
    "Polling_Center_Name": "Alauddin Private House",
    "د_مرکز_ځای__موقعیت_مرکز": "منطقه نهرسراج",
    "Polling_Center_Location": "Nahr Siraj Area",
    "Map_Accuracy": "Village",
    "Map_Accuracy_Dari": "قریه",
    "Status": "Open",
    "Status_Dari": null,
    "PS_Male": 3,
    "PS_Female": 1,
    "PS_Total": 4,
    "ولسوالي": "نهرسراج",
    "Region": "Southern Region"
   },
   "geometry": {
    "x": 7196183.1589407865,
    "y": 3727835.6579502998
   }
  },
  {
   "attributes": {
    "OBJECTID": 3771,
    "ولایت": "هلمند",
    "Province": "HELMAND",
    "PC_Code": "3006123",
    "District": "GARM SER",
    "د_مرکز_نوم__نام_مرکز": "دولتی تعمير",
    "Polling_Center_Name": "Government Building",
    "د_مرکز_ځای__موقعیت_مرکز": "بي بي جانه",
    "Polling_Center_Location": "Bibi Jana",
    "Map_Accuracy": "District",
    "Map_Accuracy_Dari": "ولسوالی",
    "Status": "Open",
    "Status_Dari": null,
    "PS_Male": 3,
    "PS_Female": 2,
    "PS_Total": 5,
    "ولسوالي": "گرم سیر",
    "Region": "Southern Region"
   },
   "geometry": {
    "x": 7163140.4093352351,
    "y": 3613502.2551333141
   }
  },
  {
   "attributes": {
    "OBJECTID": 3772,
    "ولایت": "هلمند",
    "Province": "HELMAND",
    "PC_Code": "3009186",
    "District": "MUSA QALA",
    "د_مرکز_نوم__نام_مرکز": "مرکزی ليسه",
    "Polling_Center_Name": "Central High School",
    "د_مرکز_ځای__موقعیت_مرکز": "تخته پول",
    "Polling_Center_Location": "Takhta Pol",
    "Map_Accuracy": "Building",
    "Map_Accuracy_Dari": "تعمیر",
    "Status": "Open",
    "Status_Dari": null,
    "PS_Male": 4,
    "PS_Female": 1,
    "PS_Total": 5,
    "ولسوالي": "موسی قلعه",
    "Region": "Southern Region"
   },
   "geometry": {
    "x": 7210283.08935933,
    "y": 3809168.2176853558
   }
  },
  {
   "attributes": {
    "OBJECTID": 3773,
    "ولایت": "هلمند",
    "Province": "HELMAND",
    "PC_Code": "3010157",
    "District": "KAJAKI",
    "د_مرکز_نوم__نام_مرکز": "مكتب مرکز ولسوالی",
    "Polling_Center_Name": "District Center School",
    "د_مرکز_ځای__موقعیت_مرکز": "مرکز ولسوالی",
    "Polling_Center_Location": "District Compound",
    "Map_Accuracy": "Village",
    "Map_Accuracy_Dari": "قریه",
    "Status": "Open",
    "Status_Dari": null,
    "PS_Male": 7,
    "PS_Female": 6,
    "PS_Total": 13,
    "ولسوالي": "کجکی",
    "Region": "Southern Region"
   },
   "geometry": {
    "x": 7247322.3155510686,
    "y": 3806329.8494288819
   }
  },
  {
   "attributes": {
    "OBJECTID": 3774,
    "ولایت": "هلمند",
    "Province": "HELMAND",
    "PC_Code": "3010158",
    "District": "KAJAKI",
    "د_مرکز_نوم__نام_مرکز": "مسجد کجکی وسط",
    "Polling_Center_Name": "Kajaki Wasat Mosque",
    "د_مرکز_ځای__موقعیت_مرکز": "کجکی وسط",
    "Polling_Center_Location": "Kajaki Wasat",
    "Map_Accuracy": "Village",
    "Map_Accuracy_Dari": "قریه",
    "Status": "Open",
    "Status_Dari": null,
    "PS_Male": 3,
    "PS_Female": 1,
    "PS_Total": 4,
    "ولسوالي": "کجکی",
    "Region": "Southern Region"
   },
   "geometry": {
    "x": 7244901.4928861959,
    "y": 3809270.6119091162
   }
  },
  {
   "attributes": {
    "OBJECTID": 3775,
    "ولایت": "هلمند",
    "Province": "HELMAND",
    "PC_Code": "3014076",
    "District": "MARJA",
    "د_مرکز_نوم__نام_مرکز": "خانه میراب",
    "Polling_Center_Name": "Miraab Private House",
    "د_مرکز_ځای__موقعیت_مرکز": "بلاک ۱۱ کلان",
    "Polling_Center_Location": "Block 11 Kalan",
    "Map_Accuracy": "Village",
    "Map_Accuracy_Dari": "قریه",
    "Status": "Open",
    "Status_Dari": null,
    "PS_Male": 3,
    "PS_Female": 0,
    "PS_Total": 3,
    "ولسوالي": "مارجه",
    "Region": "Southern Region"
   },
   "geometry": {
    "x": 7137661.0732884957,
    "y": 3682036.4908818267
   }
  },
  {
   "attributes": {
    "OBJECTID": 3776,
    "ولایت": "هلمند",
    "Province": "HELMAND",
    "PC_Code": "3014077",
    "District": "MARJA",
    "د_مرکز_نوم__نام_مرکز": "مسجد مارجه بلاک الف ـ ۱",
    "Polling_Center_Name": "Marja Block 1 - A Mosque",
    "د_مرکز_ځای__موقعیت_مرکز": "مارجه بلاک الف ـ ۱",
    "Polling_Center_Location": "Marja Block 1 - A",
    "Map_Accuracy": "Village",
    "Map_Accuracy_Dari": "قریه",
    "Status": "Open",
    "Status_Dari": null,
    "PS_Male": 3,
    "PS_Female": 1,
    "PS_Total": 4,
    "ولسوالي": "مارجه",
    "Region": "Southern Region"
   },
   "geometry": {
    "x": 7135840.3372630579,
    "y": 3698102.6617154959
   }
  },
  {
   "attributes": {
    "OBJECTID": 3777,
    "ولایت": "هلمند",
    "Province": "HELMAND",
    "PC_Code": "3014085",
    "District": "MARJA",
    "د_مرکز_نوم__نام_مرکز": "د مير همزه كور",
    "Polling_Center_Name": "Mir Hamza Private House",
    "د_مرکز_ځای__موقعیت_مرکز": "تریخ زابر",
    "Polling_Center_Location": "Treekh Zabar",
    "Map_Accuracy": "Village",
    "Map_Accuracy_Dari": "قریه",
    "Status": "Open",
    "Status_Dari": null,
    "PS_Male": 2,
    "PS_Female": 1,
    "PS_Total": 3,
    "ولسوالي": "مارجه",
    "Region": "Southern Region"
   },
   "geometry": {
    "x": 7150266.1087367125,
    "y": 3701548.9711350794
   }
  },
  {
   "attributes": {
    "OBJECTID": 3778,
    "ولایت": "بادغيس",
    "Province": "BADGHIS",
    "PC_Code": "3101014",
    "District": "QALA-E-NOW",
    "د_مرکز_نوم__نام_مرکز": "قریه میر میراک",
    "Polling_Center_Name": "Mir Mirak Village",
    "د_مرکز_ځای__موقعیت_مرکز": "صحن قریه آب دول",
    "Polling_Center_Location": "Sahn-e-Aab Dool Village",
    "Map_Accuracy": "Village",
    "Map_Accuracy_Dari": "قریه",
    "Status": "Open",
    "Status_Dari": null,
    "PS_Male": 4,
    "PS_Female": 1,
    "PS_Total": 5,
    "ولسوالي": "قلعه نو",
    "Region": "Western Region"
   },
   "geometry": {
    "x": 7021883.8279954484,
    "y": 4146132.9784422251
   }
  },
  {
   "attributes": {
    "OBJECTID": 3779,
    "ولایت": "بادغيس",
    "Province": "BADGHIS",
    "PC_Code": "3101015",
    "District": "QALA-E-NOW",
    "د_مرکز_نوم__نام_مرکز": "مکتب ندامی",
    "Polling_Center_Name": "Nadami School",
    "د_مرکز_ځای__موقعیت_مرکز": "ندامی",
    "Polling_Center_Location": "Nadami ",
    "Map_Accuracy": "Building",
    "Map_Accuracy_Dari": "تعمیر",
    "Status": "Open",
    "Status_Dari": null,
    "PS_Male": 3,
    "PS_Female": 1,
    "PS_Total": 4,
    "ولسوالي": "قلعه نو",
    "Region": "Western Region"
   },
   "geometry": {
    "x": 7026076.1578673497,
    "y": 4139912.4714997611
   }
  },
  {
   "attributes": {
    "OBJECTID": 3780,
    "ولایت": "بادغيس",
    "Province": "BADGHIS",
    "PC_Code": "3101019",
    "District": "QALA-E-NOW",
    "د_مرکز_نوم__نام_مرکز": "مکتب متوسطه خان آقا ",
    "Polling_Center_Name": "Khan Aqa Secondary School",
    "د_مرکز_ځای__موقعیت_مرکز": "قریه خان آقا",
    "Polling_Center_Location": "Khan Aqa Village",
    "Map_Accuracy": "Building",
    "Map_Accuracy_Dari": "تعمیر",
    "Status": "Open",
    "Status_Dari": null,
    "PS_Male": 2,
    "PS_Female": 2,
    "PS_Total": 4,
    "ولسوالي": "قلعه نو",
    "Region": "Western Region"
   },
   "geometry": {
    "x": 7014238.6836664947,
    "y": 4131699.0340932677
   }
  },
  {
   "attributes": {
    "OBJECTID": 3781,
    "ولایت": "بادغيس",
    "Province": "BADGHIS",
    "PC_Code": "3104055",
    "District": "QADIS",
    "د_مرکز_نوم__نام_مرکز": "مکتب ارباب سرور",
    "Polling_Center_Name": "Arbab Sarwar School",
    "د_مرکز_ځای__موقعیت_مرکز": "ارباب سرور",
    "Polling_Center_Location": "Arbab Sarwar",
    "Map_Accuracy": "Building",
    "Map_Accuracy_Dari": "تعمیر",
    "Status": "Open",
    "Status_Dari": null,
    "PS_Male": 2,
    "PS_Female": 1,
    "PS_Total": 3,
    "ولسوالي": "قادس",
    "Region": "Western Region"
   },
   "geometry": {
    "x": 7059040.2613658533,
    "y": 4139673.5085396762
   }
  },
  {
   "attributes": {
    "OBJECTID": 3782,
    "ولایت": "بادغيس",
    "Province": "BADGHIS",
    "PC_Code": "3104056",
    "District": "QADIS",
    "د_مرکز_نوم__نام_مرکز": "مکتب آب بخش",
    "Polling_Center_Name": "Aab Bakhsh School",
    "د_مرکز_ځای__موقعیت_مرکز": " آب بخش",
    "Polling_Center_Location": "Aab Bakhsh ",
    "Map_Accuracy": "Building",
    "Map_Accuracy_Dari": "تعمیر",
    "Status": "Open",
    "Status_Dari": null,
    "PS_Male": 1,
    "PS_Female": 1,
    "PS_Total": 2,
    "ولسوالي": "قادس",
    "Region": "Western Region"
   },
   "geometry": {
    "x": 7043394.5952523388,
    "y": 4146452.6306676264
   }
  },
  {
   "attributes": {
    "OBJECTID": 3783,
    "ولایت": "بادغيس",
    "Province": "BADGHIS",
    "PC_Code": "3104081",
    "District": "QADIS",
    "د_مرکز_نوم__نام_مرکز": "مکتب گلچین",
    "Polling_Center_Name": "Gulchin Clinic",
    "د_مرکز_ځای__موقعیت_مرکز": "گلچین",
    "Polling_Center_Location": "Gulchin ",
    "Map_Accuracy": "Building",
    "Map_Accuracy_Dari": "تعمیر",
    "Status": "Open",
    "Status_Dari": null,
    "PS_Male": 2,
    "PS_Female": 1,
    "PS_Total": 3,
    "ولسوالي": "قادس",
    "Region": "Western Region"
   },
   "geometry": {
    "x": 7084829.9784168163,
    "y": 4145936.6598822083
   }
  },
  {
   "attributes": {
    "OBJECTID": 3784,
    "ولایت": "بادغيس",
    "Province": "BADGHIS",
    "PC_Code": "3106106",
    "District": "JAWAND",
    "د_مرکز_نوم__نام_مرکز": "مسجد قریه قاز",
    "Polling_Center_Name": "Qaz Village Mosque",
    "د_مرکز_ځای__موقعیت_مرکز": " قاز",
    "Polling_Center_Location": "Qaz ",
    "Map_Accuracy": "Building",
    "Map_Accuracy_Dari": "تعمیر",
    "Status": "Open",
    "Status_Dari": null,
    "PS_Male": 1,
    "PS_Female": 1,
    "PS_Total": 2,
    "ولسوالي": "جوند",
    "Region": "Western Region"
   },
   "geometry": {
    "x": 7203355.6329194633,
    "y": 4169123.4853047961
   }
  },
  {
   "attributes": {
    "OBJECTID": 3785,
    "ولایت": "بادغيس",
    "Province": "BADGHIS",
    "PC_Code": "3106107",
    "District": "JAWAND",
    "د_مرکز_نوم__نام_مرکز": "مسجد سرتاوه",
    "Polling_Center_Name": "Sartawah Mosque",
    "د_مرکز_ځای__موقعیت_مرکز": " سرتاوه",
    "Polling_Center_Location": "Sartawah ",
    "Map_Accuracy": "Building",
    "Map_Accuracy_Dari": "تعمیر",
    "Status": "Open",
    "Status_Dari": null,
    "PS_Male": 1,
    "PS_Female": 1,
    "PS_Total": 2,
    "ولسوالي": "جوند",
    "Region": "Western Region"
   },
   "geometry": {
    "x": 7187886.2089369716,
    "y": 4176953.2312036529
   }
  },
  {
   "attributes": {
    "OBJECTID": 3786,
    "ولایت": "بادغيس",
    "Province": "BADGHIS",
    "PC_Code": "3106111",
    "District": "JAWAND",
    "د_مرکز_نوم__نام_مرکز": "مسجد قریه دهن دو آبی",
    "Polling_Center_Name": "Dahan-e- do Aabi Village",
    "د_مرکز_ځای__موقعیت_مرکز": " دهن دو آبی",
    "Polling_Center_Location": "Dahan-e- do Aabi",
    "Map_Accuracy": "Village",
    "Map_Accuracy_Dari": "قریه",
    "Status": "Open",
    "Status_Dari": null,
    "PS_Male": 2,
    "PS_Female": 1,
    "PS_Total": 3,
    "ولسوالي": "جوند",
    "Region": "Western Region"
   },
   "geometry": {
    "x": 7156204.3868605541,
    "y": 4154297.0542341308
   }
  },
  {
   "attributes": {
    "OBJECTID": 3787,
    "ولایت": "هرات",
    "Province": "HERAT",
    "PC_Code": "3201002",
    "District": "HERAT",
    "د_مرکز_نوم__نام_مرکز": "لیسه گوهرشاد",
    "Polling_Center_Name": "Gauhar shad High School",
    "د_مرکز_ځای__موقعیت_مرکز": " ناحیه اول",
    "Polling_Center_Location": "D01 - Nahia 1",
    "Map_Accuracy": "Building",
    "Map_Accuracy_Dari": "تعمیر",
    "Status": "Open",
    "Status_Dari": null,
    "PS_Male": 6,
    "PS_Female": 4,
    "PS_Total": 10,
    "ولسوالي": "هرات",
    "Region": "Western Region"
   },
   "geometry": {
    "x": 6926308.4242170881,
    "y": 4075908.4630288007
   }
  },
  {
   "attributes": {
    "OBJECTID": 3788,
    "ولایت": "هرات",
    "Province": "HERAT",
    "PC_Code": "3201003",
    "District": "HERAT",
    "د_مرکز_نوم__نام_مرکز": "لیسه ملکه جلالی",
    "Polling_Center_Name": "Malika Jalali High School",
    "د_مرکز_ځای__موقعیت_مرکز": " ناحیه دوم",
    "Polling_Center_Location": "D02 - Nahia 2",
    "Map_Accuracy": "Building",
    "Map_Accuracy_Dari": "تعمیر",
    "Status": "Open",
    "Status_Dari": null,
    "PS_Male": 0,
    "PS_Female": 6,
    "PS_Total": 6,
    "ولسوالي": "هرات",
    "Region": "Western Region"
   },
   "geometry": {
    "x": 6923249.9245471256,
    "y": 4075045.7430638778
   }
  },
  {
   "attributes": {
    "OBJECTID": 3789,
    "ولایت": "هرات",
    "Province": "HERAT",
    "PC_Code": "3201023",
    "District": "HERAT",
    "د_مرکز_نوم__نام_مرکز": " لیسه فکری سلجوقی",
    "Polling_Center_Name": "Fekri Saljooqi High School ",
    "د_مرکز_ځای__موقعیت_مرکز": " ناحیه هشتم",
    "Polling_Center_Location": "D08 - Nahia 8",
    "Map_Accuracy": "Building",
    "Map_Accuracy_Dari": "تعمیر",
    "Status": "Open",
    "Status_Dari": null,
    "PS_Male": 6,
    "PS_Female": 5,
    "PS_Total": 11,
    "ولسوالي": "هرات",
    "Region": "Western Region"
   },
   "geometry": {
    "x": 6928083.6016277224,
    "y": 4076320.9540873296
   }
  },
  {
   "attributes": {
    "OBJECTID": 3790,
    "ولایت": "هرات",
    "Province": "HERAT",
    "PC_Code": "3201024",
    "District": "HERAT",
    "د_مرکز_نوم__نام_مرکز": "مسجد جامع گازرگاه",
    "Polling_Center_Name": "Guzarga  Mosque",
    "د_مرکز_ځای__موقعیت_مرکز": " ناحیه هشتم",
    "Polling_Center_Location": "D08 - Nahia 8",
    "Map_Accuracy": "Building",
    "Map_Accuracy_Dari": "تعمیر",
    "Status": "Open",
    "Status_Dari": null,
    "PS_Male": 5,
    "PS_Female": 4,
    "PS_Total": 9,
    "ولسوالي": "هرات",
    "Region": "Western Region"
   },
   "geometry": {
    "x": 6928583.7845901474,
    "y": 4079166.0449364218
   }
  },
  {
   "attributes": {
    "OBJECTID": 3791,
    "ولایت": "هرات",
    "Province": "HERAT",
    "PC_Code": "3201028",
    "District": "HERAT",
    "د_مرکز_نوم__نام_مرکز": "مكتب بابا زنگي عطا",
    "Polling_Center_Name": "Baba Zangi Ata School",
    "د_مرکز_ځای__موقعیت_مرکز": " ناحیه نهم",
    "Polling_Center_Location": "D09 - Nahia 9",
    "Map_Accuracy": "Village",
    "Map_Accuracy_Dari": "قریه",
    "Status": "Open",
    "Status_Dari": null,
    "PS_Male": 4,
    "PS_Female": 5,
    "PS_Total": 9,
    "ولسوالي": "هرات",
    "Region": "Western Region"
   },
   "geometry": {
    "x": 6921751.9694039933,
    "y": 4077048.4525727686
   }
  },
  {
   "attributes": {
    "OBJECTID": 3792,
    "ولایت": "هرات",
    "Province": "HERAT",
    "PC_Code": "3202035",
    "District": "ENJIL",
    "د_مرکز_نوم__نام_مرکز": "مسجد شهداء کارته",
    "Polling_Center_Name": "Karti-e-Shohada Mosque ",
    "د_مرکز_ځای__موقعیت_مرکز": "کارته ",
    "Polling_Center_Location": "Karta",
    "Map_Accuracy": "Building",
    "Map_Accuracy_Dari": "تعمیر",
    "Status": "Open",
    "Status_Dari": null,
    "PS_Male": 4,
    "PS_Female": 5,
    "PS_Total": 9,
    "ولسوالي": "انجیل",
    "Region": "Western Region"
   },
   "geometry": {
    "x": 6925275.5930759478,
    "y": 4072204.0571588213
   }
  },
  {
   "attributes": {
    "OBJECTID": 3793,
    "ولایت": "هرات",
    "Province": "HERAT",
    "PC_Code": "3202036",
    "District": "ENJIL",
    "د_مرکز_نوم__نام_مرکز": "مسجد شیمان",
    "Polling_Center_Name": "Sheman Mosque",
    "د_مرکز_ځای__موقعیت_مرکز": " قریه شیمان",
    "Polling_Center_Location": "Sheman Village ",
    "Map_Accuracy": "Building",
    "Map_Accuracy_Dari": "تعمیر",
    "Status": "Open",
    "Status_Dari": null,
    "PS_Male": 2,
    "PS_Female": 1,
    "PS_Total": 3,
    "ولسوالي": "انجیل",
    "Region": "Western Region"
   },
   "geometry": {
    "x": 6920479.7846597256,
    "y": 4071746.9678126234
   }
  },
  {
   "attributes": {
    "OBJECTID": 3794,
    "ولایت": "هرات",
    "Province": "HERAT",
    "PC_Code": "3202041",
    "District": "ENJIL",
    "د_مرکز_نوم__نام_مرکز": "مکتب متوسطه دخترانه سفید روان",
    "Polling_Center_Name": "Safid Rawan Gilrs Secondary School ",
    "د_مرکز_ځای__موقعیت_مرکز": " قریه سفید روان",
    "Polling_Center_Location": "Safid Rawan Village",
    "Map_Accuracy": "Building",
    "Map_Accuracy_Dari": "تعمیر",
    "Status": "Open",
    "Status_Dari": null,
    "PS_Male": 2,
    "PS_Female": 1,
    "PS_Total": 3,
    "ولسوالي": "انجیل",
    "Region": "Western Region"
   },
   "geometry": {
    "x": 6916676.7757825628,
    "y": 4079660.2035644627
   }
  },
  {
   "attributes": {
    "OBJECTID": 3795,
    "ولایت": "هرات",
    "Province": "HERAT",
    "PC_Code": "3203096",
    "District": "GUZARA",
    "د_مرکز_نوم__نام_مرکز": "لیسه زیارت جا ",
    "Polling_Center_Name": "Zeyarat Ja High School ",
    "د_مرکز_ځای__موقعیت_مرکز": "زیارت جا",
    "Polling_Center_Location": "Zeyarat Ja",
    "Map_Accuracy": "Building",
    "Map_Accuracy_Dari": "تعمیر",
    "Status": "Open",
    "Status_Dari": null,
    "PS_Male": 3,
    "PS_Female": 1,
    "PS_Total": 4,
    "ولسوالي": "گذره",
    "Region": "Western Region"
   },
   "geometry": {
    "x": 6917270.0329712359,
    "y": 4055316.2341954685
   }
  },
  {
   "attributes": {
    "OBJECTID": 3796,
    "ولایت": "هرات",
    "Province": "HERAT",
    "PC_Code": "3203101",
    "District": "GUZARA",
    "د_مرکز_نوم__نام_مرکز": "مسجد جامع کول",
    "Polling_Center_Name": "Kool Mosque ",
    "د_مرکز_ځای__موقعیت_مرکز": "قریه کول",
    "Polling_Center_Location": "Kool Village",
    "Map_Accuracy": "Building",
    "Map_Accuracy_Dari": "تعمیر",
    "Status": "Open",
    "Status_Dari": null,
    "PS_Male": 1,
    "PS_Female": 1,
    "PS_Total": 2,
    "ولسوالي": "گذره",
    "Region": "Western Region"
   },
   "geometry": {
    "x": 6946180.2579881139,
    "y": 4061347.6284284061
   }
  },
  {
   "attributes": {
    "OBJECTID": 3797,
    "ولایت": "هرات",
    "Province": "HERAT",
    "PC_Code": "3203102",
    "District": "GUZARA",
    "د_مرکز_نوم__نام_مرکز": "مکتب ابتدایی رباط سفچی",
    "Polling_Center_Name": "Rubat Safchi Primary School ",
    "د_مرکز_ځای__موقعیت_مرکز": "قریه رباط سفچی",
    "Polling_Center_Location": "Rubat Safchi Village ",
    "Map_Accuracy": "Building",
    "Map_Accuracy_Dari": "تعمیر",
    "Status": "Open",
    "Status_Dari": null,
    "PS_Male": 1,
    "PS_Female": 1,
    "PS_Total": 2,
    "ولسوالي": "گذره",
    "Region": "Western Region"
   },
   "geometry": {
    "x": 6937061.0031509576,
    "y": 4045831.5698414282
   }
  },
  {
   "attributes": {
    "OBJECTID": 3798,
    "ولایت": "هرات",
    "Province": "HERAT",
    "PC_Code": "3204150",
    "District": "KARRUKH",
    "د_مرکز_نوم__نام_مرکز": "مکتب قلعه شربت ",
    "Polling_Center_Name": "Qala-e -Sharbat School ",
    "د_مرکز_ځای__موقعیت_مرکز": "قریه قلعه شربت ",
    "Polling_Center_Location": "Qala-e- Sharbat Village ",
    "Map_Accuracy": "Building",
    "Map_Accuracy_Dari": "تعمیر",
    "Status": "Open",
    "Status_Dari": null,
    "PS_Male": 2,
    "PS_Female": 1,
    "PS_Total": 3,
    "ولسوالي": "کرخ ",
    "Region": "Western Region"
   },
   "geometry": {
    "x": 6972856.7628006618,
    "y": 4098109.5173933199
   }
  },
  {
   "attributes": {
    "OBJECTID": 3799,
    "ولایت": "هرات",
    "Province": "HERAT",
    "PC_Code": "3204442",
    "District": "KARRUKH",
    "د_مرکز_نوم__نام_مرکز": "مكتب ارملق",
    "Polling_Center_Name": "Armalaq School ",
    "د_مرکز_ځای__موقعیت_مرکز": "ارملق ",
    "Polling_Center_Location": "Armalaq ",
    "Map_Accuracy": "Building",
    "Map_Accuracy_Dari": "تعمیر",
    "Status": "Open",
    "Status_Dari": null,
    "PS_Male": 1,
    "PS_Female": 1,
    "PS_Total": 2,
    "ولسوالي": "کرخ ",
    "Region": "Western Region"
   },
   "geometry": {
    "x": 6994121.3726071483,
    "y": 4103621.7904276932
   }
  },
  {
   "attributes": {
    "OBJECTID": 3800,
    "ولایت": "هرات",
    "Province": "HERAT",
    "PC_Code": "3206130",
    "District": "PASHTUN ZARGHUN",
    "د_مرکز_نوم__نام_مرکز": "مکتب سر آب ",
    "Polling_Center_Name": "Saraab School ",
    "د_مرکز_ځای__موقعیت_مرکز": "قریه سرآب ",
    "Polling_Center_Location": "Saraab Village ",
    "Map_Accuracy": "Building",
    "Map_Accuracy_Dari": "تعمیر",
    "Status": "Open",
    "Status_Dari": null,
    "PS_Male": 1,
    "PS_Female": 1,
    "PS_Total": 2,
    "ولسوالي": "پشتون زرغون",
    "Region": "Western Region"
   },
   "geometry": {
    "x": 6959116.5312603526,
    "y": 4064619.3007423021
   }
  }
 ]
}