{
 "displayFieldName": "Polling_Center_Name",
 "fieldAliases": {
  "OBJECTID": "OBJECTID",
  "ولایت": "ولایت",
  "Province": "Province",
  "PC_Code": "PC_Code",
  "District": "District",
  "د_مرکز_نوم__نام_مرکز": "د_مرکز_نوم__نام_مرکز",
  "Polling_Center_Name": "Polling_Center_Name",
  "د_مرکز_ځای__موقعیت_مرکز": "د_مرکز_ځای__موقعیت_مرکز",
  "Polling_Center_Location": "Polling_Center_Location",
  "Map_Accuracy": "Map_Accuracy",
  "Map_Accuracy_Dari": "Map_Accuracy_Dari",
  "Status": "Status",
  "Status_Dari": "Status_Dari",
  "PS_Male": "PS_Male",
  "PS_Female": "PS_Female",
  "PS_Total": "PS_Total",
  "ولسوالي": "ولسوالي",
  "Region": "Region"
 },
 "geometryType": "esriGeometryPoint",
 "spatialReference": {
  "wkid": 102100,
  "latestWkid": 3857
 },
 "fields": [
  {
   "name": "OBJECTID",
   "type": "esriFieldTypeOID",
   "alias": "OBJECTID"
  },
  {
   "name": "ولایت",
   "type": "esriFieldTypeString",
   "alias": "ولایت",
   "length": 255
  },
  {
   "name": "Province",
   "type": "esriFieldTypeString",
   "alias": "Province",
   "length": 255
  },
  {
   "name": "PC_Code",
   "type": "esriFieldTypeString",
   "alias": "PC_Code",
   "length": 255
  },
  {
   "name": "District",
   "type": "esriFieldTypeString",
   "alias": "District",
   "length": 255
  },
  {
   "name": "د_مرکز_نوم__نام_مرکز",
   "type": "esriFieldTypeString",
   "alias": "د_مرکز_نوم__نام_مرکز",
   "length": 255
  },
  {
   "name": "Polling_Center_Name",
   "type": "esriFieldTypeString",
   "alias": "Polling_Center_Name",
   "length": 255
  },
  {
   "name": "د_مرکز_ځای__موقعیت_مرکز",
   "type": "esriFieldTypeString",
   "alias": "د_مرکز_ځای__موقعیت_مرکز",
   "length": 255
  },
  {
   "name": "Polling_Center_Location",
   "type": "esriFieldTypeString",
   "alias": "Polling_Center_Location",
   "length": 255
  },
  {
   "name": "Map_Accuracy",
   "type": "esriFieldTypeString",
   "alias": "Map_Accuracy",
   "length": 10
  },
  {
   "name": "Map_Accuracy_Dari",
   "type": "esriFieldTypeString",
   "alias": "Map_Accuracy_Dari",
   "length": 50
  },
  {
   "name": "Status",
   "type": "esriFieldTypeString",
   "alias": "Status",
   "length": 6
  },
  {
   "name": "Status_Dari",
   "type": "esriFieldTypeString",
   "alias": "Status_Dari",
   "length": 8
  },
  {
   "name": "PS_Male",
   "type": "esriFieldTypeSmallInteger",
   "alias": "PS_Male"
  },
  {
   "name": "PS_Female",
   "type": "esriFieldTypeSmallInteger",
   "alias": "PS_Female"
  },
  {
   "name": "PS_Total",
   "type": "esriFieldTypeSmallInteger",
   "alias": "PS_Total"
  },
  {
   "name": "ولسوالي",
   "type": "esriFieldTypeString",
   "alias": "ولسوالي",
   "length": 255
  },
  {
   "name": "Region",
   "type": "esriFieldTypeString",
   "alias": "Region",
   "length": 50
  }
 ],
 "features": [
  {
   "attributes": {
    "OBJECTID": 3801,
    "ولایت": "هرات",
    "Province": "HERAT",
    "PC_Code": "3206131",
    "District": "PASHTUN ZARGHUN",
    "د_مرکز_نوم__نام_مرکز": "مکتب سلیمی ",
    "Polling_Center_Name": "Salimi School ",
    "د_مرکز_ځای__موقعیت_مرکز": "قریه سلیمی ",
    "Polling_Center_Location": "Salimi Village ",
    "Map_Accuracy": "Building",
    "Map_Accuracy_Dari": "تعمیر",
    "Status": "Open",
    "Status_Dari": null,
    "PS_Male": 1,
    "PS_Female": 1,
    "PS_Total": 2,
    "ولسوالي": "پشتون زرغون",
    "Region": "Western Region"
   },
   "geometry": {
    "x": 6957347.3528570784,
    "y": 4063361.4457447245
   }
  },
  {
   "attributes": {
    "OBJECTID": 3802,
    "ولایت": "هرات",
    "Province": "HERAT",
    "PC_Code": "3206145",
    "District": "PASHTUN ZARGHUN",
    "د_مرکز_نوم__نام_مرکز": "مسجد کارو",
    "Polling_Center_Name": "Karo Mosque",
    "د_مرکز_ځای__موقعیت_مرکز": "قریه کارو",
    "Polling_Center_Location": "Karo Village ",
    "Map_Accuracy": "Building",
    "Map_Accuracy_Dari": "تعمیر",
    "Status": "Open",
    "Status_Dari": null,
    "PS_Male": 1,
    "PS_Female": 1,
    "PS_Total": 2,
    "ولسوالي": "پشتون زرغون",
    "Region": "Western Region"
   },
   "geometry": {
    "x": 6983979.8107735096,
    "y": 4048817.811609304
   }
  },
  {
   "attributes": {
    "OBJECTID": 3803,
    "ولایت": "هرات",
    "Province": "HERAT",
    "PC_Code": "3206146",
    "District": "PASHTUN ZARGHUN",
    "د_مرکز_نوم__نام_مرکز": "مسجد خسرو ",
    "Polling_Center_Name": "Khesrow Mosque ",
    "د_مرکز_ځای__موقعیت_مرکز": "قریه خسرو",
    "Polling_Center_Location": "Khesrow Village ",
    "Map_Accuracy": "Building",
    "Map_Accuracy_Dari": "تعمیر",
    "Status": "Open",
    "Status_Dari": null,
    "PS_Male": 1,
    "PS_Female": 1,
    "PS_Total": 2,
    "ولسوالي": "پشتون زرغون",
    "Region": "Western Region"
   },
   "geometry": {
    "x": 6972652.1052564234,
    "y": 4049048.2206609393
   }
  },
  {
   "attributes": {
    "OBJECTID": 3804,
    "ولایت": "هرات",
    "Province": "HERAT",
    "PC_Code": "3206440",
    "District": "PASHTUN ZARGHUN",
    "د_مرکز_نوم__نام_مرکز": "مکتب ابتدائی کشک سیروان ",
    "Polling_Center_Name": "Kashak Sairwan Primary School",
    "د_مرکز_ځای__موقعیت_مرکز": "سیروان ",
    "Polling_Center_Location": "Sairawan ",
    "Map_Accuracy": "Building",
    "Map_Accuracy_Dari": "تعمیر",
    "Status": "Open",
    "Status_Dari": null,
    "PS_Male": 1,
    "PS_Female": 1,
    "PS_Total": 2,
    "ولسوالي": "پشتون زرغون",
    "Region": "Western Region"
   },
   "geometry": {
    "x": 6977446.6023290418,
    "y": 4062017.6742301923
   }
  },
  {
   "attributes": {
    "OBJECTID": 3805,
    "ولایت": "هرات",
    "Province": "HERAT",
    "PC_Code": "3207177",
    "District": "KUSHK (RUBAT-E-SANGI)",
    "د_مرکز_نوم__نام_مرکز": "مكتب دوغی قنات وكيل",
    "Polling_Center_Name": "Doghi Qanat Wakil School ",
    "د_مرکز_ځای__موقعیت_مرکز": "قریه دوغی قنات وكيل",
    "Polling_Center_Location": "Doghi Qanat Wakil Village ",
    "Map_Accuracy": "Building",
    "Map_Accuracy_Dari": "تعمیر",
    "Status": "Open",
    "Status_Dari": null,
    "PS_Male": 2,
    "PS_Female": 1,
    "PS_Total": 3,
    "ولسوالي": "کشک (رباط سنگی)",
    "Region": "Western Region"
   },
   "geometry": {
    "x": 6923156.9148861766,
    "y": 4160824.296798063
   }
  },
  {
   "attributes": {
    "OBJECTID": 3806,
    "ولایت": "وردک",
    "Province": "WARDAK",
    "PC_Code": "0404094",
    "District": "CHAKI WARDAK",
    "د_مرکز_نوم__نام_مرکز": "مسجد قریه شکرداد",
    "Polling_Center_Name": "Shuker Dad Village Mosque",
    "د_مرکز_ځای__موقعیت_مرکز": "قریه شکرداد",
    "Polling_Center_Location": "Shakardad Village",
    "Map_Accuracy": "Village",
    "Map_Accuracy_Dari": "قریه",
    "Status": "Open",
    "Status_Dari": null,
    "PS_Male": 2,
    "PS_Female": 1,
    "PS_Total": 3,
    "ولسوالي": "چک وردک",
    "Region": "Central Region"
   },
   "geometry": {
    "x": 7620073.3061213754,
    "y": 4042541.1808007616
   }
  },
  {
   "attributes": {
    "OBJECTID": 3807,
    "ولایت": "وردک",
    "Province": "WARDAK",
    "PC_Code": "0405120",
    "District": "SAYYD ABAD",
    "د_مرکز_نوم__نام_مرکز": "خیمه درداخل قریه الف خیل",
    "Polling_Center_Name": "Tent in Alif Khel Village",
    "د_مرکز_ځای__موقعیت_مرکز": "الف خیل-چینارخیل",
    "Polling_Center_Location": "Alif Khel-Chinar Khel",
    "Map_Accuracy": "Village",
    "Map_Accuracy_Dari": "قریه",
    "Status": "Open",
    "Status_Dari": null,
    "PS_Male": 1,
    "PS_Female": 1,
    "PS_Total": 2,
    "ولسوالي": "سید آباد",
    "Region": "Central Region"
   },
   "geometry": {
    "x": 7636495.393400521,
    "y": 4024199.4309078334
   }
  },
  {
   "attributes": {
    "OBJECTID": 3808,
    "ولایت": "کندز",
    "Province": "KUNDUZ",
    "PC_Code": "1905075",
    "District": "HAZRAT-E-IMAM SAHIB",
    "د_مرکز_نوم__نام_مرکز": "مکتب آمو",
    "Polling_Center_Name": "Aamoo School",
    "د_مرکز_ځای__موقعیت_مرکز": "پل مدیر جنگل",
    "Polling_Center_Location": "Pul Mudeer Jangal",
    "Map_Accuracy": "Building",
    "Map_Accuracy_Dari": "تعمیر",
    "Status": "Open",
    "Status_Dari": null,
    "PS_Male": 1,
    "PS_Female": 1,
    "PS_Total": 2,
    "ولسوالي": "حضرت امام صاحب",
    "Region": "North Eastern Region"
   },
   "geometry": {
    "x": 7679790.6436178461,
    "y": 4472640.6448696898
   }
  },
  {
   "attributes": {
    "OBJECTID": 3809,
    "ولایت": "کندز",
    "Province": "KUNDUZ",
    "PC_Code": "1906187",
    "District": "DASHT-E-ARCHI",
    "د_مرکز_نوم__نام_مرکز": "مسجد حبیب",
    "Polling_Center_Name": "Habib Mosque",
    "د_مرکز_ځای__موقعیت_مرکز": "قریه باغ حبیب",
    "Polling_Center_Location": "Bagh Habib Village",
    "Map_Accuracy": "Building",
    "Map_Accuracy_Dari": "تعمیر",
    "Status": "Open",
    "Status_Dari": null,
    "PS_Male": 2,
    "PS_Female": 1,
    "PS_Total": 3,
    "ولسوالي": "دشت ارچی",
    "Region": "North Eastern Region"
   },
   "geometry": {
    "x": 7702555.9281026134,
    "y": 4450868.021875238
   }
  },
  {
   "attributes": {
    "OBJECTID": 3810,
    "ولایت": "هرات",
    "Province": "HERAT",
    "PC_Code": "3207181",
    "District": "KUSHK (RUBAT-E-SANGI)",
    "د_مرکز_نوم__نام_مرکز": "مسجد قلعه سفید ایوبی",
    "Polling_Center_Name": "Qala-e- safed Ayoubi Mosque ",
    "د_مرکز_ځای__موقعیت_مرکز": " قلعه سفید ایوبی",
    "Polling_Center_Location": "Qala -e- Safid Ayoubi",
    "Map_Accuracy": "Building",
    "Map_Accuracy_Dari": "تعمیر",
    "Status": "Open",
    "Status_Dari": null,
    "PS_Male": 1,
    "PS_Female": 1,
    "PS_Total": 2,
    "ولسوالي": "کشک (رباط سنگی)",
    "Region": "Western Region"
   },
   "geometry": {
    "x": 6906835.0340730604,
    "y": 4141287.3696017289
   }
  },
  {
   "attributes": {
    "OBJECTID": 3811,
    "ولایت": "هرات",
    "Province": "HERAT",
    "PC_Code": "3208197",
    "District": "GULRAN",
    "د_مرکز_نوم__نام_مرکز": "مسجد آسیاب دیو",
    "Polling_Center_Name": "Asyab Deu Mosque ",
    "د_مرکز_ځای__موقعیت_مرکز": "قریه  آسیاب دیو",
    "Polling_Center_Location": "Asyab Deu Village ",
    "Map_Accuracy": "Village",
    "Map_Accuracy_Dari": "قریه",
    "Status": "Open",
    "Status_Dari": null,
    "PS_Male": 2,
    "PS_Female": 1,
    "PS_Total": 3,
    "ولسوالي": "گلران ",
    "Region": "Western Region"
   },
   "geometry": {
    "x": 6866900.7842231747,
    "y": 4153786.7241365146
   }
  },
  {
   "attributes": {
    "OBJECTID": 3812,
    "ولایت": "هرات",
    "Province": "HERAT",
    "PC_Code": "3208214",
    "District": "GULRAN",
    "د_مرکز_نوم__نام_مرکز": "مسجد درخت توت",
    "Polling_Center_Name": "Darakht-e- Toot  Mosque",
    "د_مرکز_ځای__موقعیت_مرکز": " درخت توت",
    "Polling_Center_Location": "Darakht-e- Tot",
    "Map_Accuracy": "Village",
    "Map_Accuracy_Dari": "قریه",
    "Status": "Open",
    "Status_Dari": null,
    "PS_Male": 2,
    "PS_Female": 1,
    "PS_Total": 3,
    "ولسوالي": "گلران ",
    "Region": "Western Region"
   },
   "geometry": {
    "x": 6833855.523249913,
    "y": 4197321.9389291592
   }
  },
  {
   "attributes": {
    "OBJECTID": 3813,
    "ولایت": "هرات",
    "Province": "HERAT",
    "PC_Code": "3208215",
    "District": "GULRAN",
    "د_مرکز_نوم__نام_مرکز": "کلینیک لهراب",
    "Polling_Center_Name": "Lahrab Clinic",
    "د_مرکز_ځای__موقعیت_مرکز": " لهراب",
    "Polling_Center_Location": "Lahrab",
    "Map_Accuracy": "Village",
    "Map_Accuracy_Dari": "قریه",
    "Status": "Open",
    "Status_Dari": null,
    "PS_Male": 1,
    "PS_Female": 1,
    "PS_Total": 2,
    "ولسوالي": "گلران ",
    "Region": "Western Region"
   },
   "geometry": {
    "x": 6841517.8809117265,
    "y": 4209453.9347007759
   }
  },
  {
   "attributes": {
    "OBJECTID": 3814,
    "ولایت": "هرات",
    "Province": "HERAT",
    "PC_Code": "3209281",
    "District": "ADRASKAN",
    "د_مرکز_نوم__نام_مرکز": "مسجد کارتون",
    "Polling_Center_Name": "Kartoon Mosque ",
    "د_مرکز_ځای__موقعیت_مرکز": " کارتون",
    "Polling_Center_Location": "Kartoon ",
    "Map_Accuracy": "Building",
    "Map_Accuracy_Dari": "تعمیر",
    "Status": "Open",
    "Status_Dari": null,
    "PS_Male": 1,
    "PS_Female": 1,
    "PS_Total": 2,
    "ولسوالي": "ادرسکن ",
    "Region": "Western Region"
   },
   "geometry": {
    "x": 6971971.2763639325,
    "y": 4002906.4798006495
   }
  },
  {
   "attributes": {
    "OBJECTID": 3815,
    "ولایت": "هرات",
    "Province": "HERAT",
    "PC_Code": "3209282",
    "District": "ADRASKAN",
    "د_مرکز_نوم__نام_مرکز": "مسجد هامش افغانی",
    "Polling_Center_Name": "Hamsh Afghani Mosque ",
    "د_مرکز_ځای__موقعیت_مرکز": "قریه هامش",
    "Polling_Center_Location": "Hamsh Village ",
    "Map_Accuracy": "Village",
    "Map_Accuracy_Dari": "قریه",
    "Status": "Open",
    "Status_Dari": null,
    "PS_Male": 1,
    "PS_Female": 1,
    "PS_Total": 2,
    "ولسوالي": "ادرسکن ",
    "Region": "Western Region"
   },
   "geometry": {
    "x": 6982766.8958657216,
    "y": 3962305.4861942395
   }
  },
  {
   "attributes": {
    "OBJECTID": 3816,
    "ولایت": "هرات",
    "Province": "HERAT",
    "PC_Code": "3210405",
    "District": "KUSHK-E-KUHNA",
    "د_مرکز_نوم__نام_مرکز": "مسجد بازار کهنه",
    "Polling_Center_Name": "Bazar-e- Kuhna Mosque",
    "د_مرکز_ځای__موقعیت_مرکز": "بازار کهنه ",
    "Polling_Center_Location": "Bazar-e- Kuhna ",
    "Map_Accuracy": "Building",
    "Map_Accuracy_Dari": "تعمیر",
    "Status": "Open",
    "Status_Dari": null,
    "PS_Male": 6,
    "PS_Female": 1,
    "PS_Total": 7,
    "ولسوالي": "کشک کهنه ",
    "Region": "Western Region"
   },
   "geometry": {
    "x": 6958380.3309399411,
    "y": 4146434.0583228562
   }
  },
  {
   "attributes": {
    "OBJECTID": 3817,
    "ولایت": "هرات",
    "Province": "HERAT",
    "PC_Code": "3211245",
    "District": "GHORYAN",
    "د_مرکز_نوم__نام_مرکز": "مکتب دخترانه",
    "Polling_Center_Name": "Girls School ",
    "د_مرکز_ځای__موقعیت_مرکز": "مرکز ولسوالی سرک شفاخانه ",
    "Polling_Center_Location": "District Center Hospitol Road",
    "Map_Accuracy": "Building",
    "Map_Accuracy_Dari": "تعمیر",
    "Status": "Open",
    "Status_Dari": null,
    "PS_Male": 4,
    "PS_Female": 1,
    "PS_Total": 5,
    "ولسوالي": "غوریان ",
    "Region": "Western Region"
   },
   "geometry": {
    "x": 6845162.091422081,
    "y": 4075517.9857220715
   }
  },
  {
   "attributes": {
    "OBJECTID": 3818,
    "ولایت": "هرات",
    "Province": "HERAT",
    "PC_Code": "3211250",
    "District": "GHORYAN",
    "د_مرکز_نوم__نام_مرکز": "مسجد جامع برنآباد مردانه",
    "Polling_Center_Name": "Barna Abad Mardana Mosque",
    "د_مرکز_ځای__موقعیت_مرکز": "قریه برنآباد",
    "Polling_Center_Location": "Barnabad Village",
    "Map_Accuracy": "Building",
    "Map_Accuracy_Dari": "تعمیر",
    "Status": "Open",
    "Status_Dari": null,
    "PS_Male": 2,
    "PS_Female": 0,
    "PS_Total": 2,
    "ولسوالي": "غوریان ",
    "Region": "Western Region"
   },
   "geometry": {
    "x": 6856128.8067548322,
    "y": 4080160.5331960549
   }
  },
  {
   "attributes": {
    "OBJECTID": 3819,
    "ولایت": "هرات",
    "Province": "HERAT",
    "PC_Code": "3211251",
    "District": "GHORYAN",
    "د_مرکز_نوم__نام_مرکز": "مسجد جامع روج",
    "Polling_Center_Name": "Rooj  Mosque",
    "د_مرکز_ځای__موقعیت_مرکز": "قریه روج",
    "Polling_Center_Location": "Rooj Village",
    "Map_Accuracy": "Building",
    "Map_Accuracy_Dari": "تعمیر",
    "Status": "Open",
    "Status_Dari": null,
    "PS_Male": 2,
    "PS_Female": 1,
    "PS_Total": 3,
    "ولسوالي": "غوریان ",
    "Region": "Western Region"
   },
   "geometry": {
    "x": 6853692.6631884435,
    "y": 4084048.3131661266
   }
  },
  {
   "attributes": {
    "OBJECTID": 3820,
    "ولایت": "هرات",
    "Province": "HERAT",
    "PC_Code": "3212370",
    "District": "OBE",
    "د_مرکز_نوم__نام_مرکز": "مسجد جامع کرغوض",
    "Polling_Center_Name": "Kar Ghawz Mosque ",
    "د_مرکز_ځای__موقعیت_مرکز": "کر غوض ",
    "Polling_Center_Location": "Kar Ghawz",
    "Map_Accuracy": "Building",
    "Map_Accuracy_Dari": "تعمیر",
    "Status": "Open",
    "Status_Dari": null,
    "PS_Male": 2,
    "PS_Female": 1,
    "PS_Total": 3,
    "ولسوالي": "اوبه ",
    "Region": "Western Region"
   },
   "geometry": {
    "x": 7052941.5273279781,
    "y": 4079232.4092263128
   }
  },
  {
   "attributes": {
    "OBJECTID": 3821,
    "ولایت": "هرات",
    "Province": "HERAT",
    "PC_Code": "3212383",
    "District": "OBE",
    "د_مرکز_نوم__نام_مرکز": "مکتب چناران زنانه",
    "Polling_Center_Name": "Chenarana Girls School ",
    "د_مرکز_ځای__موقعیت_مرکز": "قریه چناران",
    "Polling_Center_Location": "Chenaran Village",
    "Map_Accuracy": "Building",
    "Map_Accuracy_Dari": "تعمیر",
    "Status": "Open",
    "Status_Dari": null,
    "PS_Male": 0,
    "PS_Female": 3,
    "PS_Total": 3,
    "ولسوالي": "اوبه ",
    "Region": "Western Region"
   },
   "geometry": {
    "x": 7012125.2308136225,
    "y": 4063885.7289765244
   }
  },
  {
   "attributes": {
    "OBJECTID": 3822,
    "ولایت": "هرات",
    "Province": "HERAT",
    "PC_Code": "3212384",
    "District": "OBE",
    "د_مرکز_نوم__نام_مرکز": "مکتب پسرانه ناب",
    "Polling_Center_Name": "Nab Boys School ",
    "د_مرکز_ځای__موقعیت_مرکز": "ناب ",
    "Polling_Center_Location": "Nab ",
    "Map_Accuracy": "Village",
    "Map_Accuracy_Dari": "قریه",
    "Status": "Open",
    "Status_Dari": null,
    "PS_Male": 2,
    "PS_Female": 1,
    "PS_Total": 3,
    "ولسوالي": "اوبه ",
    "Region": "Western Region"
   },
   "geometry": {
    "x": 7041214.2839132966,
    "y": 4078039.2764245542
   }
  },
  {
   "attributes": {
    "OBJECTID": 3823,
    "ولایت": "هرات",
    "Province": "HERAT",
    "PC_Code": "3212388",
    "District": "OBE",
    "د_مرکز_نوم__نام_مرکز": "مکتب سرا پرده",
    "Polling_Center_Name": "Sara Pardah School ",
    "د_مرکز_ځای__موقعیت_مرکز": "سرا پرده ",
    "Polling_Center_Location": "Sara Pardah ",
    "Map_Accuracy": "Village",
    "Map_Accuracy_Dari": "قریه",
    "Status": "Open",
    "Status_Dari": null,
    "PS_Male": 1,
    "PS_Female": 1,
    "PS_Total": 2,
    "ولسوالي": "اوبه ",
    "Region": "Western Region"
   },
   "geometry": {
    "x": 7043036.7965978077,
    "y": 4077847.591859567
   }
  },
  {
   "attributes": {
    "OBJECTID": 3824,
    "ولایت": "هرات",
    "Province": "HERAT",
    "PC_Code": "3214299",
    "District": "SHINDAND",
    "د_مرکز_نوم__نام_مرکز": "صحت عامه",
    "Polling_Center_Name": "Public Health",
    "د_مرکز_ځای__موقعیت_مرکز": "تحت بازار",
    "Polling_Center_Location": "Takht-e-Bazar",
    "Map_Accuracy": "Building",
    "Map_Accuracy_Dari": "تعمیر",
    "Status": "Open",
    "Status_Dari": null,
    "PS_Male": 0,
    "PS_Female": 5,
    "PS_Total": 5,
    "ولسوالي": "شیندند",
    "Region": "Western Region"
   },
   "geometry": {
    "x": 6919695.2739066975,
    "y": 3936185.0035073431
   }
  },
  {
   "attributes": {
    "OBJECTID": 3825,
    "ولایت": "هرات",
    "Province": "HERAT",
    "PC_Code": "3215357",
    "District": "FERSI",
    "د_مرکز_نوم__نام_مرکز": "تعمیر شورای انکشافی",
    "Polling_Center_Name": "Shura-e- Ankishafi Building",
    "د_مرکز_ځای__موقعیت_مرکز": "قریه سفیدان ",
    "Polling_Center_Location": "Safidan Village ",
    "Map_Accuracy": "Village",
    "Map_Accuracy_Dari": "قریه",
    "Status": "Open",
    "Status_Dari": null,
    "PS_Male": 1,
    "PS_Female": 2,
    "PS_Total": 3,
    "ولسوالي": "فرسی ",
    "Region": "Western Region"
   },
   "geometry": {
    "x": 7049059.1565594357,
    "y": 4016023.5352954599
   }
  },
  {
   "attributes": {
    "OBJECTID": 3826,
    "ولایت": "هرات",
    "Province": "HERAT",
    "PC_Code": "3215358",
    "District": "FERSI",
    "د_مرکز_نوم__نام_مرکز": "مسجد دهن جر",
    "Polling_Center_Name": "Dahan-e-Jar Mosque ",
    "د_مرکز_ځای__موقعیت_مرکز": "دهن جر برپل ",
    "Polling_Center_Location": "Dahan Jar-e-Bar Pul ",
    "Map_Accuracy": "Village",
    "Map_Accuracy_Dari": "قریه",
    "Status": "Open",
    "Status_Dari": null,
    "PS_Male": 2,
    "PS_Female": 1,
    "PS_Total": 3,
    "ولسوالي": "فرسی ",
    "Region": "Western Region"
   },
   "geometry": {
    "x": 7053379.1598685225,
    "y": 4022914.3224102203
   }
  },
  {
   "attributes": {
    "OBJECTID": 3827,
    "ولایت": "هرات",
    "Province": "HERAT",
    "PC_Code": "3216402",
    "District": "CHISHT-E-SHARIF",
    "د_مرکز_نوم__نام_مرکز": "مسجد رغواجه",
    "Polling_Center_Name": "Rghwaja Mosque",
    "د_مرکز_ځای__موقعیت_مرکز": "رغواجه ",
    "Polling_Center_Location": "Rghwaja",
    "Map_Accuracy": "Building",
    "Map_Accuracy_Dari": "تعمیر",
    "Status": "Open",
    "Status_Dari": null,
    "PS_Male": 1,
    "PS_Female": 1,
    "PS_Total": 2,
    "ولسوالي": "چشت شریف",
    "Region": "Western Region"
   },
   "geometry": {
    "x": 7065064.4146844763,
    "y": 4078322.0649024379
   }
  },
  {
   "attributes": {
    "OBJECTID": 3828,
    "ولایت": "هرات",
    "Province": "HERAT",
    "PC_Code": "3216403",
    "District": "CHISHT-E-SHARIF",
    "د_مرکز_نوم__نام_مرکز": "فضای باز مسجد مرغه",
    "Polling_Center_Name": "Margha Mosque Open Space",
    "د_مرکز_ځای__موقعیت_مرکز": "مرغه ",
    "Polling_Center_Location": "Margha",
    "Map_Accuracy": "Village",
    "Map_Accuracy_Dari": "قریه",
    "Status": "Open",
    "Status_Dari": null,
    "PS_Male": 1,
    "PS_Female": 2,
    "PS_Total": 3,
    "ولسوالي": "چشت شریف",
    "Region": "Western Region"
   },
   "geometry": {
    "x": 7117042.2356404737,
    "y": 4070999.4875306077
   }
  },
  {
   "attributes": {
    "OBJECTID": 3829,
    "ولایت": " فراه",
    "Province": "FARAH",
    "PC_Code": "3301002",
    "District": "FARAH",
    "د_مرکز_نوم__نام_مرکز": " لیسه ابونصرفراهی",
    "Polling_Center_Name": "Abu Nasr Farahi High School",
    "د_مرکز_ځای__موقعیت_مرکز": "مرکز ( شهر فراه )",
    "Polling_Center_Location": "Farah City",
    "Map_Accuracy": "Building",
    "Map_Accuracy_Dari": "تعمیر",
    "Status": "Open",
    "Status_Dari": null,
    "PS_Male": 4,
    "PS_Female": 1,
    "PS_Total": 5,
    "ولسوالي": "فراه",
    "Region": "Western Region"
   },
   "geometry": {
    "x": 6915408.784443506,
    "y": 3812583.9609112935
   }
  },
  {
   "attributes": {
    "OBJECTID": 3830,
    "ولایت": " فراه",
    "Province": "FARAH",
    "PC_Code": "3301003",
    "District": "FARAH",
    "د_مرکز_نوم__نام_مرکز": "انستیتوت زراعت",
    "Polling_Center_Name": "Agriculture Institute",
    "د_مرکز_ځای__موقعیت_مرکز": "مرکز ( شهر فراه )",
    "Polling_Center_Location": "Farah City",
    "Map_Accuracy": "Building",
    "Map_Accuracy_Dari": "تعمیر",
    "Status": "Open",
    "Status_Dari": null,
    "PS_Male": 4,
    "PS_Female": 2,
    "PS_Total": 6,
    "ولسوالي": "فراه",
    "Region": "Western Region"
   },
   "geometry": {
    "x": 6913682.5074587846,
    "y": 3812599.877915699
   }
  },
  {
   "attributes": {
    "OBJECTID": 3831,
    "ولایت": " فراه",
    "Province": "FARAH",
    "PC_Code": "3301020",
    "District": "FARAH",
    "د_مرکز_نوم__نام_مرکز": "لیسه نسوان شهید بنفشه ",
    "Polling_Center_Name": "Shaheed Benafsha Girls High School",
    "د_مرکز_ځای__موقعیت_مرکز": "تویسک ",
    "Polling_Center_Location": "Towisak ",
    "Map_Accuracy": "Building",
    "Map_Accuracy_Dari": "تعمیر",
    "Status": "Open",
    "Status_Dari": null,
    "PS_Male": 3,
    "PS_Female": 1,
    "PS_Total": 4,
    "ولسوالي": "فراه",
    "Region": "Western Region"
   },
   "geometry": {
    "x": 6901031.2432524348,
    "y": 3790622.396103886
   }
  },
  {
   "attributes": {
    "OBJECTID": 3832,
    "ولایت": " فراه",
    "Province": "FARAH",
    "PC_Code": "3301021",
    "District": "FARAH",
    "د_مرکز_نوم__نام_مرکز": "مسجد کوک شیب",
    "Polling_Center_Name": "Kok Sheeb Mosque",
    "د_مرکز_ځای__موقعیت_مرکز": "کوک شیب",
    "Polling_Center_Location": "Kok Sheeb",
    "Map_Accuracy": "Building",
    "Map_Accuracy_Dari": "تعمیر",
    "Status": "Open",
    "Status_Dari": null,
    "PS_Male": 3,
    "PS_Female": 1,
    "PS_Total": 4,
    "ولسوالي": "فراه",
    "Region": "Western Region"
   },
   "geometry": {
    "x": 6898849.9077740759,
    "y": 3792399.1527834097
   }
  },
  {
   "attributes": {
    "OBJECTID": 3833,
    "ولایت": " فراه",
    "Province": "FARAH",
    "PC_Code": "3301025",
    "District": "FARAH",
    "د_مرکز_نوم__نام_مرکز": "مکتب متوسطه ",
    "Polling_Center_Name": "Secondary School",
    "د_مرکز_ځای__موقعیت_مرکز": "ریگی کلان مکتب متوسطه ",
    "Polling_Center_Location": "Regi Kalan",
    "Map_Accuracy": "Building",
    "Map_Accuracy_Dari": "تعمیر",
    "Status": "Open",
    "Status_Dari": null,
    "PS_Male": 2,
    "PS_Female": 2,
    "PS_Total": 4,
    "ولسوالي": "فراه",
    "Region": "Western Region"
   },
   "geometry": {
    "x": 6914951.8524428466,
    "y": 3817348.6003181715
   }
  },
  {
   "attributes": {
    "OBJECTID": 3834,
    "ولایت": " فراه",
    "Province": "FARAH",
    "PC_Code": "3302049",
    "District": "PUSHTRUD",
    "د_مرکز_نوم__نام_مرکز": "مسجد خطیبان ",
    "Polling_Center_Name": "Khatiban Mosque ",
    "د_مرکز_ځای__موقعیت_مرکز": "قریه خطیبان ",
    "Polling_Center_Location": "Khatiban Village ",
    "Map_Accuracy": "Building",
    "Map_Accuracy_Dari": "تعمیر",
    "Status": "Open",
    "Status_Dari": null,
    "PS_Male": 2,
    "PS_Female": 1,
    "PS_Total": 3,
    "ولسوالي": "پشت رود",
    "Region": "Western Region"
   },
   "geometry": {
    "x": 6909539.3999487683,
    "y": 3819682.2172505939
   }
  },
  {
   "attributes": {
    "OBJECTID": 3835,
    "ولایت": " فراه",
    "Province": "FARAH",
    "PC_Code": "3305090",
    "District": "SHIB KOH",
    "د_مرکز_نوم__نام_مرکز": "لیسه دوره جوی",
    "Polling_Center_Name": "Dawra Joy High School ",
    "د_مرکز_ځای__موقعیت_مرکز": "لیسه دوره جوی",
    "Polling_Center_Location": "Dawra Joy ",
    "Map_Accuracy": "Building",
    "Map_Accuracy_Dari": "تعمیر",
    "Status": "Open",
    "Status_Dari": null,
    "PS_Male": 1,
    "PS_Female": 1,
    "PS_Total": 2,
    "ولسوالي": "شیب کوه ",
    "Region": "Western Region"
   },
   "geometry": {
    "x": 6885017.7385795163,
    "y": 3786340.6130080167
   }
  },
  {
   "attributes": {
    "OBJECTID": 3836,
    "ولایت": " فراه",
    "Province": "FARAH",
    "PC_Code": "3305091",
    "District": "SHIB KOH",
    "د_مرکز_نوم__نام_مرکز": "مکتب ابتدائیه",
    "Polling_Center_Name": "Ilyas Abad Primary School ",
    "د_مرکز_ځای__موقعیت_مرکز": "الیاس باد",
    "Polling_Center_Location": "Ilyas Abad",
    "Map_Accuracy": "Building",
    "Map_Accuracy_Dari": "تعمیر",
    "Status": "Open",
    "Status_Dari": null,
    "PS_Male": 2,
    "PS_Female": 1,
    "PS_Total": 3,
    "ولسوالي": "شیب کوه ",
    "Region": "Western Region"
   },
   "geometry": {
    "x": 6888916.0770158228,
    "y": 3785118.1144463094
   }
  },
  {
   "attributes": {
    "OBJECTID": 3837,
    "ولایت": " فراه",
    "Province": "FARAH",
    "PC_Code": "3311197",
    "District": "PUR CHAMAN",
    "د_مرکز_نوم__نام_مرکز": "مسجد برفشار",
    "Polling_Center_Name": "Barfshar Mosque  ",
    "د_مرکز_ځای__موقعیت_مرکز": " برفشار",
    "Polling_Center_Location": "Barfshar ",
    "Map_Accuracy": "Building",
    "Map_Accuracy_Dari": "تعمیر",
    "Status": "Open",
    "Status_Dari": null,
    "PS_Male": 1,
    "PS_Female": 1,
    "PS_Total": 2,
    "ولسوالي": "پرچمن",
    "Region": "Western Region"
   },
   "geometry": {
    "x": 7082177.7748507438,
    "y": 3897230.1838400825
   }
  },
  {
   "attributes": {
    "OBJECTID": 3838,
    "ولایت": " فراه",
    "Province": "FARAH",
    "PC_Code": "3311198",
    "District": "PUR CHAMAN",
    "د_مرکز_نوم__نام_مرکز": " مسجد کوت",
    "Polling_Center_Name": "Kot Mosque  ",
    "د_مرکز_ځای__موقعیت_مرکز": " کوت",
    "Polling_Center_Location": "Kot ",
    "Map_Accuracy": "Building",
    "Map_Accuracy_Dari": "تعمیر",
    "Status": "Open",
    "Status_Dari": null,
    "PS_Male": 1,
    "PS_Female": 1,
    "PS_Total": 2,
    "ولسوالي": "پرچمن",
    "Region": "Western Region"
   },
   "geometry": {
    "x": 7137836.670879662,
    "y": 3928201.7158798375
   }
  },
  {
   "attributes": {
    "OBJECTID": 3839,
    "ولایت": " فراه",
    "Province": "FARAH",
    "PC_Code": "3311245",
    "District": "PUR CHAMAN",
    "د_مرکز_نوم__نام_مرکز": "مسجد قریه وال",
    "Polling_Center_Name": "Wal Village Mosque ",
    "د_مرکز_ځای__موقعیت_مرکز": "قریه وال",
    "Polling_Center_Location": "Wal Village",
    "Map_Accuracy": "Building",
    "Map_Accuracy_Dari": "تعمیر",
    "Status": "Open",
    "Status_Dari": null,
    "PS_Male": 2,
    "PS_Female": 1,
    "PS_Total": 3,
    "ولسوالي": "پرچمن ",
    "Region": "Western Region"
   },
   "geometry": {
    "x": 7111382.1805463573,
    "y": 3877617.0721578132
   }
  },
  {
   "attributes": {
    "OBJECTID": 3840,
    "ولایت": "نيمروز",
    "Province": "NIMROZ",
    "PC_Code": "3401001",
    "District": "ZARANJ",
    "د_مرکز_نوم__نام_مرکز": "لیسه استقلال",
    "Polling_Center_Name": "Estiqlal High School ",
    "د_مرکز_ځای__موقعیت_مرکز": "زرنج ",
    "Polling_Center_Location": "Zaranj ",
    "Map_Accuracy": "Building",
    "Map_Accuracy_Dari": "تعمیر",
    "Status": "Open",
    "Status_Dari": null,
    "PS_Male": 4,
    "PS_Female": 2,
    "PS_Total": 6,
    "ولسوالي": " زرنج",
    "Region": "Southern Region"
   },
   "geometry": {
    "x": 6887753.9516257122,
    "y": 3628288.5127286995
   }
  },
  {
   "attributes": {
    "OBJECTID": 3841,
    "ولایت": "نيمروز",
    "Province": "NIMROZ",
    "PC_Code": "3401005",
    "District": "ZARANJ",
    "د_مرکز_نوم__نام_مرکز": "لیسه فرخی",
    "Polling_Center_Name": "Farkhi High School ",
    "د_مرکز_ځای__موقعیت_مرکز": "زرنج ",
    "Polling_Center_Location": "Zaranj ",
    "Map_Accuracy": "Building",
    "Map_Accuracy_Dari": "تعمیر",
    "Status": "Open",
    "Status_Dari": null,
    "PS_Male": 4,
    "PS_Female": 2,
    "PS_Total": 6,
    "ولسوالي": " زرنج",
    "Region": "Southern Region"
   },
   "geometry": {
    "x": 6886009.4939417513,
    "y": 3626883.8294615345
   }
  },
  {
   "attributes": {
    "OBJECTID": 3842,
    "ولایت": "نيمروز",
    "Province": "NIMROZ",
    "PC_Code": "3401006",
    "District": "ZARANJ",
    "د_مرکز_نوم__نام_مرکز": "مکتب ابتدایی زرنج",
    "Polling_Center_Name": "Zaranj Primary School ",
    "د_مرکز_ځای__موقعیت_مرکز": "زرنج ",
    "Polling_Center_Location": "Zaranj ",
    "Map_Accuracy": "Building",
    "Map_Accuracy_Dari": "تعمیر",
    "Status": "Open",
    "Status_Dari": null,
    "PS_Male": 3,
    "PS_Female": 2,
    "PS_Total": 5,
    "ولسوالي": " زرنج",
    "Region": "Southern Region"
   },
   "geometry": {
    "x": 6889466.8101590127,
    "y": 3626887.8820548821
   }
  },
  {
   "attributes": {
    "OBJECTID": 3843,
    "ولایت": "نيمروز",
    "Province": "NIMROZ",
    "PC_Code": "3403029",
    "District": "ASL-E-CHAKHANSUR",
    "د_مرکز_نوم__نام_مرکز": "مکتب جدید",
    "Polling_Center_Name": "New School ",
    "د_مرکز_ځای__موقعیت_مرکز": " چخانسور",
    "Polling_Center_Location": "Chakhan Soor ",
    "Map_Accuracy": "Building",
    "Map_Accuracy_Dari": "تعمیر",
    "Status": "Open",
    "Status_Dari": null,
    "PS_Male": 2,
    "PS_Female": 2,
    "PS_Total": 4,
    "ولسوالي": "اصل چغانسور",
    "Region": "Southern Region"
   },
   "geometry": {
    "x": 6909059.9722827636,
    "y": 3655685.5152631551
   }
  },
  {
   "attributes": {
    "OBJECTID": 3844,
    "ولایت": "نيمروز",
    "Province": "NIMROZ",
    "PC_Code": "3403030",
    "District": "ASL-E-CHAKHANSUR",
    "د_مرکز_نوم__نام_مرکز": "منزل شخصی خواجه سور جو",
    "Polling_Center_Name": "Khwaja Surjo House ",
    "د_مرکز_ځای__موقعیت_مرکز": " خواجه سور جو",
    "Polling_Center_Location": "Khwaja Surjo",
    "Map_Accuracy": "Building",
    "Map_Accuracy_Dari": "تعمیر",
    "Status": "Open",
    "Status_Dari": null,
    "PS_Male": 2,
    "PS_Female": 1,
    "PS_Total": 3,
    "ولسوالي": "اصل چغانسور",
    "Region": "Southern Region"
   },
   "geometry": {
    "x": 6937992.722798612,
    "y": 3676332.7824967708
   }
  },
  {
   "attributes": {
    "OBJECTID": 3845,
    "ولایت": "نيمروز",
    "Province": "NIMROZ",
    "PC_Code": "3404026",
    "District": "CHAR BURJAK",
    "د_مرکز_نوم__نام_مرکز": "منزل حاجی  عید محمد",
    "Polling_Center_Name": "Haji Eid Mohammad House ",
    "د_مرکز_ځای__موقعیت_مرکز": " رباط",
    "Polling_Center_Location": "Rubat ",
    "Map_Accuracy": "Village",
    "Map_Accuracy_Dari": "قریه",
    "Status": "Open",
    "Status_Dari": null,
    "PS_Male": 2,
    "PS_Female": 1,
    "PS_Total": 3,
    "ولسوالي": "چهار برجک",
    "Region": "Southern Region"
   },
   "geometry": {
    "x": 6878130.6232099291,
    "y": 3539465.437207093
   }
  },
  {
   "attributes": {
    "OBJECTID": 3846,
    "ولایت": "کابل",
    "Province": "KABUL",
    "PC_Code": "0101005",
    "District": "KABUL-D01",
    "د_مرکز_نوم__نام_مرکز": " مسجد پخته فروشی",
    "Polling_Center_Name": "Pakhta Froshi Mosque",
    "د_مرکز_ځای__موقعیت_مرکز": "کوچه پخته فروشي",
    "Polling_Center_Location": "Pakhta Froshi Street",
    "Map_Accuracy": "Building",
    "Map_Accuracy_Dari": "تعمیر",
    "Status": "Open",
    "Status_Dari": null,
    "PS_Male": 2,
    "PS_Female": 3,
    "PS_Total": 5,
    "ولسوالي": "کابل - ناحیه 01",
    "Region": "Central Region"
   },
   "geometry": {
    "x": 7698410.3490772648,
    "y": 4099725.8427452645
   }
  },
  {
   "attributes": {
    "OBJECTID": 3847,
    "ولایت": "کابل",
    "Province": "KABUL",
    "PC_Code": "0101044",
    "District": "KABUL-D03",
    "د_مرکز_نوم__نام_مرکز": " مسجد کارته مامورين",
    "Polling_Center_Name": "Karte Mamorin Mosque",
    "د_مرکز_ځای__موقعیت_مرکز": "کارته مامورين",
    "Polling_Center_Location": "Kart-e-Mamorin",
    "Map_Accuracy": "Building",
    "Map_Accuracy_Dari": "تعمیر",
    "Status": "Open",
    "Status_Dari": null,
    "PS_Male": 3,
    "PS_Female": 2,
    "PS_Total": 5,
    "ولسوالي": "کابل - ناحیه 03",
    "Region": "Central Region"
   },
   "geometry": {
    "x": 7694759.1977966605,
    "y": 4100243.9164790991
   }
  },
  {
   "attributes": {
    "OBJECTID": 3848,
    "ولایت": "کابل",
    "Province": "KABUL",
    "PC_Code": "0101045",
    "District": "KABUL-D03",
    "د_مرکز_نوم__نام_مرکز": "پوهنځي حقوق",
    "Polling_Center_Name": "Law Faculty ",
    "د_مرکز_ځای__موقعیت_مرکز": "پوهنتون کابل",
    "Polling_Center_Location": "Kabul University",
    "Map_Accuracy": "Building",
    "Map_Accuracy_Dari": "تعمیر",
    "Status": "Open",
    "Status_Dari": null,
    "PS_Male": 3,
    "PS_Female": 2,
    "PS_Total": 5,
    "ولسوالي": "کابل - ناحیه 03",
    "Region": "Central Region"
   },
   "geometry": {
    "x": 7695831.8379009003,
    "y": 4098574.314950957
   }
  },
  {
   "attributes": {
    "OBJECTID": 3849,
    "ولایت": "کابل",
    "Province": "KABUL",
    "PC_Code": "0101063",
    "District": "KABUL-D04",
    "د_مرکز_نوم__نام_مرکز": " ليسه جمهوريت",
    "Polling_Center_Name": "Jamhuriat High School",
    "د_مرکز_ځای__موقعیت_مرکز": "سالنگ وات",
    "Polling_Center_Location": "Salang Watt",
    "Map_Accuracy": "Building",
    "Map_Accuracy_Dari": "تعمیر",
    "Status": "Open",
    "Status_Dari": null,
    "PS_Male": 4,
    "PS_Female": 3,
    "PS_Total": 7,
    "ولسوالي": "کابل - ناحیه 04",
    "Region": "Central Region"
   },
   "geometry": {
    "x": 7699525.3284366336,
    "y": 4099598.0778074055
   }
  },
  {
   "attributes": {
    "OBJECTID": 3850,
    "ولایت": "کابل",
    "Province": "KABUL",
    "PC_Code": "0101064",
    "District": "KABUL-D04",
    "د_مرکز_نوم__نام_مرکز": " مکتب محمد صدیق  فرهنگ",
    "Polling_Center_Name": "Mohmmad Sediq Farhang School",
    "د_مرکز_ځای__موقعیت_مرکز": "شهرک پوليس",
    "Polling_Center_Location": "Shahrak Police",
    "Map_Accuracy": "Building",
    "Map_Accuracy_Dari": "تعمیر",
    "Status": "Open",
    "Status_Dari": null,
    "PS_Male": 4,
    "PS_Female": 3,
    "PS_Total": 7,
    "ولسوالي": "کابل - ناحیه 04",
    "Region": "Central Region"
   },
   "geometry": {
    "x": 7696467.4432502603,
    "y": 4104320.7347236103
   }
  },
  {
   "attributes": {
    "OBJECTID": 3851,
    "ولایت": "کابل",
    "Province": "KABUL",
    "PC_Code": "0101083",
    "District": "KABUL-D05",
    "د_مرکز_نوم__نام_مرکز": "مسجد حضرت عثمان",
    "Polling_Center_Name": "Hazrat Usman Mosque",
    "د_مرکز_ځای__موقعیت_مرکز": "قريه فاضل بيک",
    "Polling_Center_Location": "Fazal Big Village",
    "Map_Accuracy": "Building",
    "Map_Accuracy_Dari": "تعمیر",
    "Status": "Open",
    "Status_Dari": null,
    "PS_Male": 2,
    "PS_Female": 1,
    "PS_Total": 3,
    "ولسوالي": "کابل - ناحیه 05",
    "Region": "Central Region"
   },
   "geometry": {
    "x": 7687897.9308128245,
    "y": 4099253.6582815694
   }
  },
  {
   "attributes": {
    "OBJECTID": 3852,
    "ولایت": "کابل",
    "Province": "KABUL",
    "PC_Code": "0101084",
    "District": "KABUL-D05",
    "د_مرکز_نوم__نام_مرکز": " مسجد جامع حاجی یعقوب",
    "Polling_Center_Name": "Haji Yaqoob Mosque",
    "د_مرکز_ځای__موقعیت_مرکز": "قريه نياز بيک",
    "Polling_Center_Location": "Niaz Big Village",
    "Map_Accuracy": "Building",
    "Map_Accuracy_Dari": "تعمیر",
    "Status": "Open",
    "Status_Dari": null,
    "PS_Male": 1,
    "PS_Female": 2,
    "PS_Total": 3,
    "ولسوالي": "کابل - ناحیه 05",
    "Region": "Central Region"
   },
   "geometry": {
    "x": 7691357.7695297478,
    "y": 4098752.2780220639
   }
  },
  {
   "attributes": {
    "OBJECTID": 3853,
    "ولایت": "کابل",
    "Province": "KABUL",
    "PC_Code": "0101122",
    "District": "KABUL-D06",
    "د_مرکز_نوم__نام_مرکز": " مسجد محمديه",
    "Polling_Center_Name": "Mohammadia Mosque",
    "د_مرکز_ځای__موقعیت_مرکز": "کارته سه",
    "Polling_Center_Location": "Kart-e-3",
    "Map_Accuracy": "Building",
    "Map_Accuracy_Dari": "تعمیر",
    "Status": "Open",
    "Status_Dari": null,
    "PS_Male": 3,
    "PS_Female": 2,
    "PS_Total": 5,
    "ولسوالي": "کابل - ناحیه 06",
    "Region": "Central Region"
   },
   "geometry": {
    "x": 7696301.5527186915,
    "y": 4095493.5506876479
   }
  },
  {
   "attributes": {
    "OBJECTID": 3854,
    "ولایت": "کابل",
    "Province": "KABUL",
    "PC_Code": "0101142",
    "District": "KABUL-D07",
    "د_مرکز_نوم__نام_مرکز": " مسجد عيد گاه",
    "Polling_Center_Name": "Eidgah Mosque",
    "د_مرکز_ځای__موقعیت_مرکز": " چهلستون",
    "Polling_Center_Location": "Chehel Seton",
    "Map_Accuracy": "Building",
    "Map_Accuracy_Dari": "تعمیر",
    "Status": "Open",
    "Status_Dari": null,
    "PS_Male": 2,
    "PS_Female": 1,
    "PS_Total": 3,
    "ولسوالي": "کابل - ناحیه 07",
    "Region": "Central Region"
   },
   "geometry": {
    "x": 7698940.4792091008,
    "y": 4091009.796486048
   }
  },
  {
   "attributes": {
    "OBJECTID": 3855,
    "ولایت": "کابل",
    "Province": "KABUL",
    "PC_Code": "0101143",
    "District": "KABUL-D07",
    "د_مرکز_نوم__نام_مرکز": " لیسه عالی آقا علی شمس",
    "Polling_Center_Name": "Aqa Ali Shams High School",
    "د_مرکز_ځای__موقعیت_مرکز": "آقا علي شمس چهلستون",
    "Polling_Center_Location": "Aqa Ali Shams, Chehel Seton",
    "Map_Accuracy": "Building",
    "Map_Accuracy_Dari": "تعمیر",
    "Status": "Open",
    "Status_Dari": null,
    "PS_Male": 3,
    "PS_Female": 4,
    "PS_Total": 7,
    "ولسوالي": "کابل - ناحیه 07",
    "Region": "Central Region"
   },
   "geometry": {
    "x": 7698297.1594190272,
    "y": 4093482.4131301767
   }
  },
  {
   "attributes": {
    "OBJECTID": 3856,
    "ولایت": "کابل",
    "Province": "KABUL",
    "PC_Code": "0101159",
    "District": "KABUL-D08",
    "د_مرکز_نوم__نام_مرکز": "مسجد زاخیل و مهمند",
    "Polling_Center_Name": "ZaKhel and Mohmand Mosque",
    "د_مرکز_ځای__موقعیت_مرکز": "کارته نو",
    "Polling_Center_Location": "Kart-e-Naw",
    "Map_Accuracy": "Building",
    "Map_Accuracy_Dari": "تعمیر",
    "Status": "Open",
    "Status_Dari": null,
    "PS_Male": 3,
    "PS_Female": 2,
    "PS_Total": 5,
    "ولسوالي": "کابل - ناحیه 08",
    "Region": "Central Region"
   },
   "geometry": {
    "x": 7708280.3436735235,
    "y": 4095707.1317549357
   }
  },
  {
   "attributes": {
    "OBJECTID": 3857,
    "ولایت": "کابل",
    "Province": "KABUL",
    "PC_Code": "0101184",
    "District": "KABUL-D09",
    "د_مرکز_نوم__نام_مرکز": " ليسه عبدالهادي داوي",
    "Polling_Center_Name": "Abdul Hadi Dawi High School",
    "د_مرکز_ځای__موقعیت_مرکز": "مکروريان سوم",
    "Polling_Center_Location": "3rd Makrorian",
    "Map_Accuracy": "Building",
    "Map_Accuracy_Dari": "تعمیر",
    "Status": "Open",
    "Status_Dari": null,
    "PS_Male": 3,
    "PS_Female": 3,
    "PS_Total": 6,
    "ولسوالي": "کابل - ناحیه 09",
    "Region": "Central Region"
   },
   "geometry": {
    "x": 7702899.8774992926,
    "y": 4101249.0242036325
   }
  },
  {
   "attributes": {
    "OBJECTID": 3858,
    "ولایت": "کابل",
    "Province": "KABUL",
    "PC_Code": "0101185",
    "District": "KABUL-D09",
    "د_مرکز_نوم__نام_مرکز": " ليسه پل چرخي",
    "Polling_Center_Name": "Pul-e-Charkhi High School",
    "د_مرکز_ځای__موقعیت_مرکز": "پل چرخي",
    "Polling_Center_Location": "Pul-e-Charkhi",
    "Map_Accuracy": "Building",
    "Map_Accuracy_Dari": "تعمیر",
    "Status": "Open",
    "Status_Dari": null,
    "PS_Male": 3,
    "PS_Female": 4,
    "PS_Total": 7,
    "ولسوالي": "کابل - ناحیه 09",
    "Region": "Central Region"
   },
   "geometry": {
    "x": 7721066.7753451811,
    "y": 4103804.153325683
   }
  },
  {
   "attributes": {
    "OBJECTID": 3859,
    "ولایت": "کابل",
    "Province": "KABUL",
    "PC_Code": "0101209",
    "District": "KABUL-D10",
    "د_مرکز_نوم__نام_مرکز": " مسجد حضرت داود",
    "Polling_Center_Name": "Hazrat Dawod Mosque",
    "د_مرکز_ځای__موقعیت_مرکز": "قلعه چمن",
    "Polling_Center_Location": "Qala-e-Chaman",
    "Map_Accuracy": "Building",
    "Map_Accuracy_Dari": "تعمیر",
    "Status": "Open",
    "Status_Dari": null,
    "PS_Male": 1,
    "PS_Female": 1,
    "PS_Total": 2,
    "ولسوالي": "کابل - ناحیه 10",
    "Region": "Central Region"
   },
   "geometry": {
    "x": 7703459.486145488,
    "y": 4103728.3122655628
   }
  },
  {
   "attributes": {
    "OBJECTID": 3860,
    "ولایت": "کابل",
    "Province": "KABUL",
    "PC_Code": "0101210",
    "District": "KABUL-D10",
    "د_مرکز_نوم__نام_مرکز": " مسجد قلعه چمن",
    "Polling_Center_Name": "Qala e Chaman Mosque",
    "د_مرکز_ځای__موقعیت_مرکز": "قلعه چمن",
    "Polling_Center_Location": "Qala-e-Chaman",
    "Map_Accuracy": "Building",
    "Map_Accuracy_Dari": "تعمیر",
    "Status": "Open",
    "Status_Dari": null,
    "PS_Male": 1,
    "PS_Female": 1,
    "PS_Total": 2,
    "ولسوالي": "کابل - ناحیه 10",
    "Region": "Central Region"
   },
   "geometry": {
    "x": 7702931.302991543,
    "y": 4104145.3477787129
   }
  },
  {
   "attributes": {
    "OBJECTID": 3861,
    "ولایت": "کابل",
    "Province": "KABUL",
    "PC_Code": "0101230",
    "District": "KABUL-D11",
    "د_مرکز_نوم__نام_مرکز": "شرکت  نقليه افسوتر",
    "Polling_Center_Name": "Sharkat Naqleya Affsotar",
    "د_مرکز_ځای__موقعیت_مرکز": "ده کيپک ",
    "Polling_Center_Location": "Deh Kepak",
    "Map_Accuracy": "Building",
    "Map_Accuracy_Dari": "تعمیر",
    "Status": "Open",
    "Status_Dari": null,
    "PS_Male": 3,
    "PS_Female": 4,
    "PS_Total": 7,
    "ولسوالي": "کابل - ناحیه 11",
    "Region": "Central Region"
   },
   "geometry": {
    "x": 7694536.1680836603,
    "y": 4105074.097036737
   }
  },
  {
   "attributes": {
    "OBJECTID": 3862,
    "ولایت": "کابل",
    "Province": "KABUL",
    "PC_Code": "0101231",
    "District": "KABUL-D11",
    "د_مرکز_نوم__نام_مرکز": " سينما خير خانه",
    "Polling_Center_Name": "Khair Khana Cinema",
    "د_مرکز_ځای__موقعیت_مرکز": "گولايي سينما",
    "Polling_Center_Location": "Golaye-e-Cinama",
    "Map_Accuracy": "Building",
    "Map_Accuracy_Dari": "تعمیر",
    "Status": "Open",
    "Status_Dari": null,
    "PS_Male": 2,
    "PS_Female": 2,
    "PS_Total": 4,
    "ولسوالي": "کابل - ناحیه 11",
    "Region": "Central Region"
   },
   "geometry": {
    "x": 7697048.8961201301,
    "y": 4105868.3257770389
   }
  },
  {
   "attributes": {
    "OBJECTID": 3863,
    "ولایت": "کابل",
    "Province": "KABUL",
    "PC_Code": "0101495",
    "District": "KABUL-D11",
    "د_مرکز_نوم__نام_مرکز": " مسجد پنج پیران ",
    "Polling_Center_Name": "Panj Peeran Mosque",
    "د_مرکز_ځای__موقعیت_مرکز": "پروژه ۳۱۵ ",
    "Polling_Center_Location": "Proja-e-315",
    "Map_Accuracy": "Building",
    "Map_Accuracy_Dari": "تعمیر",
    "Status": "Open",
    "Status_Dari": null,
    "PS_Male": 3,
    "PS_Female": 1,
    "PS_Total": 4,
    "ولسوالي": "کابل - ناحیه 11",
    "Region": "Central Region"
   },
   "geometry": {
    "x": 7697513.0371710192,
    "y": 4108016.5921770665
   }
  },
  {
   "attributes": {
    "OBJECTID": 3864,
    "ولایت": "کابل",
    "Province": "KABUL",
    "PC_Code": "0101264",
    "District": "KABUL-D13",
    "د_مرکز_نوم__نام_مرکز": "مدرسه مهدويه",
    "Polling_Center_Name": "Mahdawia Madrassa",
    "د_مرکز_ځای__موقعیت_مرکز": "گذر مهدويه",
    "Polling_Center_Location": "Guzar-e-Mahdawia",
    "Map_Accuracy": "Building",
    "Map_Accuracy_Dari": "تعمیر",
    "Status": "Open",
    "Status_Dari": null,
    "PS_Male": 3,
    "PS_Female": 2,
    "PS_Total": 5,
    "ولسوالي": "کابل - ناحیه 13",
    "Region": "Central Region"
   },
   "geometry": {
    "x": 7689012.1877087001,
    "y": 4096128.5329069332
   }
  },
  {
   "attributes": {
    "OBJECTID": 3865,
    "ولایت": "کابل",
    "Province": "KABUL",
    "PC_Code": "0101265",
    "District": "KABUL-D13",
    "د_مرکز_نوم__نام_مرکز": " مسجد اتفاق",
    "Polling_Center_Name": "Itifaq Mosque",
    "د_مرکز_ځای__موقعیت_مرکز": "گذر اتفاق",
    "Polling_Center_Location": "Guzar-e-Itifaq",
    "Map_Accuracy": "Building",
    "Map_Accuracy_Dari": "تعمیر",
    "Status": "Open",
    "Status_Dari": null,
    "PS_Male": 2,
    "PS_Female": 2,
    "PS_Total": 4,
    "ولسوالي": "کابل - ناحیه 13",
    "Region": "Central Region"
   },
   "geometry": {
    "x": 7688647.4660950424,
    "y": 4096049.6422454193
   }
  },
  {
   "attributes": {
    "OBJECTID": 3866,
    "ولایت": "کابل",
    "Province": "KABUL",
    "PC_Code": "0101284",
    "District": "KABUL-D13",
    "د_مرکز_نوم__نام_مرکز": " مسجد اميرالمومنين",
    "Polling_Center_Name": "Amirul Mominin Mosque",
    "د_مرکز_ځای__موقعیت_مرکز": "تانک تيل برچي",
    "Polling_Center_Location": "Barchi Fuel Pump Station",
    "Map_Accuracy": "Building",
    "Map_Accuracy_Dari": "تعمیر",
    "Status": "Open",
    "Status_Dari": null,
    "PS_Male": 2,
    "PS_Female": 2,
    "PS_Total": 4,
    "ولسوالي": "کابل - ناحیه 13",
    "Region": "Central Region"
   },
   "geometry": {
    "x": 7689309.0278100716,
    "y": 4096042.3725268012
   }
  },
  {
   "attributes": {
    "OBJECTID": 3867,
    "ولایت": "کابل",
    "Province": "KABUL",
    "PC_Code": "0101285",
    "District": "KABUL-D13",
    "د_مرکز_نوم__نام_مرکز": "مسجد امام زمان",
    "Polling_Center_Name": "Imam-e- Zaman Mosque",
    "د_مرکز_ځای__موقعیت_مرکز": "قلعه واحد",
    "Polling_Center_Location": "Qala-e-Wahid",
    "Map_Accuracy": "Building",
    "Map_Accuracy_Dari": "تعمیر",
    "Status": "Open",
    "Status_Dari": null,
    "PS_Male": 2,
    "PS_Female": 2,
    "PS_Total": 4,
    "ولسوالي": "کابل - ناحیه 13",
    "Region": "Central Region"
   },
   "geometry": {
    "x": 7692023.1305789994,
    "y": 4097308.9317989317
   }
  },
  {
   "attributes": {
    "OBJECTID": 3868,
    "ولایت": "کابل",
    "Province": "KABUL",
    "PC_Code": "0101300",
    "District": "KABUL-D15",
    "د_مرکز_نوم__نام_مرکز": " مسجد جامع خاتم الانبیاء",
    "Polling_Center_Name": "Khatimul Anbeya Mosque",
    "د_مرکز_ځای__موقعیت_مرکز": "خواجه بغرا",
    "Polling_Center_Location": "Khwaja Bughra",
    "Map_Accuracy": "Building",
    "Map_Accuracy_Dari": "تعمیر",
    "Status": "Open",
    "Status_Dari": null,
    "PS_Male": 2,
    "PS_Female": 2,
    "PS_Total": 4,
    "ولسوالي": "کابل - ناحیه 15",
    "Region": "Central Region"
   },
   "geometry": {
    "x": 7698917.8268059194,
    "y": 4106236.7317768973
   }
  },
  {
   "attributes": {
    "OBJECTID": 3869,
    "ولایت": "کابل",
    "Province": "KABUL",
    "PC_Code": "0101301",
    "District": "KABUL-D15",
    "د_مرکز_نوم__نام_مرکز": " مسجد حضرت خيرالبشر",
    "Polling_Center_Name": "Hazrat-e-Khairul Bashar Mosque",
    "د_مرکز_ځای__موقعیت_مرکز": "لب جر",
    "Polling_Center_Location": "Lab-e-Jar",
    "Map_Accuracy": "Building",
    "Map_Accuracy_Dari": "تعمیر",
    "Status": "Open",
    "Status_Dari": null,
    "PS_Male": 4,
    "PS_Female": 1,
    "PS_Total": 5,
    "ولسوالي": "کابل - ناحیه 15",
    "Region": "Central Region"
   },
   "geometry": {
    "x": 7698294.0190961873,
    "y": 4105016.5700178123
   }
  },
  {
   "attributes": {
    "OBJECTID": 3870,
    "ولایت": "کابل",
    "Province": "KABUL",
    "PC_Code": "0101317",
    "District": "KABUL-D16",
    "د_مرکز_نوم__نام_مرکز": " ليسه لامعه شهيد",
    "Polling_Center_Name": "Lama Shaheed High School",
    "د_مرکز_ځای__موقعیت_مرکز": "مکروريان اول",
    "Polling_Center_Location": "First Makroryan",
    "Map_Accuracy": "Building",
    "Map_Accuracy_Dari": "تعمیر",
    "Status": "Open",
    "Status_Dari": null,
    "PS_Male": 4,
    "PS_Female": 3,
    "PS_Total": 7,
    "ولسوالي": "کابل - ناحیه 16",
    "Region": "Central Region"
   },
   "geometry": {
    "x": 7703601.2982711941,
    "y": 4099777.5622986397
   }
  },
  {
   "attributes": {
    "OBJECTID": 3871,
    "ولایت": "کابل",
    "Province": "KABUL",
    "PC_Code": "0101318",
    "District": "KABUL-D16",
    "د_مرکز_نوم__نام_مرکز": "لیسه ذکور قلعه احمدخان",
    "Polling_Center_Name": "Qala-e-Ahmad Khan Boys Secondary School",
    "د_مرکز_ځای__موقعیت_مرکز": "قلعه احمد خان",
    "Polling_Center_Location": "Qala-e-Ahmad Khan",
    "Map_Accuracy": "Building",
    "Map_Accuracy_Dari": "تعمیر",
    "Status": "Open",
    "Status_Dari": null,
    "PS_Male": 4,
    "PS_Female": 3,
    "PS_Total": 7,
    "ولسوالي": "کابل - ناحیه 16",
    "Region": "Central Region"
   },
   "geometry": {
    "x": 7709761.4116499033,
    "y": 4097412.5772379944
   }
  },
  {
   "attributes": {
    "OBJECTID": 3872,
    "ولایت": "کابل",
    "Province": "KABUL",
    "PC_Code": "0101449",
    "District": "KABUL-D21",
    "د_مرکز_نوم__نام_مرکز": " مسجد طالب جان ",
    "Polling_Center_Name": "Talib Jan Mosque",
    "د_مرکز_ځای__موقعیت_مرکز": "جنت گل مینه",
    "Polling_Center_Location": "Janat Gul Mina",
    "Map_Accuracy": "Building",
    "Map_Accuracy_Dari": "تعمیر",
    "Status": "Open",
    "Status_Dari": null,
    "PS_Male": 2,
    "PS_Female": 3,
    "PS_Total": 5,
    "ولسوالي": "کابل - ناحیه 21",
    "Region": "Central Region"
   },
   "geometry": {
    "x": 7725139.7517986409,
    "y": 4094713.330157687
   }
  },
  {
   "attributes": {
    "OBJECTID": 3873,
    "ولایت": "کابل",
    "Province": "KABUL",
    "PC_Code": "0101473",
    "District": "KABUL-D21",
    "د_مرکز_نوم__نام_مرکز": "مدرسه دینی کوچیان",
    "Polling_Center_Name": "Kochian Religious Madrassa",
    "د_مرکز_ځای__موقعیت_مرکز": "مدرسه دینی سناتور جنت گل",
    "Polling_Center_Location": "Religious Madrassa of Senator Janat Gul ",
    "Map_Accuracy": "Building",
    "Map_Accuracy_Dari": "تعمیر",
    "Status": "Open",
    "Status_Dari": null,
    "PS_Male": 3,
    "PS_Female": 3,
    "PS_Total": 6,
    "ولسوالي": "کابل - ناحیه 21",
    "Region": "Central Region"
   },
   "geometry": {
    "x": 7721583.7118909722,
    "y": 4102181.5508949631
   }
  },
  {
   "attributes": {
    "OBJECTID": 3874,
    "ولایت": "کابل",
    "Province": "KABUL",
    "PC_Code": "0102413",
    "District": "PAGHMAN",
    "د_مرکز_نوم__نام_مرکز": " ليسه خواجه لکن",
    "Polling_Center_Name": "Khwaja Lakan High School",
    "د_مرکز_ځای__موقعیت_مرکز": "خواجه لکن",
    "Polling_Center_Location": "Khwaja Lakan",
    "Map_Accuracy": "Building",
    "Map_Accuracy_Dari": "تعمیر",
    "Status": "Open",
    "Status_Dari": null,
    "PS_Male": 2,
    "PS_Female": 1,
    "PS_Total": 3,
    "ولسوالي": "پغمان",
    "Region": "Central Region"
   },
   "geometry": {
    "x": 7675381.8124758033,
    "y": 4104041.7833089978
   }
  },
  {
   "attributes": {
    "OBJECTID": 3875,
    "ولایت": "کابل",
    "Province": "KABUL",
    "PC_Code": "0105475",
    "District": "DEHSABZ",
    "د_مرکز_نوم__نام_مرکز": " مسجد شریف ملک زرګل  ",
    "Polling_Center_Name": "Malik Zar Gul Mosque",
    "د_مرکز_ځای__موقعیت_مرکز": "زيړه غوندۍ  ",
    "Polling_Center_Location": "Zera Ghundi",
    "Map_Accuracy": "Building",
    "Map_Accuracy_Dari": "تعمیر",
    "Status": "Open",
    "Status_Dari": null,
    "PS_Male": 2,
    "PS_Female": 2,
    "PS_Total": 4,
    "ولسوالي": "ده سبز",
    "Region": "Central Region"
   },
   "geometry": {
    "x": 7702831.8089702614,
    "y": 4113794.4678212455
   }
  },
  {
   "attributes": {
    "OBJECTID": 3876,
    "ولایت": "کابل",
    "Province": "KABUL",
    "PC_Code": "0108333",
    "District": "MIR BACHA KOT",
    "د_مرکز_نوم__نام_مرکز": " مکتب متوسطه آبچکان",
    "Polling_Center_Name": "Aabchakan Secondary School",
    "د_مرکز_ځای__موقعیت_مرکز": "آبچکان",
    "Polling_Center_Location": "Aabchakan",
    "Map_Accuracy": "Building",
    "Map_Accuracy_Dari": "تعمیر",
    "Status": "Open",
    "Status_Dari": null,
    "PS_Male": 3,
    "PS_Female": 2,
    "PS_Total": 5,
    "ولسوالي": "میر بچه کوت",
    "Region": "Central Region"
   },
   "geometry": {
    "x": 7697093.9170617927,
    "y": 4129028.4533193936
   }
  },
  {
   "attributes": {
    "OBJECTID": 3877,
    "ولایت": "کابل",
    "Province": "KABUL",
    "PC_Code": "0108334",
    "District": "MIR BACHA KOT",
    "د_مرکز_نوم__نام_مرکز": "مسجد جامع ماریکی ",
    "Polling_Center_Name": "Mareki Mosque",
    "د_مرکز_ځای__موقعیت_مرکز": "ماريکي",
    "Polling_Center_Location": "Mariki",
    "Map_Accuracy": "Village",
    "Map_Accuracy_Dari": "قریه",
    "Status": "Open",
    "Status_Dari": null,
    "PS_Male": 2,
    "PS_Female": 1,
    "PS_Total": 3,
    "ولسوالي": "میر بچه کوت",
    "Region": "Central Region"
   },
   "geometry": {
    "x": 7695310.397368513,
    "y": 4130050.4662865242
   }
  },
  {
   "attributes": {
    "OBJECTID": 3878,
    "ولایت": "کابل",
    "Province": "KABUL",
    "PC_Code": "0110354",
    "District": "KALAKAN",
    "د_مرکز_نوم__نام_مرکز": " لیسه قچي",
    "Polling_Center_Name": "Qachi High School",
    "د_مرکز_ځای__موقعیت_مرکز": "قچي",
    "Polling_Center_Location": "Qachi",
    "Map_Accuracy": "Building",
    "Map_Accuracy_Dari": "تعمیر",
    "Status": "Open",
    "Status_Dari": null,
    "PS_Male": 2,
    "PS_Female": 2,
    "PS_Total": 4,
    "ولسوالي": "کلکان",
    "Region": "Central Region"
   },
   "geometry": {
    "x": 7694468.0984414257,
    "y": 4133838.5123211369
   }
  },
  {
   "attributes": {
    "OBJECTID": 3879,
    "ولایت": "کابل",
    "Province": "KABUL",
    "PC_Code": "0110355",
    "District": "KALAKAN",
    "د_مرکز_نوم__نام_مرکز": " کلينيک مشواني",
    "Polling_Center_Name": "Mashwani Clinic",
    "د_مرکز_ځای__موقعیت_مرکز": "مشواني",
    "Polling_Center_Location": "Mashwani",
    "Map_Accuracy": "Building",
    "Map_Accuracy_Dari": "تعمیر",
    "Status": "Open",
    "Status_Dari": null,
    "PS_Male": 2,
    "PS_Female": 2,
    "PS_Total": 4,
    "ولسوالي": "کلکان",
    "Region": "Central Region"
   },
   "geometry": {
    "x": 7698725.9253621269,
    "y": 4132662.8278983277
   }
  },
  {
   "attributes": {
    "OBJECTID": 3880,
    "ولایت": "کابل",
    "Province": "KABUL",
    "PC_Code": "0113379",
    "District": "ESTALEF",
    "د_مرکز_نوم__نام_مرکز": " رياست تعليم و تربيه",
    "Polling_Center_Name": "Educational Department",
    "د_مرکز_ځای__موقعیت_مرکز": "بازار استالف",
    "Polling_Center_Location": "Istalif Bazar",
    "Map_Accuracy": "Building",
    "Map_Accuracy_Dari": "تعمیر",
    "Status": "Open",
    "Status_Dari": null,
    "PS_Male": 1,
    "PS_Female": 1,
    "PS_Total": 2,
    "ولسوالي": "استالف",
    "Region": "Central Region"
   },
   "geometry": {
    "x": 7689304.5204838887,
    "y": 4140573.1173330257
   }
  },
  {
   "attributes": {
    "OBJECTID": 3881,
    "ولایت": "کابل",
    "Province": "KABUL",
    "PC_Code": "0113380",
    "District": "ESTALEF",
    "د_مرکز_نوم__نام_مرکز": " ليسه استالف",
    "Polling_Center_Name": "Estalif High School",
    "د_مرکز_ځای__موقعیت_مرکز": "مرکز ولسوالي استالف",
    "Polling_Center_Location": "Istalif District Capital ",
    "Map_Accuracy": "Building",
    "Map_Accuracy_Dari": "تعمیر",
    "Status": "Open",
    "Status_Dari": null,
    "PS_Male": 4,
    "PS_Female": 3,
    "PS_Total": 7,
    "ولسوالي": "استالف",
    "Region": "Central Region"
   },
   "geometry": {
    "x": 7689269.4748817999,
    "y": 4140770.6814515153
   }
  },
  {
   "attributes": {
    "OBJECTID": 3882,
    "ولایت": "کابل",
    "Province": "KABUL",
    "PC_Code": "0115481",
    "District": "SURUBI",
    "د_مرکز_نوم__نام_مرکز": "مکتب متوسطه نغلو",
    "Polling_Center_Name": "Naghlu Primary School",
    "د_مرکز_ځای__موقعیت_مرکز": "نغلو",
    "Polling_Center_Location": "Naghlo",
    "Map_Accuracy": "Building",
    "Map_Accuracy_Dari": "تعمیر",
    "Status": "Open",
    "Status_Dari": null,
    "PS_Male": 3,
    "PS_Female": 1,
    "PS_Total": 4,
    "ولسوالي": "سروبی",
    "Region": "Central Region"
   },
   "geometry": {
    "x": 7760778.0734057138,
    "y": 4113733.1401416268
   }
  },
  {
   "attributes": {
    "OBJECTID": 3883,
    "ولایت": "کابل",
    "Province": "KABUL",
    "PC_Code": "0115482",
    "District": "SURUBI",
    "د_مرکز_نوم__نام_مرکز": "مکتب قلعه کلان",
    "Polling_Center_Name": "Qala-e-Kalan Mosque",
    "د_مرکز_ځای__موقعیت_مرکز": "قلعه کلان",
    "Polling_Center_Location": "Qala-e-Kalan",
    "Map_Accuracy": "Building",
    "Map_Accuracy_Dari": "تعمیر",
    "Status": "Open",
    "Status_Dari": null,
    "PS_Male": 2,
    "PS_Female": 2,
    "PS_Total": 4,
    "ولسوالي": "سروبی",
    "Region": "Central Region"
   },
   "geometry": {
    "x": 7761086.1278325887,
    "y": 4104918.7294754963
   }
  },
  {
   "attributes": {
    "OBJECTID": 3884,
    "ولایت": "کاپيسا",
    "Province": "KAPISA",
    "PC_Code": "0201001",
    "District": "MAHMUDI RAQI",
    "د_مرکز_نوم__نام_مرکز": "لیسه ذکور",
    "Polling_Center_Name": "Boys School",
    "د_مرکز_ځای__موقعیت_مرکز": "هروکی ",
    "Polling_Center_Location": "Heroki",
    "Map_Accuracy": "Building",
    "Map_Accuracy_Dari": "تعمیر",
    "Status": "Open",
    "Status_Dari": null,
    "PS_Male": 5,
    "PS_Female": 2,
    "PS_Total": 7,
    "ولسوالي": "محمود راقی ",
    "Region": "Central Region"
   },
   "geometry": {
    "x": 7722617.6640193816,
    "y": 4164771.0810794695
   }
  },
  {
   "attributes": {
    "OBJECTID": 3885,
    "ولایت": "کاپيسا",
    "Province": "KAPISA",
    "PC_Code": "0201002",
    "District": "MAHMUDI RAQI",
    "د_مرکز_نوم__نام_مرکز": "لیسه حضرت مصعب",
    "Polling_Center_Name": "Hazrat Musuab High school ",
    "د_مرکز_ځای__موقعیت_مرکز": "داود خیل",
    "Polling_Center_Location": "Dawod Khel",
    "Map_Accuracy": "Building",
    "Map_Accuracy_Dari": "تعمیر",
    "Status": "Open",
    "Status_Dari": null,
    "PS_Male": 4,
    "PS_Female": 2,
    "PS_Total": 6,
    "ولسوالي": "محمود راقی ",
    "Region": "Central Region"
   },
   "geometry": {
    "x": 7716801.7738833036,
    "y": 4167271.6548159351
   }
  },
  {
   "attributes": {
    "OBJECTID": 3886,
    "ولایت": "کاپيسا",
    "Province": "KAPISA",
    "PC_Code": "0201011",
    "District": "MAHMUDI RAQI",
    "د_مرکز_نوم__نام_مرکز": "مکتب نسوان علی خیل ",
    "Polling_Center_Name": "Ali Khail Girls School ",
    "د_مرکز_ځای__موقعیت_مرکز": "علی خیل ",
    "Polling_Center_Location": "Ali Khel ",
    "Map_Accuracy": "Building",
    "Map_Accuracy_Dari": "تعمیر",
    "Status": "Open",
    "Status_Dari": null,
    "PS_Male": 3,
    "PS_Female": 1,
    "PS_Total": 4,
    "ولسوالي": "محمود راقی ",
    "Region": "Central Region"
   },
   "geometry": {
    "x": 7720441.8277238701,
    "y": 4166708.9980844571
   }
  },
  {
   "attributes": {
    "OBJECTID": 3887,
    "ولایت": "کاپيسا",
    "Province": "KAPISA",
    "PC_Code": "0201012",
    "District": "MAHMUDI RAQI",
    "د_مرکز_نوم__نام_مرکز": "مسجد جامع زراعت",
    "Polling_Center_Name": "Zaraut Mosque",
    "د_مرکز_ځای__موقعیت_مرکز": "زراعت ",
    "Polling_Center_Location": "Zaraut",
    "Map_Accuracy": "Building",
    "Map_Accuracy_Dari": "تعمیر",
    "Status": "Open",
    "Status_Dari": null,
    "PS_Male": 2,
    "PS_Female": 2,
    "PS_Total": 4,
    "ولسوالي": "محمود راقی ",
    "Region": "Central Region"
   },
   "geometry": {
    "x": 7723514.0942752576,
    "y": 4166019.6910312991
   }
  },
  {
   "attributes": {
    "OBJECTID": 3888,
    "ولایت": "کاپيسا",
    "Province": "KAPISA",
    "PC_Code": "0203072",
    "District": "KOH BAND",
    "د_مرکز_نوم__نام_مرکز": "مسجد هزارو خیل ",
    "Polling_Center_Name": "Hazaro Khel Mosque",
    "د_مرکز_ځای__موقعیت_مرکز": "درنامه ",
    "Polling_Center_Location": "Darnama",
    "Map_Accuracy": "Building",
    "Map_Accuracy_Dari": "تعمیر",
    "Status": "Open",
    "Status_Dari": null,
    "PS_Male": 3,
    "PS_Female": 1,
    "PS_Total": 4,
    "ولسوالي": "کوه بند",
    "Region": "Central Region"
   },
   "geometry": {
    "x": 7736510.5457510259,
    "y": 4173045.9664992602
   }
  },
  {
   "attributes": {
    "OBJECTID": 3889,
    "ولایت": "کاپيسا",
    "Province": "KAPISA",
    "PC_Code": "0205045",
    "District": "NIJRAB",
    "د_مرکز_نوم__نام_مرکز": "متوسطه نسوان دره فرخشاه ",
    "Polling_Center_Name": "Dara-e-Farakhsha Girls Secondary School ",
    "د_مرکز_ځای__موقعیت_مرکز": "حیدرخیل",
    "Polling_Center_Location": "Haidar Khel",
    "Map_Accuracy": "Building",
    "Map_Accuracy_Dari": "تعمیر",
    "Status": "Open",
    "Status_Dari": null,
    "PS_Male": 1,
    "PS_Female": 1,
    "PS_Total": 2,
    "ولسوالي": "نجراب ",
    "Region": "Central Region"
   },
   "geometry": {
    "x": 7746858.2467913246,
    "y": 4172466.3883436094
   }
  },
  {
   "attributes": {
    "OBJECTID": 3890,
    "ولایت": "کاپيسا",
    "Province": "KAPISA",
    "PC_Code": "0205046",
    "District": "NIJRAB",
    "د_مرکز_نوم__نام_مرکز": "مکتب میرزا عبدالرحمن شهید",
    "Polling_Center_Name": "Mirza Abdul Rahman Shaheed School ",
    "د_مرکز_ځای__موقعیت_مرکز": "بی بی خیل ",
    "Polling_Center_Location": "Bibi Khel",
    "Map_Accuracy": "Building",
    "Map_Accuracy_Dari": "تعمیر",
    "Status": "Open",
    "Status_Dari": null,
    "PS_Male": 1,
    "PS_Female": 1,
    "PS_Total": 2,
    "ولسوالي": "نجراب ",
    "Region": "Central Region"
   },
   "geometry": {
    "x": 7743242.2012253357,
    "y": 4176154.5851216535
   }
  },
  {
   "attributes": {
    "OBJECTID": 3891,
    "ولایت": "کاپيسا",
    "Province": "KAPISA",
    "PC_Code": "0206076",
    "District": "TAGAB",
    "د_مرکز_نوم__نام_مرکز": "مسجد مقام خیل ",
    "Polling_Center_Name": "Muqam Khel Mosque",
    "د_مرکز_ځای__موقعیت_مرکز": "جویبار",
    "Polling_Center_Location": "Joy Bar ",
    "Map_Accuracy": "Building",
    "Map_Accuracy_Dari": "تعمیر",
    "Status": "Open",
    "Status_Dari": null,
    "PS_Male": 2,
    "PS_Female": 2,
    "PS_Total": 4,
    "ولسوالي": "تگاب ",
    "Region": "Central Region"
   },
   "geometry": {
    "x": 7752698.8164585121,
    "y": 4146423.0503426325
   }
  },
  {
   "attributes": {
    "OBJECTID": 3892,
    "ولایت": "پروان",
    "Province": "PARWAN",
    "PC_Code": "0301010",
    "District": "CHARIKAR",
    "د_مرکز_نوم__نام_مرکز": "لیسه میر علی احمد شهید",
    "Polling_Center_Name": "Mir Ali Ahmad Shaheed High School ",
    "د_مرکز_ځای__موقعیت_مرکز": "چاریکار ",
    "Polling_Center_Location": "Charikar",
    "Map_Accuracy": "Building",
    "Map_Accuracy_Dari": "تعمیر",
    "Status": "Open",
    "Status_Dari": null,
    "PS_Male": 4,
    "PS_Female": 1,
    "PS_Total": 5,
    "ولسوالي": "چاریکار",
    "Region": "Central Region"
   },
   "geometry": {
    "x": 7700131.5498932051,
    "y": 4164870.5476946947
   }
  },
  {
   "attributes": {
    "OBJECTID": 3893,
    "ولایت": "پروان",
    "Province": "PARWAN",
    "PC_Code": "0301011",
    "District": "CHARIKAR",
    "د_مرکز_نوم__نام_مرکز": "مسجد توغبردی ",
    "Polling_Center_Name": "Toghbardi Mosque",
    "د_مرکز_ځای__موقعیت_مرکز": "توغبردی ",
    "Polling_Center_Location": "Toghbardi",
    "Map_Accuracy": "Village",
    "Map_Accuracy_Dari": "قریه",
    "Status": "Open",
    "Status_Dari": null,
    "PS_Male": 3,
    "PS_Female": 1,
    "PS_Total": 4,
    "ولسوالي": "چاریکار",
    "Region": "Central Region"
   },
   "geometry": {
    "x": 7700149.0749206403,
    "y": 4166121.9226267939
   }
  },
  {
   "attributes": {
    "OBJECTID": 3894,
    "ولایت": "پروان",
    "Province": "PARWAN",
    "PC_Code": "0301032",
    "District": "CHARIKAR",
    "د_مرکز_نوم__نام_مرکز": "مکتب صیادان",
    "Polling_Center_Name": "Sayadan School",
    "د_مرکز_ځای__موقعیت_مرکز": "صیادان",
    "Polling_Center_Location": "Sayadan",
    "Map_Accuracy": "Building",
    "Map_Accuracy_Dari": "تعمیر",
    "Status": "Open",
    "Status_Dari": null,
    "PS_Male": 2,
    "PS_Female": 1,
    "PS_Total": 3,
    "ولسوالي": "چاریکار",
    "Region": "Central Region"
   },
   "geometry": {
    "x": 7710561.4570378698,
    "y": 4165129.3156487127
   }
  },
  {
   "attributes": {
    "OBJECTID": 3895,
    "ولایت": "پروان",
    "Province": "PARWAN",
    "PC_Code": "0301033",
    "District": "CHARIKAR",
    "د_مرکز_نوم__نام_مرکز": "مسجد جامع بایان  پایان ",
    "Polling_Center_Name": "Bayan Payan Mosque",
    "د_مرکز_ځای__موقعیت_مرکز": "بایان پایان ",
    "Polling_Center_Location": "Bayan Payan",
    "Map_Accuracy": "Building",
    "Map_Accuracy_Dari": "تعمیر",
    "Status": "Open",
    "Status_Dari": null,
    "PS_Male": 1,
    "PS_Female": 1,
    "PS_Total": 2,
    "ولسوالي": "چاریکار",
    "Region": "Central Region"
   },
   "geometry": {
    "x": 7704339.2797034616,
    "y": 4169068.7220639428
   }
  },
  {
   "attributes": {
    "OBJECTID": 3896,
    "ولایت": "پروان",
    "Province": "PARWAN",
    "PC_Code": "0302115",
    "District": "BAGRAM",
    "د_مرکز_نوم__نام_مرکز": "مکتب قلعه نصرو",
    "Polling_Center_Name": "Qala-e-Nasro School",
    "د_مرکز_ځای__موقعیت_مرکز": "قلعه نصرو",
    "Polling_Center_Location": "Qala-e-Nasro",
    "Map_Accuracy": "Building",
    "Map_Accuracy_Dari": "تعمیر",
    "Status": "Open",
    "Status_Dari": null,
    "PS_Male": 2,
    "PS_Female": 2,
    "PS_Total": 4,
    "ولسوالي": "بگرام ",
    "Region": "Central Region"
   },
   "geometry": {
    "x": 7703879.7773357574,
    "y": 4151487.8808913697
   }
  },
  {
   "attributes": {
    "OBJECTID": 3897,
    "ولایت": "پروان",
    "Province": "PARWAN",
    "PC_Code": "0304042",
    "District": "SAYID KHIAL",
    "د_مرکز_نوم__نام_مرکز": "متوسطه عبدالقادر شهید",
    "Polling_Center_Name": "Abdul Qadir Shaheed Secondary School",
    "د_مرکز_ځای__موقعیت_مرکز": "کاکه خیل ",
    "Polling_Center_Location": "Kaka Khel",
    "Map_Accuracy": "Building",
    "Map_Accuracy_Dari": "تعمیر",
    "Status": "Open",
    "Status_Dari": null,
    "PS_Male": 1,
    "PS_Female": 1,
    "PS_Total": 2,
    "ولسوالي": "سیدخیل ",
    "Region": "Central Region"
   },
   "geometry": {
    "x": 7710734.0345312525,
    "y": 4174972.7231407827
   }
  },
  {
   "attributes": {
    "OBJECTID": 3898,
    "ولایت": "پروان",
    "Province": "PARWAN",
    "PC_Code": "0305052",
    "District": "JABULUSSARAJ",
    "د_مرکز_نوم__نام_مرکز": "لیسه زربیا",
    "Polling_Center_Name": "Zarbia High School",
    "د_مرکز_ځای__موقعیت_مرکز": "بالای تپه قریه زربیا  ",
    "Polling_Center_Location": "Bala Tapa-e-Zarbia Village",
    "Map_Accuracy": "Building",
    "Map_Accuracy_Dari": "تعمیر",
    "Status": "Open",
    "Status_Dari": null,
    "PS_Male": 4,
    "PS_Female": 2,
    "PS_Total": 6,
    "ولسوالي": "جبل السراج",
    "Region": "Central Region"
   },
   "geometry": {
    "x": 7704610.3448899332,
    "y": 4176652.344621351
   }
  },
  {
   "attributes": {
    "OBJECTID": 3899,
    "ولایت": "وردک",
    "Province": "WARDAK",
    "PC_Code": "0401005",
    "District": "MAYDAN SHAHR",
    "د_مرکز_نوم__نام_مرکز": "مسجد رحمن خیل",
    "Polling_Center_Name": "Rahman Khel Mosque",
    "د_مرکز_ځای__موقعیت_مرکز": "رحمن خیل",
    "Polling_Center_Location": "Rahman Khel",
    "Map_Accuracy": "Village",
    "Map_Accuracy_Dari": "قریه",
    "Status": "Open",
    "Status_Dari": null,
    "PS_Male": 3,
    "PS_Female": 1,
    "PS_Total": 4,
    "ولسوالي": "میدان شهر",
    "Region": "Central Region"
   },
   "geometry": {
    "x": 7656294.8349934937,
    "y": 4089854.0577159403
   }
  },
  {
   "attributes": {
    "OBJECTID": 3900,
    "ولایت": "وردک",
    "Province": "WARDAK",
    "PC_Code": "0401006",
    "District": "MAYDAN SHAHR",
    "د_مرکز_نوم__نام_مرکز": "لیسه ابراهیم خیل",
    "Polling_Center_Name": "Ibrahim Khel High School",
    "د_مرکز_ځای__موقعیت_مرکز": "ابراهیم خیل",
    "Polling_Center_Location": "Ibrahim Khel",
    "Map_Accuracy": "Building",
    "Map_Accuracy_Dari": "تعمیر",
    "Status": "Open",
    "Status_Dari": null,
    "PS_Male": 4,
    "PS_Female": 0,
    "PS_Total": 4,
    "ولسوالي": "میدان شهر",
    "Region": "Central Region"
   },
   "geometry": {
    "x": 7661316.1154723391,
    "y": 4075712.1939254082
   }
  },
  {
   "attributes": {
    "OBJECTID": 3901,
    "ولایت": "وردک",
    "Province": "WARDAK",
    "PC_Code": "0402156",
    "District": "NERKH",
    "د_مرکز_نوم__نام_مرکز": "مسجد کلان شادی کلا",
    "Polling_Center_Name": "Shadi Kala Mosque",
    "د_مرکز_ځای__موقعیت_مرکز": "قریه شادی کلا",
    "Polling_Center_Location": "Shadi Qala Village",
    "Map_Accuracy": "Village",
    "Map_Accuracy_Dari": "قریه",
    "Status": "Open",
    "Status_Dari": null,
    "PS_Male": 1,
    "PS_Female": 1,
    "PS_Total": 2,
    "ولسوالي": "نرخ",
    "Region": "Central Region"
   },
   "geometry": {
    "x": 7667535.8281932222,
    "y": 4072019.6489303294
   }
  },
  {
   "attributes": {
    "OBJECTID": 3902,
    "ولایت": "وردک",
    "Province": "WARDAK",
    "PC_Code": "0404088",
    "District": "CHAKI WARDAK",
    "د_مرکز_نوم__نام_مرکز": "مکتب امبوخاک",
    "Polling_Center_Name": "Ambukhak School",
    "د_مرکز_ځای__موقعیت_مرکز": "امبوخاک",
    "Polling_Center_Location": "Ambu Khak",
    "Map_Accuracy": "Building",
    "Map_Accuracy_Dari": "تعمیر",
    "Status": "Open",
    "Status_Dari": null,
    "PS_Male": 2,
    "PS_Female": 1,
    "PS_Total": 3,
    "ولسوالي": "چک وردک",
    "Region": "Central Region"
   },
   "geometry": {
    "x": 7651506.8144888505,
    "y": 4049261.9946050686
   }
  },
  {
   "attributes": {
    "OBJECTID": 3903,
    "ولایت": "وردک",
    "Province": "WARDAK",
    "PC_Code": "0405109",
    "District": "SAYYD ABAD",
    "د_مرکز_نوم__نام_مرکز": "مسجد",
    "Polling_Center_Name": "Mosque",
    "د_مرکز_ځای__موقعیت_مرکز": "قریه سی سی ",
    "Polling_Center_Location": "Si Si ",
    "Map_Accuracy": "Building",
    "Map_Accuracy_Dari": "تعمیر",
    "Status": "Open",
    "Status_Dari": null,
    "PS_Male": 2,
    "PS_Female": 1,
    "PS_Total": 3,
    "ولسوالي": "سید آباد",
    "Region": "Central Region"
   },
   "geometry": {
    "x": 7652349.693390483,
    "y": 4033653.9256267776
   }
  },
  {
   "attributes": {
    "OBJECTID": 3904,
    "ولایت": "وردک",
    "Province": "WARDAK",
    "PC_Code": "0405110",
    "District": "SAYYD ABAD",
    "د_مرکز_نوم__نام_مرکز": "منزل ملک جیلانی",
    "Polling_Center_Name": "Malik Jelani House",
    "د_مرکز_ځای__موقعیت_مرکز": "قریه شاتر",
    "Polling_Center_Location": "Shater Village",
    "Map_Accuracy": "Village",
    "Map_Accuracy_Dari": "قریه",
    "Status": "Open",
    "Status_Dari": null,
    "PS_Male": 3,
    "PS_Female": 1,
    "PS_Total": 4,
    "ولسوالي": "سید آباد",
    "Region": "Central Region"
   },
   "geometry": {
    "x": 7650851.5523438044,
    "y": 4030615.9620667445
   }
  },
  {
   "attributes": {
    "OBJECTID": 3905,
    "ولایت": "وردک",
    "Province": "WARDAK",
    "PC_Code": "0405132",
    "District": "SAYYD ABAD",
    "د_مرکز_نوم__نام_مرکز": "مسجد قریه حسن خیل ",
    "Polling_Center_Name": "Hassan Khel Village Mosque",
    "د_مرکز_ځای__موقعیت_مرکز": "حسن خیل",
    "Polling_Center_Location": "Hasan Khel",
    "Map_Accuracy": "Village",
    "Map_Accuracy_Dari": "قریه",
    "Status": "Open",
    "Status_Dari": null,
    "PS_Male": 1,
    "PS_Female": 1,
    "PS_Total": 2,
    "ولسوالي": "سید آباد",
    "Region": "Central Region"
   },
   "geometry": {
    "x": 7656384.8134247083,
    "y": 4032158.9098638366
   }
  },
  {
   "attributes": {
    "OBJECTID": 3906,
    "ولایت": "وردک",
    "Province": "WARDAK",
    "PC_Code": "0405133",
    "District": "SAYYD ABAD",
    "د_مرکز_نوم__نام_مرکز": "خیمه دشت لړم ",
    "Polling_Center_Name": "Tent in Dasht-e-Larram",
    "د_مرکز_ځای__موقعیت_مرکز": "لړم",
    "Polling_Center_Location": "Larram",
    "Map_Accuracy": "Village",
    "Map_Accuracy_Dari": "قریه",
    "Status": "Open",
    "Status_Dari": null,
    "PS_Male": 1,
    "PS_Female": 1,
    "PS_Total": 2,
    "ولسوالي": "سید آباد",
    "Region": "Central Region"
   },
   "geometry": {
    "x": 7645329.3987216931,
    "y": 4022712.9462716891
   }
  },
  {
   "attributes": {
    "OBJECTID": 3907,
    "ولایت": "وردک",
    "Province": "WARDAK",
    "PC_Code": "0409038",
    "District": "MARKAZ-E-BEHSUD",
    "د_مرکز_نوم__نام_مرکز": "لیسه مرک",
    "Polling_Center_Name": "Marak High School",
    "د_مرکز_ځای__موقعیت_مرکز": "مرک",
    "Polling_Center_Location": "Marak",
    "Map_Accuracy": "Village",
    "Map_Accuracy_Dari": "قریه",
    "Status": "Open",
    "Status_Dari": null,
    "PS_Male": 1,
    "PS_Female": 1,
    "PS_Total": 2,
    "ولسوالي": "مرکز بهسود",
    "Region": "Central Region"
   },
   "geometry": {
    "x": 7548359.0158951553,
    "y": 4103552.6263851607
   }
  },
  {
   "attributes": {
    "OBJECTID": 3908,
    "ولایت": "وردک",
    "Province": "WARDAK",
    "PC_Code": "0409039",
    "District": "MARKAZ-E-BEHSUD",
    "د_مرکز_نوم__نام_مرکز": " مدرسه سرخ آباد",
    "Polling_Center_Name": "Surkh Abad Madrassa",
    "د_مرکز_ځای__موقعیت_مرکز": "قریه سیاه زمین",
    "Polling_Center_Location": "Sia Zamin Village",
    "Map_Accuracy": "Building",
    "Map_Accuracy_Dari": "تعمیر",
    "Status": "Open",
    "Status_Dari": null,
    "PS_Male": 1,
    "PS_Female": 1,
    "PS_Total": 2,
    "ولسوالي": "مرکز بهسود",
    "Region": "Central Region"
   },
   "geometry": {
    "x": 7529120.8404955883,
    "y": 4070623.6405719118
   }
  },
  {
   "attributes": {
    "OBJECTID": 3909,
    "ولایت": "وردک",
    "Province": "WARDAK",
    "PC_Code": "0409059",
    "District": "MARKAZ-E-BEHSUD",
    "د_مرکز_نوم__نام_مرکز": "کلینیک گلزار",
    "Polling_Center_Name": "Gulzar Clinic",
    "د_مرکز_ځای__موقعیت_مرکز": "قریه گل زار",
    "Polling_Center_Location": "Gulzar Village",
    "Map_Accuracy": "Village",
    "Map_Accuracy_Dari": "قریه",
    "Status": "Open",
    "Status_Dari": null,
    "PS_Male": 1,
    "PS_Female": 1,
    "PS_Total": 2,
    "ولسوالي": "مرکز بهسود",
    "Region": "Central Region"
   },
   "geometry": {
    "x": 7550168.1669011861,
    "y": 4060660.128193331
   }
  },
  {
   "attributes": {
    "OBJECTID": 3910,
    "ولایت": "وردک",
    "Province": "WARDAK",
    "PC_Code": "0409060",
    "District": "MARKAZ-E-BEHSUD",
    "د_مرکز_نوم__نام_مرکز": "کلینیک بند بوته",
    "Polling_Center_Name": "Band Buta Clinic",
    "د_مرکز_ځای__موقعیت_مرکز": "بند بوته",
    "Polling_Center_Location": "Band-e-Buta",
    "Map_Accuracy": "Village",
    "Map_Accuracy_Dari": "قریه",
    "Status": "Open",
    "Status_Dari": null,
    "PS_Male": 1,
    "PS_Female": 1,
    "PS_Total": 2,
    "ولسوالي": "مرکز بهسود",
    "Region": "Central Highlands Region"
   },
   "geometry": {
    "x": 7496284.8379011182,
    "y": 4039389.328053541
   }
  },
  {
   "attributes": {
    "OBJECTID": 3911,
    "ولایت": "لوگر",
    "Province": "LOGAR",
    "PC_Code": "0501018",
    "District": "PULI ALAM",
    "د_مرکز_نوم__نام_مرکز": "مکتب دشت باری",
    "Polling_Center_Name": "Dasht-e-Bari School",
    "د_مرکز_ځای__موقعیت_مرکز": "دشت باری",
    "Polling_Center_Location": "Dasht-e-Bari",
    "Map_Accuracy": "Building",
    "Map_Accuracy_Dari": "تعمیر",
    "Status": "Open",
    "Status_Dari": null,
    "PS_Male": 1,
    "PS_Female": 2,
    "PS_Total": 3,
    "ولسوالي": "پل علم",
    "Region": "Central Region"
   },
   "geometry": {
    "x": 7688393.1210960886,
    "y": 4038706.7060886892
   }
  },
  {
   "attributes": {
    "OBJECTID": 3912,
    "ولایت": "لوگر",
    "Province": "LOGAR",
    "PC_Code": "0501019",
    "District": "PULI ALAM",
    "د_مرکز_نوم__نام_مرکز": "کلینیک شهرک مهاجرین",
    "Polling_Center_Name": "Shahrak-e-Mohajerin Clinic",
    "د_مرکز_ځای__موقعیت_مرکز": "شهرک مهاجرین",
    "Polling_Center_Location": "Shahrak-e-Mohajerin",
    "Map_Accuracy": "Building",
    "Map_Accuracy_Dari": "تعمیر",
    "Status": "Open",
    "Status_Dari": null,
    "PS_Male": 3,
    "PS_Female": 1,
    "PS_Total": 4,
    "ولسوالي": "پل علم",
    "Region": "Central Region"
   },
   "geometry": {
    "x": 7690474.4727473995,
    "y": 4031316.9249400822
   }
  },
  {
   "attributes": {
    "OBJECTID": 3913,
    "ولایت": "لوگر",
    "Province": "LOGAR",
    "PC_Code": "0502040",
    "District": "BARAKI BARAK",
    "د_مرکز_نوم__نام_مرکز": "مسجد الله داد خيل",
    "Polling_Center_Name": "Allah Dad Khel Mosque",
    "د_مرکز_ځای__موقعیت_مرکز": "الله داد خیل",
    "Polling_Center_Location": "Allah Dad Khel",
    "Map_Accuracy": "Building",
    "Map_Accuracy_Dari": "تعمیر",
    "Status": "Open",
    "Status_Dari": null,
    "PS_Male": 2,
    "PS_Female": 1,
    "PS_Total": 3,
    "ولسوالي": "برکی برک",
    "Region": "Central Region"
   },
   "geometry": {
    "x": 7675384.3921936797,
    "y": 4012474.8594708196
   }
  },
  {
   "attributes": {
    "OBJECTID": 3914,
    "ولایت": "لوگر",
    "Province": "LOGAR",
    "PC_Code": "0505062",
    "District": "MOHAMMAD AGHA",
    "د_مرکز_نوم__نام_مرکز": "مکتب کتب خيل",
    "Polling_Center_Name": "Kutob Khel School",
    "د_مرکز_ځای__موقعیت_مرکز": "قلعه کشتم",
    "Polling_Center_Location": "Qala-e-Keshtom",
    "Map_Accuracy": "Building",
    "Map_Accuracy_Dari": "تعمیر",
    "Status": "Open",
    "Status_Dari": null,
    "PS_Male": 2,
    "PS_Female": 2,
    "PS_Total": 4,
    "ولسوالي": "محمد آغه",
    "Region": "Central Region"
   },
   "geometry": {
    "x": 7696280.3151862416,
    "y": 4059530.7102657128
   }
  },
  {
   "attributes": {
    "OBJECTID": 3915,
    "ولایت": "ننگرهار",
    "Province": "NANGARHAR",
    "PC_Code": "0601024",
    "District": "JALALABAD",
    "د_مرکز_نوم__نام_مرکز": "تقوا جومات",
    "Polling_Center_Name": "Taqwa Mosque",
    "د_مرکز_ځای__موقعیت_مرکز": "دریمه ناحیه",
    "Polling_Center_Location": "D03-Nahia 3",
    "Map_Accuracy": "Building",
    "Map_Accuracy_Dari": "تعمیر",
    "Status": "Open",
    "Status_Dari": null,
    "PS_Male": 5,
    "PS_Female": 4,
    "PS_Total": 9,
    "ولسوالي": "جلال آباد",
    "Region": "Eastern Region"
   },
   "geometry": {
    "x": 7841968.8749977015,
    "y": 4087242.4833400063
   }
  },
  {
   "attributes": {
    "OBJECTID": 3916,
    "ولایت": "ننگرهار",
    "Province": "NANGARHAR",
    "PC_Code": "0601025",
    "District": "JALALABAD",
    "د_مرکز_نوم__نام_مرکز": "عيد ګاه جومات",
    "Polling_Center_Name": "Eidgah Mosque",
    "د_مرکز_ځای__موقعیت_مرکز": "څلورمه ناحیه",
    "Polling_Center_Location": "D04-Nahia 4",
    "Map_Accuracy": "Building",
    "Map_Accuracy_Dari": "تعمیر",
    "Status": "Open",
    "Status_Dari": null,
    "PS_Male": 6,
    "PS_Female": 0,
    "PS_Total": 6,
    "ولسوالي": "جلال آباد",
    "Region": "Eastern Region"
   },
   "geometry": {
    "x": 7844281.5630224179,
    "y": 4086131.8994257697
   }
  },
  {
   "attributes": {
    "OBJECTID": 3917,
    "ولایت": "ننگرهار",
    "Province": "NANGARHAR",
    "PC_Code": "0602059",
    "District": "BEHSUD",
    "د_مرکز_نوم__نام_مرکز": "کاریز کبیر لیسه",
    "Polling_Center_Name": "Kaarez Kabeer School",
    "د_مرکز_ځای__موقعیت_مرکز": "کاريزکبير",
    "Polling_Center_Location": "Karez Kaber",
    "Map_Accuracy": "Building",
    "Map_Accuracy_Dari": "تعمیر",
    "Status": "Open",
    "Status_Dari": null,
    "PS_Male": 4,
    "PS_Female": 0,
    "PS_Total": 4,
    "ولسوالي": "بهسود",
    "Region": "Eastern Region"
   },
   "geometry": {
    "x": 7850225.2846693555,
    "y": 4078544.049557969
   }
  },
  {
   "attributes": {
    "OBJECTID": 3918,
    "ولایت": "ننگرهار",
    "Province": "NANGARHAR",
    "PC_Code": "0602073",
    "District": "BEHSUD",
    "د_مرکز_نوم__نام_مرکز": "دامان جومات",
    "Polling_Center_Name": "Damaan Mosque",
    "د_مرکز_ځای__موقعیت_مرکز": "عربان",
    "Polling_Center_Location": "Araban",
    "Map_Accuracy": "Village",
    "Map_Accuracy_Dari": "قریه",
    "Status": "Open",
    "Status_Dari": null,
    "PS_Male": 3,
    "PS_Female": 1,
    "PS_Total": 4,
    "ولسوالي": "بهسود",
    "Region": "Eastern Region"
   },
   "geometry": {
    "x": 7846952.3970184661,
    "y": 4091485.4362495914
   }
  },
  {
   "attributes": {
    "OBJECTID": 3919,
    "ولایت": "ننگرهار",
    "Province": "NANGARHAR",
    "PC_Code": "0602506",
    "District": "BEHSUD",
    "د_مرکز_نوم__نام_مرکز": "د زنګویی مکتب",
    "Polling_Center_Name": "Zangoy School",
    "د_مرکز_ځای__موقعیت_مرکز": "قلعه زنګوی",
    "Polling_Center_Location": "Qala-e-Zangve",
    "Map_Accuracy": "Building",
    "Map_Accuracy_Dari": "تعمیر",
    "Status": "Open",
    "Status_Dari": null,
    "PS_Male": 2,
    "PS_Female": 1,
    "PS_Total": 3,
    "ولسوالي": "بهسود",
    "Region": "Eastern Region"
   },
   "geometry": {
    "x": 7846515.3644899791,
    "y": 4086909.1831793832
   }
  },
  {
   "attributes": {
    "OBJECTID": 3920,
    "ولایت": "ننگرهار",
    "Province": "NANGARHAR",
    "PC_Code": "0603096",
    "District": "SURKH RUD",
    "د_مرکز_نوم__نام_مرکز": "بي بي مريم مکتب",
    "Polling_Center_Name": "Bibi Maryam School",
    "د_مرکز_ځای__موقعیت_مرکز": "درونته",
    "Polling_Center_Location": "Daronta",
    "Map_Accuracy": "Building",
    "Map_Accuracy_Dari": "تعمیر",
    "Status": "Open",
    "Status_Dari": null,
    "PS_Male": 3,
    "PS_Female": 0,
    "PS_Total": 3,
    "ولسوالي": "سرخرود",
    "Region": "Eastern Region"
   },
   "geometry": {
    "x": 7832967.6266131504,
    "y": 4093277.4358673301
   }
  },
  {
   "attributes": {
    "OBJECTID": 3921,
    "ولایت": "ننگرهار",
    "Province": "NANGARHAR",
    "PC_Code": "0604107",
    "District": "CHAPARHAR",
    "د_مرکز_نوم__نام_مرکز": "کاريز دکلي جومات",
    "Polling_Center_Name": "Kariz Village Mosque",
    "د_مرکز_ځای__موقعیت_مرکز": "کاريزکلي",
    "Polling_Center_Location": "Kaarez Village",
    "Map_Accuracy": "Village",
    "Map_Accuracy_Dari": "قریه",
    "Status": "Open",
    "Status_Dari": null,
    "PS_Male": 0,
    "PS_Female": 2,
    "PS_Total": 2,
    "ولسوالي": "چپرهار",
    "Region": "Eastern Region"
   },
   "geometry": {
    "x": 7831326.7416966222,
    "y": 4066170.2758835633
   }
  },
  {
   "attributes": {
    "OBJECTID": 3922,
    "ولایت": "ننگرهار",
    "Province": "NANGARHAR",
    "PC_Code": "0604108",
    "District": "CHAPARHAR",
    "د_مرکز_نوم__نام_مرکز": "متوسطه مکتب",
    "Polling_Center_Name": "Secondary School",
    "د_مرکز_ځای__موقعیت_مرکز": "زغوکلي",
    "Polling_Center_Location": "Zagho Village",
    "Map_Accuracy": "Building",
    "Map_Accuracy_Dari": "تعمیر",
    "Status": "Open",
    "Status_Dari": null,
    "PS_Male": 2,
    "PS_Female": 0,
    "PS_Total": 2,
    "ولسوالي": "چپرهار",
    "Region": "Eastern Region"
   },
   "geometry": {
    "x": 7838049.8055326324,
    "y": 4068925.3405904169
   }
  },
  {
   "attributes": {
    "OBJECTID": 3923,
    "ولایت": "ننگرهار",
    "Province": "NANGARHAR",
    "PC_Code": "0605156",
    "District": "KAMA",
    "د_مرکز_نوم__نام_مرکز": "شیرګړ لیسه",
    "Polling_Center_Name": "Shergarh School",
    "د_مرکز_ځای__موقعیت_مرکز": "سپدرى",
    "Polling_Center_Location": "Spadree",
    "Map_Accuracy": "Village",
    "Map_Accuracy_Dari": "قریه",
    "Status": "Open",
    "Status_Dari": null,
    "PS_Male": 1,
    "PS_Female": 1,
    "PS_Total": 2,
    "ولسوالي": "کامه",
    "Region": "Eastern Region"
   },
   "geometry": {
    "x": 7860165.7689935807,
    "y": 4089869.5220291121
   }
  },
  {
   "attributes": {
    "OBJECTID": 3924,
    "ولایت": "ننگرهار",
    "Province": "NANGARHAR",
    "PC_Code": "0605157",
    "District": "KAMA",
    "د_مرکز_نوم__نام_مرکز": "محکمه",
    "Polling_Center_Name": "Court",
    "د_مرکز_ځای__موقعیت_مرکز": "سنګرسراي",
    "Polling_Center_Location": "Sangar Sray",
    "Map_Accuracy": "Building",
    "Map_Accuracy_Dari": "تعمیر",
    "Status": "Open",
    "Status_Dari": null,
    "PS_Male": 4,
    "PS_Female": 0,
    "PS_Total": 4,
    "ولسوالي": "کامه",
    "Region": "Eastern Region"
   },
   "geometry": {
    "x": 7863603.3415859547,
    "y": 4084144.8162257611
   }
  },
  {
   "attributes": {
    "OBJECTID": 3925,
    "ولایت": "ننگرهار",
    "Province": "NANGARHAR",
    "PC_Code": "0606189",
    "District": "KUZ KUNAR",
    "د_مرکز_نوم__نام_مرکز": "ډنډ جامع جومات ",
    "Polling_Center_Name": "Dand Mosque",
    "د_مرکز_ځای__موقعیت_مرکز": "ايمل خان کلي",
    "Polling_Center_Location": "Aimal Khan Village",
    "Map_Accuracy": "Village",
    "Map_Accuracy_Dari": "قریه",
    "Status": "Open",
    "Status_Dari": null,
    "PS_Male": 2,
    "PS_Female": 0,
    "PS_Total": 2,
    "ولسوالي": "کوز کنړ",
    "Region": "Eastern Region"
   },
   "geometry": {
    "x": 7854353.8062091395,
    "y": 4101277.7030404122
   }
  },
  {
   "attributes": {
    "OBJECTID": 3926,
    "ولایت": "ننگرهار",
    "Province": "NANGARHAR",
    "PC_Code": "0606190",
    "District": "KUZ KUNAR",
    "د_مرکز_نوم__نام_مرکز": "مرکزي جومات",
    "Polling_Center_Name": "Central Mosque",
    "د_مرکز_ځای__موقعیت_مرکز": "مرکزښيوه",
    "Polling_Center_Location": "Khewa Center",
    "Map_Accuracy": "Village",
    "Map_Accuracy_Dari": "قریه",
    "Status": "Open",
    "Status_Dari": null,
    "PS_Male": 3,
    "PS_Female": 0,
    "PS_Total": 3,
    "ولسوالي": "کوز کنړ",
    "Region": "Eastern Region"
   },
   "geometry": {
    "x": 7858625.4089168189,
    "y": 4106406.8082839269
   }
  },
  {
   "attributes": {
    "OBJECTID": 3927,
    "ولایت": "ننگرهار",
    "Province": "NANGARHAR",
    "PC_Code": "0606212",
    "District": "KUZ KUNAR",
    "د_مرکز_نوم__نام_مرکز": "مرکزي ښيوه کلینیک",
    "Polling_Center_Name": "Khewa Central Clinic",
    "د_مرکز_ځای__موقعیت_مرکز": "مرکزي ښيوه",
    "Polling_Center_Location": "Markazi Khewa",
    "Map_Accuracy": "Building",
    "Map_Accuracy_Dari": "تعمیر",
    "Status": "Open",
    "Status_Dari": null,
    "PS_Male": 0,
    "PS_Female": 2,
    "PS_Total": 2,
    "ولسوالي": "کوز کنړ",
    "Region": "Eastern Region"
   },
   "geometry": {
    "x": 7858789.4738087412,
    "y": 4106616.3310232311
   }
  },
  {
   "attributes": {
    "OBJECTID": 3928,
    "ولایت": "ننگرهار",
    "Province": "NANGARHAR",
    "PC_Code": "0606213",
    "District": "KUZ KUNAR",
    "د_مرکز_نوم__نام_مرکز": "جينکو مکتب",
    "Polling_Center_Name": "Girls School",
    "د_مرکز_ځای__موقعیت_مرکز": "شيخان",
    "Polling_Center_Location": "Shekhaan",
    "Map_Accuracy": "Building",
    "Map_Accuracy_Dari": "تعمیر",
    "Status": "Open",
    "Status_Dari": null,
    "PS_Male": 0,
    "PS_Female": 2,
    "PS_Total": 2,
    "ولسوالي": "کوز کنړ",
    "Region": "Eastern Region"
   },
   "geometry": {
    "x": 7854938.2947615208,
    "y": 4101545.5946372552
   }
  },
  {
   "attributes": {
    "OBJECTID": 3929,
    "ولایت": "ننگرهار",
    "Province": "NANGARHAR",
    "PC_Code": "0608287",
    "District": "KHUGYANI",
    "د_مرکز_نوم__نام_مرکز": "کوزبهار لیسه",
    "Polling_Center_Name": "Koz Bahar High School",
    "د_مرکز_ځای__موقعیت_مرکز": "کوزبهار",
    "Polling_Center_Location": "Koz Bahar",
    "Map_Accuracy": "Building",
    "Map_Accuracy_Dari": "تعمیر",
    "Status": "Open",
    "Status_Dari": null,
    "PS_Male": 3,
    "PS_Female": 1,
    "PS_Total": 4,
    "ولسوالي": "خوګیاڼي",
    "Region": "Eastern Region"
   },
   "geometry": {
    "x": 7815175.06504534,
    "y": 4067576.7051187679
   }
  },
  {
   "attributes": {
    "OBJECTID": 3930,
    "ولایت": "ننگرهار",
    "Province": "NANGARHAR",
    "PC_Code": "0608288",
    "District": "KHUGYANI",
    "د_مرکز_نوم__نام_مرکز": "لوخي لیسه",
    "Polling_Center_Name": "Lokhay Maktab",
    "د_مرکز_ځای__موقعیت_مرکز": "لوخۍ",
    "Polling_Center_Location": "Lokhay",
    "Map_Accuracy": "Building",
    "Map_Accuracy_Dari": "تعمیر",
    "Status": "Open",
    "Status_Dari": null,
    "PS_Male": 2,
    "PS_Female": 1,
    "PS_Total": 3,
    "ولسوالي": "خوګیاڼي",
    "Region": "Eastern Region"
   },
   "geometry": {
    "x": 7814112.5928633884,
    "y": 4069758.0287129693
   }
  },
  {
   "attributes": {
    "OBJECTID": 3931,
    "ولایت": "ننگرهار",
    "Province": "NANGARHAR",
    "PC_Code": "0611315",
    "District": "PACHIR WAGAM",
    "د_مرکز_نوم__نام_مرکز": "پچير کلینيک",
    "Polling_Center_Name": "Pacheer Clinic",
    "د_مرکز_ځای__موقعیت_مرکز": "پاس پچير",
    "Polling_Center_Location": "Paas Pacheer",
    "Map_Accuracy": "Village",
    "Map_Accuracy_Dari": "قریه",
    "Status": "Open",
    "Status_Dari": null,
    "PS_Male": 3,
    "PS_Female": 0,
    "PS_Total": 3,
    "ولسوالي": "پچیر و اګام",
    "Region": "Eastern Region"
   },
   "geometry": {
    "x": 7825203.6053131744,
    "y": 4044216.8392920461
   }
  },
  {
   "attributes": {
    "OBJECTID": 3932,
    "ولایت": "ننگرهار",
    "Province": "NANGARHAR",
    "PC_Code": "0612220",
    "District": "DARAH-E-NOOR",
    "د_مرکز_نوم__نام_مرکز": "سروړ جومات",
    "Polling_Center_Name": "Sarwarr Mosque",
    "د_مرکز_ځای__موقعیت_مرکز": "سروړ",
    "Polling_Center_Location": "Sarwarr",
    "Map_Accuracy": "Village",
    "Map_Accuracy_Dari": "قریه",
    "Status": "Open",
    "Status_Dari": null,
    "PS_Male": 1,
    "PS_Female": 1,
    "PS_Total": 2,
    "ولسوالي": "دره نور",
    "Region": "Eastern Region"
   },
   "geometry": {
    "x": 7853145.9329610914,
    "y": 4119943.1676777587
   }
  },
  {
   "attributes": {
    "OBJECTID": 3933,
    "ولایت": "ننگرهار",
    "Province": "NANGARHAR",
    "PC_Code": "0613348",
    "District": "KOT",
    "د_مرکز_نوم__نام_مرکز": "کوټ ليسه",
    "Polling_Center_Name": "Kot High School",
    "د_مرکز_ځای__موقعیت_مرکز": "جبه کلي",
    "Polling_Center_Location": "Jaba Village",
    "Map_Accuracy": "Building",
    "Map_Accuracy_Dari": "تعمیر",
    "Status": "Open",
    "Status_Dari": null,
    "PS_Male": 2,
    "PS_Female": 1,
    "PS_Total": 3,
    "ولسوالي": "کوټ",
    "Region": "Eastern Region"
   },
   "geometry": {
    "x": 7864245.9645160176,
    "y": 4055412.5235154089
   }
  },
  {
   "attributes": {
    "OBJECTID": 3934,
    "ولایت": "ننگرهار",
    "Province": "NANGARHAR",
    "PC_Code": "0617464",
    "District": "MUHMAND DARA",
    "د_مرکز_نوم__نام_مرکز": "دکه لیسه",
    "Polling_Center_Name": "Daka High School",
    "د_مرکز_ځای__موقعیت_مرکز": "لوي ډکه",
    "Polling_Center_Location": "Loy Daka",
    "Map_Accuracy": "Building",
    "Map_Accuracy_Dari": "تعمیر",
    "Status": "Open",
    "Status_Dari": null,
    "PS_Male": 1,
    "PS_Female": 3,
    "PS_Total": 4,
    "ولسوالي": "مهمند دره",
    "Region": "Eastern Region"
   },
   "geometry": {
    "x": 7909741.594750178,
    "y": 4057524.9393679267
   }
  },
  {
   "attributes": {
    "OBJECTID": 3935,
    "ولایت": "ننگرهار",
    "Province": "NANGARHAR",
    "PC_Code": "0621255",
    "District": "HESARAK",
    "د_مرکز_نوم__نام_مرکز": "ظريف خيل مکتب",
    "Polling_Center_Name": "Zareef Khel School",
    "د_مرکز_ځای__موقعیت_مرکز": "ظريف خيل",
    "Polling_Center_Location": "Zareef Khel",
    "Map_Accuracy": "Village",
    "Map_Accuracy_Dari": "قریه",
    "Status": "Open",
    "Status_Dari": null,
    "PS_Male": 0,
    "PS_Female": 2,
    "PS_Total": 2,
    "ولسوالي": "حصارک",
    "Region": "Eastern Region"
   },
   "geometry": {
    "x": 7766647.2265785551,
    "y": 4070064.5873745936
   }
  },
  {
   "attributes": {
    "OBJECTID": 3936,
    "ولایت": "ننگرهار",
    "Province": "NANGARHAR",
    "PC_Code": "0621256",
    "District": "HESARAK",
    "د_مرکز_نوم__نام_مرکز": "ميدان خالی ",
    "Polling_Center_Name": "Open Space",
    "د_مرکز_ځای__موقعیت_مرکز": "ظريف خيل",
    "Polling_Center_Location": "Zareef Khel",
    "Map_Accuracy": "Village",
    "Map_Accuracy_Dari": "قریه",
    "Status": "Open",
    "Status_Dari": null,
    "PS_Male": 2,
    "PS_Female": 0,
    "PS_Total": 2,
    "ولسوالي": "حصارک",
    "Region": "Eastern Region"
   },
   "geometry": {
    "x": 7766651.1995711764,
    "y": 4070252.9797773655
   }
  },
  {
   "attributes": {
    "OBJECTID": 3937,
    "ولایت": "ننگرهار",
    "Province": "NANGARHAR",
    "PC_Code": "0622415",
    "District": "DUR BABA",
    "د_مرکز_نوم__نام_مرکز": "سوبي جومات",
    "Polling_Center_Name": "Sobay Mosque",
    "د_مرکز_ځای__موقعیت_مرکز": "سوبي",
    "Polling_Center_Location": "Sobay",
    "Map_Accuracy": "Village",
    "Map_Accuracy_Dari": "قریه",
    "Status": "Open",
    "Status_Dari": null,
    "PS_Male": 2,
    "PS_Female": 1,
    "PS_Total": 3,
    "ولسوالي": "در بابا",
    "Region": "Eastern Region"
   },
   "geometry": {
    "x": 7906409.4988224888,
    "y": 4038377.1781730312
   }
  },
  {
   "attributes": {
    "OBJECTID": 3938,
    "ولایت": "لغمان",
    "Province": "LAGHMAN",
    "PC_Code": "0701006",
    "District": "MEHTARLAM",
    "د_مرکز_نوم__نام_مرکز": "د تيرګړېو جومات",
    "Polling_Center_Name": "Tergarayo Mosque",
    "د_مرکز_ځای__موقعیت_مرکز": "تیر ګړی",
    "Polling_Center_Location": "Targaray",
    "Map_Accuracy": "Village",
    "Map_Accuracy_Dari": "قریه",
    "Status": "Open",
    "Status_Dari": null,
    "PS_Male": 3,
    "PS_Female": 1,
    "PS_Total": 4,
    "ولسوالي": "مهترلام",
    "Region": "Eastern Region"
   },
   "geometry": {
    "x": 7815984.1874245852,
    "y": 4115891.3214994683
   }
  },
  {
   "attributes": {
    "OBJECTID": 3939,
    "ولایت": "لغمان",
    "Province": "LAGHMAN",
    "PC_Code": "0701007",
    "District": "MEHTARLAM",
    "د_مرکز_نوم__نام_مرکز": "د چاردهي ښوونځی",
    "Polling_Center_Name": "Chardhi School",
    "د_مرکز_ځای__موقعیت_مرکز": "چهاردهي",
    "Polling_Center_Location": "Chardhi",
    "Map_Accuracy": "Building",
    "Map_Accuracy_Dari": "تعمیر",
    "Status": "Open",
    "Status_Dari": null,
    "PS_Male": 3,
    "PS_Female": 1,
    "PS_Total": 4,
    "ولسوالي": "مهترلام",
    "Region": "Eastern Region"
   },
   "geometry": {
    "x": 7816308.1638782285,
    "y": 4112908.7523373361
   }
  },
  {
   "attributes": {
    "OBJECTID": 3940,
    "ولایت": "لغمان",
    "Province": "LAGHMAN",
    "PC_Code": "0701015",
    "District": "MEHTARLAM",
    "د_مرکز_نوم__نام_مرکز": "دهرمل دهلکانو او نجونو ښوونځي",
    "Polling_Center_Name": "Harmal Boys & Girls School",
    "د_مرکز_ځای__موقعیت_مرکز": "هرمل",
    "Polling_Center_Location": "Harmal",
    "Map_Accuracy": "Building",
    "Map_Accuracy_Dari": "تعمیر",
    "Status": "Open",
    "Status_Dari": null,
    "PS_Male": 2,
    "PS_Female": 2,
    "PS_Total": 4,
    "ولسوالي": "مهترلام",
    "Region": "Eastern Region"
   },
   "geometry": {
    "x": 7817913.6102348631,
    "y": 4122644.1313057947
   }
  },
  {
   "attributes": {
    "OBJECTID": 3941,
    "ولایت": "لغمان",
    "Province": "LAGHMAN",
    "PC_Code": "0701016",
    "District": "MEHTARLAM",
    "د_مرکز_نوم__نام_مرکز": "دکټل دنجونوښوونځی",
    "Polling_Center_Name": "Katal Girls School",
    "د_مرکز_ځای__موقعیت_مرکز": "کټل",
    "Polling_Center_Location": "Katal",
    "Map_Accuracy": "Building",
    "Map_Accuracy_Dari": "تعمیر",
    "Status": "Open",
    "Status_Dari": null,
    "PS_Male": 3,
    "PS_Female": 2,
    "PS_Total": 5,
    "ولسوالي": "مهترلام",
    "Region": "Eastern Region"
   },
   "geometry": {
    "x": 7819259.4038792225,
    "y": 4124665.7729083984
   }
  },
  {
   "attributes": {
    "OBJECTID": 3942,
    "ولایت": "لغمان",
    "Province": "LAGHMAN",
    "PC_Code": "0702043",
    "District": "QARGHAYEE",
    "د_مرکز_نوم__نام_مرکز": "دسرخکانو لېسه",
    "Polling_Center_Name": "Surkhakan High School",
    "د_مرکز_ځای__موقعیت_مرکز": "سرخکان",
    "Polling_Center_Location": "Surkhakan",
    "Map_Accuracy": "Building",
    "Map_Accuracy_Dari": "تعمیر",
    "Status": "Open",
    "Status_Dari": null,
    "PS_Male": 3,
    "PS_Female": 2,
    "PS_Total": 5,
    "ولسوالي": "قرغه یي",
    "Region": "Eastern Region"
   },
   "geometry": {
    "x": 7815865.3694528947,
    "y": 4097215.7850521402
   }
  },
  {
   "attributes": {
    "OBJECTID": 3943,
    "ولایت": "لغمان",
    "Province": "LAGHMAN",
    "PC_Code": "0702044",
    "District": "QARGHAYEE",
    "د_مرکز_نوم__نام_مرکز": "دګل پاچاالفت لېسه",
    "Polling_Center_Name": "Gul Pacha Olfat High School",
    "د_مرکز_ځای__موقعیت_مرکز": "عزیز خان کڅ",
    "Polling_Center_Location": "Aziz Khan Kas",
    "Map_Accuracy": "Building",
    "Map_Accuracy_Dari": "تعمیر",
    "Status": "Open",
    "Status_Dari": null,
    "PS_Male": 3,
    "PS_Female": 2,
    "PS_Total": 5,
    "ولسوالي": "قرغه یي",
    "Region": "Eastern Region"
   },
   "geometry": {
    "x": 7825603.5985074937,
    "y": 4095277.2872186783
   }
  },
  {
   "attributes": {
    "OBJECTID": 3944,
    "ولایت": "لغمان",
    "Province": "LAGHMAN",
    "PC_Code": "0702053",
    "District": "QARGHAYEE",
    "د_مرکز_نوم__نام_مرکز": "لوګرلام خان قلعه مکتب",
    "Polling_Center_Name": "Logar Lam Khan Qala School",
    "د_مرکز_ځای__موقعیت_مرکز": "لوګرلام",
    "Polling_Center_Location": "LogarLam",
    "Map_Accuracy": "Village",
    "Map_Accuracy_Dari": "قریه",
    "Status": "Open",
    "Status_Dari": null,
    "PS_Male": 2,
    "PS_Female": 1,
    "PS_Total": 3,
    "ولسوالي": "قرغه یي",
    "Region": "Eastern Region"
   },
   "geometry": {
    "x": 7817199.5558139533,
    "y": 4103610.2743215202
   }
  },
  {
   "attributes": {
    "OBJECTID": 3945,
    "ولایت": "لغمان",
    "Province": "LAGHMAN",
    "PC_Code": "0705115",
    "District": "DAWLAT SHAH",
    "د_مرکز_نوم__نام_مرکز": "دولت شاه مسجد",
    "Polling_Center_Name": "Dawlat Shah Mosque",
    "د_مرکز_ځای__موقعیت_مرکز": "خاص دولت شاه مرکز",
    "Polling_Center_Location": "Dawlat Shah Center",
    "Map_Accuracy": "Village",
    "Map_Accuracy_Dari": "قریه",
    "Status": "Open",
    "Status_Dari": null,
    "PS_Male": 3,
    "PS_Female": 1,
    "PS_Total": 4,
    "ولسوالي": "دولت شاه",
    "Region": "Eastern Region"
   },
   "geometry": {
    "x": 7800101.8905826909,
    "y": 4157133.9494710518
   }
  },
  {
   "attributes": {
    "OBJECTID": 3946,
    "ولایت": "لغمان",
    "Province": "LAGHMAN",
    "PC_Code": "0705116",
    "District": "DAWLAT SHAH",
    "د_مرکز_نوم__نام_مرکز": "د درنګي کلي جومات ",
    "Polling_Center_Name": "Darangee Village Mosque",
    "د_مرکز_ځای__موقعیت_مرکز": "درنګی",
    "Polling_Center_Location": "Darangee",
    "Map_Accuracy": "Building",
    "Map_Accuracy_Dari": "تعمیر",
    "Status": "Open",
    "Status_Dari": null,
    "PS_Male": 1,
    "PS_Female": 3,
    "PS_Total": 4,
    "ولسوالي": "دولت شاه",
    "Region": "Eastern Region"
   },
   "geometry": {
    "x": 7802951.430210093,
    "y": 4153809.1932019196
   }
  },
  {
   "attributes": {
    "OBJECTID": 3947,
    "ولایت": "لغمان",
    "Province": "LAGHMAN",
    "PC_Code": "0705126",
    "District": "DAWLAT SHAH",
    "د_مرکز_نوم__نام_مرکز": "نوړه کلي جومات",
    "Polling_Center_Name": "Nora Village Mosque",
    "د_مرکز_ځای__موقعیت_مرکز": "نوړه کلی",
    "Polling_Center_Location": "Nora Village",
    "Map_Accuracy": "Building",
    "Map_Accuracy_Dari": "تعمیر",
    "Status": "Open",
    "Status_Dari": null,
    "PS_Male": 2,
    "PS_Female": 1,
    "PS_Total": 3,
    "ولسوالي": "دولت شاه",
    "Region": "Eastern Region"
   },
   "geometry": {
    "x": 7802578.9674390433,
    "y": 4154042.049194131
   }
  },
  {
   "attributes": {
    "OBJECTID": 3948,
    "ولایت": "پنجشیر",
    "Province": "PANJSHIR",
    "PC_Code": "0802020",
    "District": "RUKHA",
    "د_مرکز_نوم__نام_مرکز": "لیسه ذکور رخه",
    "Polling_Center_Name": "Rukha Boys High School",
    "د_مرکز_ځای__موقعیت_مرکز": "شیخان",
    "Polling_Center_Location": "Shekhan",
    "Map_Accuracy": "Building",
    "Map_Accuracy_Dari": "تعمیر",
    "Status": "Open",
    "Status_Dari": null,
    "PS_Male": 3,
    "PS_Female": 1,
    "PS_Total": 4,
    "ولسوالي": "رخه",
    "Region": "Central Region"
   },
   "geometry": {
    "x": 7732635.6723501878,
    "y": 4199291.0475116372
   }
  },
  {
   "attributes": {
    "OBJECTID": 3949,
    "ولایت": "پنجشیر",
    "Province": "PANJSHIR",
    "PC_Code": "0804011",
    "District": "HISSA-E-AWAL KHINJ",
    "د_مرکز_نوم__نام_مرکز": "مسجد جامع پشغور ",
    "Polling_Center_Name": "Peshghur Mosque",
    "د_مرکز_ځای__موقعیت_مرکز": "پشغور ",
    "Polling_Center_Location": "Peshghur",
    "Map_Accuracy": "Building",
    "Map_Accuracy_Dari": "تعمیر",
    "Status": "Open",
    "Status_Dari": null,
    "PS_Male": 1,
    "PS_Female": 1,
    "PS_Total": 2,
    "ولسوالي": "حصه اول خنج",
    "Region": "Central Region"
   },
   "geometry": {
    "x": 7758545.6734505408,
    "y": 4218153.1489650207
   }
  },
  {
   "attributes": {
    "OBJECTID": 3950,
    "ولایت": "پنجشیر",
    "Province": "PANJSHIR",
    "PC_Code": "0805041",
    "District": "UNABA",
    "د_مرکز_نوم__نام_مرکز": "مسجد سنگین ",
    "Polling_Center_Name": "Sangeen Mosque",
    "د_مرکز_ځای__موقعیت_مرکز": "سنگین ",
    "Polling_Center_Location": "Sangeen",
    "Map_Accuracy": "Building",
    "Map_Accuracy_Dari": "تعمیر",
    "Status": "Open",
    "Status_Dari": null,
    "PS_Male": 1,
    "PS_Female": 1,
    "PS_Total": 2,
    "ولسوالي": "عنابه",
    "Region": "Central Region"
   },
   "geometry": {
    "x": 7719841.84238517,
    "y": 4193356.6746933926
   }
  },
  {
   "attributes": {
    "OBJECTID": 3951,
    "ولایت": "پنجشیر",
    "Province": "PANJSHIR",
    "PC_Code": "0807079",
    "District": "PARYAN",
    "د_مرکز_نوم__نام_مرکز": "مسجد شهر بلند ",
    "Polling_Center_Name": "Shahr-e- Beland Mosque ",
    "د_مرکز_ځای__موقعیت_مرکز": "شهر بلند ",
    "Polling_Center_Location": "Shahr-e-Beland",
    "Map_Accuracy": "Village",
    "Map_Accuracy_Dari": "قریه",
    "Status": "Open",
    "Status_Dari": null,
    "PS_Male": 1,
    "PS_Female": 1,
    "PS_Total": 2,
    "ولسوالي": "پریان",
    "Region": "Central Region"
   },
   "geometry": {
    "x": 7801486.7017085748,
    "y": 4256087.2556067798
   }
  },
  {
   "attributes": {
    "OBJECTID": 3952,
    "ولایت": "پنجشیر",
    "Province": "PANJSHIR",
    "PC_Code": "0807080",
    "District": "PARYAN",
    "د_مرکز_نوم__نام_مرکز": "مسجد ده پریان",
    "Polling_Center_Name": "Deh Paryan Mosque ",
    "د_مرکز_ځای__موقعیت_مرکز": "ده پریان ",
    "Polling_Center_Location": "Deh Paryan",
    "Map_Accuracy": "Building",
    "Map_Accuracy_Dari": "تعمیر",
    "Status": "Open",
    "Status_Dari": null,
    "PS_Male": 1,
    "PS_Female": 1,
    "PS_Total": 2,
    "ولسوالي": "پریان",
    "Region": "Central Region"
   },
   "geometry": {
    "x": 7793957.9252093202,
    "y": 4249166.0724282321
   }
  },
  {
   "attributes": {
    "OBJECTID": 3953,
    "ولایت": "بغلان",
    "Province": "BAGHLAN",
    "PC_Code": "0901024",
    "District": "PUL-E-KHUMRI",
    "د_مرکز_نوم__نام_مرکز": "مکتب تور شهید",
    "Polling_Center_Name": "Toor Shaheed School",
    "د_مرکز_ځای__موقعیت_مرکز": "قریه خلا\u200Cځی",
    "Polling_Center_Location": "Khalazai Village",
    "Map_Accuracy": "Building",
    "Map_Accuracy_Dari": "تعمیر",
    "Status": "Open",
    "Status_Dari": null,
    "PS_Male": 3,
    "PS_Female": 1,
    "PS_Total": 4,
    "ولسوالي": "پلخمری",
    "Region": "North Eastern Region"
   },
   "geometry": {
    "x": 7643432.2273942893,
    "y": 4310647.9549382478
   }
  },
  {
   "attributes": {
    "OBJECTID": 3954,
    "ولایت": "بغلان",
    "Province": "BAGHLAN",
    "PC_Code": "0901025",
    "District": "PUL-E-KHUMRI",
    "د_مرکز_نوم__نام_مرکز": "مکتب لیسه  احمد زی",
    "Polling_Center_Name": "Ahmadzai high School ",
    "د_مرکز_ځای__موقعیت_مرکز": "جوی نو احمدزی",
    "Polling_Center_Location": "Joy Naw Ahmadzai",
    "Map_Accuracy": "Building",
    "Map_Accuracy_Dari": "تعمیر",
    "Status": "Open",
    "Status_Dari": null,
    "PS_Male": 3,
    "PS_Female": 1,
    "PS_Total": 4,
    "ولسوالي": "پلخمری",
    "Region": "North Eastern Region"
   },
   "geometry": {
    "x": 7641793.7848273842,
    "y": 4292138.8948650667
   }
  },
  {
   "attributes": {
    "OBJECTID": 3955,
    "ولایت": "بغلان",
    "Province": "BAGHLAN",
    "PC_Code": "0901228",
    "District": "PUL-E-KHUMRI",
    "د_مرکز_نوم__نام_مرکز": "مسجد قول قصابی",
    "Polling_Center_Name": "Qul Qasabi Mosque",
    "د_مرکز_ځای__موقعیت_مرکز": "ناحیه دوم",
    "Polling_Center_Location": "Second Nahia",
    "Map_Accuracy": "Building",
    "Map_Accuracy_Dari": "تعمیر",
    "Status": "Open",
    "Status_Dari": null,
    "PS_Male": 2,
    "PS_Female": 2,
    "PS_Total": 4,
    "ولسوالي": "پلخمری",
    "Region": "North Eastern Region"
   },
   "geometry": {
    "x": 7650083.8107588701,
    "y": 4292217.7572487192
   }
  },
  {
   "attributes": {
    "OBJECTID": 3956,
    "ولایت": "بغلان",
    "Province": "BAGHLAN",
    "PC_Code": "0901229",
    "District": "PUL-E-KHUMRI",
    "د_مرکز_نوم__نام_مرکز": "مسجد قول پنجشیری ها",
    "Polling_Center_Name": "Panjsheriha Mosque",
    "د_مرکز_ځای__موقعیت_مرکز": "ناحیه اول",
    "Polling_Center_Location": "First Nahia",
    "Map_Accuracy": "Building",
    "Map_Accuracy_Dari": "تعمیر",
    "Status": "Open",
    "Status_Dari": null,
    "PS_Male": 2,
    "PS_Female": 1,
    "PS_Total": 3,
    "ولسوالي": "پلخمری",
    "Region": "North Eastern Region"
   },
   "geometry": {
    "x": 7649615.2558901692,
    "y": 4292647.0185467089
   }
  },
  {
   "attributes": {
    "OBJECTID": 3957,
    "ولایت": "بغلان",
    "Province": "BAGHLAN",
    "PC_Code": "0902081",
    "District": "DAHANA-E-GHURI",
    "د_مرکز_نوم__نام_مرکز": "مسجد کلته قول",
    "Polling_Center_Name": "Kalta Qul Mosque",
    "د_مرکز_ځای__موقعیت_مرکز": " قریه چرم آب بالا",
    "Polling_Center_Location": "Charm Aab Bala",
    "Map_Accuracy": "Building",
    "Map_Accuracy_Dari": "تعمیر",
    "Status": "Open",
    "Status_Dari": null,
    "PS_Male": 1,
    "PS_Female": 1,
    "PS_Total": 2,
    "ولسوالي": "دهنه غوری",
    "Region": "North Eastern Region"
   },
   "geometry": {
    "x": 7634909.7763847793,
    "y": 4274420.0412604343
   }
  },
  {
   "attributes": {
    "OBJECTID": 3958,
    "ولایت": "بغلان",
    "Province": "BAGHLAN",
    "PC_Code": "0903099",
    "District": "DUSHI",
    "د_مرکز_نوم__نام_مرکز": "مدرسه جامع قریه کرو ",
    "Polling_Center_Name": "Koro Village Mosque",
    "د_مرکز_ځای__موقعیت_مرکز": "قریه کرو",
    "Polling_Center_Location": "Koro Village",
    "Map_Accuracy": "Building",
    "Map_Accuracy_Dari": "تعمیر",
    "Status": "Open",
    "Status_Dari": null,
    "PS_Male": 2,
    "PS_Female": 2,
    "PS_Total": 4,
    "ولسوالي": "دوشی",
    "Region": "North Eastern Region"
   },
   "geometry": {
    "x": 7659520.9873825638,
    "y": 4242257.2472009547
   }
  },
  {
   "attributes": {
    "OBJECTID": 3959,
    "ولایت": "بغلان",
    "Province": "BAGHLAN",
    "PC_Code": "0903100",
    "District": "DUSHI",
    "د_مرکز_نوم__نام_مرکز": "لیسه حضرت علی  دوشی ",
    "Polling_Center_Name": "Hazrat Ali Doshi High School",
    "د_مرکز_ځای__موقعیت_مرکز": "مرکز دوشی",
    "Polling_Center_Location": "Doshi District Center",
    "Map_Accuracy": "Building",
    "Map_Accuracy_Dari": "تعمیر",
    "Status": "Open",
    "Status_Dari": null,
    "PS_Male": 3,
    "PS_Female": 1,
    "PS_Total": 4,
    "ولسوالي": "دوشی",
    "Region": "North Eastern Region"
   },
   "geometry": {
    "x": 7657298.4904092932,
    "y": 4278398.3858417161
   }
  },
  {
   "attributes": {
    "OBJECTID": 3960,
    "ولایت": "بغلان",
    "Province": "BAGHLAN",
    "PC_Code": "0903109",
    "District": "DUSHI",
    "د_مرکز_نوم__نام_مرکز": "لیسه قره دکه",
    "Polling_Center_Name": "Qura Daka High School",
    "د_مرکز_ځای__موقعیت_مرکز": "قره دکه",
    "Polling_Center_Location": "Qura Daka",
    "Map_Accuracy": "Building",
    "Map_Accuracy_Dari": "تعمیر",
    "Status": "Open",
    "Status_Dari": null,
    "PS_Male": 2,
    "PS_Female": 2,
    "PS_Total": 4,
    "ولسوالي": "دوشی",
    "Region": "North Eastern Region"
   },
   "geometry": {
    "x": 7657885.0673153223,
    "y": 4278439.354592667
   }
  },
  {
   "attributes": {
    "OBJECTID": 3961,
    "ولایت": "بغلان",
    "Province": "BAGHLAN",
    "PC_Code": "0903110",
    "District": "DUSHI",
    "د_مرکز_نوم__نام_مرکز": "لیسه نسوان چهل غوری  دوشی ",
    "Polling_Center_Name": "Chehl Ghori Doshi Girls High School",
    "د_مرکز_ځای__موقعیت_مرکز": "دوشی",
    "Polling_Center_Location": "Doshi",
    "Map_Accuracy": "Building",
    "Map_Accuracy_Dari": "تعمیر",
    "Status": "Open",
    "Status_Dari": null,
    "PS_Male": 3,
    "PS_Female": 1,
    "PS_Total": 4,
    "ولسوالي": "دوشی",
    "Region": "North Eastern Region"
   },
   "geometry": {
    "x": 7645838.3703579092,
    "y": 4247077.9990561418
   }
  },
  {
   "attributes": {
    "OBJECTID": 3962,
    "ولایت": "بغلان",
    "Province": "BAGHLAN",
    "PC_Code": "0908181",
    "District": "DEH SALAH",
    "د_مرکز_نوم__نام_مرکز": "خیمه در کارگرد ",
    "Polling_Center_Name": "Kar Gard Tent ",
    "د_مرکز_ځای__موقعیت_مرکز": "کارگرد",
    "Polling_Center_Location": "Kar Gard",
    "Map_Accuracy": "Building",
    "Map_Accuracy_Dari": "تعمیر",
    "Status": "Open",
    "Status_Dari": null,
    "PS_Male": 2,
    "PS_Female": 1,
    "PS_Total": 3,
    "ولسوالي": "ده صلاح ",
    "Region": "North Eastern Region"
   },
   "geometry": {
    "x": 7719224.7227504542,
    "y": 4261040.8884625882
   }
  },
  {
   "attributes": {
    "OBJECTID": 3963,
    "ولایت": "بغلان",
    "Province": "BAGHLAN",
    "PC_Code": "0909191",
    "District": "JALGA",
    "د_مرکز_نوم__نام_مرکز": "مسجد جامع زرد اسپان",
    "Polling_Center_Name": "Zard Aspan Mosque",
    "د_مرکز_ځای__موقعیت_مرکز": "زرد اسپان",
    "Polling_Center_Location": "Zard Aspan",
    "Map_Accuracy": "Building",
    "Map_Accuracy_Dari": "تعمیر",
    "Status": "Open",
    "Status_Dari": null,
    "PS_Male": 1,
    "PS_Female": 2,
    "PS_Total": 3,
    "ولسوالي": "جلگه",
    "Region": "North Eastern Region"
   },
   "geometry": {
    "x": 7711756.6020153435,
    "y": 4284386.1063140118
   }
  },
  {
   "attributes": {
    "OBJECTID": 3964,
    "ولایت": "بغلان",
    "Province": "BAGHLAN",
    "PC_Code": "0910147",
    "District": "BURKA",
    "د_مرکز_نوم__نام_مرکز": "لیسه ده باش",
    "Polling_Center_Name": "Deh Bash School",
    "د_مرکز_ځای__موقعیت_مرکز": "ده باش",
    "Polling_Center_Location": "Deh Bash",
    "Map_Accuracy": "Building",
    "Map_Accuracy_Dari": "تعمیر",
    "Status": "Open",
    "Status_Dari": null,
    "PS_Male": 3,
    "PS_Female": 1,
    "PS_Total": 4,
    "ولسوالي": "برکه",
    "Region": "North Eastern Region"
   },
   "geometry": {
    "x": 7691224.131594249,
    "y": 4335871.2609025557
   }
  },
  {
   "attributes": {
    "OBJECTID": 3965,
    "ولایت": "بغلان",
    "Province": "BAGHLAN",
    "PC_Code": "0910148",
    "District": "BURKA",
    "د_مرکز_نوم__نام_مرکز": "مسجد حاجی مومن ",
    "Polling_Center_Name": "Haji Momen Mosque",
    "د_مرکز_ځای__موقعیت_مرکز": "هزار قاق ",
    "Polling_Center_Location": "Hazar Qaq",
    "Map_Accuracy": "Building",
    "Map_Accuracy_Dari": "تعمیر",
    "Status": "Open",
    "Status_Dari": null,
    "PS_Male": 2,
    "PS_Female": 1,
    "PS_Total": 3,
    "ولسوالي": "برکه",
    "Region": "North Eastern Region"
   },
   "geometry": {
    "x": 7681750.3252921086,
    "y": 4341088.0820912886
   }
  },
  {
   "attributes": {
    "OBJECTID": 3966,
    "ولایت": "بغلان",
    "Province": "BAGHLAN",
    "PC_Code": "0913207",
    "District": "KHOST WA FIRING",
    "د_مرکز_نوم__نام_مرکز": "مکتب گذر",
    "Polling_Center_Name": "Gozar School",
    "د_مرکز_ځای__موقعیت_مرکز": "گذر",
    "Polling_Center_Location": "Gozar",
    "Map_Accuracy": "Building",
    "Map_Accuracy_Dari": "تعمیر",
    "Status": "Open",
    "Status_Dari": null,
    "PS_Male": 1,
    "PS_Female": 1,
    "PS_Total": 2,
    "ولسوالي": "خوست و فرنگ",
    "Region": "North Eastern Region"
   },
   "geometry": {
    "x": 7756778.0902555613,
    "y": 4286887.7343078982
   }
  },
  {
   "attributes": {
    "OBJECTID": 3967,
    "ولایت": "بغلان",
    "Province": "BAGHLAN",
    "PC_Code": "0915221",
    "District": "FIRING WA GHARU",
    "د_مرکز_نوم__نام_مرکز": "مسجد حضرت صاحب ",
    "Polling_Center_Name": "Hazrat Saheb Mosque",
    "د_مرکز_ځای__موقعیت_مرکز": "مراد شهر",
    "Polling_Center_Location": "Murad Shahr",
    "Map_Accuracy": "Building",
    "Map_Accuracy_Dari": "تعمیر",
    "Status": "Open",
    "Status_Dari": null,
    "PS_Male": 1,
    "PS_Female": 1,
    "PS_Total": 2,
    "ولسوالي": "فرنگ و غارو",
    "Region": "North Eastern Region"
   },
   "geometry": {
    "x": 7754963.0359769352,
    "y": 4317627.2604869399
   }
  },
  {
   "attributes": {
    "OBJECTID": 3968,
    "ولایت": "بغلان",
    "Province": "BAGHLAN",
    "PC_Code": "0915222",
    "District": "FIRING WA GHARU",
    "د_مرکز_نوم__نام_مرکز": "مسجد مراد شهر ",
    "Polling_Center_Name": "Morad Shahr Mosque",
    "د_مرکز_ځای__موقعیت_مرکز": "اصفهان",
    "Polling_Center_Location": "Asfahan",
    "Map_Accuracy": "Building",
    "Map_Accuracy_Dari": "تعمیر",
    "Status": "Open",
    "Status_Dari": null,
    "PS_Male": 1,
    "PS_Female": 1,
    "PS_Total": 2,
    "ولسوالي": "فرنگ و غارو",
    "Region": "North Eastern Region"
   },
   "geometry": {
    "x": 7756885.102795261,
    "y": 4319236.6411765954
   }
  },
  {
   "attributes": {
    "OBJECTID": 3969,
    "ولایت": "باميان",
    "Province": "BAMYAN",
    "PC_Code": "1001009",
    "District": "BAMYAN",
    "د_مرکز_نوم__نام_مرکز": "مدرسه شینیه",
    "Polling_Center_Name": "Shinia Madrassa",
    "د_مرکز_ځای__موقعیت_مرکز": "شینیه",
    "Polling_Center_Location": "Shinia",
    "Map_Accuracy": "Building",
    "Map_Accuracy_Dari": "تعمیر",
    "Status": "Open",
    "Status_Dari": null,
    "PS_Male": 4,
    "PS_Female": 0,
    "PS_Total": 4,
    "ولسوالي": "بامیان",
    "Region": "Central Highlands Region"
   },
   "geometry": {
    "x": 7541364.18333349,
    "y": 4133848.7801061473
   }
  },
  {
   "attributes": {
    "OBJECTID": 3970,
    "ولایت": "باميان",
    "Province": "BAMYAN",
    "PC_Code": "1001010",
    "District": "BAMYAN",
    "د_مرکز_نوم__نام_مرکز": "مسجد سوماره",
    "Polling_Center_Name": "Samora Mosque",
    "د_مرکز_ځای__موقعیت_مرکز": "سوماره",
    "Polling_Center_Location": "Samora",
    "Map_Accuracy": "Building",
    "Map_Accuracy_Dari": "تعمیر",
    "Status": "Open",
    "Status_Dari": null,
    "PS_Male": 1,
    "PS_Female": 2,
    "PS_Total": 3,
    "ولسوالي": "بامیان",
    "Region": "Central Highlands Region"
   },
   "geometry": {
    "x": 7558178.8109670458,
    "y": 4134755.4833020922
   }
  },
  {
   "attributes": {
    "OBJECTID": 3971,
    "ولایت": "باميان",
    "Province": "BAMYAN",
    "PC_Code": "1001020",
    "District": "BAMYAN",
    "د_مرکز_نوم__نام_مرکز": "مکتب سیاه لا یک",
    "Polling_Center_Name": "Sialayak School",
    "د_مرکز_ځای__موقعیت_مرکز": "سیاه لا یک",
    "Polling_Center_Location": "Sialayak",
    "Map_Accuracy": "Building",
    "Map_Accuracy_Dari": "تعمیر",
    "Status": "Open",
    "Status_Dari": null,
    "PS_Male": 1,
    "PS_Female": 2,
    "PS_Total": 3,
    "ولسوالي": "بامیان",
    "Region": "Central Highlands Region"
   },
   "geometry": {
    "x": 7529654.5751525341,
    "y": 4127742.7899087188
   }
  },
  {
   "attributes": {
    "OBJECTID": 3972,
    "ولایت": "باميان",
    "Province": "BAMYAN",
    "PC_Code": "1002021",
    "District": "SHEBAR",
    "د_مرکز_نوم__نام_مرکز": "مکتب واته پور",
    "Polling_Center_Name": "Wata Poor School",
    "د_مرکز_ځای__موقعیت_مرکز": "دهن خشکک",
    "Polling_Center_Location": "Dahan Khushk",
    "Map_Accuracy": "Building",
    "Map_Accuracy_Dari": "تعمیر",
    "Status": "Open",
    "Status_Dari": null,
    "PS_Male": 1,
    "PS_Female": 2,
    "PS_Total": 3,
    "ولسوالي": "شیبر",
    "Region": "Central Highlands Region"
   },
   "geometry": {
    "x": 7578992.1282182634,
    "y": 4147259.3078589938
   }
  },
  {
   "attributes": {
    "OBJECTID": 3973,
    "ولایت": "باميان",
    "Province": "BAMYAN",
    "PC_Code": "1003041",
    "District": "SAIGHAN",
    "د_مرکز_نوم__نام_مرکز": "مسجد خواجه گنج",
    "Polling_Center_Name": "Khwaja Ganj Mosque",
    "د_مرکز_ځای__موقعیت_مرکز": "خواجه گنج",
    "Polling_Center_Location": "Khwaja Ganj",
    "Map_Accuracy": "Building",
    "Map_Accuracy_Dari": "تعمیر",
    "Status": "Open",
    "Status_Dari": null,
    "PS_Male": 2,
    "PS_Female": 1,
    "PS_Total": 3,
    "ولسوالي": "سیغان",
    "Region": "Central Highlands Region"
   },
   "geometry": {
    "x": 7519659.7435397143,
    "y": 4190052.9275878849
   }
  },
  {
   "attributes": {
    "OBJECTID": 3974,
    "ولایت": "باميان",
    "Province": "BAMYAN",
    "PC_Code": "1004065",
    "District": "KAHMARD",
    "د_مرکز_نوم__نام_مرکز": "مکتب لورنج",
    "Polling_Center_Name": "Lorenj School",
    "د_مرکز_ځای__موقعیت_مرکز": "لورنج",
    "Polling_Center_Location": "Lorenj",
    "Map_Accuracy": "Building",
    "Map_Accuracy_Dari": "تعمیر",
    "Status": "Open",
    "Status_Dari": null,
    "PS_Male": 1,
    "PS_Female": 1,
    "PS_Total": 2,
    "ولسوالي": "کهمرد",
    "Region": "Central Highlands Region"
   },
   "geometry": {
    "x": 7523300.1124144429,
    "y": 4218129.5452361386
   }
  },
  {
   "attributes": {
    "OBJECTID": 3975,
    "ولایت": "باميان",
    "Province": "BAMYAN",
    "PC_Code": "1005077",
    "District": "YAKAWLANG",
    "د_مرکز_نوم__نام_مرکز": "منبر کپرک",
    "Polling_Center_Name": "Munbar-e-Kaparak",
    "د_مرکز_ځای__موقعیت_مرکز": "آبقول علیا",
    "Polling_Center_Location": "Abqol Ulya",
    "Map_Accuracy": "Building",
    "Map_Accuracy_Dari": "تعمیر",
    "Status": "Open",
    "Status_Dari": null,
    "PS_Male": 1,
    "PS_Female": 1,
    "PS_Total": 2,
    "ولسوالي": "یکاولنگ",
    "Region": "Central Highlands Region"
   },
   "geometry": {
    "x": 7488330.5793837393,
    "y": 4146830.9010256226
   }
  },
  {
   "attributes": {
    "OBJECTID": 3976,
    "ولایت": "باميان",
    "Province": "BAMYAN",
    "PC_Code": "1005078",
    "District": "YAKAWLANG",
    "د_مرکز_نوم__نام_مرکز": "مکتب ذکور منار سرقل",
    "Polling_Center_Name": "Munar-e-Sarqol Boys School",
    "د_مرکز_ځای__موقعیت_مرکز": "منار سرقل",
    "Polling_Center_Location": "Munar Sarqol",
    "Map_Accuracy": "Building",
    "Map_Accuracy_Dari": "تعمیر",
    "Status": "Open",
    "Status_Dari": null,
    "PS_Male": 1,
    "PS_Female": 1,
    "PS_Total": 2,
    "ولسوالي": "یکاولنگ",
    "Region": "Central Highlands Region"
   },
   "geometry": {
    "x": 7474801.996251693,
    "y": 4123849.160510933
   }
  },
  {
   "attributes": {
    "OBJECTID": 3977,
    "ولایت": "باميان",
    "Province": "BAMYAN",
    "PC_Code": "1005087",
    "District": "YAKAWLANG",
    "د_مرکز_نوم__نام_مرکز": "منبر ایلبوبک",
    "Polling_Center_Name": "Munbar-e-Ali Jan",
    "د_مرکز_ځای__موقعیت_مرکز": "ایلبوبک سر دره چاشت",
    "Polling_Center_Location": "Sare Dara-e-Chasht Ali Jan",
    "Map_Accuracy": "Building",
    "Map_Accuracy_Dari": "تعمیر",
    "Status": "Open",
    "Status_Dari": null,
    "PS_Male": 1,
    "PS_Female": 1,
    "PS_Total": 2,
    "ولسوالي": "یکاولنگ",
    "Region": "Central Highlands Region"
   },
   "geometry": {
    "x": 7415699.529736232,
    "y": 4164974.1087891171
   }
  },
  {
   "attributes": {
    "OBJECTID": 3978,
    "ولایت": "باميان",
    "Province": "BAMYAN",
    "PC_Code": "1005165",
    "District": "YAKAWLANG",
    "د_مرکز_نوم__نام_مرکز": "منبر شهرستان",
    "Polling_Center_Name": "Munbar-e-Shahrestan",
    "د_مرکز_ځای__موقعیت_مرکز": "شهرستان کوکینگ",
    "Polling_Center_Location": "Shahrestan-e-Kokeng",
    "Map_Accuracy": "Building",
    "Map_Accuracy_Dari": "تعمیر",
    "Status": "Open",
    "Status_Dari": null,
    "PS_Male": 1,
    "PS_Female": 1,
    "PS_Total": 2,
    "ولسوالي": "یکاولنگ",
    "Region": "Central Highlands Region"
   },
   "geometry": {
    "x": 7429948.2397674192,
    "y": 4127071.9195027798
   }
  },
  {
   "attributes": {
    "OBJECTID": 3979,
    "ولایت": "باميان",
    "Province": "BAMYAN",
    "PC_Code": "1005166",
    "District": "YAKAWLANG",
    "د_مرکز_نوم__نام_مرکز": "مکتب فیروز بهار",
    "Polling_Center_Name": "Feroz Bahar School",
    "د_مرکز_ځای__موقعیت_مرکز": "فیروز بهار",
    "Polling_Center_Location": "Feroz Bahar",
    "Map_Accuracy": "Building",
    "Map_Accuracy_Dari": "تعمیر",
    "Status": "Open",
    "Status_Dari": null,
    "PS_Male": 1,
    "PS_Female": 1,
    "PS_Total": 2,
    "ولسوالي": "یکاولنگ",
    "Region": "Central Highlands Region"
   },
   "geometry": {
    "x": 7465369.0508818412,
    "y": 4129085.2989117252
   }
  },
  {
   "attributes": {
    "OBJECTID": 3980,
    "ولایت": "باميان",
    "Province": "BAMYAN",
    "PC_Code": "1006105",
    "District": "PANJAB",
    "د_مرکز_نوم__نام_مرکز": "مسجد سرخک",
    "Polling_Center_Name": "Surkak Mosque",
    "د_مرکز_ځای__موقعیت_مرکز": "لگزایی",
    "Polling_Center_Location": "Lagzayee",
    "Map_Accuracy": "Building",
    "Map_Accuracy_Dari": "تعمیر",
    "Status": "Open",
    "Status_Dari": null,
    "PS_Male": 1,
    "PS_Female": 2,
    "PS_Total": 3,
    "ولسوالي": "پنجاب",
    "Region": "Central Highlands Region"
   },
   "geometry": {
    "x": 7465173.188690573,
    "y": 4093072.9363205293
   }
  },
  {
   "attributes": {
    "OBJECTID": 3981,
    "ولایت": "باميان",
    "Province": "BAMYAN",
    "PC_Code": "1006106",
    "District": "PANJAB",
    "د_مرکز_نوم__نام_مرکز": "مکتب جامع خارقول",
    "Polling_Center_Name": "Jaame Kharqol School",
    "د_مرکز_ځای__موقعیت_مرکز": "خارقول",
    "Polling_Center_Location": "Kharqol",
    "Map_Accuracy": "Building",
    "Map_Accuracy_Dari": "تعمیر",
    "Status": "Open",
    "Status_Dari": null,
    "PS_Male": 1,
    "PS_Female": 1,
    "PS_Total": 2,
    "ولسوالي": "پنجاب",
    "Region": "Central Highlands Region"
   },
   "geometry": {
    "x": 7410721.4690496828,
    "y": 4076963.2010253845
   }
  },
  {
   "attributes": {
    "OBJECTID": 3982,
    "ولایت": "باميان",
    "Province": "BAMYAN",
    "PC_Code": "1007127",
    "District": "WARAS",
    "د_مرکز_نوم__نام_مرکز": "لیسه عالی شینیه تخت",
    "Polling_Center_Name": "Shenia Takht High School",
    "د_مرکز_ځای__موقعیت_مرکز": "شینیه تخت",
    "Polling_Center_Location": "Shenia Takht",
    "Map_Accuracy": "Building",
    "Map_Accuracy_Dari": "تعمیر",
    "Status": "Open",
    "Status_Dari": null,
    "PS_Male": 2,
    "PS_Female": 1,
    "PS_Total": 3,
    "ولسوالي": "ورس",
    "Region": "Central Highlands Region"
   },
   "geometry": {
    "x": 7422365.0848101061,
    "y": 4055717.1236311225
   }
  },
  {
   "attributes": {
    "OBJECTID": 3983,
    "ولایت": "باميان",
    "Province": "BAMYAN",
    "PC_Code": "1007128",
    "District": "WARAS",
    "د_مرکز_نوم__نام_مرکز": "مکتب ابتدائیه سبز جوی",
    "Polling_Center_Name": "Sabz Joy Primary School",
    "د_مرکز_ځای__موقعیت_مرکز": "سبز جوی",
    "Polling_Center_Location": "Sabz Joy",
    "Map_Accuracy": "Building",
    "Map_Accuracy_Dari": "تعمیر",
    "Status": "Open",
    "Status_Dari": null,
    "PS_Male": 2,
    "PS_Female": 1,
    "PS_Total": 3,
    "ولسوالي": "ورس",
    "Region": "Central Highlands Region"
   },
   "geometry": {
    "x": 7416536.5187236108,
    "y": 4057447.1482791761
   }
  },
  {
   "attributes": {
    "OBJECTID": 3984,
    "ولایت": "باميان",
    "Province": "BAMYAN",
    "PC_Code": "1007149",
    "District": "WARAS",
    "د_مرکز_نوم__نام_مرکز": "مکتب صدمنی لیگان",
    "Polling_Center_Name": "Sadmani Legan School",
    "د_مرکز_ځای__موقعیت_مرکز": "صدمنی",
    "Polling_Center_Location": "Sadmani",
    "Map_Accuracy": "Building",
    "Map_Accuracy_Dari": "تعمیر",
    "Status": "Open",
    "Status_Dari": null,
    "PS_Male": 2,
    "PS_Female": 1,
    "PS_Total": 3,
    "ولسوالي": "ورس",
    "Region": "Central Highlands Region"
   },
   "geometry": {
    "x": 7459938.0262892023,
    "y": 4021579.9670060407
   }
  },
  {
   "attributes": {
    "OBJECTID": 3985,
    "ولایت": "غزنى",
    "Province": "GHAZNI",
    "PC_Code": "1101009",
    "District": "GHAZNI",
    "د_مرکز_نوم__نام_مرکز": "مسجد سید احمد مکیی",
    "Polling_Center_Name": "Sayed Ahmad Maki Mosque",
    "د_مرکز_ځای__موقعیت_مرکز": "ناحیه اول مرکز شهر",
    "Polling_Center_Location": "Nahia 1 Markaz-e-Shahar",
    "Map_Accuracy": "Building",
    "Map_Accuracy_Dari": "تعمیر",
    "Status": "Open",
    "Status_Dari": null,
    "PS_Male": 0,
    "PS_Female": 5,
    "PS_Total": 5,
    "ولسوالي": "غزنی",
    "Region": "South Eastern Region"
   },
   "geometry": {
    "x": 7616439.9269974744,
    "y": 3968213.8887280077
   }
  },
  {
   "attributes": {
    "OBJECTID": 3986,
    "ولایت": "غزنى",
    "Province": "GHAZNI",
    "PC_Code": "1101010",
    "District": "GHAZNI",
    "د_مرکز_نوم__نام_مرکز": "مسجد ولی عصر",
    "Polling_Center_Name": "Wali Asar Mosque",
    "د_مرکز_ځای__موقعیت_مرکز": "قریه خاک غریبان",
    "Polling_Center_Location": "Khak-e-Ghariban Village",
    "Map_Accuracy": "Building",
    "Map_Accuracy_Dari": "تعمیر",
    "Status": "Open",
    "Status_Dari": null,
    "PS_Male": 6,
    "PS_Female": 0,
    "PS_Total": 6,
    "ولسوالي": "غزنی",
    "Region": "South Eastern Region"
   },
   "geometry": {
    "x": 7614690.4020502996,
    "y": 3969857.4734603395
   }
  },
  {
   "attributes": {
    "OBJECTID": 3987,
    "ولایت": "غزنى",
    "Province": "GHAZNI",
    "PC_Code": "1101020",
    "District": "GHAZNI",
    "د_مرکز_نوم__نام_مرکز": "مسجد مفتی",
    "Polling_Center_Name": "Mofti Mosque",
    "د_مرکز_ځای__موقعیت_مرکز": " شهر کهنه",
    "Polling_Center_Location": "Shahr-e-Kohna",
    "Map_Accuracy": "Village",
    "Map_Accuracy_Dari": "قریه",
    "Status": "Open",
    "Status_Dari": null,
    "PS_Male": 0,
    "PS_Female": 4,
    "PS_Total": 4,
    "ولسوالي": "غزنی",
    "Region": "South Eastern Region"
   },
   "geometry": {
    "x": 7618076.2845503157,
    "y": 3969942.5114881219
   }
  },
  {
   "attributes": {
    "OBJECTID": 3988,
    "ولایت": "غزنى",
    "Province": "GHAZNI",
    "PC_Code": "1101021",
    "District": "GHAZNI",
    "د_مرکز_نوم__نام_مرکز": "مکتب سلطان محمود غزنوی",
    "Polling_Center_Name": "Sultan Mahmood Ghaznawi School",
    "د_مرکز_ځای__موقعیت_مرکز": "قریه روضه",
    "Polling_Center_Location": "Rawza Village",
    "Map_Accuracy": "Building",
    "Map_Accuracy_Dari": "تعمیر",
    "Status": "Open",
    "Status_Dari": null,
    "PS_Male": 5,
    "PS_Female": 0,
    "PS_Total": 5,
    "ولسوالي": "غزنی",
    "Region": "South Eastern Region"
   },
   "geometry": {
    "x": 7619568.4566459013,
    "y": 3970830.4019358917
   }
  },
  {
   "attributes": {
    "OBJECTID": 3989,
    "ولایت": "غزنى",
    "Province": "GHAZNI",
    "PC_Code": "1104130",
    "District": "WAGHAZ",
    "د_مرکز_نوم__نام_مرکز": "مسجد قلعه  محمد صادق",
    "Polling_Center_Name": "Qala-e-Mohammad Sadiq Mosque",
    "د_مرکز_ځای__موقعیت_مرکز": "قلعه محمد صادق",
    "Polling_Center_Location": "Qala-e-Mohammad Sadiq",
    "Map_Accuracy": "Village",
    "Map_Accuracy_Dari": "قریه",
    "Status": "Open",
    "Status_Dari": null,
    "PS_Male": 2,
    "PS_Female": 2,
    "PS_Total": 4,
    "ولسوالي": "واغظ",
    "Region": "South Eastern Region"
   },
   "geometry": {
    "x": 7594629.3785782736,
    "y": 3942788.1001076386
   }
  },
  {
   "attributes": {
    "OBJECTID": 3990,
    "ولایت": "غزنى",
    "Province": "GHAZNI",
    "PC_Code": "1106120",
    "District": "JAGHATU",
    "د_مرکز_نوم__نام_مرکز": "مکتب شهداء سرآب",
    "Polling_Center_Name": "Shuhada-e-Sar Aab School",
    "د_مرکز_ځای__موقعیت_مرکز": "قریه کفشی",
    "Polling_Center_Location": "Kafshi Village",
    "Map_Accuracy": "Building",
    "Map_Accuracy_Dari": "تعمیر",
    "Status": "Open",
    "Status_Dari": null,
    "PS_Male": 3,
    "PS_Female": 0,
    "PS_Total": 3,
    "ولسوالي": "جغتو",
    "Region": "South Eastern Region"
   },
   "geometry": {
    "x": 7566021.0431148624,
    "y": 3968704.9204633655
   }
  },
  {
   "attributes": {
    "OBJECTID": 3991,
    "ولایت": "غزنى",
    "Province": "GHAZNI",
    "PC_Code": "1106121",
    "District": "JAGHATU",
    "د_مرکز_نوم__نام_مرکز": "مکتب بی بی فاطمه زهرا",
    "Polling_Center_Name": "Bibi Fatema Zuhra School",
    "د_مرکز_ځای__موقعیت_مرکز": "قریه جاجه سراب",
    "Polling_Center_Location": "Jaja Saraab",
    "Map_Accuracy": "Building",
    "Map_Accuracy_Dari": "تعمیر",
    "Status": "Open",
    "Status_Dari": null,
    "PS_Male": 0,
    "PS_Female": 4,
    "PS_Total": 4,
    "ولسوالي": "جغتو",
    "Region": "South Eastern Region"
   },
   "geometry": {
    "x": 7567049.3390999427,
    "y": 3968563.940613356
   }
  },
  {
   "attributes": {
    "OBJECTID": 3992,
    "ولایت": "غزنى",
    "Province": "GHAZNI",
    "PC_Code": "1107232",
    "District": "ANDAR",
    "د_مرکز_نوم__نام_مرکز": "مسجد ملنګی سفلی",
    "Polling_Center_Name": "Malangi Sufla Village Mosque",
    "د_مرکز_ځای__موقعیت_مرکز": "قریه ملنګی سفلی",
    "Polling_Center_Location": "Malangi Sufla Village",
    "Map_Accuracy": "Building",
    "Map_Accuracy_Dari": "تعمیر",
    "Status": "Open",
    "Status_Dari": null,
    "PS_Male": 0,
    "PS_Female": 2,
    "PS_Total": 2,
    "ولسوالي": "اندر",
    "Region": "South Eastern Region"
   },
   "geometry": {
    "x": 7618548.3025683751,
    "y": 3934198.0920335553
   }
  },
  {
   "attributes": {
    "OBJECTID": 3993,
    "ولایت": "غزنى",
    "Province": "GHAZNI",
    "PC_Code": "1107242",
    "District": "ANDAR",
    "د_مرکز_نوم__نام_مرکز": "مسجد شمشی سفلی",
    "Polling_Center_Name": "Shamshai Sufla Village Mosque",
    "د_مرکز_ځای__موقعیت_مرکز": "قریه شمشی سفلی",
    "Polling_Center_Location": "Shamshai Sufla Village",
    "Map_Accuracy": "Village",
    "Map_Accuracy_Dari": "قریه",
    "Status": "Open",
    "Status_Dari": null,
    "PS_Male": 0,
    "PS_Female": 3,
    "PS_Total": 3,
    "ولسوالي": "اندر",
    "Region": "South Eastern Region"
   },
   "geometry": {
    "x": 7629421.476133015,
    "y": 3943067.0630269535
   }
  },
  {
   "attributes": {
    "OBJECTID": 3994,
    "ولایت": "غزنى",
    "Province": "GHAZNI",
    "PC_Code": "1107243",
    "District": "ANDAR",
    "د_مرکز_نوم__نام_مرکز": "مسجد قریه چنګاه",
    "Polling_Center_Name": "Changah Village Mosque",
    "د_مرکز_ځای__موقعیت_مرکز": "قریه چنګاه ",
    "Polling_Center_Location": "Changah Village",
    "Map_Accuracy": "Village",
    "Map_Accuracy_Dari": "قریه",
    "Status": "Open",
    "Status_Dari": null,
    "PS_Male": 2,
    "PS_Female": 0,
    "PS_Total": 2,
    "ولسوالي": "اندر",
    "Region": "South Eastern Region"
   },
   "geometry": {
    "x": 7634815.3373815678,
    "y": 3940679.5668766829
   }
  },
  {
   "attributes": {
    "OBJECTID": 3995,
    "ولایت": "غزنى",
    "Province": "GHAZNI",
    "PC_Code": "1110266",
    "District": "NAWUR",
    "د_مرکز_نوم__نام_مرکز": "مسجد قریه عامه چال",
    "Polling_Center_Name": "Aama Chali Village Mosque",
    "د_مرکز_ځای__موقعیت_مرکز": "قریه چال ",
    "Polling_Center_Location": "Chal Village",
    "Map_Accuracy": "Village",
    "Map_Accuracy_Dari": "قریه",
    "Status": "Open",
    "Status_Dari": null,
    "PS_Male": 2,
    "PS_Female": 1,
    "PS_Total": 3,
    "ولسوالي": "ناور",
    "Region": "South Eastern Region"
   },
   "geometry": {
    "x": 7516590.6429146435,
    "y": 3995352.9918516912
   }
  },
  {
   "attributes": {
    "OBJECTID": 3996,
    "ولایت": "غزنى",
    "Province": "GHAZNI",
    "PC_Code": "1110267",
    "District": "NAWUR",
    "د_مرکز_نوم__نام_مرکز": "مدرسه باقرالعلوم",
    "Polling_Center_Name": "Baqir-ul-Ulom Madrass",
    "د_مرکز_ځای__موقعیت_مرکز": "قریه دهنه غندی",
    "Polling_Center_Location": "Dahana-e-Ghaundi Village",
    "Map_Accuracy": "Building",
    "Map_Accuracy_Dari": "تعمیر",
    "Status": "Open",
    "Status_Dari": null,
    "PS_Male": 2,
    "PS_Female": 1,
    "PS_Total": 3,
    "ولسوالي": "ناور",
    "Region": "South Eastern Region"
   },
   "geometry": {
    "x": 7503977.4165782966,
    "y": 3993925.6212744592
   }
  },
  {
   "attributes": {
    "OBJECTID": 3997,
    "ولایت": "غزنى",
    "Province": "GHAZNI",
    "PC_Code": "1110275",
    "District": "NAWUR",
    "د_مرکز_نوم__نام_مرکز": "لیسه جهان نما",
    "Polling_Center_Name": "Jahan Noma High School",
    "د_مرکز_ځای__موقعیت_مرکز": "قریه شینیه",
    "Polling_Center_Location": "Shenia Village",
    "Map_Accuracy": "Building",
    "Map_Accuracy_Dari": "تعمیر",
    "Status": "Open",
    "Status_Dari": null,
    "PS_Male": 1,
    "PS_Female": 1,
    "PS_Total": 2,
    "ولسوالي": "ناور",
    "Region": "South Eastern Region"
   },
   "geometry": {
    "x": 7510513.2555023292,
    "y": 4022629.0811917894
   }
  },
  {
   "attributes": {
    "OBJECTID": 3998,
    "ولایت": "غزنى",
    "Province": "GHAZNI",
    "PC_Code": "1111143",
    "District": "QARA BAGH",
    "د_مرکز_نوم__نام_مرکز": "مسجد ملا فقیر",
    "Polling_Center_Name": "Mollah Faqir Mosque",
    "د_مرکز_ځای__موقعیت_مرکز": "قریه ملنگ خیل",
    "Polling_Center_Location": "Malang Khel Village",
    "Map_Accuracy": "Village",
    "Map_Accuracy_Dari": "قریه",
    "Status": "Open",
    "Status_Dari": null,
    "PS_Male": 0,
    "PS_Female": 2,
    "PS_Total": 2,
    "ولسوالي": "قره باغ",
    "Region": "South Eastern Region"
   },
   "geometry": {
    "x": 7580420.6968095852,
    "y": 3908308.162754097
   }
  },
  {
   "attributes": {
    "OBJECTID": 3999,
    "ولایت": "غزنى",
    "Province": "GHAZNI",
    "PC_Code": "1114327",
    "District": "JAGHURI",
    "د_مرکز_نوم__نام_مرکز": "مکتب پشی",
    "Polling_Center_Name": "Pushi School",
    "د_مرکز_ځای__موقعیت_مرکز": "قریه چهل باغتو پشی ",
    "Polling_Center_Location": "Chahel Baghto Pashi Village",
    "Map_Accuracy": "Building",
    "Map_Accuracy_Dari": "تعمیر",
    "Status": "Open",
    "Status_Dari": null,
    "PS_Male": 3,
    "PS_Female": 2,
    "PS_Total": 5,
    "ولسوالي": "جاغوری",
    "Region": "South Eastern Region"
   },
   "geometry": {
    "x": 7488321.683843229,
    "y": 3909956.7482756036
   }
  },
  {
   "attributes": {
    "OBJECTID": 4000,
    "ولایت": "غزنى",
    "Province": "GHAZNI",
    "PC_Code": "1114347",
    "District": "JAGHURI",
    "د_مرکز_نوم__نام_مرکز": "مسجد عامه شغله",
    "Polling_Center_Name": "Shughla Public School",
    "د_مرکز_ځای__موقعیت_مرکز": "قریه شغله ",
    "Polling_Center_Location": "Shughla Village",
    "Map_Accuracy": "Building",
    "Map_Accuracy_Dari": "تعمیر",
    "Status": "Open",
    "Status_Dari": null,
    "PS_Male": 2,
    "PS_Female": 1,
    "PS_Total": 3,
    "ولسوالي": "جاغوری",
    "Region": "South Eastern Region"
   },
   "geometry": {
    "x": 7529757.6480954541,
    "y": 3939190.6764214328
   }
  }
 ]
}