{
 "displayFieldName": "Polling_Center_Name",
 "fieldAliases": {
  "OBJECTID": "OBJECTID",
  "ولایت": "ولایت",
  "Province": "Province",
  "PC_Code": "PC_Code",
  "District": "District",
  "د_مرکز_نوم__نام_مرکز": "د_مرکز_نوم__نام_مرکز",
  "Polling_Center_Name": "Polling_Center_Name",
  "د_مرکز_ځای__موقعیت_مرکز": "د_مرکز_ځای__موقعیت_مرکز",
  "Polling_Center_Location": "Polling_Center_Location",
  "Map_Accuracy": "Map_Accuracy",
  "Map_Accuracy_Dari": "Map_Accuracy_Dari",
  "Status": "Status",
  "Status_Dari": "Status_Dari",
  "PS_Male": "PS_Male",
  "PS_Female": "PS_Female",
  "PS_Total": "PS_Total",
  "ولسوالي": "ولسوالي",
  "Region": "Region"
 },
 "geometryType": "esriGeometryPoint",
 "spatialReference": {
  "wkid": 102100,
  "latestWkid": 3857
 },
 "fields": [
  {
   "name": "OBJECTID",
   "type": "esriFieldTypeOID",
   "alias": "OBJECTID"
  },
  {
   "name": "ولایت",
   "type": "esriFieldTypeString",
   "alias": "ولایت",
   "length": 255
  },
  {
   "name": "Province",
   "type": "esriFieldTypeString",
   "alias": "Province",
   "length": 255
  },
  {
   "name": "PC_Code",
   "type": "esriFieldTypeString",
   "alias": "PC_Code",
   "length": 255
  },
  {
   "name": "District",
   "type": "esriFieldTypeString",
   "alias": "District",
   "length": 255
  },
  {
   "name": "د_مرکز_نوم__نام_مرکز",
   "type": "esriFieldTypeString",
   "alias": "د_مرکز_نوم__نام_مرکز",
   "length": 255
  },
  {
   "name": "Polling_Center_Name",
   "type": "esriFieldTypeString",
   "alias": "Polling_Center_Name",
   "length": 255
  },
  {
   "name": "د_مرکز_ځای__موقعیت_مرکز",
   "type": "esriFieldTypeString",
   "alias": "د_مرکز_ځای__موقعیت_مرکز",
   "length": 255
  },
  {
   "name": "Polling_Center_Location",
   "type": "esriFieldTypeString",
   "alias": "Polling_Center_Location",
   "length": 255
  },
  {
   "name": "Map_Accuracy",
   "type": "esriFieldTypeString",
   "alias": "Map_Accuracy",
   "length": 10
  },
  {
   "name": "Map_Accuracy_Dari",
   "type": "esriFieldTypeString",
   "alias": "Map_Accuracy_Dari",
   "length": 50
  },
  {
   "name": "Status",
   "type": "esriFieldTypeString",
   "alias": "Status",
   "length": 6
  },
  {
   "name": "Status_Dari",
   "type": "esriFieldTypeString",
   "alias": "Status_Dari",
   "length": 8
  },
  {
   "name": "PS_Male",
   "type": "esriFieldTypeSmallInteger",
   "alias": "PS_Male"
  },
  {
   "name": "PS_Female",
   "type": "esriFieldTypeSmallInteger",
   "alias": "PS_Female"
  },
  {
   "name": "PS_Total",
   "type": "esriFieldTypeSmallInteger",
   "alias": "PS_Total"
  },
  {
   "name": "ولسوالي",
   "type": "esriFieldTypeString",
   "alias": "ولسوالي",
   "length": 255
  },
  {
   "name": "Region",
   "type": "esriFieldTypeString",
   "alias": "Region",
   "length": 50
  }
 ],
 "features": [
  {
   "attributes": {
    "OBJECTID": 6001,
    "ولایت": "پروان",
    "Province": "PARWAN",
    "PC_Code": "0301020",
    "District": "CHARIKAR",
    "د_مرکز_نوم__نام_مرکز": "مکتب نسوان تیلا نچی",
    "Polling_Center_Name": "Telanchi Girls School",
    "د_مرکز_ځای__موقعیت_مرکز": " تیلا نچی",
    "Polling_Center_Location": "Telanchi",
    "Map_Accuracy": "Building",
    "Map_Accuracy_Dari": "تعمیر",
    "Status": "Open",
    "Status_Dari": null,
    "PS_Male": 2,
    "PS_Female": 1,
    "PS_Total": 3,
    "ولسوالي": "چاریکار",
    "Region": "Central Region"
   },
   "geometry": {
    "x": 7705841.0275016418,
    "y": 4169468.7233195198
   }
  },
  {
   "attributes": {
    "OBJECTID": 6002,
    "ولایت": "پروان",
    "Province": "PARWAN",
    "PC_Code": "0305050",
    "District": "JABULUSSARAJ",
    "د_مرکز_نوم__نام_مرکز": "لیسه عالی ذکور جبل السراج",
    "Polling_Center_Name": "Jabal Seraj Boys High School",
    "د_مرکز_ځای__موقعیت_مرکز": "مرکز جبل السراج",
    "Polling_Center_Location": "Jabul Saraj Center ",
    "Map_Accuracy": "Building",
    "Map_Accuracy_Dari": "تعمیر",
    "Status": "Open",
    "Status_Dari": null,
    "PS_Male": 5,
    "PS_Female": 0,
    "PS_Total": 5,
    "ولسوالي": "جبل السراج",
    "Region": "Central Region"
   },
   "geometry": {
    "x": 7707162.581326887,
    "y": 4180451.2911545117
   }
  },
  {
   "attributes": {
    "OBJECTID": 6003,
    "ولایت": "پروان",
    "Province": "PARWAN",
    "PC_Code": "0305051",
    "District": "JABULUSSARAJ",
    "د_مرکز_نوم__نام_مرکز": "لیسه نسوان جبل السراج",
    "Polling_Center_Name": "Jabal Seraj Girls High School",
    "د_مرکز_ځای__موقعیت_مرکز": "مناره ",
    "Polling_Center_Location": "Munara ",
    "Map_Accuracy": "Building",
    "Map_Accuracy_Dari": "تعمیر",
    "Status": "Open",
    "Status_Dari": null,
    "PS_Male": 0,
    "PS_Female": 4,
    "PS_Total": 4,
    "ولسوالي": "جبل السراج",
    "Region": "Central Region"
   },
   "geometry": {
    "x": 7707287.2157419734,
    "y": 4180060.4422258059
   }
  },
  {
   "attributes": {
    "OBJECTID": 6004,
    "ولایت": "وردک",
    "Province": "WARDAK",
    "PC_Code": "0408075",
    "District": "JAGHATU",
    "د_مرکز_نوم__نام_مرکز": "مسجد سنزله",
    "Polling_Center_Name": "Sanzala Mosque",
    "د_مرکز_ځای__موقعیت_مرکز": "سنزله",
    "Polling_Center_Location": "Sanzala",
    "Map_Accuracy": "Village",
    "Map_Accuracy_Dari": "قریه",
    "Status": "Open",
    "Status_Dari": null,
    "PS_Male": 2,
    "PS_Female": 1,
    "PS_Total": 3,
    "ولسوالي": "جغتو",
    "Region": "Central Region"
   },
   "geometry": {
    "x": 7613385.762108488,
    "y": 4007817.395517061
   }
  },
  {
   "attributes": {
    "OBJECTID": 6005,
    "ولایت": "ننگرهار",
    "Province": "NANGARHAR",
    "PC_Code": "0602057",
    "District": "BEHSUD",
    "د_مرکز_نوم__نام_مرکز": "لیسه ذکور سراچه علی خان",
    "Polling_Center_Name": "Saracha Boys High School",
    "د_مرکز_ځای__موقعیت_مرکز": "سراچه",
    "Polling_Center_Location": "Saracha",
    "Map_Accuracy": "Building",
    "Map_Accuracy_Dari": "تعمیر",
    "Status": "Open",
    "Status_Dari": null,
    "PS_Male": 4,
    "PS_Female": 2,
    "PS_Total": 6,
    "ولسوالي": "بهسود",
    "Region": "Eastern Region"
   },
   "geometry": {
    "x": 7851751.6385277873,
    "y": 4078399.0676579629
   }
  },
  {
   "attributes": {
    "OBJECTID": 6006,
    "ولایت": "ننگرهار",
    "Province": "NANGARHAR",
    "PC_Code": "0602058",
    "District": "BEHSUD",
    "د_مرکز_نوم__نام_مرکز": "کاريز کبير کلنيک",
    "Polling_Center_Name": "Kaarez kabeer Clinic",
    "د_مرکز_ځای__موقعیت_مرکز": "کاريزکبير",
    "Polling_Center_Location": "Karez Kaber",
    "Map_Accuracy": "Village",
    "Map_Accuracy_Dari": "قریه",
    "Status": "Open",
    "Status_Dari": null,
    "PS_Male": 0,
    "PS_Female": 3,
    "PS_Total": 3,
    "ولسوالي": "بهسود",
    "Region": "Eastern Region"
   },
   "geometry": {
    "x": 7850265.9196230816,
    "y": 4079798.7233517417
   }
  },
  {
   "attributes": {
    "OBJECTID": 6007,
    "ولایت": "ننگرهار",
    "Province": "NANGARHAR",
    "PC_Code": "0604105",
    "District": "CHAPARHAR",
    "د_مرکز_نوم__نام_مرکز": "للمه مکتب",
    "Polling_Center_Name": "Lalma School",
    "د_مرکز_ځای__موقعیت_مرکز": "للمه کلي",
    "Polling_Center_Location": "Lalma Village",
    "Map_Accuracy": "Village",
    "Map_Accuracy_Dari": "قریه",
    "Status": "Open",
    "Status_Dari": null,
    "PS_Male": 1,
    "PS_Female": 1,
    "PS_Total": 2,
    "ولسوالي": "چپرهار",
    "Region": "Eastern Region"
   },
   "geometry": {
    "x": 7843355.1711255927,
    "y": 4074040.4048688235
   }
  },
  {
   "attributes": {
    "OBJECTID": 6008,
    "ولایت": "ننگرهار",
    "Province": "NANGARHAR",
    "PC_Code": "0604126",
    "District": "CHAPARHAR",
    "د_مرکز_نوم__نام_مرکز": "غلام ډاګ مکتب",
    "Polling_Center_Name": "Ghulam Daag School",
    "د_مرکز_ځای__موقعیت_مرکز": "درمنګو کلي",
    "Polling_Center_Location": "Darmango Village",
    "Map_Accuracy": "Village",
    "Map_Accuracy_Dari": "قریه",
    "Status": "Open",
    "Status_Dari": null,
    "PS_Male": 2,
    "PS_Female": 1,
    "PS_Total": 3,
    "ولسوالي": "چپرهار",
    "Region": "Eastern Region"
   },
   "geometry": {
    "x": 7843275.8036682438,
    "y": 4070989.378041727
   }
  },
  {
   "attributes": {
    "OBJECTID": 6009,
    "ولایت": "بغلان",
    "Province": "BAGHLAN",
    "PC_Code": "0907126",
    "District": "ANDARAB",
    "د_مرکز_نوم__نام_مرکز": "مسجد",
    "Polling_Center_Name": "Daragi Village Mosque ",
    "د_مرکز_ځای__موقعیت_مرکز": "دره گی ",
    "Polling_Center_Location": "Daragi",
    "Map_Accuracy": "Building",
    "Map_Accuracy_Dari": "تعمیر",
    "Status": "Open",
    "Status_Dari": null,
    "PS_Male": 2,
    "PS_Female": 1,
    "PS_Total": 3,
    "ولسوالي": "اندراب",
    "Region": "North Eastern Region"
   },
   "geometry": {
    "x": 7716357.8952061292,
    "y": 4248936.856756445
   }
  },
  {
   "attributes": {
    "OBJECTID": 6010,
    "ولایت": "غزنى",
    "Province": "GHAZNI",
    "PC_Code": "1105060",
    "District": "DEH YAK",
    "د_مرکز_نوم__نام_مرکز": "کتب انوار العلوم",
    "Polling_Center_Name": "Anwar-ul-Uloom School",
    "د_مرکز_ځای__موقعیت_مرکز": "انوار العلوم",
    "Polling_Center_Location": "Anwar-ul-Uloom ",
    "Map_Accuracy": "Village",
    "Map_Accuracy_Dari": "قریه",
    "Status": "Open",
    "Status_Dari": null,
    "PS_Male": 2,
    "PS_Female": 1,
    "PS_Total": 3,
    "ولسوالي": "ده یک",
    "Region": "South Eastern Region"
   },
   "geometry": {
    "x": 7627089.7491357904,
    "y": 3956150.6471057888
   }
  },
  {
   "attributes": {
    "OBJECTID": 6011,
    "ولایت": "پکتيکا",
    "Province": "PAKTIKA",
    "PC_Code": "1208293",
    "District": "GOMAL",
    "د_مرکز_نوم__نام_مرکز": "خیرمنزی خیمه ",
    "Polling_Center_Name": "Khair Manzy Tent",
    "د_مرکز_ځای__موقعیت_مرکز": "خیرمنزی ",
    "Polling_Center_Location": "Khair Manzi",
    "Map_Accuracy": "Village",
    "Map_Accuracy_Dari": "قریه",
    "Status": "Open",
    "Status_Dari": null,
    "PS_Male": 0,
    "PS_Female": 3,
    "PS_Total": 3,
    "ولسوالي": "گومل",
    "Region": "South Eastern Region"
   },
   "geometry": {
    "x": 7666824.3363469904,
    "y": 3846581.0170071288
   }
  },
  {
   "attributes": {
    "OBJECTID": 6012,
    "ولایت": "پکتيکا",
    "Province": "PAKTIKA",
    "PC_Code": "1209109",
    "District": "JANI KHEL",
    "د_مرکز_نوم__نام_مرکز": "زور دولسوالی مرکز",
    "Polling_Center_Name": "District Old Compound",
    "د_مرکز_ځای__موقعیت_مرکز": "د ولسوالی مرکز",
    "Polling_Center_Location": "District Center",
    "Map_Accuracy": "Building",
    "Map_Accuracy_Dari": "تعمیر",
    "Status": "Open",
    "Status_Dari": null,
    "PS_Male": 6,
    "PS_Female": 0,
    "PS_Total": 6,
    "ولسوالي": "جانی خیل",
    "Region": "South Eastern Region"
   },
   "geometry": {
    "x": 7614408.7114184294,
    "y": 3864094.9473285144
   }
  },
  {
   "attributes": {
    "OBJECTID": 6013,
    "ولایت": "پکتيکا",
    "Province": "PAKTIKA",
    "PC_Code": "1209115",
    "District": "JANI KHEL",
    "د_مرکز_نوم__نام_مرکز": "هسی کلی جومات",
    "Polling_Center_Name": "Hasi Village Mosque",
    "د_مرکز_ځای__موقعیت_مرکز": "هستی",
    "Polling_Center_Location": "Hasti",
    "Map_Accuracy": "Building",
    "Map_Accuracy_Dari": "تعمیر",
    "Status": "Open",
    "Status_Dari": null,
    "PS_Male": 3,
    "PS_Female": 0,
    "PS_Total": 3,
    "ولسوالي": "جانی خیل",
    "Region": "South Eastern Region"
   },
   "geometry": {
    "x": 7608255.2950202907,
    "y": 3854850.5516328132
   }
  },
  {
   "attributes": {
    "OBJECTID": 6014,
    "ولایت": "پکتيکا",
    "Province": "PAKTIKA",
    "PC_Code": "1209116",
    "District": "JANI KHEL",
    "د_مرکز_نوم__نام_مرکز": "ملک عبدالله میلمستون",
    "Polling_Center_Name": "Malik Abdullah Guest House",
    "د_مرکز_ځای__موقعیت_مرکز": "هستی",
    "Polling_Center_Location": "Hasti",
    "Map_Accuracy": "Village",
    "Map_Accuracy_Dari": "قریه",
    "Status": "Open",
    "Status_Dari": null,
    "PS_Male": 0,
    "PS_Female": 3,
    "PS_Total": 3,
    "ولسوالي": "جانی خیل",
    "Region": "South Eastern Region"
   },
   "geometry": {
    "x": 7608290.5632613609,
    "y": 3854793.1830507191
   }
  },
  {
   "attributes": {
    "OBJECTID": 6015,
    "ولایت": "پکتيکا",
    "Province": "PAKTIKA",
    "PC_Code": "1211183",
    "District": "URGOON",
    "د_مرکز_نوم__نام_مرکز": "پیرکوتی",
    "Polling_Center_Name": "Peer Koti",
    "د_مرکز_ځای__موقعیت_مرکز": "ﭙیرکوتی کلی",
    "Polling_Center_Location": "Peer Koti Village",
    "Map_Accuracy": "Village",
    "Map_Accuracy_Dari": "قریه",
    "Status": "Open",
    "Status_Dari": null,
    "PS_Male": 3,
    "PS_Female": 0,
    "PS_Total": 3,
    "ولسوالي": "اورگون",
    "Region": "South Eastern Region"
   },
   "geometry": {
    "x": 7709636.7638764735,
    "y": 3885621.0441518873
   }
  },
  {
   "attributes": {
    "OBJECTID": 6016,
    "ولایت": "پکتيکا",
    "Province": "PAKTIKA",
    "PC_Code": "1211184",
    "District": "URGOON",
    "د_مرکز_نوم__نام_مرکز": "ظریف میلمستون",
    "Polling_Center_Name": "Zarif Guest House",
    "د_مرکز_ځای__موقعیت_مرکز": "ﭙیرکوتی کلی",
    "Polling_Center_Location": "Peer Koti Village",
    "Map_Accuracy": "Village",
    "Map_Accuracy_Dari": "قریه",
    "Status": "Open",
    "Status_Dari": null,
    "PS_Male": 0,
    "PS_Female": 2,
    "PS_Total": 2,
    "ولسوالي": "اورگون",
    "Region": "South Eastern Region"
   },
   "geometry": {
    "x": 7709638.1865395699,
    "y": 3885622.7390826205
   }
  },
  {
   "attributes": {
    "OBJECTID": 6017,
    "ولایت": "پکتيکا",
    "Province": "PAKTIKA",
    "PC_Code": "1213204",
    "District": "NIKA",
    "د_مرکز_نوم__نام_مرکز": "حکیم خان میلمستون",
    "Polling_Center_Name": "Hakim Khan Guest House",
    "د_مرکز_ځای__موقعیت_مرکز": "صادق خیل",
    "Polling_Center_Location": "Sadiq Khel",
    "Map_Accuracy": "Village",
    "Map_Accuracy_Dari": "قریه",
    "Status": "Open",
    "Status_Dari": null,
    "PS_Male": 0,
    "PS_Female": 2,
    "PS_Total": 2,
    "ولسوالي": "نیکه",
    "Region": "South Eastern Region"
   },
   "geometry": {
    "x": 7709951.0098934276,
    "y": 3920327.6803567223
   }
  },
  {
   "attributes": {
    "OBJECTID": 6018,
    "ولایت": "پکتيکا",
    "Province": "PAKTIKA",
    "PC_Code": "1214247",
    "District": "BARMAL",
    "د_مرکز_نوم__نام_مرکز": "ملکشی مدرسه",
    "Polling_Center_Name": "Malekeshi Madrassa",
    "د_مرکز_ځای__موقعیت_مرکز": "ملک شاهی",
    "Polling_Center_Location": "Malik Shahi",
    "Map_Accuracy": "Village",
    "Map_Accuracy_Dari": "قریه",
    "Status": "Open",
    "Status_Dari": null,
    "PS_Male": 5,
    "PS_Female": 0,
    "PS_Total": 5,
    "ولسوالي": "برمل",
    "Region": "South Eastern Region"
   },
   "geometry": {
    "x": 7708249.0473118853,
    "y": 3845689.6617086087
   }
  },
  {
   "attributes": {
    "OBJECTID": 6019,
    "ولایت": "پکتيکا",
    "Province": "PAKTIKA",
    "PC_Code": "1214259",
    "District": "BARMAL",
    "د_مرکز_نوم__نام_مرکز": "عید خان مدرسه",
    "Polling_Center_Name": "Eid Khan Madrassa",
    "د_مرکز_ځای__موقعیت_مرکز": "شیر ﺁوه",
    "Polling_Center_Location": "Sher Aavah",
    "Map_Accuracy": "Village",
    "Map_Accuracy_Dari": "قریه",
    "Status": "Open",
    "Status_Dari": null,
    "PS_Male": 3,
    "PS_Female": 0,
    "PS_Total": 3,
    "ولسوالي": "برمل",
    "Region": "South Eastern Region"
   },
   "geometry": {
    "x": 7718065.5172705865,
    "y": 3867491.6191565325
   }
  },
  {
   "attributes": {
    "OBJECTID": 6020,
    "ولایت": "پکتيکا",
    "Province": "PAKTIKA",
    "PC_Code": "1214260",
    "District": "BARMAL",
    "د_مرکز_نوم__نام_مرکز": "جانگیر میلمستون",
    "Polling_Center_Name": "Jangir Guest House",
    "د_مرکز_ځای__موقعیت_مرکز": "شیر ﺁوه",
    "Polling_Center_Location": "Sher Aavah",
    "Map_Accuracy": "Village",
    "Map_Accuracy_Dari": "قریه",
    "Status": "Open",
    "Status_Dari": null,
    "PS_Male": 0,
    "PS_Female": 2,
    "PS_Total": 2,
    "ولسوالي": "برمل",
    "Region": "South Eastern Region"
   },
   "geometry": {
    "x": 7718067.250515054,
    "y": 3867491.6191565325
   }
  },
  {
   "attributes": {
    "OBJECTID": 6021,
    "ولایت": "پکتيکا",
    "Province": "PAKTIKA",
    "PC_Code": "1215273",
    "District": "GIYAN",
    "د_مرکز_نوم__نام_مرکز": "سراواته جومات",
    "Polling_Center_Name": "Saravtah Mosque",
    "د_مرکز_ځای__موقعیت_مرکز": "سراواته",
    "Polling_Center_Location": "Saravatah",
    "Map_Accuracy": "Village",
    "Map_Accuracy_Dari": "قریه",
    "Status": "Open",
    "Status_Dari": null,
    "PS_Male": 3,
    "PS_Female": 0,
    "PS_Total": 3,
    "ولسوالي": "گیان",
    "Region": "South Eastern Region"
   },
   "geometry": {
    "x": 7722049.9457482845,
    "y": 3896466.8681534901
   }
  },
  {
   "attributes": {
    "OBJECTID": 6022,
    "ولایت": "پکتيکا",
    "Province": "PAKTIKA",
    "PC_Code": "1215274",
    "District": "GIYAN",
    "د_مرکز_نوم__نام_مرکز": "میردل میلمستون",
    "Polling_Center_Name": "Mir Del Guest House",
    "د_مرکز_ځای__موقعیت_مرکز": "سراواته",
    "Polling_Center_Location": "Saravatah",
    "Map_Accuracy": "Village",
    "Map_Accuracy_Dari": "قریه",
    "Status": "Open",
    "Status_Dari": null,
    "PS_Male": 0,
    "PS_Female": 3,
    "PS_Total": 3,
    "ولسوالي": "گیان",
    "Region": "South Eastern Region"
   },
   "geometry": {
    "x": 7722337.3559755897,
    "y": 3896057.4560324475
   }
  },
  {
   "attributes": {
    "OBJECTID": 6023,
    "ولایت": "پکتيکا",
    "Province": "PAKTIKA",
    "PC_Code": "1218301",
    "District": "WOR MAMY",
    "د_مرکز_نوم__نام_مرکز": "مركز ولسوالي متوسطه ښوونځی",
    "Polling_Center_Name": "District Center Secondary School",
    "د_مرکز_ځای__موقعیت_مرکز": "چینه",
    "Polling_Center_Location": "Cheena",
    "Map_Accuracy": "Building",
    "Map_Accuracy_Dari": "تعمیر",
    "Status": "Open",
    "Status_Dari": null,
    "PS_Male": 0,
    "PS_Female": 2,
    "PS_Total": 2,
    "ولسوالي": "وړممی",
    "Region": "South Eastern Region"
   },
   "geometry": {
    "x": 7644956.4472580776,
    "y": 3774884.3508312278
   }
  },
  {
   "attributes": {
    "OBJECTID": 6024,
    "ولایت": "پکتيا",
    "Province": "PAKTYA",
    "PC_Code": "1303097",
    "District": "ZURMAT",
    "د_مرکز_نوم__نام_مرکز": "کم جمالی هجره",
    "Polling_Center_Name": "Kam Jamali Hojra",
    "د_مرکز_ځای__موقعیت_مرکز": " سورکی",
    "Polling_Center_Location": "Sorkai",
    "Map_Accuracy": "Village",
    "Map_Accuracy_Dari": "قریه",
    "Status": "Open",
    "Status_Dari": null,
    "PS_Male": 0,
    "PS_Female": 2,
    "PS_Total": 2,
    "ولسوالي": "زرمت",
    "Region": "South Eastern Region"
   },
   "geometry": {
    "x": 7696374.2109503299,
    "y": 3943132.8027656749
   }
  },
  {
   "attributes": {
    "OBJECTID": 6025,
    "ولایت": "پکتيا",
    "Province": "PAKTYA",
    "PC_Code": "1306025",
    "District": "SAYYID KARAM",
    "د_مرکز_نوم__نام_مرکز": "مسجد عثمان خیل",
    "Polling_Center_Name": "Usman Khel Mosque",
    "د_مرکز_ځای__موقعیت_مرکز": "عثما ن خیل",
    "Polling_Center_Location": "Usman Khel ",
    "Map_Accuracy": "Building",
    "Map_Accuracy_Dari": "تعمیر",
    "Status": "Open",
    "Status_Dari": null,
    "PS_Male": 2,
    "PS_Female": 0,
    "PS_Total": 2,
    "ولسوالي": "سید کرم",
    "Region": "South Eastern Region"
   },
   "geometry": {
    "x": 7728860.2985366108,
    "y": 3982328.3443981633
   }
  },
  {
   "attributes": {
    "OBJECTID": 6026,
    "ولایت": "پکتيا",
    "Province": "PAKTYA",
    "PC_Code": "1306035",
    "District": "SAYYID KARAM",
    "د_مرکز_نوم__نام_مرکز": "خان خیلو مکتب",
    "Polling_Center_Name": "Khan Khel School",
    "د_مرکز_ځای__موقعیت_مرکز": "خان خیل، برکلګر",
    "Polling_Center_Location": "Khan Khel Barkalgar",
    "Map_Accuracy": "Building",
    "Map_Accuracy_Dari": "تعمیر",
    "Status": "Open",
    "Status_Dari": null,
    "PS_Male": 2,
    "PS_Female": 1,
    "PS_Total": 3,
    "ولسوالي": "سید کرم",
    "Region": "South Eastern Region"
   },
   "geometry": {
    "x": 7734814.4318955252,
    "y": 3983757.448033819
   }
  },
  {
   "attributes": {
    "OBJECTID": 6027,
    "ولایت": "پکتيا",
    "Province": "PAKTYA",
    "PC_Code": "1310162",
    "District": "SAMKANI",
    "د_مرکز_نوم__نام_مرکز": "د سلیمان خیل مسجد",
    "Polling_Center_Name": "Sulaiman Khel Mosque ",
    "د_مرکز_ځای__موقعیت_مرکز": "سلیمان خیل",
    "Polling_Center_Location": "Sulaiman Khel ",
    "Map_Accuracy": "Building",
    "Map_Accuracy_Dari": "تعمیر",
    "Status": "Open",
    "Status_Dari": null,
    "PS_Male": 4,
    "PS_Female": 0,
    "PS_Total": 4,
    "ولسوالي": "څمکنی",
    "Region": "South Eastern Region"
   },
   "geometry": {
    "x": 7769872.7366541596,
    "y": 3995362.448056892
   }
  },
  {
   "attributes": {
    "OBJECTID": 6028,
    "ولایت": "پکتيا",
    "Province": "PAKTYA",
    "PC_Code": "1310163",
    "District": "SAMKANI",
    "د_مرکز_نوم__نام_مرکز": "د منده خیلو لیسه",
    "Polling_Center_Name": "Manda Khel High School",
    "د_مرکز_ځای__موقعیت_مرکز": "منده خیل، سلیمانخیل",
    "Polling_Center_Location": "Sulaiman Khel, Manda Khel",
    "Map_Accuracy": "Village",
    "Map_Accuracy_Dari": "قریه",
    "Status": "Open",
    "Status_Dari": null,
    "PS_Male": 0,
    "PS_Female": 4,
    "PS_Total": 4,
    "ولسوالي": "څمکنی",
    "Region": "South Eastern Region"
   },
   "geometry": {
    "x": 7770115.1838259418,
    "y": 3997821.3646053723
   }
  },
  {
   "attributes": {
    "OBJECTID": 6029,
    "ولایت": "پکتيا",
    "Province": "PAKTYA",
    "PC_Code": "1312152",
    "District": "LAJA MANGAL",
    "د_مرکز_نوم__نام_مرکز": "مکتب توشنک",
    "Polling_Center_Name": "Toshnak School",
    "د_مرکز_ځای__موقعیت_مرکز": "توشنک، لجه منګل",
    "Polling_Center_Location": "Toshnak, Laja Mangal ",
    "Map_Accuracy": "Village",
    "Map_Accuracy_Dari": "قریه",
    "Status": "Open",
    "Status_Dari": null,
    "PS_Male": 4,
    "PS_Female": 1,
    "PS_Total": 5,
    "ولسوالي": "لجه منګل",
    "Region": "South Eastern Region"
   },
   "geometry": {
    "x": 7751213.7899610437,
    "y": 3990678.7895630156
   }
  },
  {
   "attributes": {
    "OBJECTID": 6030,
    "ولایت": "پکتيا",
    "Province": "PAKTYA",
    "PC_Code": "1313049",
    "District": "MEERZAKA",
    "د_مرکز_نوم__نام_مرکز": "د وچی اکګاډی مکتب",
    "Polling_Center_Name": "Wacha Alagadi School",
    "د_مرکز_ځای__موقعیت_مرکز": "کړکین، میرزکه",
    "Polling_Center_Location": "Karkeen, Merzaka",
    "Map_Accuracy": "Village",
    "Map_Accuracy_Dari": "قریه",
    "Status": "Open",
    "Status_Dari": null,
    "PS_Male": 2,
    "PS_Female": 0,
    "PS_Total": 2,
    "ولسوالي": "میرزکه",
    "Region": "South Eastern Region"
   },
   "geometry": {
    "x": 7738176.1881223042,
    "y": 4005930.2086643656
   }
  },
  {
   "attributes": {
    "OBJECTID": 6031,
    "ولایت": "خوست",
    "Province": "KHOST",
    "PC_Code": "1401038",
    "District": "KHOST",
    "د_مرکز_نوم__نام_مرکز": "بادشاه والي هجره  ",
    "Polling_Center_Name": "Badsha Wali Hojra",
    "د_مرکز_ځای__موقعیت_مرکز": " کنډيو کلى",
    "Polling_Center_Location": "Kandio Village",
    "Map_Accuracy": "Building",
    "Map_Accuracy_Dari": "تعمیر",
    "Status": "Open",
    "Status_Dari": null,
    "PS_Male": 3,
    "PS_Female": 1,
    "PS_Total": 4,
    "ولسوالي": "خوست",
    "Region": "South Eastern Region"
   },
   "geometry": {
    "x": 7791621.2556267055,
    "y": 3943708.4055774929
   }
  },
  {
   "attributes": {
    "OBJECTID": 6032,
    "ولایت": "خوست",
    "Province": "KHOST",
    "PC_Code": "1408053",
    "District": "ALI SHER",
    "د_مرکز_نوم__نام_مرکز": "د تورو اوبو جومات",
    "Polling_Center_Name": "Tori Awbo Mosque",
    "د_مرکز_ځای__موقعیت_مرکز": "تورې اوبه",
    "Polling_Center_Location": "Tori Awba",
    "Map_Accuracy": "District",
    "Map_Accuracy_Dari": "ولسوالی",
    "Status": "Open",
    "Status_Dari": null,
    "PS_Male": 2,
    "PS_Female": 2,
    "PS_Total": 4,
    "ولسوالي": "علی شیر",
    "Region": "South Eastern Region"
   },
   "geometry": {
    "x": 7815948.0720421905,
    "y": 3941104.8010658254
   }
  },
  {
   "attributes": {
    "OBJECTID": 6033,
    "ولایت": "کنړ ",
    "Province": "KUNAR",
    "PC_Code": "1504035",
    "District": "NARANG",
    "د_مرکز_نوم__نام_مرکز": "مسجد قریه کوتکی",
    "Polling_Center_Name": "Kotki Village Mosque",
    "د_مرکز_ځای__موقعیت_مرکز": "کوتکی",
    "Polling_Center_Location": "Kotakai",
    "Map_Accuracy": "Building",
    "Map_Accuracy_Dari": "تعمیر",
    "Status": "Open",
    "Status_Dari": null,
    "PS_Male": 2,
    "PS_Female": 1,
    "PS_Total": 3,
    "ولسوالي": "نرنګ",
    "Region": "Eastern Region"
   },
   "geometry": {
    "x": 7904642.4307027943,
    "y": 4128528.8176267087
   }
  },
  {
   "attributes": {
    "OBJECTID": 6034,
    "ولایت": "کنړ ",
    "Province": "KUNAR",
    "PC_Code": "1514088",
    "District": "NOOR GAL",
    "د_مرکز_نوم__نام_مرکز": "مسجد قریه",
    "Polling_Center_Name": "Senzo Village Mosque",
    "د_مرکز_ځای__موقعیت_مرکز": "سینزو",
    "Polling_Center_Location": "Senzo",
    "Map_Accuracy": "Building",
    "Map_Accuracy_Dari": "تعمیر",
    "Status": "Open",
    "Status_Dari": null,
    "PS_Male": 2,
    "PS_Female": 2,
    "PS_Total": 4,
    "ولسوالي": "نور ګل",
    "Region": "Eastern Region"
   },
   "geometry": {
    "x": 7875795.7490776451,
    "y": 4113994.4655717546
   }
  },
  {
   "attributes": {
    "OBJECTID": 6035,
    "ولایت": "نورستان",
    "Province": "NOORISTAN",
    "PC_Code": "1608069",
    "District": "BARG-E-MATAL",
    "د_مرکز_نوم__نام_مرکز": "مسجد جامع قریه پسیگرام",
    "Polling_Center_Name": "Pasigram Village Mosque",
    "د_مرکز_ځای__موقعیت_مرکز": "قریه پسیگرام",
    "Polling_Center_Location": "Pasigram Village",
    "Map_Accuracy": "Village",
    "Map_Accuracy_Dari": "قریه",
    "Status": "Open",
    "Status_Dari": null,
    "PS_Male": 1,
    "PS_Female": 1,
    "PS_Total": 2,
    "ولسوالي": "برګ مټال",
    "Region": "Eastern Region"
   },
   "geometry": {
    "x": 7925583.9913469926,
    "y": 4266711.5807579933
   }
  },
  {
   "attributes": {
    "OBJECTID": 6036,
    "ولایت": "نورستان",
    "Province": "NOORISTAN",
    "PC_Code": "1608070",
    "District": "BARG-E-MATAL",
    "د_مرکز_نوم__نام_مرکز": "ګنجلوک شال",
    "Polling_Center_Name": "Ganjolok Shal ",
    "د_مرکز_ځای__موقعیت_مرکز": "قریه ګنجلوک شال",
    "Polling_Center_Location": "Ganjolok Shal ",
    "Map_Accuracy": "Village",
    "Map_Accuracy_Dari": "قریه",
    "Status": "Open",
    "Status_Dari": null,
    "PS_Male": 2,
    "PS_Female": 1,
    "PS_Total": 3,
    "ولسوالي": "برګ مټال",
    "Region": "Eastern Region"
   },
   "geometry": {
    "x": 7931147.2196348188,
    "y": 4272107.0637631221
   }
  },
  {
   "attributes": {
    "OBJECTID": 6037,
    "ولایت": "کندز",
    "Province": "KUNDUZ",
    "PC_Code": "1902117",
    "District": "CHAR DARA",
    "د_مرکز_نوم__نام_مرکز": "لیسه غروقشلاق",
    "Polling_Center_Name": "Gharo Qeshlaq High School",
    "د_مرکز_ځای__موقعیت_مرکز": "غروقشلاق",
    "Polling_Center_Location": "Gharo Qeshlaq",
    "Map_Accuracy": "Building",
    "Map_Accuracy_Dari": "تعمیر",
    "Status": "Open",
    "Status_Dari": null,
    "PS_Male": 4,
    "PS_Female": 2,
    "PS_Total": 6,
    "ولسوالي": "چاردره",
    "Region": "North Eastern Region"
   },
   "geometry": {
    "x": 7662957.3399133179,
    "y": 4390235.9991434338
   }
  },
  {
   "attributes": {
    "OBJECTID": 6038,
    "ولایت": "کندز",
    "Province": "KUNDUZ",
    "PC_Code": "1902118",
    "District": "CHAR DARA",
    "د_مرکز_نوم__نام_مرکز": "مسجد امیر محمد شنواری",
    "Polling_Center_Name": "Amir Mohammad Shinwari Mosque",
    "د_مرکز_ځای__موقعیت_مرکز": "قتل عام",
    "Polling_Center_Location": "Qatl Aam",
    "Map_Accuracy": "Village",
    "Map_Accuracy_Dari": "قریه",
    "Status": "Open",
    "Status_Dari": null,
    "PS_Male": 2,
    "PS_Female": 1,
    "PS_Total": 3,
    "ولسوالي": "چاردره",
    "Region": "North Eastern Region"
   },
   "geometry": {
    "x": 7662549.0801336169,
    "y": 4391767.5253940048
   }
  },
  {
   "attributes": {
    "OBJECTID": 6039,
    "ولایت": "کندز",
    "Province": "KUNDUZ",
    "PC_Code": "1904155",
    "District": "KHAN ABAD",
    "د_مرکز_نوم__نام_مرکز": "مکتب متوسطه ودان کلی",
    "Polling_Center_Name": "Wadan kalai Secondary School",
    "د_مرکز_ځای__موقعیت_مرکز": "دهنه ده ویران",
    "Polling_Center_Location": "Dahan Deh Weran",
    "Map_Accuracy": "Building",
    "Map_Accuracy_Dari": "تعمیر",
    "Status": "Open",
    "Status_Dari": null,
    "PS_Male": 1,
    "PS_Female": 1,
    "PS_Total": 2,
    "ولسوالي": "خان آباد",
    "Region": "North Eastern Region"
   },
   "geometry": {
    "x": 7698623.0182852522,
    "y": 4389852.8383192467
   }
  },
  {
   "attributes": {
    "OBJECTID": 6040,
    "ولایت": "کندز",
    "Province": "KUNDUZ",
    "PC_Code": "1904156",
    "District": "KHAN ABAD",
    "د_مرکز_نوم__نام_مرکز": "مکتب ابتدائیه زنگی سای",
    "Polling_Center_Name": "Zangi Say Primary School",
    "د_مرکز_ځای__موقعیت_مرکز": "قریه زنگی سای",
    "Polling_Center_Location": "Zangi Say Village",
    "Map_Accuracy": "Building",
    "Map_Accuracy_Dari": "تعمیر",
    "Status": "Open",
    "Status_Dari": null,
    "PS_Male": 1,
    "PS_Female": 1,
    "PS_Total": 2,
    "ولسوالي": "خان آباد",
    "Region": "North Eastern Region"
   },
   "geometry": {
    "x": 7694442.1632264648,
    "y": 4361660.573906539
   }
  },
  {
   "attributes": {
    "OBJECTID": 6041,
    "ولایت": "کندز",
    "Province": "KUNDUZ",
    "PC_Code": "1905069",
    "District": "HAZRAT-E-IMAM SAHIB",
    "د_مرکز_نوم__نام_مرکز": "مکتب متوسطه اسماعیل قشلاق",
    "Polling_Center_Name": "Ismail Qashlaq Secondary School",
    "د_مرکز_ځای__موقعیت_مرکز": "قریه اسماعیل قشلاق",
    "Polling_Center_Location": "Ismail Qashlaq Village",
    "Map_Accuracy": "Building",
    "Map_Accuracy_Dari": "تعمیر",
    "Status": "Open",
    "Status_Dari": null,
    "PS_Male": 3,
    "PS_Female": 1,
    "PS_Total": 4,
    "ولسوالي": "حضرت امام صاحب",
    "Region": "North Eastern Region"
   },
   "geometry": {
    "x": 7678555.2232486028,
    "y": 4464119.800015185
   }
  },
  {
   "attributes": {
    "OBJECTID": 6042,
    "ولایت": "کندز",
    "Province": "KUNDUZ",
    "PC_Code": "1905070",
    "District": "HAZRAT-E-IMAM SAHIB",
    "د_مرکز_نوم__نام_مرکز": "مکتب هیچکلی",
    "Polling_Center_Name": "Hechkalai School",
    "د_مرکز_ځای__موقعیت_مرکز": "قریه هیچکلی",
    "Polling_Center_Location": "Hechkalai Village",
    "Map_Accuracy": "Building",
    "Map_Accuracy_Dari": "تعمیر",
    "Status": "Open",
    "Status_Dari": null,
    "PS_Male": 2,
    "PS_Female": 2,
    "PS_Total": 4,
    "ولسوالي": "حضرت امام صاحب",
    "Region": "North Eastern Region"
   },
   "geometry": {
    "x": 7684430.9754408589,
    "y": 4465393.7214467824
   }
  },
  {
   "attributes": {
    "OBJECTID": 6043,
    "ولایت": "کندز",
    "Province": "KUNDUZ",
    "PC_Code": "1906194",
    "District": "DASHT-E-ARCHI",
    "د_مرکز_نوم__نام_مرکز": "مسجد قره غوشی پشتونیه ",
    "Polling_Center_Name": "Qara ghoshi Pashtonia Mosque",
    "د_مرکز_ځای__موقعیت_مرکز": "قریه قره غوشی پشتونیه",
    "Polling_Center_Location": "Qara Ghoshi Pashtonia Village",
    "Map_Accuracy": "Building",
    "Map_Accuracy_Dari": "تعمیر",
    "Status": "Open",
    "Status_Dari": null,
    "PS_Male": 1,
    "PS_Female": 1,
    "PS_Total": 2,
    "ولسوالي": "دشت ارچی",
    "Region": "North Eastern Region"
   },
   "geometry": {
    "x": 7709237.6645776723,
    "y": 4429249.3578476906
   }
  },
  {
   "attributes": {
    "OBJECTID": 6044,
    "ولایت": "بلخ",
    "Province": "BALKH",
    "PC_Code": "2101003",
    "District": "MAZAR-E-SHARIF",
    "د_مرکز_نوم__نام_مرکز": "تعمیر شاروالی مزار",
    "Polling_Center_Name": "Mazar Municipality Office",
    "د_مرکز_ځای__موقعیت_مرکز": "ناحیه اول مزار شاروالی ",
    "Polling_Center_Location": "D01 - Nahia 1",
    "Map_Accuracy": "Building",
    "Map_Accuracy_Dari": "تعمیر",
    "Status": "Open",
    "Status_Dari": null,
    "PS_Male": 3,
    "PS_Female": 2,
    "PS_Total": 5,
    "ولسوالي": "مزار شریف",
    "Region": "Northern Region"
   },
   "geometry": {
    "x": 7471189.2212523445,
    "y": 4398363.7625821354
   }
  },
  {
   "attributes": {
    "OBJECTID": 6045,
    "ولایت": "بلخ",
    "Province": "BALKH",
    "PC_Code": "2101004",
    "District": "MAZAR-E-SHARIF",
    "د_مرکز_نوم__نام_مرکز": "لیسه غازی اما ن الله",
    "Polling_Center_Name": "Ghazi Amanullah High School",
    "د_مرکز_ځای__موقعیت_مرکز": "ناحیه نهم مزار شاروالی ",
    "Polling_Center_Location": "D09 - Nahia 9",
    "Map_Accuracy": "Building",
    "Map_Accuracy_Dari": "تعمیر",
    "Status": "Open",
    "Status_Dari": null,
    "PS_Male": 3,
    "PS_Female": 3,
    "PS_Total": 6,
    "ولسوالي": "مزار شریف",
    "Region": "Northern Region"
   },
   "geometry": {
    "x": 7468017.205758037,
    "y": 4400197.4953767601
   }
  },
  {
   "attributes": {
    "OBJECTID": 6046,
    "ولایت": "بلخ",
    "Province": "BALKH",
    "PC_Code": "2101012",
    "District": "MAZAR-E-SHARIF",
    "د_مرکز_نوم__نام_مرکز": "لیسه تجربوی ",
    "Polling_Center_Name": "Tajrobawi High School",
    "د_مرکز_ځای__موقعیت_مرکز": "ناحیه سوم مزار شاروالی ",
    "Polling_Center_Location": "D03 - Nahia 3",
    "Map_Accuracy": "Building",
    "Map_Accuracy_Dari": "تعمیر",
    "Status": "Open",
    "Status_Dari": null,
    "PS_Male": 3,
    "PS_Female": 2,
    "PS_Total": 5,
    "ولسوالي": "مزار شریف",
    "Region": "Northern Region"
   },
   "geometry": {
    "x": 7470480.2129439488,
    "y": 4400185.5268809292
   }
  },
  {
   "attributes": {
    "OBJECTID": 6047,
    "ولایت": "بلخ",
    "Province": "BALKH",
    "PC_Code": "2101013",
    "District": "MAZAR-E-SHARIF",
    "د_مرکز_نوم__نام_مرکز": "مکتب مقصودالله شهید",
    "Polling_Center_Name": "Maqsoodullah Shaheed School",
    "د_مرکز_ځای__موقعیت_مرکز": "ناحیه هفتم مزار شاروالی ",
    "Polling_Center_Location": "D07 - Nahia 7",
    "Map_Accuracy": "Building",
    "Map_Accuracy_Dari": "تعمیر",
    "Status": "Open",
    "Status_Dari": null,
    "PS_Male": 2,
    "PS_Female": 2,
    "PS_Total": 4,
    "ولسوالي": "مزار شریف",
    "Region": "Northern Region"
   },
   "geometry": {
    "x": 7472771.9884891193,
    "y": 4400474.0035887891
   }
  },
  {
   "attributes": {
    "OBJECTID": 6048,
    "ولایت": "بلخ",
    "Province": "BALKH",
    "PC_Code": "2101027",
    "District": "MAZAR-E-SHARIF",
    "د_مرکز_نوم__نام_مرکز": "مکتب غلام رسول سنائ",
    "Polling_Center_Name": "Ghulam Rasool Sanaye School",
    "د_مرکز_ځای__موقعیت_مرکز": "گذر قصابها ناحیه ششم مزار شاروالی ",
    "Polling_Center_Location": "D06 - Nahia 6 Guzar Qasabha",
    "Map_Accuracy": "Building",
    "Map_Accuracy_Dari": "تعمیر",
    "Status": "Open",
    "Status_Dari": null,
    "PS_Male": 2,
    "PS_Female": 2,
    "PS_Total": 4,
    "ولسوالي": "مزار شریف",
    "Region": "Northern Region"
   },
   "geometry": {
    "x": 7472299.6921723392,
    "y": 4398433.0107309949
   }
  },
  {
   "attributes": {
    "OBJECTID": 6049,
    "ولایت": "بلخ",
    "Province": "BALKH",
    "PC_Code": "2101028",
    "District": "MAZAR-E-SHARIF",
    "د_مرکز_نوم__نام_مرکز": "مکتب ترابی",
    "Polling_Center_Name": "Torabi School",
    "د_مرکز_ځای__موقعیت_مرکز": "کارته امانی ناحیه هفتم مزار شاروالی ",
    "Polling_Center_Location": "D07 - Nahia 7 Karta-e-Amani",
    "Map_Accuracy": "Building",
    "Map_Accuracy_Dari": "تعمیر",
    "Status": "Open",
    "Status_Dari": null,
    "PS_Male": 2,
    "PS_Female": 3,
    "PS_Total": 5,
    "ولسوالي": "مزار شریف",
    "Region": "Northern Region"
   },
   "geometry": {
    "x": 7469744.7862939984,
    "y": 4393346.1845476376
   }
  },
  {
   "attributes": {
    "OBJECTID": 6050,
    "ولایت": "بلخ",
    "Province": "BALKH",
    "PC_Code": "2101032",
    "District": "MAZAR-E-SHARIF",
    "د_مرکز_نوم__نام_مرکز": "لیسه ستاره",
    "Polling_Center_Name": "Setara High School",
    "د_مرکز_ځای__موقعیت_مرکز": "ناحیه هفتم مزار شاروالی عقب گمرک ",
    "Polling_Center_Location": "D07 - Nahia 7 Behind Gumrak",
    "Map_Accuracy": "Building",
    "Map_Accuracy_Dari": "تعمیر",
    "Status": "Open",
    "Status_Dari": null,
    "PS_Male": 3,
    "PS_Female": 3,
    "PS_Total": 6,
    "ولسوالي": "مزار شریف",
    "Region": "Northern Region"
   },
   "geometry": {
    "x": 7473243.167158219,
    "y": 4399746.811199408
   }
  },
  {
   "attributes": {
    "OBJECTID": 6051,
    "ولایت": "بلخ",
    "Province": "BALKH",
    "PC_Code": "2101033",
    "District": "MAZAR-E-SHARIF",
    "د_مرکز_نوم__نام_مرکز": "مکتب متوسطه ذکور بخدی ",
    "Polling_Center_Name": "Bukhdi Boys Secondary School",
    "د_مرکز_ځای__موقعیت_مرکز": "ناحیه هشتم مزار شاروالی ",
    "Polling_Center_Location": "D08 - Nahia 8",
    "Map_Accuracy": "Building",
    "Map_Accuracy_Dari": "تعمیر",
    "Status": "Open",
    "Status_Dari": null,
    "PS_Male": 4,
    "PS_Female": 3,
    "PS_Total": 7,
    "ولسوالي": "مزار شریف",
    "Region": "Northern Region"
   },
   "geometry": {
    "x": 7471447.7129023289,
    "y": 4401089.8721996052
   }
  },
  {
   "attributes": {
    "OBJECTID": 6052,
    "ولایت": "بلخ",
    "Province": "BALKH",
    "PC_Code": "2102064",
    "District": "NAHR-E-SHAHI",
    "د_مرکز_نوم__نام_مرکز": "مکتب ابو المطیع بلخی",
    "Polling_Center_Name": "Abul Motee Balkhi School",
    "د_مرکز_ځای__موقعیت_مرکز": "قریه تخته پل ",
    "Polling_Center_Location": "Takhta Pul Village",
    "Map_Accuracy": "Building",
    "Map_Accuracy_Dari": "تعمیر",
    "Status": "Open",
    "Status_Dari": null,
    "PS_Male": 3,
    "PS_Female": 2,
    "PS_Total": 5,
    "ولسوالي": "نهر شاهی ",
    "Region": "Northern Region"
   },
   "geometry": {
    "x": 7462511.8591526449,
    "y": 4401396.3053453686
   }
  },
  {
   "attributes": {
    "OBJECTID": 6053,
    "ولایت": "بلخ",
    "Province": "BALKH",
    "PC_Code": "2102065",
    "District": "NAHR-E-SHAHI",
    "د_مرکز_نوم__نام_مرکز": "لیسه عالی محمد یوسف خیرخواه",
    "Polling_Center_Name": "Mohammad Yosuf Khairkhowah High School",
    "د_مرکز_ځای__موقعیت_مرکز": "قریه قلعه آجری ",
    "Polling_Center_Location": "Qala Aajari Village",
    "Map_Accuracy": "Building",
    "Map_Accuracy_Dari": "تعمیر",
    "Status": "Open",
    "Status_Dari": null,
    "PS_Male": 3,
    "PS_Female": 1,
    "PS_Total": 4,
    "ولسوالي": "نهر شاهی ",
    "Region": "Northern Region"
   },
   "geometry": {
    "x": 7465605.9387582522,
    "y": 4400608.4473407604
   }
  },
  {
   "attributes": {
    "OBJECTID": 6054,
    "ولایت": "بلخ",
    "Province": "BALKH",
    "PC_Code": "2108216",
    "District": "CHIMTAL",
    "د_مرکز_نوم__نام_مرکز": "مکتب پالو زولی",
    "Polling_Center_Name": "Paloo Zolai School",
    "د_مرکز_ځای__موقعیت_مرکز": "قریه پالو زولی",
    "Polling_Center_Location": "Paloo Zolai Village",
    "Map_Accuracy": "Building",
    "Map_Accuracy_Dari": "تعمیر",
    "Status": "Open",
    "Status_Dari": null,
    "PS_Male": 2,
    "PS_Female": 1,
    "PS_Total": 3,
    "ولسوالي": "چمتال",
    "Region": "Northern Region"
   },
   "geometry": {
    "x": 7435490.7514980081,
    "y": 4391121.4701071689
   }
  },
  {
   "attributes": {
    "OBJECTID": 6055,
    "ولایت": "بلخ",
    "Province": "BALKH",
    "PC_Code": "2108217",
    "District": "CHIMTAL",
    "د_مرکز_نوم__نام_مرکز": "مکتب اول امام صاحب",
    "Polling_Center_Name": "Emam Sahib Awal School",
    "د_مرکز_ځای__موقعیت_مرکز": "قریه امام صاحب اول",
    "Polling_Center_Location": "Emam Sahib Awal Village",
    "Map_Accuracy": "Village",
    "Map_Accuracy_Dari": "قریه",
    "Status": "Open",
    "Status_Dari": null,
    "PS_Male": 1,
    "PS_Female": 1,
    "PS_Total": 2,
    "ولسوالي": "چمتال",
    "Region": "Northern Region"
   },
   "geometry": {
    "x": 7404083.4165692097,
    "y": 4392072.2316912785
   }
  },
  {
   "attributes": {
    "OBJECTID": 6056,
    "ولایت": "سرپل",
    "Province": "SAR-E-PUL",
    "PC_Code": "2205108",
    "District": "SANG CHARAK",
    "د_مرکز_نوم__نام_مرکز": "مکتب متوسطه ذکور شهر کهنه تکزار",
    "Polling_Center_Name": "Shahr-e-Kuhna Takzar Boys Secondary School",
    "د_مرکز_ځای__موقعیت_مرکز": "شهر کهنه تکزار",
    "Polling_Center_Location": "Shahr-e-Kuhna Takzaz",
    "Map_Accuracy": "Building",
    "Map_Accuracy_Dari": "تعمیر",
    "Status": "Open",
    "Status_Dari": null,
    "PS_Male": 2,
    "PS_Female": 2,
    "PS_Total": 4,
    "ولسوالي": "سنگ چارک",
    "Region": "Northern Region"
   },
   "geometry": {
    "x": 7393571.4491487099,
    "y": 4293720.5361378547
   }
  },
  {
   "attributes": {
    "OBJECTID": 6057,
    "ولایت": "سرپل",
    "Province": "SAR-E-PUL",
    "PC_Code": "2205109",
    "District": "SANG CHARAK",
    "د_مرکز_نوم__نام_مرکز": "مسجد قریه بهارک",
    "Polling_Center_Name": "Baharak Village Mosque",
    "د_مرکز_ځای__موقعیت_مرکز": "قریه بهارک ",
    "Polling_Center_Location": "Baharak Village",
    "Map_Accuracy": "Building",
    "Map_Accuracy_Dari": "تعمیر",
    "Status": "Open",
    "Status_Dari": null,
    "PS_Male": 1,
    "PS_Female": 1,
    "PS_Total": 2,
    "ولسوالي": "سنگ چارک",
    "Region": "Northern Region"
   },
   "geometry": {
    "x": 7392794.7352128178,
    "y": 4286307.4866672279
   }
  },
  {
   "attributes": {
    "OBJECTID": 6058,
    "ولایت": "غور",
    "Province": "GHOR",
    "PC_Code": "2306094",
    "District": "SHAHRAK",
    "د_مرکز_نوم__نام_مرکز": "مکتب یکه بید",
    "Polling_Center_Name": "Yaka Bed School",
    "د_مرکز_ځای__موقعیت_مرکز": "تنگی ازو",
    "Polling_Center_Location": "Tangai Arzo",
    "Map_Accuracy": "Building",
    "Map_Accuracy_Dari": "تعمیر",
    "Status": "Open",
    "Status_Dari": null,
    "PS_Male": 1,
    "PS_Female": 1,
    "PS_Total": 2,
    "ولسوالي": "شهرک ",
    "Region": "Western Region"
   },
   "geometry": {
    "x": 7147842.7290631384,
    "y": 4045144.0605674284
   }
  },
  {
   "attributes": {
    "OBJECTID": 6059,
    "ولایت": "دایکندی",
    "Province": "DAYKUNDI",
    "PC_Code": "2401006",
    "District": "NILI",
    "د_مرکز_نوم__نام_مرکز": "مسجد میش سفلی",
    "Polling_Center_Name": "Mesh Sufla Mosque",
    "د_مرکز_ځای__موقعیت_مرکز": "میش",
    "Polling_Center_Location": "Mesh",
    "Map_Accuracy": "Building",
    "Map_Accuracy_Dari": "تعمیر",
    "Status": "Open",
    "Status_Dari": null,
    "PS_Male": 1,
    "PS_Female": 3,
    "PS_Total": 4,
    "ولسوالي": "نیلی",
    "Region": "Central Highlands Region"
   },
   "geometry": {
    "x": 7358906.2368891593,
    "y": 3997800.7943348493
   }
  },
  {
   "attributes": {
    "OBJECTID": 6060,
    "ولایت": "دایکندی",
    "Province": "DAYKUNDI",
    "PC_Code": "2407149",
    "District": "MIRAMOR",
    "د_مرکز_نوم__نام_مرکز": "مسجد دارغله چرخ",
    "Polling_Center_Name": "Darghala Charkh Mosque",
    "د_مرکز_ځای__موقعیت_مرکز": "دارغله چرخ",
    "Polling_Center_Location": "Darghala Charkh",
    "Map_Accuracy": "Building",
    "Map_Accuracy_Dari": "تعمیر",
    "Status": "Open",
    "Status_Dari": null,
    "PS_Male": 2,
    "PS_Female": 1,
    "PS_Total": 3,
    "ولسوالي": "میرامور",
    "Region": "Central Highlands Region"
   },
   "geometry": {
    "x": 7416724.2345545441,
    "y": 4012431.8427876988
   }
  },
  {
   "attributes": {
    "OBJECTID": 6061,
    "ولایت": "دایکندی",
    "Province": "DAYKUNDI",
    "PC_Code": "2407150",
    "District": "MIRAMOR",
    "د_مرکز_نوم__نام_مرکز": "مسجد بازار جوز",
    "Polling_Center_Name": "Bazar Joz Mosque",
    "د_مرکز_ځای__موقعیت_مرکز": "سیا دره، بازار جوز",
    "Polling_Center_Location": "Siyah Dara, Bazar Joz",
    "Map_Accuracy": "Building",
    "Map_Accuracy_Dari": "تعمیر",
    "Status": "Open",
    "Status_Dari": null,
    "PS_Male": 2,
    "PS_Female": 1,
    "PS_Total": 3,
    "ولسوالي": "میرامور",
    "Region": "Central Highlands Region"
   },
   "geometry": {
    "x": 7413269.2604993684,
    "y": 4012256.304967849
   }
  },
  {
   "attributes": {
    "OBJECTID": 6062,
    "ولایت": "ارزگان",
    "Province": "UROZGAN",
    "PC_Code": "2504033",
    "District": "SHAHID-E-HASSAS",
    "د_مرکز_نوم__نام_مرکز": "مدرسه قریه حیدر",
    "Polling_Center_Name": "Haidar Village Madrassa",
    "د_مرکز_ځای__موقعیت_مرکز": "سپیر کوه",
    "Polling_Center_Location": "Sper Koh",
    "Map_Accuracy": "Village",
    "Map_Accuracy_Dari": "قریه",
    "Status": "Open",
    "Status_Dari": null,
    "PS_Male": 4,
    "PS_Female": 1,
    "PS_Total": 5,
    "ولسوالي": "شهید حساس",
    "Region": "Southern Region"
   },
   "geometry": {
    "x": 7298456.3113897583,
    "y": 3886421.4500462906
   }
  },
  {
   "attributes": {
    "OBJECTID": 6063,
    "ولایت": "ارزگان",
    "Province": "UROZGAN",
    "PC_Code": "2504034",
    "District": "SHAHID-E-HASSAS",
    "د_مرکز_نوم__نام_مرکز": "مسجد ناجو شاه مشهد ",
    "Polling_Center_Name": "Najo Shah Mashhad Mosque",
    "د_مرکز_ځای__موقعیت_مرکز": "شاه مشهد",
    "Polling_Center_Location": "Shah Mashhad",
    "Map_Accuracy": "Building",
    "Map_Accuracy_Dari": "تعمیر",
    "Status": "Open",
    "Status_Dari": null,
    "PS_Male": 3,
    "PS_Female": 1,
    "PS_Total": 4,
    "ولسوالي": "شهید حساس",
    "Region": "Southern Region"
   },
   "geometry": {
    "x": 7295765.0458143651,
    "y": 3885208.2429729695
   }
  },
  {
   "attributes": {
    "OBJECTID": 6064,
    "ولایت": "فارياب",
    "Province": "FARYAB",
    "PC_Code": "2907101",
    "District": "QAISAR",
    "د_مرکز_نوم__نام_مرکز": "مکتب ذکور صوفی قلعه",
    "Polling_Center_Name": "Sufi Qala Boys School",
    "د_مرکز_ځای__موقعیت_مرکز": "صوفی قلعه",
    "Polling_Center_Location": "Sufi Qala",
    "Map_Accuracy": "Building",
    "Map_Accuracy_Dari": "تعمیر",
    "Status": "Open",
    "Status_Dari": null,
    "PS_Male": 1,
    "PS_Female": 1,
    "PS_Total": 2,
    "ولسوالي": "قیصار ",
    "Region": "Northern Region"
   },
   "geometry": {
    "x": 7151589.0284521049,
    "y": 4259301.2216233155
   }
  },
  {
   "attributes": {
    "OBJECTID": 6065,
    "ولایت": "فارياب",
    "Province": "FARYAB",
    "PC_Code": "2907102",
    "District": "QAISAR",
    "د_مرکز_نوم__نام_مرکز": "مسجد جامع خواجه های بورغن",
    "Polling_Center_Name": "Khwaja Hai Borghan Mosque",
    "د_مرکز_ځای__موقعیت_مرکز": "خواجه های بورغن",
    "Polling_Center_Location": "Khwaja Hai Borghan",
    "Map_Accuracy": "Building",
    "Map_Accuracy_Dari": "تعمیر",
    "Status": "Open",
    "Status_Dari": null,
    "PS_Male": 1,
    "PS_Female": 2,
    "PS_Total": 3,
    "ولسوالي": "قیصار ",
    "Region": "Northern Region"
   },
   "geometry": {
    "x": 7163458.4190641651,
    "y": 4253888.0697835628
   }
  },
  {
   "attributes": {
    "OBJECTID": 6066,
    "ولایت": "هلمند",
    "Province": "HELMAND",
    "PC_Code": "3001006",
    "District": "LASHKARGAH",
    "د_مرکز_نوم__نام_مرکز": "مسجد هاشم خان ",
    "Polling_Center_Name": "Hashim Khan Mosque",
    "د_مرکز_ځای__موقعیت_مرکز": "د لشکربازار شمالی کلی",
    "Polling_Center_Location": "Lashkar Bazar Shamal Village",
    "Map_Accuracy": "Building",
    "Map_Accuracy_Dari": "تعمیر",
    "Status": "Open",
    "Status_Dari": null,
    "PS_Male": 0,
    "PS_Female": 5,
    "PS_Total": 5,
    "ولسوالي": "لشکرگاه",
    "Region": "Southern Region"
   },
   "geometry": {
    "x": 7164104.0654315995,
    "y": 3713928.9986057472
   }
  },
  {
   "attributes": {
    "OBJECTID": 6067,
    "ولایت": "هلمند",
    "Province": "HELMAND",
    "PC_Code": "3001007",
    "District": "LASHKARGAH",
    "د_مرکز_نوم__نام_مرکز": "مکتب ابتدائیه لشکربازار شرقی",
    "Polling_Center_Name": "Lashkar Bazar Sharqi Primary School",
    "د_مرکز_ځای__موقعیت_مرکز": "لشکربازار شرقی",
    "Polling_Center_Location": "Lashkar Bazar Sharqi",
    "Map_Accuracy": "Village",
    "Map_Accuracy_Dari": "قریه",
    "Status": "Open",
    "Status_Dari": null,
    "PS_Male": 6,
    "PS_Female": 0,
    "PS_Total": 6,
    "ولسوالي": "لشکرگاه",
    "Region": "Southern Region"
   },
   "geometry": {
    "x": 7170171.507560608,
    "y": 3709599.6055287402
   }
  },
  {
   "attributes": {
    "OBJECTID": 6068,
    "ولایت": "هرات",
    "Province": "HERAT",
    "PC_Code": "3207194",
    "District": "KUSHK (RUBAT-E-SANGI)",
    "د_مرکز_نوم__نام_مرکز": "مسجد چهل دختر دوم",
    "Polling_Center_Name": "Chel Dukhtar Duowm Mosque",
    "د_مرکز_ځای__موقعیت_مرکز": "چهل دختردوم",
    "Polling_Center_Location": "Chel Dukhtar Duowm",
    "Map_Accuracy": "Building",
    "Map_Accuracy_Dari": "تعمیر",
    "Status": "Open",
    "Status_Dari": null,
    "PS_Male": 0,
    "PS_Female": 2,
    "PS_Total": 2,
    "ولسوالي": "کشک (رباط سنگی)",
    "Region": "Western Region"
   },
   "geometry": {
    "x": 6935853.639746177,
    "y": 4180029.0140438816
   }
  },
  {
   "attributes": {
    "OBJECTID": 6069,
    "ولایت": "هرات",
    "Province": "HERAT",
    "PC_Code": "3210422",
    "District": "KUSHK-E-KUHNA",
    "د_مرکز_نوم__نام_مرکز": "مسجد پایین گله چغر زنانه",
    "Polling_Center_Name": "Galla Chaghar Paheen Zananah- Mosque",
    "د_مرکز_ځای__موقعیت_مرکز": "قریه گله چغر",
    "Polling_Center_Location": "Galla Chaghar Village",
    "Map_Accuracy": "Building",
    "Map_Accuracy_Dari": "تعمیر",
    "Status": "Open",
    "Status_Dari": null,
    "PS_Male": 0,
    "PS_Female": 2,
    "PS_Total": 2,
    "ولسوالي": "کشک کهنه ",
    "Region": "Western Region"
   },
   "geometry": {
    "x": 6988398.1693054931,
    "y": 4129523.0254699495
   }
  },
  {
   "attributes": {
    "OBJECTID": 6070,
    "ولایت": "هرات",
    "Province": "HERAT",
    "PC_Code": "3210423",
    "District": "KUSHK-E-KUHNA",
    "د_مرکز_نوم__نام_مرکز": "مکتب نزدیک چاه خواجه الخند",
    "Polling_Center_Name": "Nazdik-e- Chah  Khwaja alkhand School ",
    "د_مرکز_ځای__موقعیت_مرکز": "خواجه الخند ",
    "Polling_Center_Location": "Khwaja Alkhand ",
    "Map_Accuracy": "Building",
    "Map_Accuracy_Dari": "تعمیر",
    "Status": "Open",
    "Status_Dari": null,
    "PS_Male": 3,
    "PS_Female": 2,
    "PS_Total": 5,
    "ولسوالي": "کشک کهنه ",
    "Region": "Western Region"
   },
   "geometry": {
    "x": 6985489.0325623015,
    "y": 4144286.1285341475
   }
  },
  {
   "attributes": {
    "OBJECTID": 6071,
    "ولایت": "هرات",
    "Province": "HERAT",
    "PC_Code": "3212381",
    "District": "OBE",
    "د_مرکز_نوم__نام_مرکز": "مکتب دخترانه رباط آخند زنانه",
    "Polling_Center_Name": "Rubat-e-Akhond Zanana Girls School ",
    "د_مرکز_ځای__موقعیت_مرکز": "قریه رباط آخند",
    "Polling_Center_Location": "Rubat-e- Akhond Village",
    "Map_Accuracy": "Village",
    "Map_Accuracy_Dari": "قریه",
    "Status": "Open",
    "Status_Dari": null,
    "PS_Male": 0,
    "PS_Female": 2,
    "PS_Total": 2,
    "ولسوالي": "اوبه ",
    "Region": "Western Region"
   },
   "geometry": {
    "x": 7008757.5562861152,
    "y": 4065062.699784094
   }
  },
  {
   "attributes": {
    "OBJECTID": 6072,
    "ولایت": "هرات",
    "Province": "HERAT",
    "PC_Code": "3212382",
    "District": "OBE",
    "د_مرکز_نوم__نام_مرکز": "مکتب چناران مردانه",
    "Polling_Center_Name": "Chenaran Boys School",
    "د_مرکز_ځای__موقعیت_مرکز": "قریه چناران",
    "Polling_Center_Location": "Chenaran Village ",
    "Map_Accuracy": "Building",
    "Map_Accuracy_Dari": "تعمیر",
    "Status": "Open",
    "Status_Dari": null,
    "PS_Male": 3,
    "PS_Female": 0,
    "PS_Total": 3,
    "ولسوالي": "اوبه ",
    "Region": "Western Region"
   },
   "geometry": {
    "x": 7012403.6352941226,
    "y": 4065467.9276109431
   }
  },
  {
   "attributes": {
    "OBJECTID": 6073,
    "ولایت": "هرات",
    "Province": "HERAT",
    "PC_Code": "3216390",
    "District": "CHISHT-E-SHARIF",
    "د_مرکز_نوم__نام_مرکز": "مسجد سر تگاب",
    "Polling_Center_Name": "Sar Tagab Mosque",
    "د_مرکز_ځای__موقعیت_مرکز": "قریه سر تگاب",
    "Polling_Center_Location": "Sar Tagab Village",
    "Map_Accuracy": "Building",
    "Map_Accuracy_Dari": "تعمیر",
    "Status": "Open",
    "Status_Dari": null,
    "PS_Male": 1,
    "PS_Female": 1,
    "PS_Total": 2,
    "ولسوالي": "چشت شریف",
    "Region": "Western Region"
   },
   "geometry": {
    "x": 7095558.4978691461,
    "y": 4076516.6458545118
   }
  },
  {
   "attributes": {
    "OBJECTID": 6074,
    "ولایت": "هرات",
    "Province": "HERAT",
    "PC_Code": "3216391",
    "District": "CHISHT-E-SHARIF",
    "د_مرکز_نوم__نام_مرکز": "مسجد کبوتر خان",
    "Polling_Center_Name": "Kabotar Khan Mosque ",
    "د_مرکز_ځای__موقعیت_مرکز": "کبوتر خان ",
    "Polling_Center_Location": "Kabotar Khan",
    "Map_Accuracy": "Village",
    "Map_Accuracy_Dari": "قریه",
    "Status": "Open",
    "Status_Dari": null,
    "PS_Male": 1,
    "PS_Female": 1,
    "PS_Total": 2,
    "ولسوالي": "چشت شریف",
    "Region": "Western Region"
   },
   "geometry": {
    "x": 7092847.0200138111,
    "y": 4073457.9451543852
   }
  },
  {
   "attributes": {
    "OBJECTID": 6075,
    "ولایت": "هرات",
    "Province": "HERAT",
    "PC_Code": "3216400",
    "District": "CHISHT-E-SHARIF",
    "د_مرکز_نوم__نام_مرکز": "فضای باز باغ بسم الله قریه دره گگ ",
    "Polling_Center_Name": "Bagh-e-Besmellah Open Space",
    "د_مرکز_ځای__موقعیت_مرکز": "قریه دره گگ ",
    "Polling_Center_Location": "Daragag Village",
    "Map_Accuracy": "Village",
    "Map_Accuracy_Dari": "قریه",
    "Status": "Open",
    "Status_Dari": null,
    "PS_Male": 1,
    "PS_Female": 1,
    "PS_Total": 2,
    "ولسوالي": "چشت شریف",
    "Region": "Western Region"
   },
   "geometry": {
    "x": 7130513.0851450115,
    "y": 4092190.2667303556
   }
  },
  {
   "attributes": {
    "OBJECTID": 6076,
    "ولایت": "هرات",
    "Province": "HERAT",
    "PC_Code": "3216401",
    "District": "CHISHT-E-SHARIF",
    "د_مرکز_نوم__نام_مرکز": "فضای باز باغ حاجی محمد رحیم قریه خار زا",
    "Polling_Center_Name": "Bagh-e-Haji Mohammad Rahim Open Space",
    "د_مرکز_ځای__موقعیت_مرکز": "خار زار",
    "Polling_Center_Location": "Kharzar",
    "Map_Accuracy": "Village",
    "Map_Accuracy_Dari": "قریه",
    "Status": "Open",
    "Status_Dari": null,
    "PS_Male": 1,
    "PS_Female": 1,
    "PS_Total": 2,
    "ولسوالي": "چشت شریف",
    "Region": "Western Region"
   },
   "geometry": {
    "x": 7122440.5674797809,
    "y": 4068205.8371588509
   }
  },
  {
   "attributes": {
    "OBJECTID": 6077,
    "ولایت": " فراه",
    "Province": "FARAH",
    "PC_Code": "3311206",
    "District": "PUR CHAMAN",
    "د_مرکز_نوم__نام_مرکز": "مسجد ایجن",
    "Polling_Center_Name": "Ejan Mosque  ",
    "د_مرکز_ځای__موقعیت_مرکز": "ایجن",
    "Polling_Center_Location": "Ejan ",
    "Map_Accuracy": "Building",
    "Map_Accuracy_Dari": "تعمیر",
    "Status": "Open",
    "Status_Dari": null,
    "PS_Male": 1,
    "PS_Female": 1,
    "PS_Total": 2,
    "ولسوالي": "پرچمن",
    "Region": "Western Region"
   },
   "geometry": {
    "x": 7138446.0437910194,
    "y": 3893197.3492628788
   }
  },
  {
   "attributes": {
    "OBJECTID": 6078,
    "ولایت": "کابل",
    "Province": "KABUL",
    "PC_Code": "0101047",
    "District": "KABUL-D03",
    "د_مرکز_نوم__نام_مرکز": " ليسه رابعه بلخي",
    "Polling_Center_Name": "Rabia Balkhi High School",
    "د_مرکز_ځای__موقعیت_مرکز": "کارته چهار",
    "Polling_Center_Location": "Kart-e-Chahar",
    "Map_Accuracy": "Building",
    "Map_Accuracy_Dari": "تعمیر",
    "Status": "Open",
    "Status_Dari": null,
    "PS_Male": 3,
    "PS_Female": 2,
    "PS_Total": 5,
    "ولسوالي": "کابل - ناحیه 03",
    "Region": "Central Region"
   },
   "geometry": {
    "x": 7697429.3594229827,
    "y": 4097299.9861546573
   }
  },
  {
   "attributes": {
    "OBJECTID": 6079,
    "ولایت": "کابل",
    "Province": "KABUL",
    "PC_Code": "0101154",
    "District": "KABUL-D08",
    "د_مرکز_نوم__نام_مرکز": " مسجد جامع شهرک طلائی",
    "Polling_Center_Name": "Shahrak-e-Talaie Mosque",
    "د_مرکز_ځای__موقعیت_مرکز": "شهرک طلایی",
    "Polling_Center_Location": "Shahrak Talaie",
    "Map_Accuracy": "Building",
    "Map_Accuracy_Dari": "تعمیر",
    "Status": "Open",
    "Status_Dari": null,
    "PS_Male": 3,
    "PS_Female": 2,
    "PS_Total": 5,
    "ولسوالي": "کابل - ناحیه 08",
    "Region": "Central Region"
   },
   "geometry": {
    "x": 7705301.3361387467,
    "y": 4097919.7434774162
   }
  },
  {
   "attributes": {
    "OBJECTID": 6080,
    "ولایت": "پروان",
    "Province": "PARWAN",
    "PC_Code": "0301036",
    "District": "CHARIKAR",
    "د_مرکز_نوم__نام_مرکز": "لیسه مسعود بزرگ",
    "Polling_Center_Name": "Masoud Buzurg High School",
    "د_مرکز_ځای__موقعیت_مرکز": "سنجد دره",
    "Polling_Center_Location": "Sunjid Dara",
    "Map_Accuracy": "Building",
    "Map_Accuracy_Dari": "تعمیر",
    "Status": "Open",
    "Status_Dari": null,
    "PS_Male": 2,
    "PS_Female": 1,
    "PS_Total": 3,
    "ولسوالي": "چاریکار",
    "Region": "Central Region"
   },
   "geometry": {
    "x": 7691282.9862090275,
    "y": 4157131.1761571742
   }
  },
  {
   "attributes": {
    "OBJECTID": 6081,
    "ولایت": "پنجشیر",
    "Province": "PANJSHIR",
    "PC_Code": "0802024",
    "District": "RUKHA",
    "د_مرکز_نوم__نام_مرکز": "مسجد حصارک",
    "Polling_Center_Name": "Hasarak Mosque",
    "د_مرکز_ځای__موقعیت_مرکز": "حصارک",
    "Polling_Center_Location": "Hasarak",
    "Map_Accuracy": "Building",
    "Map_Accuracy_Dari": "تعمیر",
    "Status": "Open",
    "Status_Dari": null,
    "PS_Male": 1,
    "PS_Female": 1,
    "PS_Total": 2,
    "ولسوالي": "رخه",
    "Region": "Central Region"
   },
   "geometry": {
    "x": 7736980.9719003644,
    "y": 4195453.2877055658
   }
  },
  {
   "attributes": {
    "OBJECTID": 6082,
    "ولایت": "پنجشیر",
    "Province": "PANJSHIR",
    "PC_Code": "0802025",
    "District": "RUKHA",
    "د_مرکز_نوم__نام_مرکز": "مسجد مرشتان",
    "Polling_Center_Name": "Marshtan Mosque",
    "د_مرکز_ځای__موقعیت_مرکز": "مرشتان",
    "Polling_Center_Location": "Marshtan",
    "Map_Accuracy": "Building",
    "Map_Accuracy_Dari": "تعمیر",
    "Status": "Open",
    "Status_Dari": null,
    "PS_Male": 1,
    "PS_Female": 1,
    "PS_Total": 2,
    "ولسوالي": "رخه",
    "Region": "Central Region"
   },
   "geometry": {
    "x": 7735152.9778441256,
    "y": 4198995.9906058721
   }
  },
  {
   "attributes": {
    "OBJECTID": 6083,
    "ولایت": "بغلان",
    "Province": "BAGHLAN",
    "PC_Code": "0901012",
    "District": "PUL-E-KHUMRI",
    "د_مرکز_نوم__نام_مرکز": "مکتب خواجه کمال ولی",
    "Polling_Center_Name": "Khwaja Kamal Wali School",
    "د_مرکز_ځای__موقعیت_مرکز": "فامیل های بلاک سیمنت غوری",
    "Polling_Center_Location": "Ghory Sement Familiies Building",
    "Map_Accuracy": "Building",
    "Map_Accuracy_Dari": "تعمیر",
    "Status": "Open",
    "Status_Dari": null,
    "PS_Male": 3,
    "PS_Female": 2,
    "PS_Total": 5,
    "ولسوالي": "پلخمری",
    "Region": "North Eastern Region"
   },
   "geometry": {
    "x": 7645503.6337622935,
    "y": 4297982.1679004664
   }
  },
  {
   "attributes": {
    "OBJECTID": 6084,
    "ولایت": "غزنى",
    "Province": "GHAZNI",
    "PC_Code": "1111193",
    "District": "QARA BAGH",
    "د_مرکز_نوم__نام_مرکز": "مسجد قریه بلند غان",
    "Polling_Center_Name": "Bilandghan Village Mosque",
    "د_مرکز_ځای__موقعیت_مرکز": "قریه بلند غان ",
    "Polling_Center_Location": "Biland Ghan Village",
    "Map_Accuracy": "Village",
    "Map_Accuracy_Dari": "قریه",
    "Status": "Open",
    "Status_Dari": null,
    "PS_Male": 2,
    "PS_Female": 1,
    "PS_Total": 3,
    "ولسوالي": "قره باغ",
    "Region": "South Eastern Region"
   },
   "geometry": {
    "x": 7570731.7288560579,
    "y": 3950984.0508117918
   }
  },
  {
   "attributes": {
    "OBJECTID": 6085,
    "ولایت": "غزنى",
    "Province": "GHAZNI",
    "PC_Code": "1111194",
    "District": "QARA BAGH",
    "د_مرکز_نوم__نام_مرکز": "لیسه سلطان محمود غزنوی",
    "Polling_Center_Name": "Sultan Mahmood Ghaznawi High School",
    "د_مرکز_ځای__موقعیت_مرکز": "قریه قلبی",
    "Polling_Center_Location": "Qalbi Village ",
    "Map_Accuracy": "Building",
    "Map_Accuracy_Dari": "تعمیر",
    "Status": "Open",
    "Status_Dari": null,
    "PS_Male": 2,
    "PS_Female": 0,
    "PS_Total": 2,
    "ولسوالي": "قره باغ",
    "Region": "South Eastern Region"
   },
   "geometry": {
    "x": 7581058.5508126663,
    "y": 3921990.4206188275
   }
  },
  {
   "attributes": {
    "OBJECTID": 6086,
    "ولایت": "بدخشان",
    "Province": "BADAKHSHAN",
    "PC_Code": "1715157",
    "District": "KISHM",
    "د_مرکز_نوم__نام_مرکز": "لیسه تکیه",
    "Polling_Center_Name": "Takya High School",
    "د_مرکز_ځای__موقعیت_مرکز": "تکیه",
    "Polling_Center_Location": "Takya",
    "Map_Accuracy": "Building",
    "Map_Accuracy_Dari": "تعمیر",
    "Status": "Open",
    "Status_Dari": null,
    "PS_Male": 2,
    "PS_Female": 1,
    "PS_Total": 3,
    "ولسوالي": "کشم",
    "Region": "North Eastern Region"
   },
   "geometry": {
    "x": 7801476.863291977,
    "y": 4416986.7358484287
   }
  },
  {
   "attributes": {
    "OBJECTID": 6087,
    "ولایت": "بدخشان",
    "Province": "BADAKHSHAN",
    "PC_Code": "1715158",
    "District": "KISHM",
    "د_مرکز_نوم__نام_مرکز": "مکتب نمازگاه ",
    "Polling_Center_Name": "Namazgah School",
    "د_مرکز_ځای__موقعیت_مرکز": "نمازگاه ",
    "Polling_Center_Location": "Namazgah",
    "Map_Accuracy": "Building",
    "Map_Accuracy_Dari": "تعمیر",
    "Status": "Open",
    "Status_Dari": null,
    "PS_Male": 2,
    "PS_Female": 1,
    "PS_Total": 3,
    "ولسوالي": "کشم",
    "Region": "North Eastern Region"
   },
   "geometry": {
    "x": 7808627.6088192528,
    "y": 4406811.5188382277
   }
  },
  {
   "attributes": {
    "OBJECTID": 6088,
    "ولایت": "تخار",
    "Province": "TAKHAR",
    "PC_Code": "1809057",
    "District": "KHWAJA GHAR",
    "د_مرکز_نوم__نام_مرکز": "شهروان با غ عبد الشکور",
    "Polling_Center_Name": "Shahrwan Bagh Abdul Shakoor",
    "د_مرکز_ځای__موقعیت_مرکز": "شهروان",
    "Polling_Center_Location": "Shahrwan",
    "Map_Accuracy": "District",
    "Map_Accuracy_Dari": "ولسوالی",
    "Status": "Open",
    "Status_Dari": null,
    "PS_Male": 1,
    "PS_Female": 1,
    "PS_Total": 2,
    "ولسوالي": "خواجه غار",
    "Region": "North Eastern Region"
   },
   "geometry": {
    "x": 7725395.0426793089,
    "y": 4446807.6905861264
   }
  },
  {
   "attributes": {
    "OBJECTID": 6089,
    "ولایت": "تخار",
    "Province": "TAKHAR",
    "PC_Code": "1809058",
    "District": "KHWAJA GHAR",
    "د_مرکز_نوم__نام_مرکز": "مکتب صاف قروق",
    "Polling_Center_Name": "Saaf Qarooq School",
    "د_مرکز_ځای__موقعیت_مرکز": "صاف قروق",
    "Polling_Center_Location": "Saaf Qarooq",
    "Map_Accuracy": "Building",
    "Map_Accuracy_Dari": "تعمیر",
    "Status": "Open",
    "Status_Dari": null,
    "PS_Male": 1,
    "PS_Female": 1,
    "PS_Total": 2,
    "ولسوالي": "خواجه غار",
    "Region": "North Eastern Region"
   },
   "geometry": {
    "x": 7721609.6871809503,
    "y": 4443803.7797247302
   }
  },
  {
   "attributes": {
    "OBJECTID": 6090,
    "ولایت": "کندز",
    "Province": "KUNDUZ",
    "PC_Code": "1904174",
    "District": "KHAN ABAD",
    "د_مرکز_نوم__نام_مرکز": "مکتب عرب قدق",
    "Polling_Center_Name": "Arab Qadaq School",
    "د_مرکز_ځای__موقعیت_مرکز": "قریه عرب قدق",
    "Polling_Center_Location": "Arab Qadaq Village",
    "Map_Accuracy": "Building",
    "Map_Accuracy_Dari": "تعمیر",
    "Status": "Open",
    "Status_Dari": null,
    "PS_Male": 1,
    "PS_Female": 1,
    "PS_Total": 2,
    "ولسوالي": "خان آباد",
    "Region": "North Eastern Region"
   },
   "geometry": {
    "x": 7694805.1905574761,
    "y": 4373911.2141792905
   }
  },
  {
   "attributes": {
    "OBJECTID": 6091,
    "ولایت": "کندز",
    "Province": "KUNDUZ",
    "PC_Code": "1904175",
    "District": "KHAN ABAD",
    "د_مرکز_نوم__نام_مرکز": "مکتب متوسطه لاله کی",
    "Polling_Center_Name": "Lala Kai Secondary School",
    "د_مرکز_ځای__موقعیت_مرکز": "قریه لاله کی",
    "Polling_Center_Location": "Lalai Kai Village",
    "Map_Accuracy": "Building",
    "Map_Accuracy_Dari": "تعمیر",
    "Status": "Open",
    "Status_Dari": null,
    "PS_Male": 2,
    "PS_Female": 1,
    "PS_Total": 3,
    "ولسوالي": "خان آباد",
    "Region": "North Eastern Region"
   },
   "geometry": {
    "x": 7698746.7309749573,
    "y": 4372233.3836072423
   }
  },
  {
   "attributes": {
    "OBJECTID": 6092,
    "ولایت": "سمنگان",
    "Province": "SAMANGAN",
    "PC_Code": "2003078",
    "District": "KHURAM WA SARBAGH",
    "د_مرکز_نوم__نام_مرکز": "مکتب ابتدائیه غازی مرد",
    "Polling_Center_Name": "Ghazi Mard Primary School",
    "د_مرکز_ځای__موقعیت_مرکز": "قریه غازی مرد",
    "Polling_Center_Location": "Ghazi Murad Village",
    "Map_Accuracy": "Building",
    "Map_Accuracy_Dari": "تعمیر",
    "Status": "Open",
    "Status_Dari": null,
    "PS_Male": 2,
    "PS_Female": 1,
    "PS_Total": 3,
    "ولسوالي": "خرم و سارباغ",
    "Region": "Northern Region"
   },
   "geometry": {
    "x": 7573837.3099914575,
    "y": 4294992.0169178061
   }
  },
  {
   "attributes": {
    "OBJECTID": 6093,
    "ولایت": "سمنگان",
    "Province": "SAMANGAN",
    "PC_Code": "2003079",
    "District": "KHURAM WA SARBAGH",
    "د_مرکز_نوم__نام_مرکز": "مکتب لیسه سید جمال الدین",
    "Polling_Center_Name": "Sayed Jamaluddin High School",
    "د_مرکز_ځای__موقعیت_مرکز": "مرکز ولسوالی",
    "Polling_Center_Location": "District Compound",
    "Map_Accuracy": "Building",
    "Map_Accuracy_Dari": "تعمیر",
    "Status": "Open",
    "Status_Dari": null,
    "PS_Male": 3,
    "PS_Female": 1,
    "PS_Total": 4,
    "ولسوالي": "خرم و سارباغ",
    "Region": "Northern Region"
   },
   "geometry": {
    "x": 7576142.4115928691,
    "y": 4300172.641103765
   }
  },
  {
   "attributes": {
    "OBJECTID": 6094,
    "ولایت": "بلخ",
    "Province": "BALKH",
    "PC_Code": "2101036",
    "District": "MAZAR-E-SHARIF",
    "د_مرکز_نوم__نام_مرکز": "لیسه  هاشم برات",
    "Polling_Center_Name": "Hashim Barat High School",
    "د_مرکز_ځای__موقعیت_مرکز": "ناحیه دوم مزار شاروالی ",
    "Polling_Center_Location": "D02 - Nahia 2 ",
    "Map_Accuracy": "Building",
    "Map_Accuracy_Dari": "تعمیر",
    "Status": "Open",
    "Status_Dari": null,
    "PS_Male": 5,
    "PS_Female": 4,
    "PS_Total": 9,
    "ولسوالي": "مزار شریف",
    "Region": "Northern Region"
   },
   "geometry": {
    "x": 7469935.1593211787,
    "y": 4400660.2606629906
   }
  },
  {
   "attributes": {
    "OBJECTID": 6095,
    "ولایت": "بلخ",
    "Province": "BALKH",
    "PC_Code": "2101037",
    "District": "MAZAR-E-SHARIF",
    "د_مرکز_نوم__نام_مرکز": "مکتب نو بهار",
    "Polling_Center_Name": "Naw Bahar School",
    "د_مرکز_ځای__موقعیت_مرکز": "کارته نوشاد ناحیه نهم مزار شاروالی ",
    "Polling_Center_Location": "D09 - Nahia 9 Karta-e-Nawshad",
    "Map_Accuracy": "Building",
    "Map_Accuracy_Dari": "تعمیر",
    "Status": "Open",
    "Status_Dari": null,
    "PS_Male": 3,
    "PS_Female": 3,
    "PS_Total": 6,
    "ولسوالي": "مزار شریف",
    "Region": "Northern Region"
   },
   "geometry": {
    "x": 7469115.2968374602,
    "y": 4401197.3593860427
   }
  },
  {
   "attributes": {
    "OBJECTID": 6096,
    "ولایت": "غور",
    "Province": "GHOR",
    "PC_Code": "2306074",
    "District": "SHAHRAK",
    "د_مرکز_نوم__نام_مرکز": "مکتب کمنج",
    "Polling_Center_Name": "Kamanj School",
    "د_مرکز_ځای__موقعیت_مرکز": " غوک",
    "Polling_Center_Location": "Ghok",
    "Map_Accuracy": "Building",
    "Map_Accuracy_Dari": "تعمیر",
    "Status": "Open",
    "Status_Dari": null,
    "PS_Male": 1,
    "PS_Female": 2,
    "PS_Total": 3,
    "ولسوالي": "شهرک ",
    "Region": "Western Region"
   },
   "geometry": {
    "x": 7165024.2746439055,
    "y": 4076524.0904311039
   }
  },
  {
   "attributes": {
    "OBJECTID": 6097,
    "ولایت": "غور",
    "Province": "GHOR",
    "PC_Code": "2306075",
    "District": "SHAHRAK",
    "د_مرکز_نوم__نام_مرکز": "مکتب سر چشمه",
    "Polling_Center_Name": "Sar Chashma School",
    "د_مرکز_ځای__موقعیت_مرکز": "سرچشمه",
    "Polling_Center_Location": "Sarchashma",
    "Map_Accuracy": "Building",
    "Map_Accuracy_Dari": "تعمیر",
    "Status": "Open",
    "Status_Dari": null,
    "PS_Male": 1,
    "PS_Female": 2,
    "PS_Total": 3,
    "ولسوالي": "شهرک ",
    "Region": "Western Region"
   },
   "geometry": {
    "x": 7171170.8994399086,
    "y": 4046580.6596958125
   }
  },
  {
   "attributes": {
    "OBJECTID": 6098,
    "ولایت": "غور",
    "Province": "GHOR",
    "PC_Code": "2307163",
    "District": "LAL WA SARJANGAL",
    "د_مرکز_نوم__نام_مرکز": "مکتب شور قل ",
    "Polling_Center_Name": "Shorqal School",
    "د_مرکز_ځای__موقعیت_مرکز": "ده مهر علی ",
    "Polling_Center_Location": "Deh Mohr Ali",
    "Map_Accuracy": "Building",
    "Map_Accuracy_Dari": "تعمیر",
    "Status": "Open",
    "Status_Dari": null,
    "PS_Male": 1,
    "PS_Female": 1,
    "PS_Total": 2,
    "ولسوالي": "لعل و سرجنگل ",
    "Region": "Western Region"
   },
   "geometry": {
    "x": 7411817.3860594537,
    "y": 4103865.5480718678
   }
  },
  {
   "attributes": {
    "OBJECTID": 6099,
    "ولایت": "غور",
    "Province": "GHOR",
    "PC_Code": "2307164",
    "District": "LAL WA SARJANGAL",
    "د_مرکز_نوم__نام_مرکز": "مسجد سری کامران",
    "Polling_Center_Name": "Sare Kamran Mosque",
    "د_مرکز_ځای__موقعیت_مرکز": " سری کامران",
    "Polling_Center_Location": "Sare Kamran",
    "Map_Accuracy": "Village",
    "Map_Accuracy_Dari": "قریه",
    "Status": "Open",
    "Status_Dari": null,
    "PS_Male": 1,
    "PS_Female": 1,
    "PS_Total": 2,
    "ولسوالي": "لعل و سرجنگل ",
    "Region": "Western Region"
   },
   "geometry": {
    "x": 7380771.8728715805,
    "y": 4115512.7170283664
   }
  },
  {
   "attributes": {
    "OBJECTID": 6100,
    "ولایت": "غور",
    "Province": "GHOR",
    "PC_Code": "2310198",
    "District": "SAGHAR",
    "د_مرکز_نوم__نام_مرکز": "مکتب متوسطه ده شیر",
    "Polling_Center_Name": "Deh Sheer Secondary School",
    "د_مرکز_ځای__موقعیت_مرکز": " ده شیر",
    "Polling_Center_Location": "Deh Sheer",
    "Map_Accuracy": "Building",
    "Map_Accuracy_Dari": "تعمیر",
    "Status": "Open",
    "Status_Dari": null,
    "PS_Male": 2,
    "PS_Female": 1,
    "PS_Total": 3,
    "ولسوالي": "ساغر ",
    "Region": "Western Region"
   },
   "geometry": {
    "x": 7091416.2150139166,
    "y": 3981348.7014107625
   }
  },
  {
   "attributes": {
    "OBJECTID": 6101,
    "ولایت": "دایکندی",
    "Province": "DAYKUNDI",
    "PC_Code": "2406132",
    "District": "KITI",
    "د_مرکز_نوم__نام_مرکز": "مسجد کومی",
    "Polling_Center_Name": "Komi Mosque",
    "د_مرکز_ځای__موقعیت_مرکز": "کومی",
    "Polling_Center_Location": "Komi",
    "Map_Accuracy": "Building",
    "Map_Accuracy_Dari": "تعمیر",
    "Status": "Open",
    "Status_Dari": null,
    "PS_Male": 2,
    "PS_Female": 1,
    "PS_Total": 3,
    "ولسوالي": "کیتی",
    "Region": "Central Highlands Region"
   },
   "geometry": {
    "x": 7322476.3290622272,
    "y": 3986694.9054832039
   }
  },
  {
   "attributes": {
    "OBJECTID": 6102,
    "ولایت": "دایکندی",
    "Province": "DAYKUNDI",
    "PC_Code": "2406133",
    "District": "KITI",
    "د_مرکز_نوم__نام_مرکز": "مسجد موزرمی",
    "Polling_Center_Name": "Mozarmi Mosque",
    "د_مرکز_ځای__موقعیت_مرکز": "موزرمی",
    "Polling_Center_Location": "Mozrami",
    "Map_Accuracy": "Building",
    "Map_Accuracy_Dari": "تعمیر",
    "Status": "Open",
    "Status_Dari": null,
    "PS_Male": 2,
    "PS_Female": 1,
    "PS_Total": 3,
    "ولسوالي": "کیتی",
    "Region": "Central Highlands Region"
   },
   "geometry": {
    "x": 7309326.4247815982,
    "y": 3967250.130486832
   }
  },
  {
   "attributes": {
    "OBJECTID": 6103,
    "ولایت": "کندهار",
    "Province": "کندهار",
    "PC_Code": "2703079",
    "District": "DAMAN",
    "د_مرکز_نوم__نام_مرکز": "مكتب منډهسار",
    "Polling_Center_Name": "Mandahsar School",
    "د_مرکز_ځای__موقعیت_مرکز": "منډهسار",
    "Polling_Center_Location": "Mandahsar",
    "Map_Accuracy": "Building",
    "Map_Accuracy_Dari": "تعمیر",
    "Status": "Open",
    "Status_Dari": null,
    "PS_Male": 4,
    "PS_Female": 1,
    "PS_Total": 5,
    "ولسوالي": "دامان",
    "Region": "Southern Region"
   },
   "geometry": {
    "x": 7330798.1133312387,
    "y": 3703796.7325441591
   }
  },
  {
   "attributes": {
    "OBJECTID": 6104,
    "ولایت": "کندهار",
    "Province": "کندهار",
    "PC_Code": "2703080",
    "District": "DAMAN",
    "د_مرکز_نوم__نام_مرکز": "مكتب خوش آب",
    "Polling_Center_Name": "Khosh Aab School",
    "د_مرکز_ځای__موقعیت_مرکز": "خوش آب",
    "Polling_Center_Location": "Khosh Aab",
    "Map_Accuracy": "Building",
    "Map_Accuracy_Dari": "تعمیر",
    "Status": "Open",
    "Status_Dari": null,
    "PS_Male": 3,
    "PS_Female": 1,
    "PS_Total": 4,
    "ولسوالي": "دامان",
    "Region": "Southern Region"
   },
   "geometry": {
    "x": 7326216.1641283678,
    "y": 3698393.5098988176
   }
  },
  {
   "attributes": {
    "OBJECTID": 6105,
    "ولایت": "فارياب",
    "Province": "FARYAB",
    "PC_Code": "2907084",
    "District": "QAISAR",
    "د_مرکز_نوم__نام_مرکز": "مسجد باشلمست ",
    "Polling_Center_Name": "Bashalmast Mosque",
    "د_مرکز_ځای__موقعیت_مرکز": "باشلمست ",
    "Polling_Center_Location": "Bashlmast",
    "Map_Accuracy": "Building",
    "Map_Accuracy_Dari": "تعمیر",
    "Status": "Open",
    "Status_Dari": null,
    "PS_Male": 2,
    "PS_Female": 1,
    "PS_Total": 3,
    "ولسوالي": "قیصار ",
    "Region": "Northern Region"
   },
   "geometry": {
    "x": 7120549.1836527055,
    "y": 4262939.6497996775
   }
  },
  {
   "attributes": {
    "OBJECTID": 6106,
    "ولایت": "هلمند",
    "Province": "HELMAND",
    "PC_Code": "3006117",
    "District": "GARM SER",
    "د_مرکز_نوم__نام_مرکز": "د حاجی نادر د کلي مكتب",
    "Polling_Center_Name": "Haji Nadir Village School",
    "د_مرکز_ځای__موقعیت_مرکز": "د حاجی نادر کلي",
    "Polling_Center_Location": "Haji Nadir Village",
    "Map_Accuracy": "Building",
    "Map_Accuracy_Dari": "تعمیر",
    "Status": "Open",
    "Status_Dari": null,
    "PS_Male": 2,
    "PS_Female": 0,
    "PS_Total": 2,
    "ولسوالي": "گرم سیر",
    "Region": "Southern Region"
   },
   "geometry": {
    "x": 7139951.0910989121,
    "y": 3621616.411308907
   }
  },
  {
   "attributes": {
    "OBJECTID": 6107,
    "ولایت": "هلمند",
    "Province": "HELMAND",
    "PC_Code": "3006118",
    "District": "GARM SER",
    "د_مرکز_نوم__نام_مرکز": "مكتب لكړي",
    "Polling_Center_Name": "Lakree School",
    "د_مرکز_ځای__موقعیت_مرکز": "د حاجی عبدالظاهر کلي",
    "Polling_Center_Location": "Haji Abdul Zahir Village",
    "Map_Accuracy": "Building",
    "Map_Accuracy_Dari": "تعمیر",
    "Status": "Open",
    "Status_Dari": null,
    "PS_Male": 3,
    "PS_Female": 0,
    "PS_Total": 3,
    "ولسوالي": "گرم سیر",
    "Region": "Southern Region"
   },
   "geometry": {
    "x": 7140059.1789848851,
    "y": 3616004.1549559673
   }
  },
  {
   "attributes": {
    "OBJECTID": 6108,
    "ولایت": "سمنگان",
    "Province": "SAMANGAN",
    "PC_Code": "2006093",
    "District": "DARA-E-SOOF-E-PAYIN",
    "د_مرکز_نوم__نام_مرکز": "مسجد جامع دایکندی ",
    "Polling_Center_Name": "Dai Kundi Jaame Mosque",
    "د_مرکز_ځای__موقعیت_مرکز": "قریه دایکندی",
    "Polling_Center_Location": "Dai Kundi Village",
    "Map_Accuracy": "Building",
    "Map_Accuracy_Dari": "تعمیر",
    "Status": "Open",
    "Status_Dari": null,
    "PS_Male": 1,
    "PS_Female": 1,
    "PS_Total": 2,
    "ولسوالي": "دره صوف پائین",
    "Region": "Northern Region"
   },
   "geometry": {
    "x": 7520775.9577661939,
    "y": 4293677.7657532599
   }
  },
  {
   "attributes": {
    "OBJECTID": 6109,
    "ولایت": "سمنگان",
    "Province": "SAMANGAN",
    "PC_Code": "2007033",
    "District": "DARA-E-SOOF-E-BALA",
    "د_مرکز_نوم__نام_مرکز": "لیسه ذکور بازار سوخته ",
    "Polling_Center_Name": "Bazar Sokhta Boys High School",
    "د_مرکز_ځای__موقعیت_مرکز": "مرکز ولسوالی",
    "Polling_Center_Location": "District Compound",
    "Map_Accuracy": "Building",
    "Map_Accuracy_Dari": "تعمیر",
    "Status": "Open",
    "Status_Dari": null,
    "PS_Male": 3,
    "PS_Female": 2,
    "PS_Total": 5,
    "ولسوالي": "دره صوف بالا",
    "Region": "Northern Region"
   },
   "geometry": {
    "x": 7489936.1582105737,
    "y": 4287992.9840450827
   }
  },
  {
   "attributes": {
    "OBJECTID": 6110,
    "ولایت": "کابل",
    "Province": "KABUL",
    "PC_Code": "0105464",
    "District": "DEHSABZ",
    "د_مرکز_نوم__نام_مرکز": " لیسه خواجه چشت",
    "Polling_Center_Name": "Khwaja Chesht High School",
    "د_مرکز_ځای__موقعیت_مرکز": "خواجه چشت",
    "Polling_Center_Location": "Khwaja Chasht",
    "Map_Accuracy": "Building",
    "Map_Accuracy_Dari": "تعمیر",
    "Status": "Open",
    "Status_Dari": null,
    "PS_Male": 3,
    "PS_Female": 3,
    "PS_Total": 6,
    "ولسوالي": "ده سبز",
    "Region": "Central Region"
   },
   "geometry": {
    "x": 7707100.7789719906,
    "y": 4116004.0732819489
   }
  },
  {
   "attributes": {
    "OBJECTID": 6111,
    "ولایت": "کابل",
    "Province": "KABUL",
    "PC_Code": "0105465",
    "District": "DEHSABZ",
    "د_مرکز_نوم__نام_مرکز": " مسجد بابه قشقار",
    "Polling_Center_Name": "Baba Qashqar Mosque",
    "د_مرکز_ځای__موقعیت_مرکز": "بابه قشقار",
    "Polling_Center_Location": "Baba Qashqar",
    "Map_Accuracy": "Building",
    "Map_Accuracy_Dari": "تعمیر",
    "Status": "Open",
    "Status_Dari": null,
    "PS_Male": 2,
    "PS_Female": 2,
    "PS_Total": 4,
    "ولسوالي": "ده سبز",
    "Region": "Central Region"
   },
   "geometry": {
    "x": 7721672.2398292162,
    "y": 4120164.8242212785
   }
  },
  {
   "attributes": {
    "OBJECTID": 6112,
    "ولایت": "کابل",
    "Province": "KABUL",
    "PC_Code": "0108343",
    "District": "MIR BACHA KOT",
    "د_مرکز_نوم__نام_مرکز": " مسجد جامع قلم چاق",
    "Polling_Center_Name": "Qalam Chaaq Mosque",
    "د_مرکز_ځای__موقعیت_مرکز": "قلم چاق",
    "Polling_Center_Location": "Qalam Chaq",
    "Map_Accuracy": "Building",
    "Map_Accuracy_Dari": "تعمیر",
    "Status": "Open",
    "Status_Dari": null,
    "PS_Male": 2,
    "PS_Female": 1,
    "PS_Total": 3,
    "ولسوالي": "میر بچه کوت",
    "Region": "Central Region"
   },
   "geometry": {
    "x": 7693819.7167314664,
    "y": 4132408.5498411106
   }
  },
  {
   "attributes": {
    "OBJECTID": 6113,
    "ولایت": "وردک",
    "Province": "WARDAK",
    "PC_Code": "0405142",
    "District": "SAYYD ABAD",
    "د_مرکز_نوم__نام_مرکز": "لیسه کهنه دشت توپ",
    "Polling_Center_Name": "Dasht-e-Toop Old High School",
    "د_مرکز_ځای__موقعیت_مرکز": "معین خیل",
    "Polling_Center_Location": "Muien Khel",
    "Map_Accuracy": "Village",
    "Map_Accuracy_Dari": "قریه",
    "Status": "Open",
    "Status_Dari": null,
    "PS_Male": 2,
    "PS_Female": 1,
    "PS_Total": 3,
    "ولسوالي": "سید آباد",
    "Region": "Central Region"
   },
   "geometry": {
    "x": 7657983.2544457875,
    "y": 4055761.9285895685
   }
  },
  {
   "attributes": {
    "OBJECTID": 6114,
    "ولایت": "ننگرهار",
    "Province": "NANGARHAR",
    "PC_Code": "0609459",
    "District": "BATI KOT",
    "د_مرکز_نوم__نام_مرکز": "کوچي بانده جومات",
    "Polling_Center_Name": "Kochai Banda Mosque",
    "د_مرکز_ځای__موقعیت_مرکز": "پاس باريکاب",
    "Polling_Center_Location": "Paas Barikaab",
    "Map_Accuracy": "Village",
    "Map_Accuracy_Dari": "قریه",
    "Status": "Open",
    "Status_Dari": null,
    "PS_Male": 1,
    "PS_Female": 1,
    "PS_Total": 2,
    "ولسوالي": "بټي کوټ",
    "Region": "Eastern Region"
   },
   "geometry": {
    "x": 7871154.3951190682,
    "y": 4069648.3735556933
   }
  },
  {
   "attributes": {
    "OBJECTID": 6115,
    "ولایت": "ننگرهار",
    "Province": "NANGARHAR",
    "PC_Code": "0609460",
    "District": "BATI KOT",
    "د_مرکز_نوم__نام_مرکز": "للمه بجګی  ديره",
    "Polling_Center_Name": "Lalma Bajgai Dera",
    "د_مرکز_ځای__موقعیت_مرکز": "چاردهي",
    "Polling_Center_Location": "Chardehi",
    "Map_Accuracy": "Village",
    "Map_Accuracy_Dari": "قریه",
    "Status": "Open",
    "Status_Dari": null,
    "PS_Male": 1,
    "PS_Female": 1,
    "PS_Total": 2,
    "ولسوالي": "بټي کوټ",
    "Region": "Eastern Region"
   },
   "geometry": {
    "x": 7878012.0934226625,
    "y": 4071989.2571016434
   }
  },
  {
   "attributes": {
    "OBJECTID": 6116,
    "ولایت": "بغلان",
    "Province": "BAGHLAN",
    "PC_Code": "0905070",
    "District": "BAGLAN-E-JADEED",
    "د_مرکز_نوم__نام_مرکز": "مسجد ملا نجیب",
    "Polling_Center_Name": "Molla Najeeb Mosque ",
    "د_مرکز_ځای__موقعیت_مرکز": "قریه ملا نجیب",
    "Polling_Center_Location": "Molla Najib Village",
    "Map_Accuracy": "Village",
    "Map_Accuracy_Dari": "قریه",
    "Status": "Open",
    "Status_Dari": null,
    "PS_Male": 1,
    "PS_Female": 1,
    "PS_Total": 2,
    "ولسوالي": "بغلان جدید",
    "Region": "North Eastern Region"
   },
   "geometry": {
    "x": 7654817.4461262869,
    "y": 4346093.0481755147
   }
  },
  {
   "attributes": {
    "OBJECTID": 6117,
    "ولایت": "بغلان",
    "Province": "BAGHLAN",
    "PC_Code": "0905071",
    "District": "BAGLAN-E-JADEED",
    "د_مرکز_نوم__نام_مرکز": "مسجد غلام مهی الدین یکه توت",
    "Polling_Center_Name": "Ghulam Moheddin Yakatoot Mosque",
    "د_مرکز_ځای__موقعیت_مرکز": "قندهاری",
    "Polling_Center_Location": "Qandahari",
    "Map_Accuracy": "Building",
    "Map_Accuracy_Dari": "تعمیر",
    "Status": "Open",
    "Status_Dari": null,
    "PS_Male": 2,
    "PS_Female": 1,
    "PS_Total": 3,
    "ولسوالي": "بغلان جدید",
    "Region": "North Eastern Region"
   },
   "geometry": {
    "x": 7657816.569093056,
    "y": 4327280.6624006843
   }
  },
  {
   "attributes": {
    "OBJECTID": 6118,
    "ولایت": "غزنى",
    "Province": "GHAZNI",
    "PC_Code": "1107225",
    "District": "ANDAR",
    "د_مرکز_نوم__نام_مرکز": "مسجد قریه بختیار",
    "Polling_Center_Name": "Bakhtiar Village Mosque",
    "د_مرکز_ځای__موقعیت_مرکز": "قریه بختیار",
    "Polling_Center_Location": "Bakhtiar Village",
    "Map_Accuracy": "Building",
    "Map_Accuracy_Dari": "تعمیر",
    "Status": "Open",
    "Status_Dari": null,
    "PS_Male": 2,
    "PS_Female": 0,
    "PS_Total": 2,
    "ولسوالي": "اندر",
    "Region": "South Eastern Region"
   },
   "geometry": {
    "x": 7617731.4112018626,
    "y": 3944127.5981158097
   }
  },
  {
   "attributes": {
    "OBJECTID": 6119,
    "ولایت": "غزنى",
    "Province": "GHAZNI",
    "PC_Code": "1107226",
    "District": "ANDAR",
    "د_مرکز_نوم__نام_مرکز": "مسجد پایین قریه بختیار",
    "Polling_Center_Name": "Bakhtiar Village Lower Mosque",
    "د_مرکز_ځای__موقعیت_مرکز": "قریه بختیار",
    "Polling_Center_Location": "Bakhtiar Village",
    "Map_Accuracy": "Village",
    "Map_Accuracy_Dari": "قریه",
    "Status": "Open",
    "Status_Dari": null,
    "PS_Male": 0,
    "PS_Female": 2,
    "PS_Total": 2,
    "ولسوالي": "اندر",
    "Region": "South Eastern Region"
   },
   "geometry": {
    "x": 7617839.8107824158,
    "y": 3944213.7667782204
   }
  },
  {
   "attributes": {
    "OBJECTID": 6120,
    "ولایت": "خوست",
    "Province": "KHOST",
    "PC_Code": "1403175",
    "District": "GURBUZ",
    "د_مرکز_نوم__نام_مرکز": "د ليوه ژوې خولې جومات",
    "Polling_Center_Name": "Lewa Zhawy Khola Mosque",
    "د_مرکز_ځای__موقعیت_مرکز": "ليوه ژاور خوله کلی",
    "Polling_Center_Location": "lewa Zhawar Khola Village",
    "Map_Accuracy": "Village",
    "Map_Accuracy_Dari": "قریه",
    "Status": "Open",
    "Status_Dari": null,
    "PS_Male": 1,
    "PS_Female": 1,
    "PS_Total": 2,
    "ولسوالي": "گربز",
    "Region": "South Eastern Region"
   },
   "geometry": {
    "x": 7793425.7888776222,
    "y": 3933421.5049997047
   }
  },
  {
   "attributes": {
    "OBJECTID": 6121,
    "ولایت": "خوست",
    "Province": "KHOST",
    "PC_Code": "1404133",
    "District": "TANAY",
    "د_مرکز_نوم__نام_مرکز": "فقيران د حاجى بادشاه ولدود هجره",
    "Polling_Center_Name": "Faqeeran Haji Badshah Waldod Hojra",
    "د_مرکز_ځای__موقعیت_مرکز": " ليژه",
    "Polling_Center_Location": "lezha",
    "Map_Accuracy": "Village",
    "Map_Accuracy_Dari": "قریه",
    "Status": "Open",
    "Status_Dari": null,
    "PS_Male": 3,
    "PS_Female": 2,
    "PS_Total": 5,
    "ولسوالي": "تڼي",
    "Region": "South Eastern Region"
   },
   "geometry": {
    "x": 7775877.1274235863,
    "y": 3924732.020707699
   }
  },
  {
   "attributes": {
    "OBJECTID": 6122,
    "ولایت": "خوست",
    "Province": "KHOST",
    "PC_Code": "1404146",
    "District": "TANAY",
    "د_مرکز_نوم__نام_مرکز": "د صحرا کلي مدرسه ګربز",
    "Polling_Center_Name": "Sahra Village Madrassa",
    "د_مرکز_ځای__موقعیت_مرکز": "صحرا کلى",
    "Polling_Center_Location": "Sahra Village",
    "Map_Accuracy": "Village",
    "Map_Accuracy_Dari": "قریه",
    "Status": "Open",
    "Status_Dari": null,
    "PS_Male": 3,
    "PS_Female": 1,
    "PS_Total": 4,
    "ولسوالي": "تڼي",
    "Region": "South Eastern Region"
   },
   "geometry": {
    "x": 7778857.1668900456,
    "y": 3931110.2305441955
   }
  },
  {
   "attributes": {
    "OBJECTID": 6123,
    "ولایت": "خوست",
    "Province": "KHOST",
    "PC_Code": "1405067",
    "District": "MUSA KHEL",
    "د_مرکز_نوم__نام_مرکز": "د حاجي مير افغان هجره",
    "Polling_Center_Name": "Haji Mir Afghan Hojra",
    "د_مرکز_ځای__موقعیت_مرکز": "مرغه",
    "Polling_Center_Location": "Murgha",
    "Map_Accuracy": "Village",
    "Map_Accuracy_Dari": "قریه",
    "Status": "Open",
    "Status_Dari": null,
    "PS_Male": 3,
    "PS_Female": 1,
    "PS_Total": 4,
    "ولسوالي": "موسی خیل",
    "Region": "South Eastern Region"
   },
   "geometry": {
    "x": 7773037.6377198119,
    "y": 3956887.5574678848
   }
  },
  {
   "attributes": {
    "OBJECTID": 6124,
    "ولایت": "سمنگان",
    "Province": "SAMANGAN",
    "PC_Code": "2007047",
    "District": "DARA-E-SOOF-E-BALA",
    "د_مرکز_نوم__نام_مرکز": "منبر هشتلیز",
    "Polling_Center_Name": "Menbar Hashtalez",
    "د_مرکز_ځای__موقعیت_مرکز": "قریه هشتلیز",
    "Polling_Center_Location": "Hashtlez Village",
    "Map_Accuracy": "Building",
    "Map_Accuracy_Dari": "تعمیر",
    "Status": "Open",
    "Status_Dari": null,
    "PS_Male": 1,
    "PS_Female": 1,
    "PS_Total": 2,
    "ولسوالي": "دره صوف بالا",
    "Region": "Northern Region"
   },
   "geometry": {
    "x": 7478191.6470277943,
    "y": 4275179.542135844
   }
  },
  {
   "attributes": {
    "OBJECTID": 6125,
    "ولایت": "سمنگان",
    "Province": "SAMANGAN",
    "PC_Code": "2007090",
    "District": "DARA-E-SOOF-E-BALA",
    "د_مرکز_نوم__نام_مرکز": "منبر جیهون ",
    "Polling_Center_Name": "Menbar Jaihoon",
    "د_مرکز_ځای__موقعیت_مرکز": "قریه جیهون",
    "Polling_Center_Location": "Jaihoon Village",
    "Map_Accuracy": "Building",
    "Map_Accuracy_Dari": "تعمیر",
    "Status": "Open",
    "Status_Dari": null,
    "PS_Male": 1,
    "PS_Female": 1,
    "PS_Total": 2,
    "ولسوالي": "دره صوف بالا",
    "Region": "Northern Region"
   },
   "geometry": {
    "x": 7504039.020784501,
    "y": 4258285.5226936191
   }
  },
  {
   "attributes": {
    "OBJECTID": 6126,
    "ولایت": "بلخ",
    "Province": "BALKH",
    "PC_Code": "2101045",
    "District": "MAZAR-E-SHARIF",
    "د_مرکز_نوم__نام_مرکز": "مکتب متوسطه عبدالقادر خ\u064Fلمی ",
    "Polling_Center_Name": "Abdul Qader Khulmi Secondary School",
    "د_مرکز_ځای__موقعیت_مرکز": "ناحیه هشتم مزار شاروالی ",
    "Polling_Center_Location": "D08 - Nahia 8",
    "Map_Accuracy": "Building",
    "Map_Accuracy_Dari": "تعمیر",
    "Status": "Open",
    "Status_Dari": null,
    "PS_Male": 2,
    "PS_Female": 2,
    "PS_Total": 4,
    "ولسوالي": "مزار شریف",
    "Region": "Northern Region"
   },
   "geometry": {
    "x": 7475269.6783755831,
    "y": 4396875.0330046015
   }
  },
  {
   "attributes": {
    "OBJECTID": 6127,
    "ولایت": "بلخ",
    "Province": "BALKH",
    "PC_Code": "2101046",
    "District": "MAZAR-E-SHARIF",
    "د_مرکز_نوم__نام_مرکز": "لیسه علی چوپان ",
    "Polling_Center_Name": "Ali Chopan High School",
    "د_مرکز_ځای__موقعیت_مرکز": "قریه علی چوپان ناحیه دهم ",
    "Polling_Center_Location": "D10 - Nahia 10 Ali Chopan Village",
    "Map_Accuracy": "Building",
    "Map_Accuracy_Dari": "تعمیر",
    "Status": "Open",
    "Status_Dari": null,
    "PS_Male": 2,
    "PS_Female": 3,
    "PS_Total": 5,
    "ولسوالي": "مزار شریف",
    "Region": "Northern Region"
   },
   "geometry": {
    "x": 7475493.9692270905,
    "y": 4397875.5709548807
   }
  },
  {
   "attributes": {
    "OBJECTID": 6128,
    "ولایت": "بلخ",
    "Province": "BALKH",
    "PC_Code": "2111196",
    "District": "CHAR BOLAK",
    "د_مرکز_نوم__نام_مرکز": "مکتب تهانه",
    "Polling_Center_Name": "Tahana School",
    "د_مرکز_ځای__موقعیت_مرکز": "قریه تهانه",
    "Polling_Center_Location": "Tahana Village",
    "Map_Accuracy": "Building",
    "Map_Accuracy_Dari": "تعمیر",
    "Status": "Open",
    "Status_Dari": null,
    "PS_Male": 1,
    "PS_Female": 1,
    "PS_Total": 2,
    "ولسوالي": "چار بولک",
    "Region": "Northern Region"
   },
   "geometry": {
    "x": 7433789.2198342131,
    "y": 4408802.8813933888
   }
  },
  {
   "attributes": {
    "OBJECTID": 6129,
    "ولایت": "ارزگان",
    "Province": "UROZGAN",
    "PC_Code": "2503023",
    "District": "CHORA",
    "د_مرکز_نوم__نام_مرکز": "د حاجی محمد اکبر خان کور",
    "Polling_Center_Name": "Haji Mohammad Akbar khan Private House",
    "د_مرکز_ځای__موقعیت_مرکز": "سری کلی",
    "Polling_Center_Location": "Sarai Village",
    "Map_Accuracy": "Building",
    "Map_Accuracy_Dari": "تعمیر",
    "Status": "Open",
    "Status_Dari": null,
    "PS_Male": 2,
    "PS_Female": 1,
    "PS_Total": 3,
    "ولسوالي": "چوره",
    "Region": "Southern Region"
   },
   "geometry": {
    "x": 7354621.1433723886,
    "y": 3878259.8286054605
   }
  },
  {
   "attributes": {
    "OBJECTID": 6130,
    "ولایت": "کندهار",
    "Province": "کندهار",
    "PC_Code": "2718244",
    "District": "TAKHTA PUL",
    "د_مرکز_نوم__نام_مرکز": "غټ مكتب",
    "Polling_Center_Name": "Ghat School",
    "د_مرکز_ځای__موقعیت_مرکز": "د مهمند خان كلي",
    "Polling_Center_Location": "Mohmand Khan Village",
    "Map_Accuracy": "Village",
    "Map_Accuracy_Dari": "قریه",
    "Status": "Open",
    "Status_Dari": null,
    "PS_Male": 3,
    "PS_Female": 1,
    "PS_Total": 4,
    "ولسوالي": "تخته پل",
    "Region": "Southern Region"
   },
   "geometry": {
    "x": 7344667.7831679415,
    "y": 3663189.1557400562
   }
  },
  {
   "attributes": {
    "OBJECTID": 6131,
    "ولایت": "جوزجان",
    "Province": "JAWZJAN",
    "PC_Code": "2801001",
    "District": "SHEBERGHAN",
    "د_مرکز_نوم__نام_مرکز": "لیسه ابن یمین",
    "Polling_Center_Name": "Ibn Yameen High School",
    "د_مرکز_ځای__موقعیت_مرکز": "ناحیه اول ",
    "Polling_Center_Location": "D01 - Nahia 1",
    "Map_Accuracy": "Building",
    "Map_Accuracy_Dari": "تعمیر",
    "Status": "Open",
    "Status_Dari": null,
    "PS_Male": 7,
    "PS_Female": 4,
    "PS_Total": 11,
    "ولسوالي": "شبرغان",
    "Region": "Northern Region"
   },
   "geometry": {
    "x": 7319588.4921904067,
    "y": 4392355.8124665972
   }
  },
  {
   "attributes": {
    "OBJECTID": 6132,
    "ولایت": "کندهار",
    "Province": "کندهار",
    "PC_Code": "2718229",
    "District": "TAKHTA PUL",
    "د_مرکز_نوم__نام_مرکز": "سليمان زي مكتب",
    "Polling_Center_Name": "Sulaimanzai School",
    "د_مرکز_ځای__موقعیت_مرکز": "ظاهر کلۍ",
    "Polling_Center_Location": "Zahir Village",
    "Map_Accuracy": "Village",
    "Map_Accuracy_Dari": "قریه",
    "Status": "Open",
    "Status_Dari": null,
    "PS_Male": 3,
    "PS_Female": 0,
    "PS_Total": 3,
    "ولسوالي": "تخته پل",
    "Region": "Southern Region"
   },
   "geometry": {
    "x": 7325432.2629608708,
    "y": 3696284.3454539552
   }
  },
  {
   "attributes": {
    "OBJECTID": 6133,
    "ولایت": "کندهار",
    "Province": "کندهار",
    "PC_Code": "2718230",
    "District": "TAKHTA PUL",
    "د_مرکز_نوم__نام_مرکز": "د کلۍ مکتب",
    "Polling_Center_Name": "Village School",
    "د_مرکز_ځای__موقعیت_مرکز": "حاجی نظر اکا کلی",
    "Polling_Center_Location": "Haji Nazar Aka Village",
    "Map_Accuracy": "Village",
    "Map_Accuracy_Dari": "قریه",
    "Status": "Open",
    "Status_Dari": null,
    "PS_Male": 1,
    "PS_Female": 1,
    "PS_Total": 2,
    "ولسوالي": "تخته پل",
    "Region": "Southern Region"
   },
   "geometry": {
    "x": 7344306.9207783872,
    "y": 3664267.5982268597
   }
  },
  {
   "attributes": {
    "OBJECTID": 6134,
    "ولایت": "کندهار",
    "Province": "کندهار",
    "PC_Code": "2718242",
    "District": "TAKHTA PUL",
    "د_مرکز_نوم__نام_مرکز": "د بشير خان كور",
    "Polling_Center_Name": "Bashir Khan Private House",
    "د_مرکز_ځای__موقعیت_مرکز": "كاريز شاميزي",
    "Polling_Center_Location": "Karez Shameezi",
    "Map_Accuracy": "Village",
    "Map_Accuracy_Dari": "قریه",
    "Status": "Open",
    "Status_Dari": null,
    "PS_Male": 2,
    "PS_Female": 2,
    "PS_Total": 4,
    "ولسوالي": "تخته پل",
    "Region": "Southern Region"
   },
   "geometry": {
    "x": 7302968.2447517421,
    "y": 3689432.8044423005
   }
  },
  {
   "attributes": {
    "OBJECTID": 6135,
    "ولایت": " فراه",
    "Province": "FARAH",
    "PC_Code": "3302050",
    "District": "PUSHTRUD",
    "د_مرکز_نوم__نام_مرکز": "مسجد بلند ده",
    "Polling_Center_Name": "Baland Deh Village Mosque",
    "د_مرکز_ځای__موقعیت_مرکز": "قریه بلند ده",
    "Polling_Center_Location": "Baland Deh Village ",
    "Map_Accuracy": "Village",
    "Map_Accuracy_Dari": "قریه",
    "Status": "Open",
    "Status_Dari": null,
    "PS_Male": 2,
    "PS_Female": 1,
    "PS_Total": 3,
    "ولسوالي": "پشت رود",
    "Region": "Western Region"
   },
   "geometry": {
    "x": 6913019.0521992203,
    "y": 3821876.9853214039
   }
  },
  {
   "attributes": {
    "OBJECTID": 6136,
    "ولایت": " فراه",
    "Province": "FARAH",
    "PC_Code": "3302231",
    "District": "PUSHTRUD",
    "د_مرکز_نوم__نام_مرکز": "مکتب گجگین ",
    "Polling_Center_Name": "Gajgin School ",
    "د_مرکز_ځای__موقعیت_مرکز": "گجگین",
    "Polling_Center_Location": "Gajgin ",
    "Map_Accuracy": "Building",
    "Map_Accuracy_Dari": "تعمیر",
    "Status": "Open",
    "Status_Dari": null,
    "PS_Male": 1,
    "PS_Female": 1,
    "PS_Total": 2,
    "ولسوالي": "پشت رود",
    "Region": "Western Region"
   },
   "geometry": {
    "x": 6915351.6474884674,
    "y": 3825985.0724939285
   }
  },
  {
   "attributes": {
    "OBJECTID": 6137,
    "ولایت": "هرات",
    "Province": "HERAT",
    "PC_Code": "3211451",
    "District": "GHORYAN",
    "د_مرکز_نوم__نام_مرکز": "خيمه چشمه دم",
    "Polling_Center_Name": "Chashma-e- Dam Tent",
    "د_مرکز_ځای__موقعیت_مرکز": "چشمه دم ",
    "Polling_Center_Location": "Chushma-e -Dam ",
    "Map_Accuracy": "Building",
    "Map_Accuracy_Dari": "تعمیر",
    "Status": "Open",
    "Status_Dari": null,
    "PS_Male": 2,
    "PS_Female": 1,
    "PS_Total": 3,
    "ولسوالي": "غوریان ",
    "Region": "Western Region"
   },
   "geometry": {
    "x": 6797189.4689343795,
    "y": 4066423.8634051103
   }
  },
  {
   "attributes": {
    "OBJECTID": 6138,
    "ولایت": "هرات",
    "Province": "HERAT",
    "PC_Code": "3211452",
    "District": "GHORYAN",
    "د_مرکز_نوم__نام_مرکز": "خيمه بلوچ ها",
    "Polling_Center_Name": "Balochs Tent ",
    "د_مرکز_ځای__موقعیت_مرکز": "قریه بلوچ ها",
    "Polling_Center_Location": "Balochs Village",
    "Map_Accuracy": "Village",
    "Map_Accuracy_Dari": "قریه",
    "Status": "Open",
    "Status_Dari": null,
    "PS_Male": 2,
    "PS_Female": 1,
    "PS_Total": 3,
    "ولسوالي": "غوریان ",
    "Region": "Western Region"
   },
   "geometry": {
    "x": 6841799.081737834,
    "y": 4072729.8877572278
   }
  },
  {
   "attributes": {
    "OBJECTID": 6139,
    "ولایت": "بلخ",
    "Province": "BALKH",
    "PC_Code": "2102321",
    "District": "NAHR-E-SHAHI",
    "د_مرکز_نوم__نام_مرکز": "مسجد شادیان",
    "Polling_Center_Name": "Shadiyan Mosque",
    "د_مرکز_ځای__موقعیت_مرکز": "قریه شادیان",
    "Polling_Center_Location": "Shadiyan Village",
    "Map_Accuracy": "Building",
    "Map_Accuracy_Dari": "تعمیر",
    "Status": "Open",
    "Status_Dari": null,
    "PS_Male": 1,
    "PS_Female": 1,
    "PS_Total": 2,
    "ولسوالي": "نهر شاهی ",
    "Region": "Northern Region"
   },
   "geometry": {
    "x": 7481948.7857069038,
    "y": 4372460.8457590658
   }
  },
  {
   "attributes": {
    "OBJECTID": 6140,
    "ولایت": "بلخ",
    "Province": "BALKH",
    "PC_Code": "2103049",
    "District": "DEHDADI",
    "د_مرکز_نوم__نام_مرکز": "مکتب توخته",
    "Polling_Center_Name": "Tokhta School",
    "د_مرکز_ځای__موقعیت_مرکز": "قریه توخته",
    "Polling_Center_Location": "Tokhta Village",
    "Map_Accuracy": "Building",
    "Map_Accuracy_Dari": "تعمیر",
    "Status": "Open",
    "Status_Dari": null,
    "PS_Male": 3,
    "PS_Female": 1,
    "PS_Total": 4,
    "ولسوالي": "دهدادی ",
    "Region": "Northern Region"
   },
   "geometry": {
    "x": 7450367.0663467459,
    "y": 4390699.612141097
   }
  },
  {
   "attributes": {
    "OBJECTID": 6141,
    "ولایت": "کاپيسا",
    "Province": "KAPISA",
    "PC_Code": "0203075",
    "District": "KOH BAND",
    "د_مرکز_نوم__نام_مرکز": "مسجد جامع سرجوی نهر خواجه",
    "Polling_Center_Name": "Sar Joy-e-Nahre Khwaja Mosque",
    "د_مرکز_ځای__موقعیت_مرکز": "نوآباد ",
    "Polling_Center_Location": "Naw Abad ",
    "Map_Accuracy": "Building",
    "Map_Accuracy_Dari": "تعمیر",
    "Status": "Open",
    "Status_Dari": null,
    "PS_Male": 2,
    "PS_Female": 1,
    "PS_Total": 3,
    "ولسوالي": "کوه بند",
    "Region": "Central Region"
   },
   "geometry": {
    "x": 7732170.7686494654,
    "y": 4171098.8577154055
   }
  },
  {
   "attributes": {
    "OBJECTID": 6142,
    "ولایت": "کاپيسا",
    "Province": "KAPISA",
    "PC_Code": "0204026",
    "District": "HISSA-E-AWALI KOHISTAN",
    "د_مرکز_نوم__نام_مرکز": "پوهنتون البیرونی ",
    "Polling_Center_Name": "Alberuni University ",
    "د_مرکز_ځای__موقعیت_مرکز": "شش صد کوتی ",
    "Polling_Center_Location": "Shash Sad Kuti",
    "Map_Accuracy": "Building",
    "Map_Accuracy_Dari": "تعمیر",
    "Status": "Open",
    "Status_Dari": null,
    "PS_Male": 4,
    "PS_Female": 2,
    "PS_Total": 6,
    "ولسوالي": "حصه اول کوهستان ",
    "Region": "Central Region"
   },
   "geometry": {
    "x": 7714681.1186593752,
    "y": 4184066.6733770422
   }
  },
  {
   "attributes": {
    "OBJECTID": 6143,
    "ولایت": "باميان",
    "Province": "BAMYAN",
    "PC_Code": "1007153",
    "District": "WARAS",
    "د_مرکز_نوم__نام_مرکز": "مکتب متوسطه بند حیدرک",
    "Polling_Center_Name": "Band-e-Haidarak Secondary School",
    "د_مرکز_ځای__موقعیت_مرکز": "بند حیدرک",
    "Polling_Center_Location": "Band-e-Haidarak",
    "Map_Accuracy": "Building",
    "Map_Accuracy_Dari": "تعمیر",
    "Status": "Open",
    "Status_Dari": null,
    "PS_Male": 1,
    "PS_Female": 1,
    "PS_Total": 2,
    "ولسوالي": "ورس",
    "Region": "Central Highlands Region"
   },
   "geometry": {
    "x": 7445790.8389657047,
    "y": 4032273.659865072
   }
  },
  {
   "attributes": {
    "OBJECTID": 6144,
    "ولایت": "باميان",
    "Province": "BAMYAN",
    "PC_Code": "1007154",
    "District": "WARAS",
    "د_مرکز_نوم__نام_مرکز": "مسجد دهن تینال",
    "Polling_Center_Name": "Dahan-e-Teenal Mosque",
    "د_مرکز_ځای__موقعیت_مرکز": "دهن تینال",
    "Polling_Center_Location": "Dahan-e-Teenal",
    "Map_Accuracy": "Building",
    "Map_Accuracy_Dari": "تعمیر",
    "Status": "Open",
    "Status_Dari": null,
    "PS_Male": 2,
    "PS_Female": 1,
    "PS_Total": 3,
    "ولسوالي": "ورس",
    "Region": "Central Highlands Region"
   },
   "geometry": {
    "x": 7446549.0838848744,
    "y": 4049611.9328352762
   }
  },
  {
   "attributes": {
    "OBJECTID": 6145,
    "ولایت": "سرپل",
    "Province": "SAR-E-PUL",
    "PC_Code": "2201013",
    "District": "SAR-E-PUL",
    "د_مرکز_نوم__نام_مرکز": "لیسه انگوت ازبکیه ",
    "Polling_Center_Name": "Uzbekya Angot High School",
    "د_مرکز_ځای__موقعیت_مرکز": "قریه انگوت ازبکیه ",
    "Polling_Center_Location": "Angot Uzbekya Village",
    "Map_Accuracy": "Building",
    "Map_Accuracy_Dari": "تعمیر",
    "Status": "Open",
    "Status_Dari": null,
    "PS_Male": 3,
    "PS_Female": 1,
    "PS_Total": 4,
    "ولسوالي": "سرپل",
    "Region": "Northern Region"
   },
   "geometry": {
    "x": 7350055.5792853609,
    "y": 4326517.1999891503
   }
  },
  {
   "attributes": {
    "OBJECTID": 6146,
    "ولایت": "سرپل",
    "Province": "SAR-E-PUL",
    "PC_Code": "2201017",
    "District": "SAR-E-PUL",
    "د_مرکز_نوم__نام_مرکز": "مکتب ابتدائیه قلعه سوخته",
    "Polling_Center_Name": "Qala-e-Sokhta Primary School",
    "د_مرکز_ځای__موقعیت_مرکز": "قریه قلعه سوخته ",
    "Polling_Center_Location": "Sokhta Qala Village",
    "Map_Accuracy": "Building",
    "Map_Accuracy_Dari": "تعمیر",
    "Status": "Open",
    "Status_Dari": null,
    "PS_Male": 2,
    "PS_Female": 1,
    "PS_Total": 3,
    "ولسوالي": "سرپل",
    "Region": "Northern Region"
   },
   "geometry": {
    "x": 7359233.5417955769,
    "y": 4306731.675786091
   }
  },
  {
   "attributes": {
    "OBJECTID": 6147,
    "ولایت": "غور",
    "Province": "GHOR",
    "PC_Code": "2301040",
    "District": "CHIGHCHERAN",
    "د_مرکز_نوم__نام_مرکز": "مسجد استرمان",
    "Polling_Center_Name": "Istarman Mosque",
    "د_مرکز_ځای__موقعیت_مرکز": "مرکزاسترمان",
    "Polling_Center_Location": "Markaz Istarman",
    "Map_Accuracy": "Village",
    "Map_Accuracy_Dari": "قریه",
    "Status": "Open",
    "Status_Dari": null,
    "PS_Male": 2,
    "PS_Female": 2,
    "PS_Total": 4,
    "ولسوالي": "چغچران",
    "Region": "Western Region"
   },
   "geometry": {
    "x": 7307330.0132413451,
    "y": 4161132.8442531358
   }
  },
  {
   "attributes": {
    "OBJECTID": 6148,
    "ولایت": "نورستان",
    "Province": "NOORISTAN",
    "PC_Code": "1603041",
    "District": "WAMA",
    "د_مرکز_نوم__نام_مرکز": "مکتب قریه کوردر",
    "Polling_Center_Name": "Kordar Village School",
    "د_مرکز_ځای__موقعیت_مرکز": "کوز کلی کوردر",
    "Polling_Center_Location": "Kordar Village",
    "Map_Accuracy": "Village",
    "Map_Accuracy_Dari": "قریه",
    "Status": "Open",
    "Status_Dari": null,
    "PS_Male": 4,
    "PS_Female": 3,
    "PS_Total": 7,
    "ولسوالي": "واما",
    "Region": "Eastern Region"
   },
   "geometry": {
    "x": 7865472.9702449478,
    "y": 4164420.4916987186
   }
  },
  {
   "attributes": {
    "OBJECTID": 6149,
    "ولایت": "هرات",
    "Province": "HERAT",
    "PC_Code": "3209480",
    "District": "ADRASKAN",
    "د_مرکز_نوم__نام_مرکز": " مسجد دره بست",
    "Polling_Center_Name": "Dara bast Mosque",
    "د_مرکز_ځای__موقعیت_مرکز": "دره بست",
    "Polling_Center_Location": "Dara bast",
    "Map_Accuracy": "Building",
    "Map_Accuracy_Dari": "تعمیر",
    "Status": "Open",
    "Status_Dari": null,
    "PS_Male": 2,
    "PS_Female": 1,
    "PS_Total": 3,
    "ولسوالي": "ادرسکن",
    "Region": "Western Region"
   },
   "geometry": {
    "x": 6984985.616659225,
    "y": 3970198.1544796955
   }
  },
  {
   "attributes": {
    "OBJECTID": 6150,
    "ولایت": "لغمان",
    "Province": "LAGHMAN",
    "PC_Code": "0705136",
    "District": "Dawlat Shah",
    "د_مرکز_نوم__نام_مرکز": "مسجد",
    "Polling_Center_Name": "Mosque",
    "د_مرکز_ځای__موقعیت_مرکز": "کشيدور",
    "Polling_Center_Location": "Kasheedor",
    "Map_Accuracy": "Building",
    "Map_Accuracy_Dari": "تعمیر",
    "Status": "Open",
    "Status_Dari": null,
    "PS_Male": 2,
    "PS_Female": 1,
    "PS_Total": 3,
    "ولسوالي": "دولت شاه",
    "Region": "Eastern Region"
   },
   "geometry": {
    "x": 7801092.0115521587,
    "y": 4164251.2731877114
   }
  },
  {
   "attributes": {
    "OBJECTID": 6151,
    "ولایت": "بادغيس",
    "Province": "BADGHIS",
    "PC_Code": "3107141",
    "District": "GHORMACH",
    "د_مرکز_نوم__نام_مرکز": "قریه شرشر",
    "Polling_Center_Name": "Sharshar Village ",
    "د_مرکز_ځای__موقعیت_مرکز": "قریه شرشر",
    "Polling_Center_Location": "Sharshar Village",
    "Map_Accuracy": "Village",
    "Map_Accuracy_Dari": "قریه",
    "Status": "Open",
    "Status_Dari": null,
    "PS_Male": 1,
    "PS_Female": 1,
    "PS_Total": 2,
    "ولسوالي": "غورماچ",
    "Region": "Western Region"
   },
   "geometry": {
    "x": 7098673.9263267005,
    "y": 4241748.5295996582
   }
  },
  {
   "attributes": {
    "OBJECTID": 6152,
    "ولایت": "ننگرهار",
    "Province": "NANGARHAR",
    "PC_Code": "0615370",
    "District": "ACHIN",
    "د_مرکز_نوم__نام_مرکز": "خوار اخنذاده ګان جامع مسجد",
    "Polling_Center_Name": "Khowar Akhonzadagan Jaame Mosque",
    "د_مرکز_ځای__موقعیت_مرکز": "پيخه",
    "Polling_Center_Location": "Pekha",
    "Map_Accuracy": "Village",
    "Map_Accuracy_Dari": "قریه",
    "Status": "Open",
    "Status_Dari": null,
    "PS_Male": 2,
    "PS_Female": 1,
    "PS_Total": 3,
    "ولسوالي": "اچین",
    "Region": "Eastern Region"
   },
   "geometry": {
    "x": 7875891.9090801822,
    "y": 4047317.7347904909
   }
  },
  {
   "attributes": {
    "OBJECTID": 6153,
    "ولایت": "لغمان",
    "Province": "LAGHMAN",
    "PC_Code": "0705125",
    "District": "DAWLAT SHAH",
    "د_مرکز_نوم__نام_مرکز": "نيو بالادي مکتب",
    "Polling_Center_Name": "New Balady School",
    "د_مرکز_ځای__موقعیت_مرکز": "نیو بالادی",
    "Polling_Center_Location": "New Balady",
    "Map_Accuracy": "Building",
    "Map_Accuracy_Dari": "تعمیر",
    "Status": "Open",
    "Status_Dari": null,
    "PS_Male": 1,
    "PS_Female": 1,
    "PS_Total": 2,
    "ولسوالي": "دولت شاه",
    "Region": "Eastern Region"
   },
   "geometry": {
    "x": 7801538.3539522989,
    "y": 4165353.3825723887
   }
  },
  {
   "attributes": {
    "OBJECTID": 6154,
    "ولایت": "لغمان",
    "Province": "LAGHMAN",
    "PC_Code": "0703103",
    "District": "ALISHING",
    "د_مرکز_نوم__نام_مرکز": "د ماسمود د کلي جومات ",
    "Polling_Center_Name": "Masmod Village Mosque ",
    "د_مرکز_ځای__موقعیت_مرکز": "ماسمود",
    "Polling_Center_Location": "Masmod",
    "Map_Accuracy": "Building",
    "Map_Accuracy_Dari": "تعمیر",
    "Status": "Open",
    "Status_Dari": null,
    "PS_Male": 2,
    "PS_Female": 1,
    "PS_Total": 3,
    "ولسوالي": "علیشنګ",
    "Region": "Eastern Region"
   },
   "geometry": {
    "x": 7808456.2781041684,
    "y": 4143285.2771219211
   }
  },
  {
   "attributes": {
    "OBJECTID": 6155,
    "ولایت": "فارياب",
    "Province": "FARYAB",
    "PC_Code": "2902019",
    "District": "PASHTUN KOT",
    "د_مرکز_نوم__نام_مرکز": "مینگ درخت، خواجه ناموسی",
    "Polling_Center_Name": "Meng Darakht, Khwaja Namosi",
    "د_مرکز_ځای__موقعیت_مرکز": "مینگ درخت، خواجه ناموسی",
    "Polling_Center_Location": "Khwaja Namosi",
    "Map_Accuracy": "Village",
    "Map_Accuracy_Dari": "قریه",
    "Status": "Open",
    "Status_Dari": null,
    "PS_Male": 1,
    "PS_Female": 1,
    "PS_Total": 2,
    "ولسوالي": "پشتون کوت",
    "Region": "Northern Region"
   },
   "geometry": {
    "x": 7189280.7594051054,
    "y": 4311323.6972097224
   }
  },
  {
   "attributes": {
    "OBJECTID": 6156,
    "ولایت": "دایکندی",
    "Province": "DAYKUNDI",
    "PC_Code": "2409066",
    "District": "KEJRAN",
    "د_مرکز_نوم__نام_مرکز": "مسجد جامع سید آباد",
    "Polling_Center_Name": "Sayed Abad Mosque",
    "د_مرکز_ځای__موقعیت_مرکز": "سید آباد",
    "Polling_Center_Location": "Sayed Abad",
    "Map_Accuracy": "District",
    "Map_Accuracy_Dari": "ولسوالی",
    "Status": "Open",
    "Status_Dari": null,
    "PS_Male": 1,
    "PS_Female": 1,
    "PS_Total": 2,
    "ولسوالي": "کجران",
    "Region": "Central Highlands Region"
   },
   "geometry": {
    "x": 7285308.8589209085,
    "y": 3911534.9679604555
   }
  },
  {
   "attributes": {
    "OBJECTID": 6157,
    "ولایت": "فارياب",
    "Province": "FARYAB",
    "PC_Code": "2904069",
    "District": "ALMAR",
    "د_مرکز_نوم__نام_مرکز": "خواجه گوهر",
    "Polling_Center_Name": "Khwaja Gawhar",
    "د_مرکز_ځای__موقعیت_مرکز": "قریه خواجه گوهر",
    "Polling_Center_Location": "Khwaja Gawhar Village",
    "Map_Accuracy": "Village",
    "Map_Accuracy_Dari": "قریه",
    "Status": "Open",
    "Status_Dari": null,
    "PS_Male": 2,
    "PS_Female": 2,
    "PS_Total": 4,
    "ولسوالي": "المار",
    "Region": "Northern Region"
   },
   "geometry": {
    "x": 7155756.2980802404,
    "y": 4289639.1653095726
   }
  },
  {
   "attributes": {
    "OBJECTID": 6158,
    "ولایت": "فارياب",
    "Province": "FARYAB",
    "PC_Code": "2907080",
    "District": "QAISAR",
    "د_مرکز_نوم__نام_مرکز": "مسجد خواجه اسپلان",
    "Polling_Center_Name": "Khwaja Aspalan Mosque",
    "د_مرکز_ځای__موقعیت_مرکز": "قریه چهلگزی",
    "Polling_Center_Location": "Chehlgazai Village",
    "Map_Accuracy": "Village",
    "Map_Accuracy_Dari": "قریه",
    "Status": "Open",
    "Status_Dari": null,
    "PS_Male": 2,
    "PS_Female": 3,
    "PS_Total": 5,
    "ولسوالي": "قیصار ",
    "Region": "Northern Region"
   },
   "geometry": {
    "x": 7126533.151748348,
    "y": 4266040.161874041
   }
  },
  {
   "attributes": {
    "OBJECTID": 6159,
    "ولایت": "ننگرهار",
    "Province": "NANGARHAR",
    "PC_Code": "0609441",
    "District": "BATI KOT",
    "د_مرکز_نوم__نام_مرکز": "جامع جومات",
    "Polling_Center_Name": "Jaame Mosque",
    "د_مرکز_ځای__موقعیت_مرکز": "فارم ۴",
    "Polling_Center_Location": "Farm 4",
    "Map_Accuracy": "Building",
    "Map_Accuracy_Dari": "تعمیر",
    "Status": "Open",
    "Status_Dari": null,
    "PS_Male": 1,
    "PS_Female": 1,
    "PS_Total": 2,
    "ولسوالي": "بټي کوټ",
    "Region": "Eastern Region"
   },
   "geometry": {
    "x": 7871384.9213092132,
    "y": 4063646.2515842724
   }
  },
  {
   "attributes": {
    "OBJECTID": 6160,
    "ولایت": "دایکندی",
    "Province": "DAYKUNDI",
    "PC_Code": "2409068",
    "District": "KEJRAN",
    "د_مرکز_نوم__نام_مرکز": "مسجد جامع بالا دشت",
    "Polling_Center_Name": "Bala Dasht Mosque",
    "د_مرکز_ځای__موقعیت_مرکز": "بالا دشت",
    "Polling_Center_Location": "Bala Dasht",
    "Map_Accuracy": "Building",
    "Map_Accuracy_Dari": "تعمیر",
    "Status": "Open",
    "Status_Dari": null,
    "PS_Male": 1,
    "PS_Female": 1,
    "PS_Total": 2,
    "ولسوالي": "کجران",
    "Region": "Central Highlands Region"
   },
   "geometry": {
    "x": 7299721.8447944503,
    "y": 3915534.4074983057
   }
  },
  {
   "attributes": {
    "OBJECTID": 6161,
    "ولایت": "هرات",
    "Province": "HERAT",
    "PC_Code": "3214321",
    "District": "SHINDAND",
    "د_مرکز_نوم__نام_مرکز": "مسجد سنگبر",
    "Polling_Center_Name": "Sangbar Mosque ",
    "د_مرکز_ځای__موقعیت_مرکز": "سنگبر ",
    "Polling_Center_Location": "Sangbar ",
    "Map_Accuracy": "Building",
    "Map_Accuracy_Dari": "تعمیر",
    "Status": "Open",
    "Status_Dari": null,
    "PS_Male": 1,
    "PS_Female": 2,
    "PS_Total": 3,
    "ولسوالي": "شیندند",
    "Region": "Western Region"
   },
   "geometry": {
    "x": 6907536.5049387347,
    "y": 3956238.9187183618
   }
  },
  {
   "attributes": {
    "OBJECTID": 6162,
    "ولایت": "ننگرهار",
    "Province": "NANGARHAR",
    "PC_Code": "0604122",
    "District": "CHAPARHAR",
    "د_مرکز_نوم__نام_مرکز": "بانډو مکتب",
    "Polling_Center_Name": "Bando School",
    "د_مرکز_ځای__موقعیت_مرکز": "شولانه",
    "Polling_Center_Location": "Sholana",
    "Map_Accuracy": "Building",
    "Map_Accuracy_Dari": "تعمیر",
    "Status": "Open",
    "Status_Dari": null,
    "PS_Male": 2,
    "PS_Female": 0,
    "PS_Total": 2,
    "ولسوالي": "چپرهار",
    "Region": "Eastern Region"
   },
   "geometry": {
    "x": 7832762.1441914821,
    "y": 4064594.8097343571
   }
  },
  {
   "attributes": {
    "OBJECTID": 6163,
    "ولایت": "ننگرهار",
    "Province": "NANGARHAR",
    "PC_Code": "0604123",
    "District": "CHAPARHAR",
    "د_مرکز_نوم__نام_مرکز": "شولانه مسجد",
    "Polling_Center_Name": "Sholana Mosque",
    "د_مرکز_ځای__موقعیت_مرکز": "شولانه مسجد",
    "Polling_Center_Location": "Sholana ",
    "Map_Accuracy": "Village",
    "Map_Accuracy_Dari": "قریه",
    "Status": "Open",
    "Status_Dari": null,
    "PS_Male": 0,
    "PS_Female": 2,
    "PS_Total": 2,
    "ولسوالي": "چپرهار",
    "Region": "Eastern Region"
   },
   "geometry": {
    "x": 7832661.4891079087,
    "y": 4064705.7066589636
   }
  },
  {
   "attributes": {
    "OBJECTID": 6164,
    "ولایت": "فارياب",
    "Province": "FARYAB",
    "PC_Code": "2904079",
    "District": "ALMAR",
    "د_مرکز_نوم__نام_مرکز": "مسجد هوتکی",
    "Polling_Center_Name": "Hotaki Mosque",
    "د_مرکز_ځای__موقعیت_مرکز": "قریه هوتکی",
    "Polling_Center_Location": "Hotaki Village",
    "Map_Accuracy": "Village",
    "Map_Accuracy_Dari": "قریه",
    "Status": "Open",
    "Status_Dari": null,
    "PS_Male": 1,
    "PS_Female": 1,
    "PS_Total": 2,
    "ولسوالي": "المار",
    "Region": "Northern Region"
   },
   "geometry": {
    "x": 7166610.3925973549,
    "y": 4286795.8965662168
   }
  },
  {
   "attributes": {
    "OBJECTID": 6165,
    "ولایت": "بادغيس",
    "Province": "BADGHIS",
    "PC_Code": "3107142",
    "District": "GHORMACH",
    "د_مرکز_نوم__نام_مرکز": "قریه نغاره خان",
    "Polling_Center_Name": "Nagharah Khan Village ",
    "د_مرکز_ځای__موقعیت_مرکز": "قریه نغاره خان",
    "Polling_Center_Location": "Nagharah khan Village",
    "Map_Accuracy": "Village",
    "Map_Accuracy_Dari": "قریه",
    "Status": "Open",
    "Status_Dari": null,
    "PS_Male": 2,
    "PS_Female": 1,
    "PS_Total": 3,
    "ولسوالي": "غورماچ",
    "Region": "Western Region"
   },
   "geometry": {
    "x": 7109506.8857252868,
    "y": 4263413.2267948175
   }
  },
  {
   "attributes": {
    "OBJECTID": 6166,
    "ولایت": "ننگرهار",
    "Province": "NANGARHAR",
    "PC_Code": "0609461",
    "District": "BATI KOT",
    "د_مرکز_نوم__نام_مرکز": "سپين خوړ جومات",
    "Polling_Center_Name": "Speen Khowar Mosque",
    "د_مرکز_ځای__موقعیت_مرکز": "سپين خوړ",
    "Polling_Center_Location": "Speen Khowar",
    "Map_Accuracy": "Village",
    "Map_Accuracy_Dari": "قریه",
    "Status": "Open",
    "Status_Dari": null,
    "PS_Male": 1,
    "PS_Female": 1,
    "PS_Total": 2,
    "ولسوالي": "بټي کوټ",
    "Region": "Eastern Region"
   },
   "geometry": {
    "x": 7878358.6621669577,
    "y": 4064104.0605353145
   }
  },
  {
   "attributes": {
    "OBJECTID": 6167,
    "ولایت": "ننگرهار",
    "Province": "NANGARHAR",
    "PC_Code": "0615367",
    "District": "ACHIN",
    "د_مرکز_نوم__نام_مرکز": "پییښی دوکان کلي جومات",
    "Polling_Center_Name": "Pekhe Dokan Village Mosque",
    "د_مرکز_ځای__موقعیت_مرکز": "دوکان کلي",
    "Polling_Center_Location": "Dokan Village",
    "Map_Accuracy": "Village",
    "Map_Accuracy_Dari": "قریه",
    "Status": "Open",
    "Status_Dari": null,
    "PS_Male": 2,
    "PS_Female": 0,
    "PS_Total": 2,
    "ولسوالي": "اچین",
    "Region": "Eastern Region"
   },
   "geometry": {
    "x": 7864563.1894425415,
    "y": 4036338.4474849724
   }
  },
  {
   "attributes": {
    "OBJECTID": 6168,
    "ولایت": "بادغيس",
    "Province": "BADGHIS",
    "PC_Code": "3107144",
    "District": "GHORMACH",
    "د_مرکز_نوم__نام_مرکز": "کابل زی",
    "Polling_Center_Name": "Kabulzai ",
    "د_مرکز_ځای__موقعیت_مرکز": "کابل زی",
    "Polling_Center_Location": "Kabulzai ",
    "Map_Accuracy": "Village",
    "Map_Accuracy_Dari": "قریه",
    "Status": "Open",
    "Status_Dari": null,
    "PS_Male": 1,
    "PS_Female": 1,
    "PS_Total": 2,
    "ولسوالي": "غورماچ",
    "Region": "Western Region"
   },
   "geometry": {
    "x": 7092539.3117905511,
    "y": 4272222.0796334278
   }
  },
  {
   "attributes": {
    "OBJECTID": 6169,
    "ولایت": "ننگرهار",
    "Province": "NANGARHAR",
    "PC_Code": "0609442",
    "District": "BATI KOT",
    "د_مرکز_نوم__نام_مرکز": "ګره ټۍ انجونو مکتب",
    "Polling_Center_Name": "Garatai Girls' School",
    "د_مرکز_ځای__موقعیت_مرکز": "ډاګي کلي",
    "Polling_Center_Location": "Dagai Village",
    "Map_Accuracy": "Building",
    "Map_Accuracy_Dari": "تعمیر",
    "Status": "Open",
    "Status_Dari": null,
    "PS_Male": 2,
    "PS_Female": 1,
    "PS_Total": 3,
    "ولسوالي": "بټي کوټ",
    "Region": "Eastern Region"
   },
   "geometry": {
    "x": 7871952.2956030834,
    "y": 4062927.4282291485
   }
  },
  {
   "attributes": {
    "OBJECTID": 6170,
    "ولایت": "فارياب",
    "Province": "FARYAB",
    "PC_Code": "2904071",
    "District": "ALMAR",
    "د_مرکز_نوم__نام_مرکز": "غلبله",
    "Polling_Center_Name": "Ghalbala",
    "د_مرکز_ځای__موقعیت_مرکز": "قریه غلبله",
    "Polling_Center_Location": "Ghalbala Village",
    "Map_Accuracy": "Village",
    "Map_Accuracy_Dari": "قریه",
    "Status": "Open",
    "Status_Dari": null,
    "PS_Male": 2,
    "PS_Female": 1,
    "PS_Total": 3,
    "ولسوالي": "المار",
    "Region": "Northern Region"
   },
   "geometry": {
    "x": 7173985.0661859196,
    "y": 4299864.176261113
   }
  },
  {
   "attributes": {
    "OBJECTID": 6171,
    "ولایت": "بادغيس",
    "Province": "BADGHIS",
    "PC_Code": "3107146",
    "District": "GHORMACH",
    "د_مرکز_نوم__نام_مرکز": "ترناوی",
    "Polling_Center_Name": "Tarnawe ",
    "د_مرکز_ځای__موقعیت_مرکز": "ترناوی",
    "Polling_Center_Location": "Tarnawe ",
    "Map_Accuracy": "Village",
    "Map_Accuracy_Dari": "قریه",
    "Status": "Open",
    "Status_Dari": null,
    "PS_Male": 1,
    "PS_Female": 1,
    "PS_Total": 2,
    "ولسوالي": "غورماچ",
    "Region": "Western Region"
   },
   "geometry": {
    "x": 7120417.8600494144,
    "y": 4242707.2875584215
   }
  },
  {
   "attributes": {
    "OBJECTID": 6172,
    "ولایت": "ننگرهار",
    "Province": "NANGARHAR",
    "PC_Code": "0604127",
    "District": "CHAPARHAR",
    "د_مرکز_نوم__نام_مرکز": "څپری متوسطه",
    "Polling_Center_Name": "Saparay Secondary School",
    "د_مرکز_ځای__موقعیت_مرکز": "چغره",
    "Polling_Center_Location": "Chaghara",
    "Map_Accuracy": "Building",
    "Map_Accuracy_Dari": "تعمیر",
    "Status": "Open",
    "Status_Dari": null,
    "PS_Male": 1,
    "PS_Female": 1,
    "PS_Total": 2,
    "ولسوالي": "چپرهار",
    "Region": "Eastern Region"
   },
   "geometry": {
    "x": 7833126.8290697159,
    "y": 4060629.1541692526
   }
  },
  {
   "attributes": {
    "OBJECTID": 6173,
    "ولایت": "وردک",
    "Province": "WARDAK",
    "PC_Code": "0402144",
    "District": "NERKH",
    "د_مرکز_نوم__نام_مرکز": "کلینیک قریه حسن خیل",
    "Polling_Center_Name": "Hassan Khel Village Clinic",
    "د_مرکز_ځای__موقعیت_مرکز": "قریه حسن خیل",
    "Polling_Center_Location": "Hasan Khel",
    "Map_Accuracy": "Village",
    "Map_Accuracy_Dari": "قریه",
    "Status": "Open",
    "Status_Dari": null,
    "PS_Male": 3,
    "PS_Female": 1,
    "PS_Total": 4,
    "ولسوالي": "نرخ",
    "Region": "Central Region"
   },
   "geometry": {
    "x": 7649824.110179211,
    "y": 4079106.3045960129
   }
  },
  {
   "attributes": {
    "OBJECTID": 6174,
    "ولایت": "وردک",
    "Province": "WARDAK",
    "PC_Code": "0404090",
    "District": "CHAKI WARDAK",
    "د_مرکز_نوم__نام_مرکز": "دوکان در بازار قریه پنه",
    "Polling_Center_Name": "Shop in the Pune Village Bazar",
    "د_مرکز_ځای__موقعیت_مرکز": "قریه پنه",
    "Polling_Center_Location": "Puna Village",
    "Map_Accuracy": "Village",
    "Map_Accuracy_Dari": "قریه",
    "Status": "Open",
    "Status_Dari": null,
    "PS_Male": 2,
    "PS_Female": 2,
    "PS_Total": 4,
    "ولسوالي": "چک وردک",
    "Region": "Central Region"
   },
   "geometry": {
    "x": 7635119.7472083149,
    "y": 4044847.7122259461
   }
  },
  {
   "attributes": {
    "OBJECTID": 6175,
    "ولایت": "وردک",
    "Province": "WARDAK",
    "PC_Code": "0404104",
    "District": "CHAKI WARDAK",
    "د_مرکز_نوم__نام_مرکز": "منزل دگروال سردارخان",
    "Polling_Center_Name": "Dagarwal Sardar Khan House",
    "د_مرکز_ځای__موقعیت_مرکز": "قریه خلیلی ",
    "Polling_Center_Location": "Khalili Village",
    "Map_Accuracy": "Village",
    "Map_Accuracy_Dari": "قریه",
    "Status": "Open",
    "Status_Dari": null,
    "PS_Male": 2,
    "PS_Female": 1,
    "PS_Total": 3,
    "ولسوالي": "چک وردک",
    "Region": "Central Region"
   },
   "geometry": {
    "x": 7639783.5874813944,
    "y": 4045613.0798619068
   }
  },
  {
   "attributes": {
    "OBJECTID": 6176,
    "ولایت": "لوگر",
    "Province": "LOGAR",
    "PC_Code": "0502031",
    "District": "BARAKI BARAK",
    "د_مرکز_نوم__نام_مرکز": "مسجد شاه مزار ",
    "Polling_Center_Name": "Shah Mazar Mosque",
    "د_مرکز_ځای__موقعیت_مرکز": "قریه شاه مزار",
    "Polling_Center_Location": "Shah Mazar",
    "Map_Accuracy": "Building",
    "Map_Accuracy_Dari": "تعمیر",
    "Status": "Open",
    "Status_Dari": null,
    "PS_Male": 2,
    "PS_Female": 1,
    "PS_Total": 3,
    "ولسوالي": "برکی برک",
    "Region": "Central Region"
   },
   "geometry": {
    "x": 7675173.9081872907,
    "y": 4013568.5662408182
   }
  },
  {
   "attributes": {
    "OBJECTID": 6177,
    "ولایت": "لوگر",
    "Province": "LOGAR",
    "PC_Code": "0507078",
    "District": "AZRA",
    "د_مرکز_نوم__نام_مرکز": "مکتب موسی خان",
    "Polling_Center_Name": "Musa Khan School",
    "د_مرکز_ځای__موقعیت_مرکز": "قریه موسى خان",
    "Polling_Center_Location": "Musa Khan Village",
    "Map_Accuracy": "Village",
    "Map_Accuracy_Dari": "قریه",
    "Status": "Open",
    "Status_Dari": null,
    "PS_Male": 5,
    "PS_Female": 3,
    "PS_Total": 8,
    "ولسوالي": "اذره",
    "Region": "Central Region"
   },
   "geometry": {
    "x": 7742416.8417851608,
    "y": 4048363.0616574651
   }
  },
  {
   "attributes": {
    "OBJECTID": 6178,
    "ولایت": "لوگر",
    "Province": "LOGAR",
    "PC_Code": "0507079",
    "District": "AZRA",
    "د_مرکز_نوم__نام_مرکز": "مکتب متوسطه رازى خيل",
    "Polling_Center_Name": "Razi Khel Secondary School",
    "د_مرکز_ځای__موقعیت_مرکز": "رازى خيل",
    "Polling_Center_Location": "Razi Khel",
    "Map_Accuracy": "Building",
    "Map_Accuracy_Dari": "تعمیر",
    "Status": "Open",
    "Status_Dari": null,
    "PS_Male": 5,
    "PS_Female": 3,
    "PS_Total": 8,
    "ولسوالي": "اذره",
    "Region": "Central Region"
   },
   "geometry": {
    "x": 7761985.0783617292,
    "y": 4045426.6144457133
   }
  },
  {
   "attributes": {
    "OBJECTID": 6179,
    "ولایت": "لوگر",
    "Province": "LOGAR",
    "PC_Code": "0501012",
    "District": "PULI ALAM",
    "د_مرکز_نوم__نام_مرکز": "مکتب شلوک",
    "Polling_Center_Name": "Sholak School",
    "د_مرکز_ځای__موقعیت_مرکز": "شلوک",
    "Polling_Center_Location": "Shalook",
    "Map_Accuracy": "Village",
    "Map_Accuracy_Dari": "قریه",
    "Status": "Open",
    "Status_Dari": null,
    "PS_Male": 1,
    "PS_Female": 3,
    "PS_Total": 4,
    "ولسوالي": "پل علم",
    "Region": "Central Region"
   },
   "geometry": {
    "x": 7668741.8780280137,
    "y": 4043717.6716620168
   }
  },
  {
   "attributes": {
    "OBJECTID": 6180,
    "ولایت": "لوگر",
    "Province": "LOGAR",
    "PC_Code": "0503041",
    "District": "CHARKH",
    "د_مرکز_نوم__نام_مرکز": "مکتب متوسطه الحاج شهید تفسیر شاه",
    "Polling_Center_Name": "Alhaj Shaheed Tafser Shah Secondary School",
    "د_مرکز_ځای__موقعیت_مرکز": "پنگرام سر آسياب",
    "Polling_Center_Location": "Pengeram Sar Asyab",
    "Map_Accuracy": "Building",
    "Map_Accuracy_Dari": "تعمیر",
    "Status": "Open",
    "Status_Dari": null,
    "PS_Male": 3,
    "PS_Female": 2,
    "PS_Total": 5,
    "ولسوالي": "چرخ",
    "Region": "Central Region"
   },
   "geometry": {
    "x": 7674791.6582066109,
    "y": 4000758.8902696893
   }
  },
  {
   "attributes": {
    "OBJECTID": 6181,
    "ولایت": "وردک",
    "Province": "WARDAK",
    "PC_Code": "0404105",
    "District": "CHAKI WARDAK",
    "د_مرکز_نوم__نام_مرکز": "منزل ملا شفیق",
    "Polling_Center_Name": "Molla Shafiq House",
    "د_مرکز_ځای__موقعیت_مرکز": "قریه زمان خیل",
    "Polling_Center_Location": "Zaman Khel Village",
    "Map_Accuracy": "Village",
    "Map_Accuracy_Dari": "قریه",
    "Status": "Open",
    "Status_Dari": null,
    "PS_Male": 2,
    "PS_Female": 1,
    "PS_Total": 3,
    "ولسوالي": "چک وردک",
    "Region": "Central Region"
   },
   "geometry": {
    "x": 7642606.4861282622,
    "y": 4046064.2273687548
   }
  },
  {
   "attributes": {
    "OBJECTID": 6182,
    "ولایت": "وردک",
    "Province": "WARDAK",
    "PC_Code": "0405139",
    "District": "SAYYD ABAD",
    "د_مرکز_نوم__نام_مرکز": "مکتب امام محمد",
    "Polling_Center_Name": "Imam-e-Mohammad School",
    "د_مرکز_ځای__موقعیت_مرکز": "دوآب",
    "Polling_Center_Location": "Du Aab",
    "Map_Accuracy": "Village",
    "Map_Accuracy_Dari": "قریه",
    "Status": "Open",
    "Status_Dari": null,
    "PS_Male": 2,
    "PS_Female": 1,
    "PS_Total": 3,
    "ولسوالي": "سید آباد",
    "Region": "Central Region"
   },
   "geometry": {
    "x": 7654633.6019872446,
    "y": 4034129.1066530556
   }
  },
  {
   "attributes": {
    "OBJECTID": 6183,
    "ولایت": "لوگر",
    "Province": "LOGAR",
    "PC_Code": "0501010",
    "District": "PULI ALAM",
    "د_مرکز_نوم__نام_مرکز": "مکتب بابوس",
    "Polling_Center_Name": "Babos School",
    "د_مرکز_ځای__موقعیت_مرکز": "بابوس",
    "Polling_Center_Location": "Babos",
    "Map_Accuracy": "Building",
    "Map_Accuracy_Dari": "تعمیر",
    "Status": "Open",
    "Status_Dari": null,
    "PS_Male": 3,
    "PS_Female": 2,
    "PS_Total": 5,
    "ولسوالي": "پل علم",
    "Region": "Central Region"
   },
   "geometry": {
    "x": 7677985.4511329038,
    "y": 4039758.4001979986
   }
  },
  {
   "attributes": {
    "OBJECTID": 6184,
    "ولایت": "لوگر",
    "Province": "LOGAR",
    "PC_Code": "0503042",
    "District": "CHARKH",
    "د_مرکز_نوم__نام_مرکز": "کلینيک ارگوم",
    "Polling_Center_Name": "Argum Clinic",
    "د_مرکز_ځای__موقعیت_مرکز": "قریه ارگوم",
    "Polling_Center_Location": "Argum Village",
    "Map_Accuracy": "Building",
    "Map_Accuracy_Dari": "تعمیر",
    "Status": "Open",
    "Status_Dari": null,
    "PS_Male": 3,
    "PS_Female": 2,
    "PS_Total": 5,
    "ولسوالي": "چرخ",
    "Region": "Central Region"
   },
   "geometry": {
    "x": 7674676.2388189752,
    "y": 4005872.5267613721
   }
  },
  {
   "attributes": {
    "OBJECTID": 6185,
    "ولایت": "لوگر",
    "Province": "LOGAR",
    "PC_Code": "0502026",
    "District": "BARAKI BARAK",
    "د_مرکز_نوم__نام_مرکز": "مکتب پنده",
    "Polling_Center_Name": "Pandah School",
    "د_مرکز_ځای__موقعیت_مرکز": "پنده",
    "Polling_Center_Location": "Pandah",
    "Map_Accuracy": "Building",
    "Map_Accuracy_Dari": "تعمیر",
    "Status": "Open",
    "Status_Dari": null,
    "PS_Male": 1,
    "PS_Female": 1,
    "PS_Total": 2,
    "ولسوالي": "برکی برک",
    "Region": "Central Region"
   },
   "geometry": {
    "x": 7678015.6899593826,
    "y": 4024961.8622158184
   }
  },
  {
   "attributes": {
    "OBJECTID": 6186,
    "ولایت": "لوگر",
    "Province": "LOGAR",
    "PC_Code": "0504048",
    "District": "KHUSHI",
    "د_مرکز_نوم__نام_مرکز": "شين ګل قلعه",
    "Polling_Center_Name": "Sheen Gul Qala",
    "د_مرکز_ځای__موقعیت_مرکز": "کنډو",
    "Polling_Center_Location": "Kandow",
    "Map_Accuracy": "Building",
    "Map_Accuracy_Dari": "تعمیر",
    "Status": "Open",
    "Status_Dari": null,
    "PS_Male": 2,
    "PS_Female": 2,
    "PS_Total": 4,
    "ولسوالي": "خوشی",
    "Region": "Central Region"
   },
   "geometry": {
    "x": 7714642.8815274853,
    "y": 4032804.1362526207
   }
  },
  {
   "attributes": {
    "OBJECTID": 6187,
    "ولایت": "لوگر",
    "Province": "LOGAR",
    "PC_Code": "0502037",
    "District": "BARAKI BARAK",
    "د_مرکز_نوم__نام_مرکز": "مسجد پل راجان ",
    "Polling_Center_Name": "Pul-e-Rajan Mosque ",
    "د_مرکز_ځای__موقعیت_مرکز": "پل راجان",
    "Polling_Center_Location": "Pul-e-Rajan",
    "Map_Accuracy": "Building",
    "Map_Accuracy_Dari": "تعمیر",
    "Status": "Open",
    "Status_Dari": null,
    "PS_Male": 3,
    "PS_Female": 1,
    "PS_Total": 4,
    "ولسوالي": "برکی برک",
    "Region": "Central Region"
   },
   "geometry": {
    "x": 7673906.5558221191,
    "y": 4017316.2419520826
   }
  },
  {
   "attributes": {
    "OBJECTID": 6188,
    "ولایت": "لوگر",
    "Province": "LOGAR",
    "PC_Code": "0507077",
    "District": "AZRA",
    "د_مرکز_نوم__نام_مرکز": "مکتب سنگ باران",
    "Polling_Center_Name": "Sang Baran School",
    "د_مرکز_ځای__موقعیت_مرکز": "قریه سنگ باران",
    "Polling_Center_Location": "Sang Baran Village",
    "Map_Accuracy": "Village",
    "Map_Accuracy_Dari": "قریه",
    "Status": "Open",
    "Status_Dari": null,
    "PS_Male": 4,
    "PS_Female": 3,
    "PS_Total": 7,
    "ولسوالي": "اذره",
    "Region": "Central Region"
   },
   "geometry": {
    "x": 7752984.544648312,
    "y": 4052028.7514667953
   }
  },
  {
   "attributes": {
    "OBJECTID": 6189,
    "ولایت": "لوگر",
    "Province": "LOGAR",
    "PC_Code": "0503043",
    "District": "CHARKH",
    "د_مرکز_نوم__نام_مرکز": "مکتب مولانا یعقوب چرخی",
    "Polling_Center_Name": "Mawlana Yaqoub Charkhi School",
    "د_مرکز_ځای__موقعیت_مرکز": "گرم آبه",
    "Polling_Center_Location": "Garm Aaba",
    "Map_Accuracy": "Building",
    "Map_Accuracy_Dari": "تعمیر",
    "Status": "Open",
    "Status_Dari": null,
    "PS_Male": 7,
    "PS_Female": 3,
    "PS_Total": 10,
    "ولسوالي": "چرخ",
    "Region": "Central Region"
   },
   "geometry": {
    "x": 7674768.7085803878,
    "y": 4002062.6679055099
   }
  },
  {
   "attributes": {
    "OBJECTID": 6190,
    "ولایت": "ننگرهار",
    "Province": "NANGARHAR",
    "PC_Code": "0616426",
    "District": "SHINWAR",
    "د_مرکز_نوم__نام_مرکز": "هسپتال جومات",
    "Polling_Center_Name": "Hospital Mosque",
    "د_مرکز_ځای__موقعیت_مرکز": "٢٦ وياله",
    "Polling_Center_Location": "26 Viyala",
    "Map_Accuracy": "Village",
    "Map_Accuracy_Dari": "قریه",
    "Status": "Open",
    "Status_Dari": null,
    "PS_Male": 0,
    "PS_Female": 3,
    "PS_Total": 3,
    "ولسوالي": "شینوار",
    "Region": "Eastern Region"
   },
   "geometry": {
    "x": 7883144.4162067752,
    "y": 4058353.2668948541
   }
  },
  {
   "attributes": {
    "OBJECTID": 6191,
    "ولایت": "ننگرهار",
    "Province": "NANGARHAR",
    "PC_Code": "0608277",
    "District": "KHUGYANI",
    "د_مرکز_نوم__نام_مرکز": "جهادي اناث ليسه",
    "Polling_Center_Name": "Jihadi Girls High School",
    "د_مرکز_ځای__موقعیت_مرکز": "وزير احمد خيل کلی",
    "Polling_Center_Location": "Wazir Ahmad Khel Village",
    "Map_Accuracy": "Village",
    "Map_Accuracy_Dari": "قریه",
    "Status": "Open",
    "Status_Dari": null,
    "PS_Male": 0,
    "PS_Female": 3,
    "PS_Total": 3,
    "ولسوالي": "خوګیاڼي",
    "Region": "Eastern Region"
   },
   "geometry": {
    "x": 7811663.9236278925,
    "y": 4056893.449392173
   }
  },
  {
   "attributes": {
    "OBJECTID": 6192,
    "ولایت": "ننگرهار",
    "Province": "NANGARHAR",
    "PC_Code": "0604117",
    "District": "CHAPARHAR",
    "د_مرکز_نوم__نام_مرکز": "حافظانو کلی مکتب",
    "Polling_Center_Name": "Haafizan Village School",
    "د_مرکز_ځای__موقعیت_مرکز": "حافظان",
    "Polling_Center_Location": "Hafizan",
    "Map_Accuracy": "Village",
    "Map_Accuracy_Dari": "قریه",
    "Status": "Open",
    "Status_Dari": null,
    "PS_Male": 2,
    "PS_Female": 0,
    "PS_Total": 2,
    "ولسوالي": "چپرهار",
    "Region": "Eastern Region"
   },
   "geometry": {
    "x": 7833883.9875106551,
    "y": 4067436.9377769907
   }
  },
  {
   "attributes": {
    "OBJECTID": 6193,
    "ولایت": "ننگرهار",
    "Province": "NANGARHAR",
    "PC_Code": "0604118",
    "District": "CHAPARHAR",
    "د_مرکز_نوم__نام_مرکز": "عبدالرحمن ديره",
    "Polling_Center_Name": "Abdul Rahman Dera",
    "د_مرکز_ځای__موقعیت_مرکز": "حافظان",
    "Polling_Center_Location": "Hafizan",
    "Map_Accuracy": "Village",
    "Map_Accuracy_Dari": "قریه",
    "Status": "Open",
    "Status_Dari": null,
    "PS_Male": 0,
    "PS_Female": 2,
    "PS_Total": 2,
    "ولسوالي": "چپرهار",
    "Region": "Eastern Region"
   },
   "geometry": {
    "x": 7833192.8348485865,
    "y": 4066534.7405179897
   }
  },
  {
   "attributes": {
    "OBJECTID": 6194,
    "ولایت": "ننگرهار",
    "Province": "NANGARHAR",
    "PC_Code": "0604120",
    "District": "CHAPARHAR",
    "د_مرکز_نوم__نام_مرکز": "ملا صاحب جومات",
    "Polling_Center_Name": "Mula Sahib Mosque",
    "د_مرکز_ځای__موقعیت_مرکز": "دولت زئې",
    "Polling_Center_Location": "Dawlatzai",
    "Map_Accuracy": "Building",
    "Map_Accuracy_Dari": "تعمیر",
    "Status": "Open",
    "Status_Dari": null,
    "PS_Male": 2,
    "PS_Female": 0,
    "PS_Total": 2,
    "ولسوالي": "چپرهار",
    "Region": "Eastern Region"
   },
   "geometry": {
    "x": 7836449.3418364022,
    "y": 4071250.4890487273
   }
  },
  {
   "attributes": {
    "OBJECTID": 6195,
    "ولایت": "ننگرهار",
    "Province": "NANGARHAR",
    "PC_Code": "0604121",
    "District": "CHAPARHAR",
    "د_مرکز_نوم__نام_مرکز": "حاجی ملوک جومات ",
    "Polling_Center_Name": "Haji Malook Dera",
    "د_مرکز_ځای__موقعیت_مرکز": "دولت زئې",
    "Polling_Center_Location": "Dawlatzai",
    "Map_Accuracy": "Village",
    "Map_Accuracy_Dari": "قریه",
    "Status": "Open",
    "Status_Dari": null,
    "PS_Male": 0,
    "PS_Female": 2,
    "PS_Total": 2,
    "ولسوالي": "چپرهار",
    "Region": "Eastern Region"
   },
   "geometry": {
    "x": 7836242.5024301475,
    "y": 4069200.1246040519
   }
  },
  {
   "attributes": {
    "OBJECTID": 6196,
    "ولایت": "ننگرهار",
    "Province": "NANGARHAR",
    "PC_Code": "0613517",
    "District": "KOT",
    "د_مرکز_نوم__نام_مرکز": "مکتب",
    "Polling_Center_Name": "School",
    "د_مرکز_ځای__موقعیت_مرکز": "تنګی کلی",
    "Polling_Center_Location": "Tangi village",
    "Map_Accuracy": "Village",
    "Map_Accuracy_Dari": "قریه",
    "Status": "Open",
    "Status_Dari": null,
    "PS_Male": 2,
    "PS_Female": 1,
    "PS_Total": 3,
    "ولسوالي": "کوټ",
    "Region": "Eastern Region"
   },
   "geometry": {
    "x": 7850702.5706596784,
    "y": 4040801.657618769
   }
  },
  {
   "attributes": {
    "OBJECTID": 6197,
    "ولایت": "ننگرهار",
    "Province": "NANGARHAR",
    "PC_Code": "0608285",
    "District": "KHUGYANI",
    "د_مرکز_نوم__نام_مرکز": "بر بهار لیسه مکتب",
    "Polling_Center_Name": "Bar Bahar High School",
    "د_مرکز_ځای__موقعیت_مرکز": "بر بهار",
    "Polling_Center_Location": "Bar Bahar",
    "Map_Accuracy": "Village",
    "Map_Accuracy_Dari": "قریه",
    "Status": "Open",
    "Status_Dari": null,
    "PS_Male": 0,
    "PS_Female": 3,
    "PS_Total": 3,
    "ولسوالي": "خوګیاڼي",
    "Region": "Eastern Region"
   },
   "geometry": {
    "x": 7816272.1564757358,
    "y": 4066125.0229215929
   }
  },
  {
   "attributes": {
    "OBJECTID": 6198,
    "ولایت": "ننگرهار",
    "Province": "NANGARHAR",
    "PC_Code": "0608286",
    "District": "KHUGYANI",
    "د_مرکز_نوم__نام_مرکز": "بربهار ميدان",
    "Polling_Center_Name": "Bar Bahar Maidan",
    "د_مرکز_ځای__موقعیت_مرکز": "بر بهار",
    "Polling_Center_Location": "Bar Bahar",
    "Map_Accuracy": "Village",
    "Map_Accuracy_Dari": "قریه",
    "Status": "Open",
    "Status_Dari": null,
    "PS_Male": 3,
    "PS_Female": 0,
    "PS_Total": 3,
    "ولسوالي": "خوګیاڼي",
    "Region": "Eastern Region"
   },
   "geometry": {
    "x": 7815562.8687554169,
    "y": 4067282.3584752488
   }
  },
  {
   "attributes": {
    "OBJECTID": 6199,
    "ولایت": "ننگرهار",
    "Province": "NANGARHAR",
    "PC_Code": "0609448",
    "District": "BATI KOT",
    "د_مرکز_نوم__نام_مرکز": "چهاردهي جومات",
    "Polling_Center_Name": "Chahardi High School",
    "د_مرکز_ځای__موقعیت_مرکز": "چاردهي کلي",
    "Polling_Center_Location": "Chahardi Village",
    "Map_Accuracy": "Village",
    "Map_Accuracy_Dari": "قریه",
    "Status": "Open",
    "Status_Dari": null,
    "PS_Male": 2,
    "PS_Female": 1,
    "PS_Total": 3,
    "ولسوالي": "بټي کوټ",
    "Region": "Eastern Region"
   },
   "geometry": {
    "x": 7878339.2413685955,
    "y": 4072133.6163193709
   }
  },
  {
   "attributes": {
    "OBJECTID": 6200,
    "ولایت": "ننگرهار",
    "Province": "NANGARHAR",
    "PC_Code": "0620404",
    "District": "NAZYAN",
    "د_مرکز_نوم__نام_مرکز": "مورچل کلي میدان  ",
    "Polling_Center_Name": "Morchal Village Maidan",
    "د_مرکز_ځای__موقعیت_مرکز": "مورچل کلي",
    "Polling_Center_Location": "Morchal Village",
    "Map_Accuracy": "Village",
    "Map_Accuracy_Dari": "قریه",
    "Status": "Open",
    "Status_Dari": null,
    "PS_Male": 0,
    "PS_Female": 3,
    "PS_Total": 3,
    "ولسوالي": "نازیان",
    "Region": "Eastern Region"
   },
   "geometry": {
    "x": 7880808.1707514152,
    "y": 4039365.4290011511
   }
  }
 ]
}