{
 "displayFieldName": "Polling_Center_Name",
 "fieldAliases": {
  "OBJECTID": "OBJECTID",
  "ولایت": "ولایت",
  "Province": "Province",
  "PC_Code": "PC_Code",
  "District": "District",
  "د_مرکز_نوم__نام_مرکز": "د_مرکز_نوم__نام_مرکز",
  "Polling_Center_Name": "Polling_Center_Name",
  "د_مرکز_ځای__موقعیت_مرکز": "د_مرکز_ځای__موقعیت_مرکز",
  "Polling_Center_Location": "Polling_Center_Location",
  "Map_Accuracy": "Map_Accuracy",
  "Map_Accuracy_Dari": "Map_Accuracy_Dari",
  "Status": "Status",
  "Status_Dari": "Status_Dari",
  "PS_Male": "PS_Male",
  "PS_Female": "PS_Female",
  "PS_Total": "PS_Total",
  "ولسوالي": "ولسوالي",
  "Region": "Region"
 },
 "geometryType": "esriGeometryPoint",
 "spatialReference": {
  "wkid": 102100,
  "latestWkid": 3857
 },
 "fields": [
  {
   "name": "OBJECTID",
   "type": "esriFieldTypeOID",
   "alias": "OBJECTID"
  },
  {
   "name": "ولایت",
   "type": "esriFieldTypeString",
   "alias": "ولایت",
   "length": 255
  },
  {
   "name": "Province",
   "type": "esriFieldTypeString",
   "alias": "Province",
   "length": 255
  },
  {
   "name": "PC_Code",
   "type": "esriFieldTypeString",
   "alias": "PC_Code",
   "length": 255
  },
  {
   "name": "District",
   "type": "esriFieldTypeString",
   "alias": "District",
   "length": 255
  },
  {
   "name": "د_مرکز_نوم__نام_مرکز",
   "type": "esriFieldTypeString",
   "alias": "د_مرکز_نوم__نام_مرکز",
   "length": 255
  },
  {
   "name": "Polling_Center_Name",
   "type": "esriFieldTypeString",
   "alias": "Polling_Center_Name",
   "length": 255
  },
  {
   "name": "د_مرکز_ځای__موقعیت_مرکز",
   "type": "esriFieldTypeString",
   "alias": "د_مرکز_ځای__موقعیت_مرکز",
   "length": 255
  },
  {
   "name": "Polling_Center_Location",
   "type": "esriFieldTypeString",
   "alias": "Polling_Center_Location",
   "length": 255
  },
  {
   "name": "Map_Accuracy",
   "type": "esriFieldTypeString",
   "alias": "Map_Accuracy",
   "length": 10
  },
  {
   "name": "Map_Accuracy_Dari",
   "type": "esriFieldTypeString",
   "alias": "Map_Accuracy_Dari",
   "length": 50
  },
  {
   "name": "Status",
   "type": "esriFieldTypeString",
   "alias": "Status",
   "length": 6
  },
  {
   "name": "Status_Dari",
   "type": "esriFieldTypeString",
   "alias": "Status_Dari",
   "length": 8
  },
  {
   "name": "PS_Male",
   "type": "esriFieldTypeSmallInteger",
   "alias": "PS_Male"
  },
  {
   "name": "PS_Female",
   "type": "esriFieldTypeSmallInteger",
   "alias": "PS_Female"
  },
  {
   "name": "PS_Total",
   "type": "esriFieldTypeSmallInteger",
   "alias": "PS_Total"
  },
  {
   "name": "ولسوالي",
   "type": "esriFieldTypeString",
   "alias": "ولسوالي",
   "length": 255
  },
  {
   "name": "Region",
   "type": "esriFieldTypeString",
   "alias": "Region",
   "length": 50
  }
 ],
 "features": [
  {
   "attributes": {
    "OBJECTID": 5601,
    "ولایت": "پکتيا",
    "Province": "PAKTYA",
    "PC_Code": "1307057",
    "District": "JAJI ARYOB",
    "د_مرکز_نوم__نام_مرکز": "د روکیانو مدرسه",
    "Polling_Center_Name": "Rokiano Madrassa ",
    "د_مرکز_ځای__موقعیت_مرکز": " روکیان",
    "Polling_Center_Location": "Rokian",
    "Map_Accuracy": "Village",
    "Map_Accuracy_Dari": "قریه",
    "Status": "Open",
    "Status_Dari": null,
    "PS_Male": 3,
    "PS_Female": 1,
    "PS_Total": 4,
    "ولسوالي": "ځاځی اریوب",
    "Region": "South Eastern Region"
   },
   "geometry": {
    "x": 7753829.475168162,
    "y": 4027037.7587858946
   }
  },
  {
   "attributes": {
    "OBJECTID": 5602,
    "ولایت": "پکتيا",
    "Province": "PAKTYA",
    "PC_Code": "1307070",
    "District": "JAJI ARYOB",
    "د_مرکز_نوم__نام_مرکز": "د فقیر بابا مکتب",
    "Polling_Center_Name": "Faqir Baba School",
    "د_مرکز_ځای__موقعیت_مرکز": "لر لیونی یا شریف کلی",
    "Polling_Center_Location": "Lar Lewani/Sharif Village",
    "Map_Accuracy": "Building",
    "Map_Accuracy_Dari": "تعمیر",
    "Status": "Open",
    "Status_Dari": null,
    "PS_Male": 3,
    "PS_Female": 2,
    "PS_Total": 5,
    "ولسوالي": "ځاځی اریوب",
    "Region": "South Eastern Region"
   },
   "geometry": {
    "x": 7769743.7362886434,
    "y": 4024127.0106285969
   }
  },
  {
   "attributes": {
    "OBJECTID": 5603,
    "ولایت": "پکتيا",
    "Province": "PAKTYA",
    "PC_Code": "1311182",
    "District": "DAND PATAN",
    "د_مرکز_نوم__نام_مرکز": "د میرحسن جامع جومات",
    "Polling_Center_Name": "Mir Hassan Mosque",
    "د_مرکز_ځای__موقعیت_مرکز": "میرحسن کلی ",
    "Polling_Center_Location": "Mir Hassan Village",
    "Map_Accuracy": "Village",
    "Map_Accuracy_Dari": "قریه",
    "Status": "Open",
    "Status_Dari": null,
    "PS_Male": 3,
    "PS_Female": 1,
    "PS_Total": 4,
    "ولسوالي": "ډنډ پټان",
    "Region": "South Eastern Region"
   },
   "geometry": {
    "x": 7779954.5065628998,
    "y": 4011821.2665532171
   }
  },
  {
   "attributes": {
    "OBJECTID": 5604,
    "ولایت": "خوست",
    "Province": "KHOST",
    "PC_Code": "1401016",
    "District": "KHOST",
    "د_مرکز_نوم__نام_مرکز": "د شهيد محمد داود ښوونځی",
    "Polling_Center_Name": "Shaheed Mohammad Dawood School",
    "د_مرکز_ځای__موقعیت_مرکز": "خوست ښار شهيد محمد داود ليسه",
    "Polling_Center_Location": "Khost City",
    "Map_Accuracy": "Building",
    "Map_Accuracy_Dari": "تعمیر",
    "Status": "Open",
    "Status_Dari": null,
    "PS_Male": 3,
    "PS_Female": 2,
    "PS_Total": 5,
    "ولسوالي": "خوست",
    "Region": "South Eastern Region"
   },
   "geometry": {
    "x": 7782661.9724637931,
    "y": 3940230.558542632
   }
  },
  {
   "attributes": {
    "OBJECTID": 5605,
    "ولایت": "خوست",
    "Province": "KHOST",
    "PC_Code": "1401027",
    "District": "KHOST",
    "د_مرکز_نوم__نام_مرکز": "د لنډۍ کلی مدرسه",
    "Polling_Center_Name": "Landy Village Madrassa",
    "د_مرکز_ځای__موقعیت_مرکز": "لنډۍ کلى متون",
    "Polling_Center_Location": "Maton, Landi Village",
    "Map_Accuracy": "Building",
    "Map_Accuracy_Dari": "تعمیر",
    "Status": "Open",
    "Status_Dari": null,
    "PS_Male": 2,
    "PS_Female": 2,
    "PS_Total": 4,
    "ولسوالي": "خوست",
    "Region": "South Eastern Region"
   },
   "geometry": {
    "x": 7787061.8920353176,
    "y": 3938933.8643625635
   }
  },
  {
   "attributes": {
    "OBJECTID": 5606,
    "ولایت": "خوست",
    "Province": "KHOST",
    "PC_Code": "1402079",
    "District": "MANDUZAY",
    "د_مرکز_نوم__نام_مرکز": "ب کلى ښوونځی  ",
    "Polling_Center_Name": "Bay Village School ",
    "د_مرکز_ځای__موقعیت_مرکز": "ب کلى",
    "Polling_Center_Location": "Bay Village",
    "Map_Accuracy": "Building",
    "Map_Accuracy_Dari": "تعمیر",
    "Status": "Open",
    "Status_Dari": null,
    "PS_Male": 2,
    "PS_Female": 1,
    "PS_Total": 3,
    "ولسوالي": "مندوزی",
    "Region": "South Eastern Region"
   },
   "geometry": {
    "x": 7771360.7878135126,
    "y": 3936951.309000581
   }
  },
  {
   "attributes": {
    "OBJECTID": 5607,
    "ولایت": "خوست",
    "Province": "KHOST",
    "PC_Code": "1403150",
    "District": "GURBUZ",
    "د_مرکز_نوم__نام_مرکز": "د جانباز جومات",
    "Polling_Center_Name": "Jan Baz Mosque ",
    "د_مرکز_ځای__موقعیت_مرکز": "وړه کلى",
    "Polling_Center_Location": "Wara Village",
    "Map_Accuracy": "Village",
    "Map_Accuracy_Dari": "قریه",
    "Status": "Open",
    "Status_Dari": null,
    "PS_Male": 5,
    "PS_Female": 0,
    "PS_Total": 5,
    "ولسوالي": "گربز",
    "Region": "South Eastern Region"
   },
   "geometry": {
    "x": 7784377.4547974924,
    "y": 3934998.5694685904
   }
  },
  {
   "attributes": {
    "OBJECTID": 5608,
    "ولایت": "خوست",
    "Province": "KHOST",
    "PC_Code": "1404137",
    "District": "TANAY",
    "د_مرکز_نوم__نام_مرکز": "اول جان ښوونځی ",
    "Polling_Center_Name": "Awal Jan School",
    "د_مرکز_ځای__موقعیت_مرکز": "سیناکي کلی",
    "Polling_Center_Location": "Sanaki Village",
    "Map_Accuracy": "Village",
    "Map_Accuracy_Dari": "قریه",
    "Status": "Open",
    "Status_Dari": null,
    "PS_Male": 4,
    "PS_Female": 1,
    "PS_Total": 5,
    "ولسوالي": "تڼي",
    "Region": "South Eastern Region"
   },
   "geometry": {
    "x": 7767233.2646982512,
    "y": 3918755.0743328407
   }
  },
  {
   "attributes": {
    "OBJECTID": 5609,
    "ولایت": "خوست",
    "Province": "KHOST",
    "PC_Code": "1405069",
    "District": "MUSA KHEL",
    "د_مرکز_نوم__نام_مرکز": "د مامور هجره ",
    "Polling_Center_Name": "Mamor Hojra",
    "د_مرکز_ځای__موقعیت_مرکز": "خوشمند کلى",
    "Polling_Center_Location": "Khoshmand Village",
    "Map_Accuracy": "Village",
    "Map_Accuracy_Dari": "قریه",
    "Status": "Open",
    "Status_Dari": null,
    "PS_Male": 1,
    "PS_Female": 2,
    "PS_Total": 3,
    "ولسوالي": "موسی خیل",
    "Region": "South Eastern Region"
   },
   "geometry": {
    "x": 7763059.7355751479,
    "y": 3973636.1222400246
   }
  },
  {
   "attributes": {
    "OBJECTID": 5610,
    "ولایت": "خوست",
    "Province": "KHOST",
    "PC_Code": "1406113",
    "District": "NADIRSHAH KOT",
    "د_مرکز_نوم__نام_مرکز": "جومات مصلات قلعه",
    "Polling_Center_Name": "Maslat Qala Mosque",
    "د_مرکز_ځای__موقعیت_مرکز": " مصلات قلعه",
    "Polling_Center_Location": "Maslat Qala",
    "Map_Accuracy": "Village",
    "Map_Accuracy_Dari": "قریه",
    "Status": "Open",
    "Status_Dari": null,
    "PS_Male": 2,
    "PS_Female": 1,
    "PS_Total": 3,
    "ولسوالي": "نادرشاه کوت",
    "Region": "South Eastern Region"
   },
   "geometry": {
    "x": 7763289.5568902781,
    "y": 3944375.6491518533
   }
  },
  {
   "attributes": {
    "OBJECTID": 5611,
    "ولایت": "خوست",
    "Province": "KHOST",
    "PC_Code": "1406125",
    "District": "NADIRSHAH KOT",
    "د_مرکز_نوم__نام_مرکز": "د شمبوات ښوونځی",
    "Polling_Center_Name": "Shambowat Village School",
    "د_مرکز_ځای__موقعیت_مرکز": " شمبوات",
    "Polling_Center_Location": "Shambwat",
    "Map_Accuracy": "Village",
    "Map_Accuracy_Dari": "قریه",
    "Status": "Open",
    "Status_Dari": null,
    "PS_Male": 2,
    "PS_Female": 1,
    "PS_Total": 3,
    "ولسوالي": "نادرشاه کوت",
    "Region": "South Eastern Region"
   },
   "geometry": {
    "x": 7763569.9406313254,
    "y": 3944723.5688111368
   }
  },
  {
   "attributes": {
    "OBJECTID": 5612,
    "ولایت": "خوست",
    "Province": "KHOST",
    "PC_Code": "1409057",
    "District": "BAAK",
    "د_مرکز_نوم__نام_مرکز": "منزي جومات ",
    "Polling_Center_Name": "Manzai Mosque ",
    "د_مرکز_ځای__موقعیت_مرکز": "شمل خيلو کلی",
    "Polling_Center_Location": "Shamal Khel Village ",
    "Map_Accuracy": "Village",
    "Map_Accuracy_Dari": "قریه",
    "Status": "Open",
    "Status_Dari": null,
    "PS_Male": 5,
    "PS_Female": 3,
    "PS_Total": 8,
    "ولسوالي": "باک",
    "Region": "South Eastern Region"
   },
   "geometry": {
    "x": 7793075.3664751919,
    "y": 3967056.6250940464
   }
  },
  {
   "attributes": {
    "OBJECTID": 5613,
    "ولایت": "خوست",
    "Province": "KHOST",
    "PC_Code": "1411170",
    "District": "SPERA",
    "د_مرکز_نوم__نام_مرکز": "غلام جان دوکان تروې کلى",
    "Polling_Center_Name": "Ghulam Jan Shop",
    "د_مرکز_ځای__موقعیت_مرکز": "تروې کلى",
    "Polling_Center_Location": "Tarwai Village",
    "Map_Accuracy": "Village",
    "Map_Accuracy_Dari": "قریه",
    "Status": "Open",
    "Status_Dari": null,
    "PS_Male": 1,
    "PS_Female": 1,
    "PS_Total": 2,
    "ولسوالي": "سپیره",
    "Region": "South Eastern Region"
   },
   "geometry": {
    "x": 7739083.5889139995,
    "y": 3927440.0653770799
   }
  },
  {
   "attributes": {
    "OBJECTID": 5614,
    "ولایت": "خوست",
    "Province": "KHOST",
    "PC_Code": "1413098",
    "District": "JAJI MAIDAN",
    "د_مرکز_نوم__نام_مرکز": "سټي ون ښوونځی",
    "Polling_Center_Name": "City One School ",
    "د_مرکز_ځای__موقعیت_مرکز": "سټي ون",
    "Polling_Center_Location": "City One",
    "Map_Accuracy": "Village",
    "Map_Accuracy_Dari": "قریه",
    "Status": "Open",
    "Status_Dari": null,
    "PS_Male": 3,
    "PS_Female": 2,
    "PS_Total": 5,
    "ولسوالي": "ځاځي میدان",
    "Region": "South Eastern Region"
   },
   "geometry": {
    "x": 7804943.8832292538,
    "y": 3984829.8610857427
   }
  },
  {
   "attributes": {
    "OBJECTID": 5615,
    "ولایت": "خوست",
    "Province": "KHOST",
    "PC_Code": "1413099",
    "District": "JAJI MAIDAN",
    "د_مرکز_نوم__نام_مرکز": "مدرسه زنخيل",
    "Polling_Center_Name": "Zana Khel Madrassa ",
    "د_مرکز_ځای__موقعیت_مرکز": " زنخيل ",
    "Polling_Center_Location": "Zana Khel Village",
    "Map_Accuracy": "Building",
    "Map_Accuracy_Dari": "تعمیر",
    "Status": "Open",
    "Status_Dari": null,
    "PS_Male": 3,
    "PS_Female": 2,
    "PS_Total": 5,
    "ولسوالي": "ځاځي میدان",
    "Region": "South Eastern Region"
   },
   "geometry": {
    "x": 7807417.4089938486,
    "y": 3979048.6379704373
   }
  },
  {
   "attributes": {
    "OBJECTID": 5616,
    "ولایت": "کنړ ",
    "Province": "KUNAR",
    "PC_Code": "1501005",
    "District": "ASAD ABAD",
    "د_مرکز_نوم__نام_مرکز": "مدرسه قریه نوآباد",
    "Polling_Center_Name": "Naw Abad Madrassa",
    "د_مرکز_ځای__موقعیت_مرکز": "نوآباد",
    "Polling_Center_Location": "Naw abad",
    "Map_Accuracy": "Village",
    "Map_Accuracy_Dari": "قریه",
    "Status": "Open",
    "Status_Dari": null,
    "PS_Male": 5,
    "PS_Female": 2,
    "PS_Total": 7,
    "ولسوالي": "اسعد آباد",
    "Region": "Eastern Region"
   },
   "geometry": {
    "x": 7916924.106407349,
    "y": 4139302.9465923198
   }
  },
  {
   "attributes": {
    "OBJECTID": 5617,
    "ولایت": "کنړ ",
    "Province": "KUNAR",
    "PC_Code": "1503011",
    "District": "WATAPOOR",
    "د_مرکز_نوم__نام_مرکز": "مدرسه دینی قریه وټه پور",
    "Polling_Center_Name": "Watapoor Village Religious Madrassa",
    "د_مرکز_ځای__موقعیت_مرکز": "وټه پور",
    "Polling_Center_Location": "Watapoor",
    "Map_Accuracy": "Village",
    "Map_Accuracy_Dari": "قریه",
    "Status": "Open",
    "Status_Dari": null,
    "PS_Male": 3,
    "PS_Female": 2,
    "PS_Total": 5,
    "ولسوالي": "واټه پور",
    "Region": "Eastern Region"
   },
   "geometry": {
    "x": 7914276.7040509144,
    "y": 4153189.0438086158
   }
  },
  {
   "attributes": {
    "OBJECTID": 5618,
    "ولایت": "کنړ ",
    "Province": "KUNAR",
    "PC_Code": "1503012",
    "District": "WATAPOOR",
    "د_مرکز_نوم__نام_مرکز": "مکتب ابتدائیه",
    "Polling_Center_Name": "Shenigam Primary School",
    "د_مرکز_ځای__موقعیت_مرکز": "شینی گام",
    "Polling_Center_Location": "Shenigam",
    "Map_Accuracy": "Building",
    "Map_Accuracy_Dari": "تعمیر",
    "Status": "Open",
    "Status_Dari": null,
    "PS_Male": 3,
    "PS_Female": 1,
    "PS_Total": 4,
    "ولسوالي": "واټه پور",
    "Region": "Eastern Region"
   },
   "geometry": {
    "x": 7913295.1377616739,
    "y": 4154960.3083887394
   }
  },
  {
   "attributes": {
    "OBJECTID": 5619,
    "ولایت": "کنړ ",
    "Province": "KUNAR",
    "PC_Code": "1506066",
    "District": "SHIGAL WA SHILTAN",
    "د_مرکز_نوم__نام_مرکز": "لیسه شیګل",
    "Polling_Center_Name": "Shegal Washilton High School",
    "د_مرکز_ځای__موقعیت_مرکز": "شنګرشاه",
    "Polling_Center_Location": "Shangar Shah",
    "Map_Accuracy": "Building",
    "Map_Accuracy_Dari": "تعمیر",
    "Status": "Open",
    "Status_Dari": null,
    "PS_Male": 3,
    "PS_Female": 2,
    "PS_Total": 5,
    "ولسوالي": "شیګل و شیلتن",
    "Region": "Eastern Region"
   },
   "geometry": {
    "x": 7932231.5193425277,
    "y": 4158275.9086210821
   }
  },
  {
   "attributes": {
    "OBJECTID": 5620,
    "ولایت": "کنړ ",
    "Province": "KUNAR",
    "PC_Code": "1507025",
    "District": "DARA-E-PECH",
    "د_مرکز_نوم__نام_مرکز": "مسجد قریه",
    "Polling_Center_Name": "Waradesh Village Mosque",
    "د_مرکز_ځای__موقعیت_مرکز": "وره دیش",
    "Polling_Center_Location": "Waradesh",
    "Map_Accuracy": "Village",
    "Map_Accuracy_Dari": "قریه",
    "Status": "Open",
    "Status_Dari": null,
    "PS_Male": 2,
    "PS_Female": 1,
    "PS_Total": 3,
    "ولسوالي": "دره پیچ",
    "Region": "Eastern Region"
   },
   "geometry": {
    "x": 7903456.4851680426,
    "y": 4146700.5272131842
   }
  },
  {
   "attributes": {
    "OBJECTID": 5621,
    "ولایت": "کنړ ",
    "Province": "KUNAR",
    "PC_Code": "1508062",
    "District": "BAR KUNAR",
    "د_مرکز_نوم__نام_مرکز": "پلوڅوناو مکتب",
    "Polling_Center_Name": "Palosonaw School",
    "د_مرکز_ځای__موقعیت_مرکز": "پلوڅوناو",
    "Polling_Center_Location": "Palasonaw",
    "Map_Accuracy": "Building",
    "Map_Accuracy_Dari": "تعمیر",
    "Status": "Open",
    "Status_Dari": null,
    "PS_Male": 2,
    "PS_Female": 2,
    "PS_Total": 4,
    "ولسوالي": "بر کنړ ",
    "Region": "Eastern Region"
   },
   "geometry": {
    "x": 7937888.3617561357,
    "y": 4162463.0278483396
   }
  },
  {
   "attributes": {
    "OBJECTID": 5622,
    "ولایت": "کنړ ",
    "Province": "KUNAR",
    "PC_Code": "1510099",
    "District": "KHAS KUNAR",
    "د_مرکز_نوم__نام_مرکز": "مسجد قریه",
    "Polling_Center_Name": "Hakim Abad Village Mosque",
    "د_مرکز_ځای__موقعیت_مرکز": "حکیم آباد",
    "Polling_Center_Location": "Hakim Abad",
    "Map_Accuracy": "Building",
    "Map_Accuracy_Dari": "تعمیر",
    "Status": "Open",
    "Status_Dari": null,
    "PS_Male": 2,
    "PS_Female": 1,
    "PS_Total": 3,
    "ولسوالي": "خاص کنړ",
    "Region": "Eastern Region"
   },
   "geometry": {
    "x": 7895031.7459547771,
    "y": 4118901.3462821757
   }
  },
  {
   "attributes": {
    "OBJECTID": 5623,
    "ولایت": "کنړ ",
    "Province": "KUNAR",
    "PC_Code": "1512050",
    "District": "DANGAM",
    "د_مرکز_نوم__نام_مرکز": "لردانګام کلی مسجد",
    "Polling_Center_Name": "Lar Dangam Village Mosque",
    "د_مرکز_ځای__موقعیت_مرکز": "لردانګام کلی ",
    "Polling_Center_Location": "Lar Dangam Village",
    "Map_Accuracy": "Village",
    "Map_Accuracy_Dari": "قریه",
    "Status": "Open",
    "Status_Dari": null,
    "PS_Male": 4,
    "PS_Female": 2,
    "PS_Total": 6,
    "ولسوالي": "دانګام",
    "Region": "Eastern Region"
   },
   "geometry": {
    "x": 7950355.204075289,
    "y": 4162790.1184532992
   }
  },
  {
   "attributes": {
    "OBJECTID": 5624,
    "ولایت": "نورستان",
    "Province": "NOORISTAN",
    "PC_Code": "1601003",
    "District": "PAROON",
    "د_مرکز_نوم__نام_مرکز": "مسجد جامع قریه کانتوا سفلی",
    "Polling_Center_Name": "Kantwa Sufla Village Mosque",
    "د_مرکز_ځای__موقعیت_مرکز": "قریه کانتوا سفلی",
    "Polling_Center_Location": "Kantwa Sufla Village",
    "Map_Accuracy": "Village",
    "Map_Accuracy_Dari": "قریه",
    "Status": "Open",
    "Status_Dari": null,
    "PS_Male": 2,
    "PS_Female": 1,
    "PS_Total": 3,
    "ولسوالي": "پارون",
    "Region": "Eastern Region"
   },
   "geometry": {
    "x": 7878466.8602592302,
    "y": 4204922.3577844612
   }
  },
  {
   "attributes": {
    "OBJECTID": 5625,
    "ولایت": "نورستان",
    "Province": "NOORISTAN",
    "PC_Code": "1602032",
    "District": "WAYGAL",
    "د_مرکز_نوم__نام_مرکز": "مکتب نشی ګرام",
    "Polling_Center_Name": "Nashi Gram School",
    "د_مرکز_ځای__موقعیت_مرکز": "نشی ګرام",
    "Polling_Center_Location": "Nashi Gram",
    "Map_Accuracy": "Building",
    "Map_Accuracy_Dari": "تعمیر",
    "Status": "Open",
    "Status_Dari": null,
    "PS_Male": 3,
    "PS_Female": 2,
    "PS_Total": 5,
    "ولسوالي": "وایګل",
    "Region": "Eastern Region"
   },
   "geometry": {
    "x": 7886847.5125013627,
    "y": 4176456.4649738823
   }
  },
  {
   "attributes": {
    "OBJECTID": 5626,
    "ولایت": "نورستان",
    "Province": "NOORISTAN",
    "PC_Code": "1603043",
    "District": "WAMA",
    "د_مرکز_نوم__نام_مرکز": "مسجد جامع کامګل",
    "Polling_Center_Name": "Kam Gul Mosque",
    "د_مرکز_ځای__موقعیت_مرکز": "کامګل",
    "Polling_Center_Location": "Kam Gul ",
    "Map_Accuracy": "Village",
    "Map_Accuracy_Dari": "قریه",
    "Status": "Open",
    "Status_Dari": null,
    "PS_Male": 2,
    "PS_Female": 2,
    "PS_Total": 4,
    "ولسوالي": "واما",
    "Region": "Eastern Region"
   },
   "geometry": {
    "x": 7879261.9096284546,
    "y": 4182707.3311563283
   }
  },
  {
   "attributes": {
    "OBJECTID": 5627,
    "ولایت": "نورستان",
    "Province": "NOORISTAN",
    "PC_Code": "1605020",
    "District": "DUAB",
    "د_مرکز_نوم__نام_مرکز": "لیسه عالی دوآب",
    "Polling_Center_Name": "Du Aab High School",
    "د_مرکز_ځای__موقعیت_مرکز": "مرکز ولسوالی",
    "Polling_Center_Location": "District Center",
    "Map_Accuracy": "Village",
    "Map_Accuracy_Dari": "قریه",
    "Status": "Open",
    "Status_Dari": null,
    "PS_Male": 2,
    "PS_Female": 1,
    "PS_Total": 3,
    "ولسوالي": "دو آب",
    "Region": "Eastern Region"
   },
   "geometry": {
    "x": 7827902.5842160825,
    "y": 4178970.6945019993
   }
  },
  {
   "attributes": {
    "OBJECTID": 5628,
    "ولایت": "بدخشان",
    "Province": "BADAKHSHAN",
    "PC_Code": "1701007",
    "District": "FAIZ ABAD",
    "د_مرکز_نوم__نام_مرکز": "مکتب گزان",
    "Polling_Center_Name": "Gezan School",
    "د_مرکز_ځای__موقعیت_مرکز": "گزان یفتل علیا",
    "Polling_Center_Location": "Gezan Yaftal Ulya",
    "Map_Accuracy": "Building",
    "Map_Accuracy_Dari": "تعمیر",
    "Status": "Open",
    "Status_Dari": null,
    "PS_Male": 2,
    "PS_Female": 2,
    "PS_Total": 4,
    "ولسوالي": "فیض آباد",
    "Region": "North Eastern Region"
   },
   "geometry": {
    "x": 7862811.7587056775,
    "y": 4460420.7241369467
   }
  },
  {
   "attributes": {
    "OBJECTID": 5629,
    "ولایت": "بدخشان",
    "Province": "BADAKHSHAN",
    "PC_Code": "1702042",
    "District": "ARGO",
    "د_مرکز_نوم__نام_مرکز": "لیسه ایتارچی ",
    "Polling_Center_Name": "Etarchi High School",
    "د_مرکز_ځای__موقعیت_مرکز": "کلینیک قره قوزی",
    "Polling_Center_Location": "Qaraqozi Clinic",
    "Map_Accuracy": "Building",
    "Map_Accuracy_Dari": "تعمیر",
    "Status": "Open",
    "Status_Dari": null,
    "PS_Male": 2,
    "PS_Female": 2,
    "PS_Total": 4,
    "ولسوالي": "ارگو",
    "Region": "North Eastern Region"
   },
   "geometry": {
    "x": 7847419.656128292,
    "y": 4464380.3318400383
   }
  },
  {
   "attributes": {
    "OBJECTID": 5630,
    "ولایت": "بدخشان",
    "Province": "BADAKHSHAN",
    "PC_Code": "1704030",
    "District": "YAFTAL-E-SUFLA",
    "د_مرکز_نوم__نام_مرکز": "مسجد والک",
    "Polling_Center_Name": "Waalak Mosque",
    "د_مرکز_ځای__موقعیت_مرکز": "والک",
    "Polling_Center_Location": "Waalak",
    "Map_Accuracy": "Building",
    "Map_Accuracy_Dari": "تعمیر",
    "Status": "Open",
    "Status_Dari": null,
    "PS_Male": 1,
    "PS_Female": 1,
    "PS_Total": 2,
    "ولسوالي": "یفتل سفلا",
    "Region": "North Eastern Region"
   },
   "geometry": {
    "x": 7835994.298927499,
    "y": 4489634.47092243
   }
  },
  {
   "attributes": {
    "OBJECTID": 5631,
    "ولایت": "بدخشان",
    "Province": "BADAKHSHAN",
    "PC_Code": "1705076",
    "District": "KHASH",
    "د_مرکز_نوم__نام_مرکز": "مکتب نسوان شاهان شهران",
    "Polling_Center_Name": "Shahaan Shahraan Girls School",
    "د_مرکز_ځای__موقعیت_مرکز": "شهران خاش",
    "Polling_Center_Location": "Shahran Khash",
    "Map_Accuracy": "Building",
    "Map_Accuracy_Dari": "تعمیر",
    "Status": "Open",
    "Status_Dari": null,
    "PS_Male": 3,
    "PS_Female": 2,
    "PS_Total": 5,
    "ولسوالي": "خاش",
    "Region": "North Eastern Region"
   },
   "geometry": {
    "x": 7874418.2527555013,
    "y": 4436670.9597104602
   }
  },
  {
   "attributes": {
    "OBJECTID": 5632,
    "ولایت": "بدخشان",
    "Province": "BADAKHSHAN",
    "PC_Code": "1706110",
    "District": "BAHARAK",
    "د_مرکز_نوم__نام_مرکز": "مکتب آریان ",
    "Polling_Center_Name": "Aaryaan School",
    "د_مرکز_ځای__موقعیت_مرکز": "آریان ",
    "Polling_Center_Location": "Aaryaan",
    "Map_Accuracy": "Building",
    "Map_Accuracy_Dari": "تعمیر",
    "Status": "Open",
    "Status_Dari": null,
    "PS_Male": 1,
    "PS_Female": 1,
    "PS_Total": 2,
    "ولسوالي": "بهارک",
    "Region": "North Eastern Region"
   },
   "geometry": {
    "x": 7881845.7051410442,
    "y": 4457340.6262262538
   }
  },
  {
   "attributes": {
    "OBJECTID": 5633,
    "ولایت": "بدخشان",
    "Province": "BADAKHSHAN",
    "PC_Code": "1706111",
    "District": "BAHARAK",
    "د_مرکز_نوم__نام_مرکز": "مسجد دو آب ",
    "Polling_Center_Name": "Do-Aab Mosque",
    "د_مرکز_ځای__موقعیت_مرکز": "دو آب",
    "Polling_Center_Location": "Do-Aab",
    "Map_Accuracy": "Building",
    "Map_Accuracy_Dari": "تعمیر",
    "Status": "Open",
    "Status_Dari": null,
    "PS_Male": 1,
    "PS_Female": 1,
    "PS_Total": 2,
    "ولسوالي": "بهارک",
    "Region": "North Eastern Region"
   },
   "geometry": {
    "x": 7892174.2915115776,
    "y": 4438975.3279066272
   }
  },
  {
   "attributes": {
    "OBJECTID": 5634,
    "ولایت": "بدخشان",
    "Province": "BADAKHSHAN",
    "PC_Code": "1707070",
    "District": "DARAYIM",
    "د_مرکز_نوم__نام_مرکز": "مکتب یمچیان",
    "Polling_Center_Name": "Yamchiyan School",
    "د_مرکز_ځای__موقعیت_مرکز": "یمچیان",
    "Polling_Center_Location": "Yamchiyan",
    "Map_Accuracy": "Building",
    "Map_Accuracy_Dari": "تعمیر",
    "Status": "Open",
    "Status_Dari": null,
    "PS_Male": 3,
    "PS_Female": 1,
    "PS_Total": 4,
    "ولسوالي": "درایم",
    "Region": "North Eastern Region"
   },
   "geometry": {
    "x": 7842528.9712232677,
    "y": 4416332.634146017
   }
  },
  {
   "attributes": {
    "OBJECTID": 5635,
    "ولایت": "بدخشان",
    "Province": "BADAKHSHAN",
    "PC_Code": "1709129",
    "District": "YAWAN",
    "د_مرکز_نوم__نام_مرکز": "مکتب منزل دشت ",
    "Polling_Center_Name": "Manzal Dasht School",
    "د_مرکز_ځای__موقعیت_مرکز": "منزل دشت",
    "Polling_Center_Location": "Manzal Dasht",
    "Map_Accuracy": "Building",
    "Map_Accuracy_Dari": "تعمیر",
    "Status": "Open",
    "Status_Dari": null,
    "PS_Male": 2,
    "PS_Female": 1,
    "PS_Total": 3,
    "ولسوالي": "یاوان",
    "Region": "North Eastern Region"
   },
   "geometry": {
    "x": 7829708.746293786,
    "y": 4508151.9893619018
   }
  },
  {
   "attributes": {
    "OBJECTID": 5636,
    "ولایت": "بدخشان",
    "Province": "BADAKHSHAN",
    "PC_Code": "1709130",
    "District": "YAWAN",
    "د_مرکز_نوم__نام_مرکز": "مکتب شینگان پایان ",
    "Polling_Center_Name": "Shingan Payan School",
    "د_مرکز_ځای__موقعیت_مرکز": "شینگان پایان",
    "Polling_Center_Location": "Shingan Payan",
    "Map_Accuracy": "Building",
    "Map_Accuracy_Dari": "تعمیر",
    "Status": "Open",
    "Status_Dari": null,
    "PS_Male": 2,
    "PS_Female": 1,
    "PS_Total": 3,
    "ولسوالي": "یاوان",
    "Region": "North Eastern Region"
   },
   "geometry": {
    "x": 7828177.8617320862,
    "y": 4517911.3682632931
   }
  },
  {
   "attributes": {
    "OBJECTID": 5637,
    "ولایت": "بدخشان",
    "Province": "BADAKHSHAN",
    "PC_Code": "1710082",
    "District": "JURM",
    "د_مرکز_نوم__نام_مرکز": "لیسه نو جرم و چنگ ها ",
    "Polling_Center_Name": "Naw Jaram o Chang-ha High School",
    "د_مرکز_ځای__موقعیت_مرکز": "نو جرم",
    "Polling_Center_Location": "Naw Jaram",
    "Map_Accuracy": "Building",
    "Map_Accuracy_Dari": "تعمیر",
    "Status": "Open",
    "Status_Dari": null,
    "PS_Male": 2,
    "PS_Female": 1,
    "PS_Total": 3,
    "ولسوالي": "جرم",
    "Region": "North Eastern Region"
   },
   "geometry": {
    "x": 7885056.2316131918,
    "y": 4424690.5058410568
   }
  },
  {
   "attributes": {
    "OBJECTID": 5638,
    "ولایت": "بدخشان",
    "Province": "BADAKHSHAN",
    "PC_Code": "1712115",
    "District": "SHUHADA",
    "د_مرکز_نوم__نام_مرکز": "مکتب شمس الحق",
    "Polling_Center_Name": "Shams-ul-Haq School",
    "د_مرکز_ځای__موقعیت_مرکز": "اباب",
    "Polling_Center_Location": "Abaab",
    "Map_Accuracy": "Building",
    "Map_Accuracy_Dari": "تعمیر",
    "Status": "Open",
    "Status_Dari": null,
    "PS_Male": 1,
    "PS_Female": 1,
    "PS_Total": 2,
    "ولسوالي": "شهدا",
    "Region": "North Eastern Region"
   },
   "geometry": {
    "x": 7913940.3021157114,
    "y": 4446788.730769895
   }
  },
  {
   "attributes": {
    "OBJECTID": 5639,
    "ولایت": "بدخشان",
    "Province": "BADAKHSHAN",
    "PC_Code": "1713142",
    "District": "SHAHR-E-BUZURG",
    "د_مرکز_نوم__نام_مرکز": "لیسه کول ",
    "Polling_Center_Name": "Koal High School",
    "د_مرکز_ځای__موقعیت_مرکز": "کول",
    "Polling_Center_Location": "Koal",
    "Map_Accuracy": "Building",
    "Map_Accuracy_Dari": "تعمیر",
    "Status": "Open",
    "Status_Dari": null,
    "PS_Male": 2,
    "PS_Female": 1,
    "PS_Total": 3,
    "ولسوالي": "شهر بزرگ",
    "Region": "North Eastern Region"
   },
   "geometry": {
    "x": 7802450.508086252,
    "y": 4464592.8034574278
   }
  },
  {
   "attributes": {
    "OBJECTID": 5640,
    "ولایت": "بدخشان",
    "Province": "BADAKHSHAN",
    "PC_Code": "1714233",
    "District": "RAGHISTAN",
    "د_مرکز_نوم__نام_مرکز": "سیاب شار",
    "Polling_Center_Name": "Siyaab Shahr",
    "د_مرکز_ځای__موقعیت_مرکز": "سیاب شهر",
    "Polling_Center_Location": "Siyaab Shahr",
    "Map_Accuracy": "Building",
    "Map_Accuracy_Dari": "تعمیر",
    "Status": "Open",
    "Status_Dari": null,
    "PS_Male": 3,
    "PS_Female": 1,
    "PS_Total": 4,
    "ولسوالي": "راغستان ",
    "Region": "North Eastern Region"
   },
   "geometry": {
    "x": 7864471.6614440139,
    "y": 4521646.0077256579
   }
  },
  {
   "attributes": {
    "OBJECTID": 5641,
    "ولایت": "بدخشان",
    "Province": "BADAKHSHAN",
    "PC_Code": "1716094",
    "District": "WARDOOJ",
    "د_مرکز_نوم__نام_مرکز": "مکتب شاه گان",
    "Polling_Center_Name": "Shahgaan School",
    "د_مرکز_ځای__موقعیت_مرکز": "شاه گان",
    "Polling_Center_Location": "Shahgaan ",
    "Map_Accuracy": "Building",
    "Map_Accuracy_Dari": "تعمیر",
    "Status": "Open",
    "Status_Dari": null,
    "PS_Male": 3,
    "PS_Female": 1,
    "PS_Total": 4,
    "ولسوالي": "وردوج",
    "Region": "North Eastern Region"
   },
   "geometry": {
    "x": 7911028.2888768809,
    "y": 4426120.3227378195
   }
  },
  {
   "attributes": {
    "OBJECTID": 5642,
    "ولایت": "بدخشان",
    "Province": "BADAKHSHAN",
    "PC_Code": "1718257",
    "District": "YAMGAN",
    "د_مرکز_نوم__نام_مرکز": "لیسه ناصر خسرو",
    "Polling_Center_Name": "Naser Khisraw High School",
    "د_مرکز_ځای__موقعیت_مرکز": "حضرت سعید ",
    "Polling_Center_Location": "Hazrat Sayeed",
    "Map_Accuracy": "Building",
    "Map_Accuracy_Dari": "تعمیر",
    "Status": "Open",
    "Status_Dari": null,
    "PS_Male": 2,
    "PS_Female": 1,
    "PS_Total": 3,
    "ولسوالي": "یمگان",
    "Region": "North Eastern Region"
   },
   "geometry": {
    "x": 7879179.7369199321,
    "y": 4366669.6941129146
   }
  },
  {
   "attributes": {
    "OBJECTID": 5643,
    "ولایت": "بدخشان",
    "Province": "BADAKHSHAN",
    "PC_Code": "1719220",
    "District": "SHIGHNAN",
    "د_مرکز_نوم__نام_مرکز": "مکتب پستیو غار جوین ",
    "Polling_Center_Name": "Pastyo Ghaar Jaween School",
    "د_مرکز_ځای__موقعیت_مرکز": "پستیو",
    "Polling_Center_Location": "Pastyo",
    "Map_Accuracy": "Building",
    "Map_Accuracy_Dari": "تعمیر",
    "Status": "Open",
    "Status_Dari": null,
    "PS_Male": 2,
    "PS_Female": 1,
    "PS_Total": 3,
    "ولسوالي": "شغنان",
    "Region": "North Eastern Region"
   },
   "geometry": {
    "x": 7953907.5470626699,
    "y": 4507383.1803444428
   }
  },
  {
   "attributes": {
    "OBJECTID": 5644,
    "ولایت": "بدخشان",
    "Province": "BADAKHSHAN",
    "PC_Code": "1721248",
    "District": "KUFAB",
    "د_مرکز_نوم__نام_مرکز": "مکتب کرنیو",
    "Polling_Center_Name": "Karniyo School",
    "د_مرکز_ځای__موقعیت_مرکز": "کرنیو",
    "Polling_Center_Location": "Karniyo",
    "Map_Accuracy": "Building",
    "Map_Accuracy_Dari": "تعمیر",
    "Status": "Open",
    "Status_Dari": null,
    "PS_Male": 2,
    "PS_Female": 1,
    "PS_Total": 3,
    "ولسوالي": "کوف آب",
    "Region": "North Eastern Region"
   },
   "geometry": {
    "x": 7856432.4283065349,
    "y": 4574798.2944624582
   }
  },
  {
   "attributes": {
    "OBJECTID": 5645,
    "ولایت": "بدخشان",
    "Province": "BADAKHSHAN",
    "PC_Code": "1722266",
    "District": "DARWAZ-E-PAYIN",
    "د_مرکز_نوم__نام_مرکز": "مکتب وروه",
    "Polling_Center_Name": "Warwah School",
    "د_مرکز_ځای__موقعیت_مرکز": "قریه وروه",
    "Polling_Center_Location": "Warwah Village",
    "Map_Accuracy": "Village",
    "Map_Accuracy_Dari": "قریه",
    "Status": "Open",
    "Status_Dari": null,
    "PS_Male": 1,
    "PS_Female": 1,
    "PS_Total": 2,
    "ولسوالي": "درواز پائین (مایمی)",
    "Region": "North Eastern Region"
   },
   "geometry": {
    "x": 7907923.5604487844,
    "y": 4636393.3539020075
   }
  },
  {
   "attributes": {
    "OBJECTID": 5646,
    "ولایت": "بدخشان",
    "Province": "BADAKHSHAN",
    "PC_Code": "1724279",
    "District": "SHIKI",
    "د_مرکز_نوم__نام_مرکز": "لیسه ژرف",
    "Polling_Center_Name": "Zharaf High School",
    "د_مرکز_ځای__موقعیت_مرکز": "ژرف",
    "Polling_Center_Location": "Zharaf",
    "Map_Accuracy": "Village",
    "Map_Accuracy_Dari": "قریه",
    "Status": "Open",
    "Status_Dari": null,
    "PS_Male": 1,
    "PS_Female": 1,
    "PS_Total": 2,
    "ولسوالي": "شکی",
    "Region": "North Eastern Region"
   },
   "geometry": {
    "x": 7853255.7073373515,
    "y": 4613782.4089285266
   }
  },
  {
   "attributes": {
    "OBJECTID": 5647,
    "ولایت": "بدخشان",
    "Province": "BADAKHSHAN",
    "PC_Code": "1726190",
    "District": "KIRAN WA MENJAN",
    "د_مرکز_نوم__نام_مرکز": "مکتب شاهی پری ",
    "Polling_Center_Name": "Shah Pari School",
    "د_مرکز_ځای__موقعیت_مرکز": "شاه پری",
    "Polling_Center_Location": "Shah Pari",
    "Map_Accuracy": "Building",
    "Map_Accuracy_Dari": "تعمیر",
    "Status": "Open",
    "Status_Dari": null,
    "PS_Male": 1,
    "PS_Female": 1,
    "PS_Total": 2,
    "ولسوالي": "کران و منجان ",
    "Region": "North Eastern Region"
   },
   "geometry": {
    "x": 7891700.3042517258,
    "y": 4287783.8938525179
   }
  },
  {
   "attributes": {
    "OBJECTID": 5648,
    "ولایت": "بدخشان",
    "Province": "BADAKHSHAN",
    "PC_Code": "1728205",
    "District": "WAKHAN",
    "د_مرکز_نوم__نام_مرکز": "مکتب خندود",
    "Polling_Center_Name": "Khandod School",
    "د_مرکز_ځای__موقعیت_مرکز": "خندود",
    "Polling_Center_Location": "Khandod",
    "Map_Accuracy": "Building",
    "Map_Accuracy_Dari": "تعمیر",
    "Status": "Open",
    "Status_Dari": null,
    "PS_Male": 2,
    "PS_Female": 1,
    "PS_Total": 3,
    "ولسوالي": "واخان",
    "Region": "North Eastern Region"
   },
   "geometry": {
    "x": 8049938.6817043871,
    "y": 4431968.6291266726
   }
  },
  {
   "attributes": {
    "OBJECTID": 5649,
    "ولایت": "تخار",
    "Province": "TAKHAR",
    "PC_Code": "1801015",
    "District": "TALUQAN",
    "د_مرکز_نوم__نام_مرکز": "ریاست امور زنان",
    "Polling_Center_Name": "Women Affairs Department",
    "د_مرکز_ځای__موقعیت_مرکز": "ناحیه اول",
    "Polling_Center_Location": "D01 - Nahia 1",
    "Map_Accuracy": "Building",
    "Map_Accuracy_Dari": "تعمیر",
    "Status": "Open",
    "Status_Dari": null,
    "PS_Male": 3,
    "PS_Female": 2,
    "PS_Total": 5,
    "ولسوالي": "تالقان",
    "Region": "North Eastern Region"
   },
   "geometry": {
    "x": 7741165.3446550602,
    "y": 4401584.4875131575
   }
  },
  {
   "attributes": {
    "OBJECTID": 5650,
    "ولایت": "تخار",
    "Province": "TAKHAR",
    "PC_Code": "1801016",
    "District": "TALUQAN",
    "د_مرکز_نوم__نام_مرکز": "ریاست اطلاعات وفرهنگ",
    "Polling_Center_Name": "Culture & Information Department",
    "د_مرکز_ځای__موقعیت_مرکز": "ناحیه 04",
    "Polling_Center_Location": "D02 - Nahia 2",
    "Map_Accuracy": "Building",
    "Map_Accuracy_Dari": "تعمیر",
    "Status": "Open",
    "Status_Dari": null,
    "PS_Male": 3,
    "PS_Female": 2,
    "PS_Total": 5,
    "ولسوالي": "تالقان",
    "Region": "North Eastern Region"
   },
   "geometry": {
    "x": 7740878.792701032,
    "y": 4401549.0079728756
   }
  },
  {
   "attributes": {
    "OBJECTID": 5651,
    "ولایت": "تخار",
    "Province": "TAKHAR",
    "PC_Code": "1801026",
    "District": "TALUQAN",
    "د_مرکز_نوم__نام_مرکز": "مکتب شورچه 1",
    "Polling_Center_Name": "Shorcha 1 School",
    "د_مرکز_ځای__موقعیت_مرکز": "شورجه 1",
    "Polling_Center_Location": "Shorja 1",
    "Map_Accuracy": "Building",
    "Map_Accuracy_Dari": "تعمیر",
    "Status": "Open",
    "Status_Dari": null,
    "PS_Male": 1,
    "PS_Female": 1,
    "PS_Total": 2,
    "ولسوالي": "تالقان",
    "Region": "North Eastern Region"
   },
   "geometry": {
    "x": 7760320.2063213233,
    "y": 4407666.2020416223
   }
  },
  {
   "attributes": {
    "OBJECTID": 5652,
    "ولایت": "تخار",
    "Province": "TAKHAR",
    "PC_Code": "1801185",
    "District": "TALUQAN",
    "د_مرکز_نوم__نام_مرکز": "ليسه عبدالطيف شهيد ",
    "Polling_Center_Name": "Abdul Lateef Shaheed High School",
    "د_مرکز_ځای__موقعیت_مرکز": "خواجه سبز پوش",
    "Polling_Center_Location": "Khwaja Sabz Posh",
    "Map_Accuracy": "Building",
    "Map_Accuracy_Dari": "تعمیر",
    "Status": "Open",
    "Status_Dari": null,
    "PS_Male": 1,
    "PS_Female": 1,
    "PS_Total": 2,
    "ولسوالي": "تالقان",
    "Region": "North Eastern Region"
   },
   "geometry": {
    "x": 7719355.7558098705,
    "y": 4405311.3411631044
   }
  },
  {
   "attributes": {
    "OBJECTID": 5653,
    "ولایت": "تخار",
    "Province": "TAKHAR",
    "PC_Code": "1803042",
    "District": "BAHARAK",
    "د_مرکز_نوم__نام_مرکز": "مکتب ابتدائیه غلام سرور شهید",
    "Polling_Center_Name": "Ghulam Sarwar Shaheed Primary School",
    "د_مرکز_ځای__موقعیت_مرکز": "زرد کمر",
    "Polling_Center_Location": "Zard Kamar",
    "Map_Accuracy": "Building",
    "Map_Accuracy_Dari": "تعمیر",
    "Status": "Open",
    "Status_Dari": null,
    "PS_Male": 3,
    "PS_Female": 2,
    "PS_Total": 5,
    "ولسوالي": "بهارک",
    "Region": "North Eastern Region"
   },
   "geometry": {
    "x": 7725685.395414711,
    "y": 4417382.6703619082
   }
  },
  {
   "attributes": {
    "OBJECTID": 5654,
    "ولایت": "تخار",
    "Province": "TAKHAR",
    "PC_Code": "1805077",
    "District": "CHAL",
    "د_مرکز_نوم__نام_مرکز": "لیسه سید نعمت الله",
    "Polling_Center_Name": "Sayed Nimatullah High School",
    "د_مرکز_ځای__موقعیت_مرکز": "خانقا مرکز چال",
    "Polling_Center_Location": "Khanqa Markaz Chal",
    "Map_Accuracy": "Building",
    "Map_Accuracy_Dari": "تعمیر",
    "Status": "Open",
    "Status_Dari": null,
    "PS_Male": 4,
    "PS_Female": 2,
    "PS_Total": 6,
    "ولسوالي": "چال",
    "Region": "North Eastern Region"
   },
   "geometry": {
    "x": 7742330.7984979469,
    "y": 4373874.8995583262
   }
  },
  {
   "attributes": {
    "OBJECTID": 5655,
    "ولایت": "تخار",
    "Province": "TAKHAR",
    "PC_Code": "1809051",
    "District": "KHWAJA GHAR",
    "د_مرکز_نوم__نام_مرکز": "مکتب ابتدائیه قروق",
    "Polling_Center_Name": "Qarooq Primary School",
    "د_مرکز_ځای__موقعیت_مرکز": "قروق",
    "Polling_Center_Location": "Qarooq",
    "Map_Accuracy": "Building",
    "Map_Accuracy_Dari": "تعمیر",
    "Status": "Open",
    "Status_Dari": null,
    "PS_Male": 4,
    "PS_Female": 2,
    "PS_Total": 6,
    "ولسوالي": "خواجه غار",
    "Region": "North Eastern Region"
   },
   "geometry": {
    "x": 7722671.8365363833,
    "y": 4459158.9824856715
   }
  },
  {
   "attributes": {
    "OBJECTID": 5656,
    "ولایت": "تخار",
    "Province": "TAKHAR",
    "PC_Code": "1810103",
    "District": "RUSTAQ",
    "د_مرکز_نوم__نام_مرکز": "مدیریت معارف رستاق",
    "Polling_Center_Name": "Rostaq Education Department",
    "د_مرکز_ځای__موقعیت_مرکز": "شهرجدید رستاق",
    "Polling_Center_Location": "Shahr Jadid Rostaq",
    "Map_Accuracy": "Building",
    "Map_Accuracy_Dari": "تعمیر",
    "Status": "Open",
    "Status_Dari": null,
    "PS_Male": 4,
    "PS_Female": 2,
    "PS_Total": 6,
    "ولسوالي": "رستاق",
    "Region": "North Eastern Region"
   },
   "geometry": {
    "x": 7769645.8630791437,
    "y": 4458943.6057287417
   }
  },
  {
   "attributes": {
    "OBJECTID": 5657,
    "ولایت": "تخار",
    "Province": "TAKHAR",
    "PC_Code": "1811065",
    "District": "ESHKAMESH",
    "د_مرکز_نوم__نام_مرکز": "مکتب دین محمد شهید",
    "Polling_Center_Name": "Deen Mohammad Shaheed School",
    "د_مرکز_ځای__موقعیت_مرکز": "پنچیري",
    "Polling_Center_Location": "Panchiri",
    "Map_Accuracy": "Building",
    "Map_Accuracy_Dari": "تعمیر",
    "Status": "Open",
    "Status_Dari": null,
    "PS_Male": 2,
    "PS_Female": 2,
    "PS_Total": 4,
    "ولسوالي": "اشکمش",
    "Region": "North Eastern Region"
   },
   "geometry": {
    "x": 7717526.6062573129,
    "y": 4348400.6979258265
   }
  },
  {
   "attributes": {
    "OBJECTID": 5658,
    "ولایت": "تخار",
    "Province": "TAKHAR",
    "PC_Code": "1811192",
    "District": "ESHKAMESH",
    "د_مرکز_نوم__نام_مرکز": "مکتب ابتدائیه آبرو ",
    "Polling_Center_Name": "Aabro Primary School",
    "د_مرکز_ځای__موقعیت_مرکز": "آبرو ",
    "Polling_Center_Location": "Aabro",
    "Map_Accuracy": "Building",
    "Map_Accuracy_Dari": "تعمیر",
    "Status": "Open",
    "Status_Dari": null,
    "PS_Male": 1,
    "PS_Female": 1,
    "PS_Total": 2,
    "ولسوالي": "اشکمش",
    "Region": "North Eastern Region"
   },
   "geometry": {
    "x": 7719671.694996275,
    "y": 4354856.9505854156
   }
  },
  {
   "attributes": {
    "OBJECTID": 5659,
    "ولایت": "تخار",
    "Province": "TAKHAR",
    "PC_Code": "1813177",
    "District": "WARSAJ",
    "د_مرکز_نوم__نام_مرکز": "مسجد سردشت",
    "Polling_Center_Name": "Sardasht Mosque",
    "د_مرکز_ځای__موقعیت_مرکز": "سردشت",
    "Polling_Center_Location": "Sardasht",
    "Map_Accuracy": "Building",
    "Map_Accuracy_Dari": "تعمیر",
    "Status": "Open",
    "Status_Dari": null,
    "PS_Male": 2,
    "PS_Female": 1,
    "PS_Total": 3,
    "ولسوالي": "ورسج",
    "Region": "North Eastern Region"
   },
   "geometry": {
    "x": 7793707.3506015167,
    "y": 4310611.947972632
   }
  },
  {
   "attributes": {
    "OBJECTID": 5660,
    "ولایت": "تخار",
    "Province": "TAKHAR",
    "PC_Code": "1814158",
    "District": "KHWAJA BAHAWUDIN",
    "د_مرکز_نوم__نام_مرکز": "لیسه عبدالشکور شهید",
    "Polling_Center_Name": "Abdul Shakoor Shaheed High School",
    "د_مرکز_ځای__موقعیت_مرکز": "کهنه شاخ",
    "Polling_Center_Location": "Kuhna Shakh",
    "Map_Accuracy": "Building",
    "Map_Accuracy_Dari": "تعمیر",
    "Status": "Open",
    "Status_Dari": null,
    "PS_Male": 2,
    "PS_Female": 1,
    "PS_Total": 3,
    "ولسوالي": "خواجه بهاوالدین",
    "Region": "North Eastern Region"
   },
   "geometry": {
    "x": 7741669.3525551856,
    "y": 4495644.7219251655
   }
  },
  {
   "attributes": {
    "OBJECTID": 5661,
    "ولایت": "تخار",
    "Province": "TAKHAR",
    "PC_Code": "1815167",
    "District": "DARQAD",
    "د_مرکز_نوم__نام_مرکز": "مکتب متوسطۀ دروازه پته",
    "Polling_Center_Name": "Darwaza Pata Secondary School",
    "د_مرکز_ځای__موقعیت_مرکز": "دروازه پته",
    "Polling_Center_Location": "Darwaza Pata",
    "Map_Accuracy": "Building",
    "Map_Accuracy_Dari": "تعمیر",
    "Status": "Open",
    "Status_Dari": null,
    "PS_Male": 1,
    "PS_Female": 1,
    "PS_Total": 2,
    "ولسوالي": "درقد",
    "Region": "North Eastern Region"
   },
   "geometry": {
    "x": 7735679.5424126694,
    "y": 4490121.4962201118
   }
  },
  {
   "attributes": {
    "OBJECTID": 5662,
    "ولایت": "تخار",
    "Province": "TAKHAR",
    "PC_Code": "1816142",
    "District": "CHAH AB",
    "د_مرکز_نوم__نام_مرکز": "مکتب متوسطۀ انجیر",
    "Polling_Center_Name": "Anjeer Secondary School",
    "د_مرکز_ځای__موقعیت_مرکز": "انجیر",
    "Polling_Center_Location": "Anjeer",
    "Map_Accuracy": "Building",
    "Map_Accuracy_Dari": "تعمیر",
    "Status": "Open",
    "Status_Dari": null,
    "PS_Male": 2,
    "PS_Female": 2,
    "PS_Total": 4,
    "ولسوالي": "چا آب",
    "Region": "North Eastern Region"
   },
   "geometry": {
    "x": 7780792.0209782738,
    "y": 4506373.8090284234
   }
  },
  {
   "attributes": {
    "OBJECTID": 5663,
    "ولایت": "تخار",
    "Province": "TAKHAR",
    "PC_Code": "1817151",
    "District": "YANGI QALA",
    "د_مرکز_نوم__نام_مرکز": "مکتب رحیم آباد",
    "Polling_Center_Name": "Raheem Abad School",
    "د_مرکز_ځای__موقعیت_مرکز": "رحیم آباد",
    "Polling_Center_Location": "Raheem Abad",
    "Map_Accuracy": "Building",
    "Map_Accuracy_Dari": "تعمیر",
    "Status": "Open",
    "Status_Dari": null,
    "PS_Male": 2,
    "PS_Female": 2,
    "PS_Total": 4,
    "ولسوالي": "ینگی قلعه",
    "Region": "North Eastern Region"
   },
   "geometry": {
    "x": 7752113.1557118855,
    "y": 4505134.0017484631
   }
  },
  {
   "attributes": {
    "OBJECTID": 5664,
    "ولایت": "کندز",
    "Province": "KUNDUZ",
    "PC_Code": "1901009",
    "District": "KUNDUZ",
    "د_مرکز_نوم__نام_مرکز": "شفاخانه سپین زر",
    "Polling_Center_Name": "Speen Zar Hospital",
    "د_مرکز_ځای__موقعیت_مرکز": "ناحیه دوم",
    "Polling_Center_Location": "D02 - Nahia 2",
    "Map_Accuracy": "Building",
    "Map_Accuracy_Dari": "تعمیر",
    "Status": "Open",
    "Status_Dari": null,
    "PS_Male": 3,
    "PS_Female": 3,
    "PS_Total": 6,
    "ولسوالي": "کندز",
    "Region": "North Eastern Region"
   },
   "geometry": {
    "x": 7665709.6586634349,
    "y": 4399824.0438043848
   }
  },
  {
   "attributes": {
    "OBJECTID": 5665,
    "ولایت": "کندز",
    "Province": "KUNDUZ",
    "PC_Code": "1901019",
    "District": "KUNDUZ",
    "د_مرکز_نوم__نام_مرکز": "ریاست مهاجرین وعودت کنند گان",
    "Polling_Center_Name": "Immigrants & Returnees Department",
    "د_مرکز_ځای__موقعیت_مرکز": "ناحیه سوم",
    "Polling_Center_Location": "D03 - Nahia 3",
    "Map_Accuracy": "Building",
    "Map_Accuracy_Dari": "تعمیر",
    "Status": "Open",
    "Status_Dari": null,
    "PS_Male": 3,
    "PS_Female": 2,
    "PS_Total": 5,
    "ولسوالي": "کندز",
    "Region": "North Eastern Region"
   },
   "geometry": {
    "x": 7666767.4966149861,
    "y": 4402398.7562349215
   }
  },
  {
   "attributes": {
    "OBJECTID": 5666,
    "ولایت": "کندز",
    "Province": "KUNDUZ",
    "PC_Code": "1901031",
    "District": "KUNDUZ",
    "د_مرکز_نوم__نام_مرکز": "مکتب نسوان تلوکه",
    "Polling_Center_Name": "Taloka Girls School",
    "د_مرکز_ځای__موقعیت_مرکز": "تلوکه",
    "Polling_Center_Location": "Taloka",
    "Map_Accuracy": "Building",
    "Map_Accuracy_Dari": "تعمیر",
    "Status": "Open",
    "Status_Dari": null,
    "PS_Male": 3,
    "PS_Female": 2,
    "PS_Total": 5,
    "ولسوالي": "کندز",
    "Region": "North Eastern Region"
   },
   "geometry": {
    "x": 7659896.4702514028,
    "y": 4411385.2406946328
   }
  },
  {
   "attributes": {
    "OBJECTID": 5667,
    "ولایت": "کندز",
    "Province": "KUNDUZ",
    "PC_Code": "1901042",
    "District": "KUNDUZ",
    "د_مرکز_نوم__نام_مرکز": "مکتب متوسطه شینواری",
    "Polling_Center_Name": "Shinwari Secondary School",
    "د_مرکز_ځای__موقعیت_مرکز": "قریه شینواری",
    "Polling_Center_Location": "Shinwari Village",
    "Map_Accuracy": "Building",
    "Map_Accuracy_Dari": "تعمیر",
    "Status": "Open",
    "Status_Dari": null,
    "PS_Male": 2,
    "PS_Female": 1,
    "PS_Total": 3,
    "ولسوالي": "کندز",
    "Region": "North Eastern Region"
   },
   "geometry": {
    "x": 7654711.6692329422,
    "y": 4408328.0826879684
   }
  },
  {
   "attributes": {
    "OBJECTID": 5668,
    "ولایت": "کندز",
    "Province": "KUNDUZ",
    "PC_Code": "1901053",
    "District": "KUNDUZ",
    "د_مرکز_نوم__نام_مرکز": "مکتب ارباب محمدعلی",
    "Polling_Center_Name": "Arbab Mohammad Ali School",
    "د_مرکز_ځای__موقعیت_مرکز": "قریه الوشاه",
    "Polling_Center_Location": "Alu Shah Village",
    "Map_Accuracy": "Building",
    "Map_Accuracy_Dari": "تعمیر",
    "Status": "Open",
    "Status_Dari": null,
    "PS_Male": 2,
    "PS_Female": 2,
    "PS_Total": 4,
    "ولسوالي": "کندز",
    "Region": "North Eastern Region"
   },
   "geometry": {
    "x": 7664500.6922579929,
    "y": 4413947.6399828903
   }
  },
  {
   "attributes": {
    "OBJECTID": 5669,
    "ولایت": "کندز",
    "Province": "KUNDUZ",
    "PC_Code": "1903136",
    "District": "ALI ABAD",
    "د_مرکز_نوم__نام_مرکز": "مکتب متوسطه نسوان حاجی حسین",
    "Polling_Center_Name": "Haji Hussain Girls Secondary School",
    "د_مرکز_ځای__موقعیت_مرکز": "حاجی حسین",
    "Polling_Center_Location": "Haji Hussain",
    "Map_Accuracy": "Building",
    "Map_Accuracy_Dari": "تعمیر",
    "Status": "Open",
    "Status_Dari": null,
    "PS_Male": 3,
    "PS_Female": 2,
    "PS_Total": 5,
    "ولسوالي": "علی آباد",
    "Region": "North Eastern Region"
   },
   "geometry": {
    "x": 7669942.7080918737,
    "y": 4375234.0754344147
   }
  },
  {
   "attributes": {
    "OBJECTID": 5670,
    "ولایت": "کندز",
    "Province": "KUNDUZ",
    "PC_Code": "1904144",
    "District": "KHAN ABAD",
    "د_مرکز_نوم__نام_مرکز": "لیسه حاجی یوسف بوهین",
    "Polling_Center_Name": "Haji Yusuf Bohin High School",
    "د_مرکز_ځای__موقعیت_مرکز": "قریه بوهین سفلا",
    "Polling_Center_Location": "Boheen Sufla",
    "Map_Accuracy": "Building",
    "Map_Accuracy_Dari": "تعمیر",
    "Status": "Open",
    "Status_Dari": null,
    "PS_Male": 2,
    "PS_Female": 1,
    "PS_Total": 3,
    "ولسوالي": "خان آباد",
    "Region": "North Eastern Region"
   },
   "geometry": {
    "x": 7685027.0623709867,
    "y": 4400441.3414736651
   }
  },
  {
   "attributes": {
    "OBJECTID": 5671,
    "ولایت": "کندز",
    "Province": "KUNDUZ",
    "PC_Code": "1905059",
    "District": "HAZRAT-E-IMAM SAHIB",
    "د_مرکز_نوم__نام_مرکز": "مکتب مجر",
    "Polling_Center_Name": "Majar School",
    "د_مرکز_ځای__موقعیت_مرکز": "قریه مجر",
    "Polling_Center_Location": "Majar Village",
    "Map_Accuracy": "Building",
    "Map_Accuracy_Dari": "تعمیر",
    "Status": "Open",
    "Status_Dari": null,
    "PS_Male": 3,
    "PS_Female": 2,
    "PS_Total": 5,
    "ولسوالي": "حضرت امام صاحب",
    "Region": "North Eastern Region"
   },
   "geometry": {
    "x": 7666814.6137026595,
    "y": 4458379.033802053
   }
  },
  {
   "attributes": {
    "OBJECTID": 5672,
    "ولایت": "کندز",
    "Province": "KUNDUZ",
    "PC_Code": "1905080",
    "District": "HAZRAT-E-IMAM SAHIB",
    "د_مرکز_نوم__نام_مرکز": "مکتب تاش گذر",
    "Polling_Center_Name": "Tash Guzar School",
    "د_مرکز_ځای__موقعیت_مرکز": "قریه تاش گذر",
    "Polling_Center_Location": "Tash Guzar Village",
    "Map_Accuracy": "Village",
    "Map_Accuracy_Dari": "قریه",
    "Status": "Open",
    "Status_Dari": null,
    "PS_Male": 1,
    "PS_Female": 1,
    "PS_Total": 2,
    "ولسوالي": "حضرت امام صاحب",
    "Region": "North Eastern Region"
   },
   "geometry": {
    "x": 7696632.8050142527,
    "y": 4452077.1626278907
   }
  },
  {
   "attributes": {
    "OBJECTID": 5673,
    "ولایت": "کندز",
    "Province": "KUNDUZ",
    "PC_Code": "1905081",
    "District": "HAZRAT-E-IMAM SAHIB",
    "د_مرکز_نوم__نام_مرکز": "مکتب غرو",
    "Polling_Center_Name": "Gharo School",
    "د_مرکز_ځای__موقعیت_مرکز": "قریه غرو",
    "Polling_Center_Location": "Gharo Village",
    "Map_Accuracy": "Building",
    "Map_Accuracy_Dari": "تعمیر",
    "Status": "Open",
    "Status_Dari": null,
    "PS_Male": 2,
    "PS_Female": 2,
    "PS_Total": 4,
    "ولسوالي": "حضرت امام صاحب",
    "Region": "North Eastern Region"
   },
   "geometry": {
    "x": 7694231.5322783524,
    "y": 4454292.8413708229
   }
  },
  {
   "attributes": {
    "OBJECTID": 5674,
    "ولایت": "کندز",
    "Province": "KUNDUZ",
    "PC_Code": "1905088",
    "District": "HAZRAT-E-IMAM SAHIB",
    "د_مرکز_نوم__نام_مرکز": "مکتب قنجوغه",
    "Polling_Center_Name": "Qanjogha School",
    "د_مرکز_ځای__موقعیت_مرکز": "قنجوغه",
    "Polling_Center_Location": "Qanjogha ",
    "Map_Accuracy": "Building",
    "Map_Accuracy_Dari": "تعمیر",
    "Status": "Open",
    "Status_Dari": null,
    "PS_Male": 3,
    "PS_Female": 1,
    "PS_Total": 4,
    "ولسوالي": "حضرت امام صاحب",
    "Region": "North Eastern Region"
   },
   "geometry": {
    "x": 7665283.0333941402,
    "y": 4466273.5612108661
   }
  },
  {
   "attributes": {
    "OBJECTID": 5675,
    "ولایت": "کندز",
    "Province": "KUNDUZ",
    "PC_Code": "1906183",
    "District": "DASHT-E-ARCHI",
    "د_مرکز_نوم__نام_مرکز": "مکتب متوسطه دوران کلی",
    "Polling_Center_Name": "Dawran Kalay Secondary School",
    "د_مرکز_ځای__موقعیت_مرکز": "قریه دوران کلی",
    "Polling_Center_Location": "Dawran Kalay Village",
    "Map_Accuracy": "Building",
    "Map_Accuracy_Dari": "تعمیر",
    "Status": "Open",
    "Status_Dari": null,
    "PS_Male": 2,
    "PS_Female": 1,
    "PS_Total": 3,
    "ولسوالي": "دشت ارچی",
    "Region": "North Eastern Region"
   },
   "geometry": {
    "x": 7698623.0271908129,
    "y": 4444544.3825610252
   }
  },
  {
   "attributes": {
    "OBJECTID": 5676,
    "ولایت": "کندز",
    "Province": "KUNDUZ",
    "PC_Code": "1907103",
    "District": "QALA-E-ZAL",
    "د_مرکز_نوم__نام_مرکز": "لیسه تربوز گذر",
    "Polling_Center_Name": "Tarbooz Guzar High School",
    "د_مرکز_ځای__موقعیت_مرکز": "تربوز گذر",
    "Polling_Center_Location": "Tarbooz Guzar",
    "Map_Accuracy": "Building",
    "Map_Accuracy_Dari": "تعمیر",
    "Status": "Open",
    "Status_Dari": null,
    "PS_Male": 3,
    "PS_Female": 1,
    "PS_Total": 4,
    "ولسوالي": "قلعه ذال",
    "Region": "North Eastern Region"
   },
   "geometry": {
    "x": 7628028.584325294,
    "y": 4433650.5787205733
   }
  },
  {
   "attributes": {
    "OBJECTID": 5677,
    "ولایت": "کندز",
    "Province": "KUNDUZ",
    "PC_Code": "1907205",
    "District": "QALA-E-ZAL",
    "د_مرکز_نوم__نام_مرکز": "مکتب سه کپرک",
    "Polling_Center_Name": "Se Kaparak School",
    "د_مرکز_ځای__موقعیت_مرکز": "سه کپرک",
    "Polling_Center_Location": "Se Kaparak",
    "Map_Accuracy": "Building",
    "Map_Accuracy_Dari": "تعمیر",
    "Status": "Open",
    "Status_Dari": null,
    "PS_Male": 1,
    "PS_Female": 1,
    "PS_Total": 2,
    "ولسوالي": "قلعه ذال",
    "Region": "North Eastern Region"
   },
   "geometry": {
    "x": 7623170.3557309983,
    "y": 4436579.3285684092
   }
  },
  {
   "attributes": {
    "OBJECTID": 5678,
    "ولایت": "سمنگان",
    "Province": "SAMANGAN",
    "PC_Code": "2001009",
    "District": "AYBAK",
    "د_مرکز_نوم__نام_مرکز": "مکتب متوسطه سرقد",
    "Polling_Center_Name": "Sarqad Secondary School",
    "د_مرکز_ځای__موقعیت_مرکز": "شهر ایبک",
    "Polling_Center_Location": "Aibak City",
    "Map_Accuracy": "Building",
    "Map_Accuracy_Dari": "تعمیر",
    "Status": "Open",
    "Status_Dari": null,
    "PS_Male": 4,
    "PS_Female": 2,
    "PS_Total": 6,
    "ولسوالي": "ایبک",
    "Region": "Northern Region"
   },
   "geometry": {
    "x": 7571212.7236778503,
    "y": 4337018.7193415612
   }
  },
  {
   "attributes": {
    "OBJECTID": 5679,
    "ولایت": "سمنگان",
    "Province": "SAMANGAN",
    "PC_Code": "2005094",
    "District": "ROI-DO-AB",
    "د_مرکز_نوم__نام_مرکز": "مدرسه مسجد جامع ",
    "Polling_Center_Name": "Jaame Mosque Madrassa",
    "د_مرکز_ځای__موقعیت_مرکز": "قریه پایتنگی",
    "Polling_Center_Location": "Paytangi Village",
    "Map_Accuracy": "Building",
    "Map_Accuracy_Dari": "تعمیر",
    "Status": "Open",
    "Status_Dari": null,
    "PS_Male": 2,
    "PS_Female": 1,
    "PS_Total": 3,
    "ولسوالي": "روی دوآب",
    "Region": "Northern Region"
   },
   "geometry": {
    "x": 7555839.1858519474,
    "y": 4238360.8459610017
   }
  },
  {
   "attributes": {
    "OBJECTID": 5680,
    "ولایت": "بلخ",
    "Province": "BALKH",
    "PC_Code": "2101022",
    "District": "MAZAR-E-SHARIF",
    "د_مرکز_نوم__نام_مرکز": "نسوان یلمرب",
    "Polling_Center_Name": "Yolmarab Girls School",
    "د_مرکز_ځای__موقعیت_مرکز": "ناحیه 5",
    "Polling_Center_Location": "D05 - Nahia 5",
    "Map_Accuracy": "Building",
    "Map_Accuracy_Dari": "تعمیر",
    "Status": "Open",
    "Status_Dari": null,
    "PS_Male": 4,
    "PS_Female": 5,
    "PS_Total": 9,
    "ولسوالي": "مزار شریف",
    "Region": "Northern Region"
   },
   "geometry": {
    "x": 7468615.080479186,
    "y": 4394923.3447497673
   }
  },
  {
   "attributes": {
    "OBJECTID": 5681,
    "ولایت": "بلخ",
    "Province": "BALKH",
    "PC_Code": "2103051",
    "District": "DEHDADI",
    "د_مرکز_نوم__نام_مرکز": "مکتب شیخ ثمر الدین شهاب",
    "Polling_Center_Name": "Shaikh Samaruddin Shahab School",
    "د_مرکز_ځای__موقعیت_مرکز": "دهدادی شیرآباد",
    "Polling_Center_Location": "Dehdadi Sher Abad",
    "Map_Accuracy": "Building",
    "Map_Accuracy_Dari": "تعمیر",
    "Status": "Open",
    "Status_Dari": null,
    "PS_Male": 1,
    "PS_Female": 1,
    "PS_Total": 2,
    "ولسوالي": "دهدادی ",
    "Region": "Northern Region"
   },
   "geometry": {
    "x": 7461577.8786061332,
    "y": 4396043.4866373846
   }
  },
  {
   "attributes": {
    "OBJECTID": 5682,
    "ولایت": "بلخ",
    "Province": "BALKH",
    "PC_Code": "2103061",
    "District": "DEHDADI",
    "د_مرکز_نوم__نام_مرکز": "لیسه نسوان قلعه جنگی ",
    "Polling_Center_Name": "Qala Jangi Girls High School",
    "د_مرکز_ځای__موقعیت_مرکز": "قریه قلعه جنگی",
    "Polling_Center_Location": "Qala Jangi Village",
    "Map_Accuracy": "Building",
    "Map_Accuracy_Dari": "تعمیر",
    "Status": "Open",
    "Status_Dari": null,
    "PS_Male": 2,
    "PS_Female": 1,
    "PS_Total": 3,
    "ولسوالي": "دهدادی ",
    "Region": "Northern Region"
   },
   "geometry": {
    "x": 7457075.728780237,
    "y": 4391532.6237204522
   }
  },
  {
   "attributes": {
    "OBJECTID": 5683,
    "ولایت": "بلخ",
    "Province": "BALKH",
    "PC_Code": "2104284",
    "District": "CHAR KENT",
    "د_مرکز_نوم__نام_مرکز": "مکتب میر حاجی",
    "Polling_Center_Name": "Mir Haji School",
    "د_مرکز_ځای__موقعیت_مرکز": "قریه قلیم قاق میرحاجی",
    "Polling_Center_Location": "Qaleem Qaaq Mir Haji Village",
    "Map_Accuracy": "Building",
    "Map_Accuracy_Dari": "تعمیر",
    "Status": "Open",
    "Status_Dari": null,
    "PS_Male": 2,
    "PS_Female": 1,
    "PS_Total": 3,
    "ولسوالي": "چارکنت",
    "Region": "Northern Region"
   },
   "geometry": {
    "x": 7497120.2071899045,
    "y": 4336616.0200177915
   }
  },
  {
   "attributes": {
    "OBJECTID": 5684,
    "ولایت": "بلخ",
    "Province": "BALKH",
    "PC_Code": "2104285",
    "District": "CHAR KENT",
    "د_مرکز_نوم__نام_مرکز": "مکتب سفید چشمه",
    "Polling_Center_Name": "Safid Chashma School",
    "د_مرکز_ځای__موقعیت_مرکز": "قریه سفید چشمه",
    "Polling_Center_Location": "Safid Chashma Village",
    "Map_Accuracy": "Building",
    "Map_Accuracy_Dari": "تعمیر",
    "Status": "Open",
    "Status_Dari": null,
    "PS_Male": 2,
    "PS_Female": 1,
    "PS_Total": 3,
    "ولسوالي": "چارکنت",
    "Region": "Northern Region"
   },
   "geometry": {
    "x": 7480661.1952356678,
    "y": 4361952.4297945909
   }
  },
  {
   "attributes": {
    "OBJECTID": 5685,
    "ولایت": "بلخ",
    "Province": "BALKH",
    "PC_Code": "2106148",
    "District": "BALKH",
    "د_مرکز_نوم__نام_مرکز": "کلینیک حیوانات",
    "Polling_Center_Name": "Veterinary Clinic",
    "د_مرکز_ځای__موقعیت_مرکز": "مرکز ولسوالی",
    "Polling_Center_Location": "District Compound",
    "Map_Accuracy": "Building",
    "Map_Accuracy_Dari": "تعمیر",
    "Status": "Open",
    "Status_Dari": null,
    "PS_Male": 2,
    "PS_Female": 1,
    "PS_Total": 3,
    "ولسوالي": "بلخ",
    "Region": "Northern Region"
   },
   "geometry": {
    "x": 7445985.6714516869,
    "y": 4405580.7803421356
   }
  },
  {
   "attributes": {
    "OBJECTID": 5686,
    "ولایت": "بلخ",
    "Province": "BALKH",
    "PC_Code": "2106161",
    "District": "BALKH",
    "د_مرکز_نوم__نام_مرکز": "مکتب بر مزیت",
    "Polling_Center_Name": "Bar Mazet School",
    "د_مرکز_ځای__موقعیت_مرکز": "قریه برمزیت",
    "Polling_Center_Location": "Bar Mazet Village",
    "Map_Accuracy": "Building",
    "Map_Accuracy_Dari": "تعمیر",
    "Status": "Open",
    "Status_Dari": null,
    "PS_Male": 2,
    "PS_Female": 2,
    "PS_Total": 4,
    "ولسوالي": "بلخ",
    "Region": "Northern Region"
   },
   "geometry": {
    "x": 7456368.6485254196,
    "y": 4424680.2233003406
   }
  },
  {
   "attributes": {
    "OBJECTID": 5687,
    "ولایت": "بلخ",
    "Province": "BALKH",
    "PC_Code": "2106172",
    "District": "BALKH",
    "د_مرکز_نوم__نام_مرکز": "مکتب ارغون",
    "Polling_Center_Name": "Arghoon School",
    "د_مرکز_ځای__موقعیت_مرکز": "قریه ارغون",
    "Polling_Center_Location": "Arghoon Village",
    "Map_Accuracy": "Building",
    "Map_Accuracy_Dari": "تعمیر",
    "Status": "Open",
    "Status_Dari": null,
    "PS_Male": 1,
    "PS_Female": 1,
    "PS_Total": 2,
    "ولسوالي": "بلخ",
    "Region": "Northern Region"
   },
   "geometry": {
    "x": 7454963.8221550891,
    "y": 4411288.4805517327
   }
  },
  {
   "attributes": {
    "OBJECTID": 5688,
    "ولایت": "بلخ",
    "Province": "BALKH",
    "PC_Code": "2107243",
    "District": "SHOLGARA",
    "د_مرکز_نوم__نام_مرکز": "مکتب قاق لوسای",
    "Polling_Center_Name": "Qaq Losai School",
    "د_مرکز_ځای__موقعیت_مرکز": "قریه قاق لوسای",
    "Polling_Center_Location": "Qaq Losai Village",
    "Map_Accuracy": "Building",
    "Map_Accuracy_Dari": "تعمیر",
    "Status": "Open",
    "Status_Dari": null,
    "PS_Male": 1,
    "PS_Female": 1,
    "PS_Total": 2,
    "ولسوالي": "شولگره",
    "Region": "Northern Region"
   },
   "geometry": {
    "x": 7462623.0049850326,
    "y": 4345763.9850950837
   }
  },
  {
   "attributes": {
    "OBJECTID": 5689,
    "ولایت": "بلخ",
    "Province": "BALKH",
    "PC_Code": "2107255",
    "District": "SHOLGARA",
    "د_مرکز_نوم__نام_مرکز": "مکتب رحمت آباد",
    "Polling_Center_Name": "Rahmat Abad School",
    "د_مرکز_ځای__موقعیت_مرکز": "قریه رحمت آباد",
    "Polling_Center_Location": "Rahmat Abad Village",
    "Map_Accuracy": "Building",
    "Map_Accuracy_Dari": "تعمیر",
    "Status": "Open",
    "Status_Dari": null,
    "PS_Male": 1,
    "PS_Female": 1,
    "PS_Total": 2,
    "ولسوالي": "شولگره",
    "Region": "Northern Region"
   },
   "geometry": {
    "x": 7457019.5502860146,
    "y": 4361857.2603897611
   }
  },
  {
   "attributes": {
    "OBJECTID": 5690,
    "ولایت": "بلخ",
    "Province": "BALKH",
    "PC_Code": "2107268",
    "District": "SHOLGARA",
    "د_مرکز_نوم__نام_مرکز": "مکتب جنیتو",
    "Polling_Center_Name": "Janyato School",
    "د_مرکز_ځای__موقعیت_مرکز": "قریه جنیتو",
    "Polling_Center_Location": "Janyato Village",
    "Map_Accuracy": "Building",
    "Map_Accuracy_Dari": "تعمیر",
    "Status": "Open",
    "Status_Dari": null,
    "PS_Male": 1,
    "PS_Female": 1,
    "PS_Total": 2,
    "ولسوالي": "شولگره",
    "Region": "Northern Region"
   },
   "geometry": {
    "x": 7426489.4757288601,
    "y": 4318084.6561122388
   }
  },
  {
   "attributes": {
    "OBJECTID": 5691,
    "ولایت": "بلخ",
    "Province": "BALKH",
    "PC_Code": "2107269",
    "District": "SHOLGARA",
    "د_مرکز_نوم__نام_مرکز": "مکتب تاجک",
    "Polling_Center_Name": "Tajik School",
    "د_مرکز_ځای__موقعیت_مرکز": "قریه تاجک",
    "Polling_Center_Location": "Tajik Village",
    "Map_Accuracy": "Building",
    "Map_Accuracy_Dari": "تعمیر",
    "Status": "Open",
    "Status_Dari": null,
    "PS_Male": 1,
    "PS_Female": 1,
    "PS_Total": 2,
    "ولسوالي": "شولگره",
    "Region": "Northern Region"
   },
   "geometry": {
    "x": 7448501.0388732832,
    "y": 4343277.2681102641
   }
  },
  {
   "attributes": {
    "OBJECTID": 5692,
    "ولایت": "بلخ",
    "Province": "BALKH",
    "PC_Code": "2108227",
    "District": "CHIMTAL",
    "د_مرکز_نوم__نام_مرکز": "کلینیک چقناق",
    "Polling_Center_Name": "Chaqnaq Clinic",
    "د_مرکز_ځای__موقعیت_مرکز": "قریه چقناق",
    "Polling_Center_Location": "Chaqnaq Village",
    "Map_Accuracy": "Building",
    "Map_Accuracy_Dari": "تعمیر",
    "Status": "Open",
    "Status_Dari": null,
    "PS_Male": 5,
    "PS_Female": 3,
    "PS_Total": 8,
    "ولسوالي": "چمتال",
    "Region": "Northern Region"
   },
   "geometry": {
    "x": 7407801.6634464972,
    "y": 4368650.5144388489
   }
  },
  {
   "attributes": {
    "OBJECTID": 5693,
    "ولایت": "بلخ",
    "Province": "BALKH",
    "PC_Code": "2108228",
    "District": "CHIMTAL",
    "د_مرکز_نوم__نام_مرکز": "مسجد مچلدی",
    "Polling_Center_Name": "Machaldi Mosque",
    "د_مرکز_ځای__موقعیت_مرکز": "قریه مچلدی",
    "Polling_Center_Location": "Machaldi Village",
    "Map_Accuracy": "Building",
    "Map_Accuracy_Dari": "تعمیر",
    "Status": "Open",
    "Status_Dari": null,
    "PS_Male": 3,
    "PS_Female": 2,
    "PS_Total": 5,
    "ولسوالي": "چمتال",
    "Region": "Northern Region"
   },
   "geometry": {
    "x": 7403531.7238520076,
    "y": 4350605.981706921
   }
  },
  {
   "attributes": {
    "OBJECTID": 5694,
    "ولایت": "بلخ",
    "Province": "BALKH",
    "PC_Code": "2108229",
    "District": "CHIMTAL",
    "د_مرکز_نوم__نام_مرکز": "مسجد جنگل",
    "Polling_Center_Name": "Jangal Mosque",
    "د_مرکز_ځای__موقعیت_مرکز": "قریه جنگل",
    "Polling_Center_Location": "Jangal Village",
    "Map_Accuracy": "Village",
    "Map_Accuracy_Dari": "قریه",
    "Status": "Open",
    "Status_Dari": null,
    "PS_Male": 2,
    "PS_Female": 1,
    "PS_Total": 3,
    "ولسوالي": "چمتال",
    "Region": "Northern Region"
   },
   "geometry": {
    "x": 7432294.3058282519,
    "y": 4397271.1562297391
   }
  },
  {
   "attributes": {
    "OBJECTID": 5695,
    "ولایت": "بلخ",
    "Province": "BALKH",
    "PC_Code": "2109128",
    "District": "DAWLAT ABAD",
    "د_مرکز_نوم__نام_مرکز": "مکتب متوسطه مراد بخش ولی ",
    "Polling_Center_Name": "Murad Bakhsh Wali Secondary School",
    "د_مرکز_ځای__موقعیت_مرکز": "قریه غشی ( ده دراز)",
    "Polling_Center_Location": "Ghashi (Deh Daraz) Village",
    "Map_Accuracy": "Building",
    "Map_Accuracy_Dari": "تعمیر",
    "Status": "Open",
    "Status_Dari": null,
    "PS_Male": 2,
    "PS_Female": 1,
    "PS_Total": 3,
    "ولسوالي": "دولت آباد",
    "Region": "Northern Region"
   },
   "geometry": {
    "x": 7422667.5732624363,
    "y": 4429581.0886203554
   }
  },
  {
   "attributes": {
    "OBJECTID": 5696,
    "ولایت": "بلخ",
    "Province": "BALKH",
    "PC_Code": "2109138",
    "District": "DAWLAT ABAD",
    "د_مرکز_نوم__نام_مرکز": "مکتب خیر آباد",
    "Polling_Center_Name": "Khair Abad School",
    "د_مرکز_ځای__موقعیت_مرکز": "قریه خیر ا باد",
    "Polling_Center_Location": "Khair Abad Village",
    "Map_Accuracy": "Building",
    "Map_Accuracy_Dari": "تعمیر",
    "Status": "Open",
    "Status_Dari": null,
    "PS_Male": 1,
    "PS_Female": 1,
    "PS_Total": 2,
    "ولسوالي": "دولت آباد",
    "Region": "Northern Region"
   },
   "geometry": {
    "x": 7465141.450390555,
    "y": 4435515.1336537935
   }
  },
  {
   "attributes": {
    "OBJECTID": 5697,
    "ولایت": "بلخ",
    "Province": "BALKH",
    "PC_Code": "2110078",
    "District": "KHULM",
    "د_مرکز_نوم__نام_مرکز": "مکتب ذکور خواجه برهان",
    "Polling_Center_Name": "Khwaja Burhan Boys School",
    "د_مرکز_ځای__موقعیت_مرکز": "قریه سرهنگ",
    "Polling_Center_Location": "Sarhang Village",
    "Map_Accuracy": "Building",
    "Map_Accuracy_Dari": "تعمیر",
    "Status": "Open",
    "Status_Dari": null,
    "PS_Male": 2,
    "PS_Female": 1,
    "PS_Total": 3,
    "ولسوالي": "خلم",
    "Region": "Northern Region"
   },
   "geometry": {
    "x": 7539346.4952989602,
    "y": 4397981.2833438804
   }
  },
  {
   "attributes": {
    "OBJECTID": 5698,
    "ولایت": "بلخ",
    "Province": "BALKH",
    "PC_Code": "2110088",
    "District": "KHULM",
    "د_مرکز_نوم__نام_مرکز": "مکتب تنگی",
    "Polling_Center_Name": "Tangi School",
    "د_مرکز_ځای__موقعیت_مرکز": "قریه حاجی کریم",
    "Polling_Center_Location": "Haji karim Village",
    "Map_Accuracy": "Building",
    "Map_Accuracy_Dari": "تعمیر",
    "Status": "Open",
    "Status_Dari": null,
    "PS_Male": 2,
    "PS_Female": 1,
    "PS_Total": 3,
    "ولسوالي": "خلم",
    "Region": "Northern Region"
   },
   "geometry": {
    "x": 7536057.6177164149,
    "y": 4394123.7884521177
   }
  },
  {
   "attributes": {
    "OBJECTID": 5699,
    "ولایت": "بلخ",
    "Province": "BALKH",
    "PC_Code": "2110089",
    "District": "KHULM",
    "د_مرکز_نوم__نام_مرکز": "مکتب ذکور صیاد ",
    "Polling_Center_Name": "Siyad Boys School",
    "د_مرکز_ځای__موقعیت_مرکز": "قریه صیاد",
    "Polling_Center_Location": "Siyad Village",
    "Map_Accuracy": "Building",
    "Map_Accuracy_Dari": "تعمیر",
    "Status": "Open",
    "Status_Dari": null,
    "PS_Male": 2,
    "PS_Female": 1,
    "PS_Total": 3,
    "ولسوالي": "خلم",
    "Region": "Northern Region"
   },
   "geometry": {
    "x": 7543900.7348541906,
    "y": 4382082.1788878022
   }
  },
  {
   "attributes": {
    "OBJECTID": 5700,
    "ولایت": "بلخ",
    "Province": "BALKH",
    "PC_Code": "2110090",
    "District": "KHULM",
    "د_مرکز_نوم__نام_مرکز": "مکتب متوسطه اولجتو ",
    "Polling_Center_Name": "Oljato Secondary School",
    "د_مرکز_ځای__موقعیت_مرکز": "قریه اولجتو",
    "Polling_Center_Location": "Oljato Village",
    "Map_Accuracy": "Building",
    "Map_Accuracy_Dari": "تعمیر",
    "Status": "Open",
    "Status_Dari": null,
    "PS_Male": 2,
    "PS_Female": 1,
    "PS_Total": 3,
    "ولسوالي": "خلم",
    "Region": "Northern Region"
   },
   "geometry": {
    "x": 7528030.5239694044,
    "y": 4400049.2566841282
   }
  },
  {
   "attributes": {
    "OBJECTID": 5701,
    "ولایت": "بلخ",
    "Province": "BALKH",
    "PC_Code": "2111179",
    "District": "CHAR BOLAK",
    "د_مرکز_نوم__نام_مرکز": "مکتب علی آباد",
    "Polling_Center_Name": "Ali Abad School",
    "د_مرکز_ځای__موقعیت_مرکز": "قریه علی آباد",
    "Polling_Center_Location": "Ali Abad Village",
    "Map_Accuracy": "Building",
    "Map_Accuracy_Dari": "تعمیر",
    "Status": "Open",
    "Status_Dari": null,
    "PS_Male": 2,
    "PS_Female": 1,
    "PS_Total": 3,
    "ولسوالي": "چار بولک",
    "Region": "Northern Region"
   },
   "geometry": {
    "x": 7431368.9247124027,
    "y": 4401231.2960616564
   }
  },
  {
   "attributes": {
    "OBJECTID": 5702,
    "ولایت": "بلخ",
    "Province": "BALKH",
    "PC_Code": "2111189",
    "District": "CHAR BOLAK",
    "د_مرکز_نوم__نام_مرکز": "مکتب دهنو",
    "Polling_Center_Name": "Dahno School",
    "د_مرکز_ځای__موقعیت_مرکز": "قریه دهنو",
    "Polling_Center_Location": "Dahno Village",
    "Map_Accuracy": "Building",
    "Map_Accuracy_Dari": "تعمیر",
    "Status": "Open",
    "Status_Dari": null,
    "PS_Male": 1,
    "PS_Female": 1,
    "PS_Total": 2,
    "ولسوالي": "چار بولک",
    "Region": "Northern Region"
   },
   "geometry": {
    "x": 7408875.3132185228,
    "y": 4432383.9151847726
   }
  },
  {
   "attributes": {
    "OBJECTID": 5703,
    "ولایت": "بلخ",
    "Province": "BALKH",
    "PC_Code": "2111200",
    "District": "CHAR BOLAK",
    "د_مرکز_نوم__نام_مرکز": "مکتب رحمت آباد",
    "Polling_Center_Name": "Rahmat Abad School",
    "د_مرکز_ځای__موقعیت_مرکز": "قریه رحمت آباد",
    "Polling_Center_Location": "Rahmat Abad Village",
    "Map_Accuracy": "Building",
    "Map_Accuracy_Dari": "تعمیر",
    "Status": "Open",
    "Status_Dari": null,
    "PS_Male": 2,
    "PS_Female": 1,
    "PS_Total": 3,
    "ولسوالي": "چار بولک",
    "Region": "Northern Region"
   },
   "geometry": {
    "x": 7413561.8047815878,
    "y": 4416200.5050963294
   }
  },
  {
   "attributes": {
    "OBJECTID": 5704,
    "ولایت": "بلخ",
    "Province": "BALKH",
    "PC_Code": "2112108",
    "District": "SHORTEPA",
    "د_مرکز_نوم__نام_مرکز": "مکتب بز اریق",
    "Polling_Center_Name": "Baz Areeq School",
    "د_مرکز_ځای__موقعیت_مرکز": "قریه بز اریق",
    "Polling_Center_Location": "Baz Areeq Village",
    "Map_Accuracy": "Building",
    "Map_Accuracy_Dari": "تعمیر",
    "Status": "Open",
    "Status_Dari": null,
    "PS_Male": 3,
    "PS_Female": 1,
    "PS_Total": 4,
    "ولسوالي": "شور تیپه",
    "Region": "Northern Region"
   },
   "geometry": {
    "x": 7438854.9589799698,
    "y": 4485116.9374037869
   }
  },
  {
   "attributes": {
    "OBJECTID": 5705,
    "ولایت": "بلخ",
    "Province": "BALKH",
    "PC_Code": "2113100",
    "District": "KALDAR",
    "د_مرکز_نوم__نام_مرکز": "مکنب متوسطه جوی جدید",
    "Polling_Center_Name": "Joy Jadid Secondary School",
    "د_مرکز_ځای__موقعیت_مرکز": "قریه جوی جدید",
    "Polling_Center_Location": "Joy Jadeed Village",
    "Map_Accuracy": "Building",
    "Map_Accuracy_Dari": "تعمیر",
    "Status": "Open",
    "Status_Dari": null,
    "PS_Male": 2,
    "PS_Female": 1,
    "PS_Total": 3,
    "ولسوالي": "کلدار",
    "Region": "Northern Region"
   },
   "geometry": {
    "x": 7525644.7001524353,
    "y": 4467245.599986814
   }
  },
  {
   "attributes": {
    "OBJECTID": 5706,
    "ولایت": "بلخ",
    "Province": "BALKH",
    "PC_Code": "2114289",
    "District": "KISHINDEH",
    "د_مرکز_نوم__نام_مرکز": "مکتب چکانه پایان",
    "Polling_Center_Name": "Chakana Payana School",
    "د_مرکز_ځای__موقعیت_مرکز": "قریه چکانه پایین",
    "Polling_Center_Location": "Chakana Payeen Village",
    "Map_Accuracy": "Building",
    "Map_Accuracy_Dari": "تعمیر",
    "Status": "Open",
    "Status_Dari": null,
    "PS_Male": 1,
    "PS_Female": 1,
    "PS_Total": 2,
    "ولسوالي": "کشنده",
    "Region": "Northern Region"
   },
   "geometry": {
    "x": 7457455.1601514136,
    "y": 4315624.6277107857
   }
  },
  {
   "attributes": {
    "OBJECTID": 5707,
    "ولایت": "بلخ",
    "Province": "BALKH",
    "PC_Code": "2114301",
    "District": "KISHINDEH",
    "د_مرکز_نوم__نام_مرکز": "مسجد کلان قریه شیخ سر دره",
    "Polling_Center_Name": "Qarya Shekh Sar Dara Mosque",
    "د_مرکز_ځای__موقعیت_مرکز": "قریه شیخ سر دره",
    "Polling_Center_Location": "Shekh Sar Dara Village",
    "Map_Accuracy": "Building",
    "Map_Accuracy_Dari": "تعمیر",
    "Status": "Open",
    "Status_Dari": null,
    "PS_Male": 2,
    "PS_Female": 1,
    "PS_Total": 3,
    "ولسوالي": "کشنده",
    "Region": "Northern Region"
   },
   "geometry": {
    "x": 7441883.9189098533,
    "y": 4268583.3614698378
   }
  },
  {
   "attributes": {
    "OBJECTID": 5708,
    "ولایت": "بلخ",
    "Province": "BALKH",
    "PC_Code": "2114302",
    "District": "KISHINDEH",
    "د_مرکز_نوم__نام_مرکز": "مسجد قوشمسای ",
    "Polling_Center_Name": "Qoshmsay Mosque",
    "د_مرکز_ځای__موقعیت_مرکز": "قریه قوشمسای بالا",
    "Polling_Center_Location": "Qoshmasai Bala Village",
    "Map_Accuracy": "Building",
    "Map_Accuracy_Dari": "تعمیر",
    "Status": "Open",
    "Status_Dari": null,
    "PS_Male": 1,
    "PS_Female": 1,
    "PS_Total": 2,
    "ولسوالي": "کشنده",
    "Region": "Northern Region"
   },
   "geometry": {
    "x": 7456787.8999916483,
    "y": 4295030.0803677384
   }
  },
  {
   "attributes": {
    "OBJECTID": 5709,
    "ولایت": "بلخ",
    "Province": "BALKH",
    "PC_Code": "2115311",
    "District": "ZARI",
    "د_مرکز_نوم__نام_مرکز": "مکتب چقورک",
    "Polling_Center_Name": "Chaqorak School",
    "د_مرکز_ځای__موقعیت_مرکز": "قریه چقورک",
    "Polling_Center_Location": "Chaqorak Village",
    "Map_Accuracy": "Building",
    "Map_Accuracy_Dari": "تعمیر",
    "Status": "Open",
    "Status_Dari": null,
    "PS_Male": 2,
    "PS_Female": 1,
    "PS_Total": 3,
    "ولسوالي": "زاری",
    "Region": "Northern Region"
   },
   "geometry": {
    "x": 7436761.4067124715,
    "y": 4287706.1177521413
   }
  },
  {
   "attributes": {
    "OBJECTID": 5710,
    "ولایت": "بلخ",
    "Province": "BALKH",
    "PC_Code": "2115312",
    "District": "ZARI",
    "د_مرکز_نوم__نام_مرکز": "مسجد دشت قدوق",
    "Polling_Center_Name": "Dasht Qadoq Mosque",
    "د_مرکز_ځای__موقعیت_مرکز": "قریه دشت قدوق",
    "Polling_Center_Location": "Dasht Qadoq Village",
    "Map_Accuracy": "Building",
    "Map_Accuracy_Dari": "تعمیر",
    "Status": "Open",
    "Status_Dari": null,
    "PS_Male": 1,
    "PS_Female": 2,
    "PS_Total": 3,
    "ولسوالي": "زاری",
    "Region": "Northern Region"
   },
   "geometry": {
    "x": 7429262.7220979715,
    "y": 4273990.2518693265
   }
  },
  {
   "attributes": {
    "OBJECTID": 5711,
    "ولایت": "سرپل",
    "Province": "SAR-E-PUL",
    "PC_Code": "2201002",
    "District": "SAR-E-PUL",
    "د_مرکز_نوم__نام_مرکز": "لیسه منهاج السراج",
    "Polling_Center_Name": "Minhaj-u-Siraj High School",
    "د_مرکز_ځای__موقعیت_مرکز": "القانی خورد ",
    "Polling_Center_Location": "Alqani Khord",
    "Map_Accuracy": "Building",
    "Map_Accuracy_Dari": "تعمیر",
    "Status": "Open",
    "Status_Dari": null,
    "PS_Male": 8,
    "PS_Female": 5,
    "PS_Total": 13,
    "ولسوالي": "سرپل",
    "Region": "Northern Region"
   },
   "geometry": {
    "x": 7340259.4039830286,
    "y": 4329313.6321924161
   }
  },
  {
   "attributes": {
    "OBJECTID": 5712,
    "ولایت": "سرپل",
    "Province": "SAR-E-PUL",
    "PC_Code": "2201032",
    "District": "SAR-E-PUL",
    "د_مرکز_نوم__نام_مرکز": "لیسه بغاوی سفلی",
    "Polling_Center_Name": "Baghawi Sufla High School",
    "د_مرکز_ځای__موقعیت_مرکز": "بغاوی سفلی",
    "Polling_Center_Location": "Baghawi Sufla ",
    "Map_Accuracy": "Building",
    "Map_Accuracy_Dari": "تعمیر",
    "Status": "Open",
    "Status_Dari": null,
    "PS_Male": 3,
    "PS_Female": 2,
    "PS_Total": 5,
    "ولسوالي": "سرپل",
    "Region": "Northern Region"
   },
   "geometry": {
    "x": 7353996.7490089424,
    "y": 4323813.9928112635
   }
  },
  {
   "attributes": {
    "OBJECTID": 5713,
    "ولایت": "سرپل",
    "Province": "SAR-E-PUL",
    "PC_Code": "2202056",
    "District": "SAYAD",
    "د_مرکز_نوم__نام_مرکز": "مکتب ابتدائیه خواجه الماتو",
    "Polling_Center_Name": "Khwaja Almato Primary School",
    "د_مرکز_ځای__موقعیت_مرکز": "خوجه الماتو",
    "Polling_Center_Location": "Khwaja Almato ",
    "Map_Accuracy": "Village",
    "Map_Accuracy_Dari": "قریه",
    "Status": "Open",
    "Status_Dari": null,
    "PS_Male": 2,
    "PS_Female": 1,
    "PS_Total": 3,
    "ولسوالي": "صیاد",
    "Region": "Northern Region"
   },
   "geometry": {
    "x": 7338900.5136005795,
    "y": 4299952.1674437439
   }
  },
  {
   "attributes": {
    "OBJECTID": 5714,
    "ولایت": "سرپل",
    "Province": "SAR-E-PUL",
    "PC_Code": "2204035",
    "District": "SOZMA QALA",
    "د_مرکز_نوم__نام_مرکز": "لیسه محمد امین شهید",
    "Polling_Center_Name": "Mohammad Amin Shaheed High School",
    "د_مرکز_ځای__موقعیت_مرکز": "مرکز ولسوالی",
    "Polling_Center_Location": "District Compound",
    "Map_Accuracy": "Building",
    "Map_Accuracy_Dari": "تعمیر",
    "Status": "Open",
    "Status_Dari": null,
    "PS_Male": 3,
    "PS_Female": 2,
    "PS_Total": 5,
    "ولسوالي": "سوزمه قلعه",
    "Region": "Northern Region"
   },
   "geometry": {
    "x": 7372137.2641355153,
    "y": 4313829.1367963124
   }
  },
  {
   "attributes": {
    "OBJECTID": 5715,
    "ولایت": "سرپل",
    "Province": "SAR-E-PUL",
    "PC_Code": "2206128",
    "District": "GOSFANDI",
    "د_مرکز_نوم__نام_مرکز": "مدرسه قریه  ملیکان",
    "Polling_Center_Name": "Maleekan Village Madrassa",
    "د_مرکز_ځای__موقعیت_مرکز": " قریه ملیکان",
    "Polling_Center_Location": "Maleekan Village",
    "Map_Accuracy": "Building",
    "Map_Accuracy_Dari": "تعمیر",
    "Status": "Open",
    "Status_Dari": null,
    "PS_Male": 2,
    "PS_Female": 1,
    "PS_Total": 3,
    "ولسوالي": "گوسفندی ",
    "Region": "Northern Region"
   },
   "geometry": {
    "x": 7403310.6522488538,
    "y": 4289004.4306879425
   }
  },
  {
   "attributes": {
    "OBJECTID": 5716,
    "ولایت": "سرپل",
    "Province": "SAR-E-PUL",
    "PC_Code": "2207089",
    "District": "BALKHAB",
    "د_مرکز_نوم__نام_مرکز": "لیسه شهید عارفی ",
    "Polling_Center_Name": "Shaheed Arefi High School",
    "د_مرکز_ځای__موقعیت_مرکز": "قریه زو",
    "Polling_Center_Location": "Zo Village",
    "Map_Accuracy": "Building",
    "Map_Accuracy_Dari": "تعمیر",
    "Status": "Open",
    "Status_Dari": null,
    "PS_Male": 3,
    "PS_Female": 2,
    "PS_Total": 5,
    "ولسوالي": "بلخآب",
    "Region": "Northern Region"
   },
   "geometry": {
    "x": 7430162.8960283184,
    "y": 4241868.0850922558
   }
  },
  {
   "attributes": {
    "OBJECTID": 5717,
    "ولایت": "غور",
    "Province": "GHOR",
    "PC_Code": "2301011",
    "District": "CHIGHCHERAN",
    "د_مرکز_نوم__نام_مرکز": "مکتب متوسطه سرتگاب ",
    "Polling_Center_Name": "Sar Tagab Secondary School",
    "د_مرکز_ځای__موقعیت_مرکز": "شهر نو ",
    "Polling_Center_Location": "Shahr-e-Naw",
    "Map_Accuracy": "Building",
    "Map_Accuracy_Dari": "تعمیر",
    "Status": "Open",
    "Status_Dari": null,
    "PS_Male": 4,
    "PS_Female": 2,
    "PS_Total": 6,
    "ولسوالي": "چغچران",
    "Region": "Western Region"
   },
   "geometry": {
    "x": 7201094.9878698904,
    "y": 4110408.3845932563
   }
  },
  {
   "attributes": {
    "OBJECTID": 5718,
    "ولایت": "غور",
    "Province": "GHOR",
    "PC_Code": "2301033",
    "District": "CHIGHCHERAN",
    "د_مرکز_نوم__نام_مرکز": "بازار لخشک",
    "Polling_Center_Name": "Lakhshak Bazar",
    "د_مرکز_ځای__موقعیت_مرکز": " لخشک",
    "Polling_Center_Location": "Lakhshak",
    "Map_Accuracy": "Building",
    "Map_Accuracy_Dari": "تعمیر",
    "Status": "Open",
    "Status_Dari": null,
    "PS_Male": 2,
    "PS_Female": 1,
    "PS_Total": 3,
    "ولسوالي": "چغچران",
    "Region": "Western Region"
   },
   "geometry": {
    "x": 7233735.9520373214,
    "y": 4126051.7224059994
   }
  },
  {
   "attributes": {
    "OBJECTID": 5719,
    "ولایت": "غور",
    "Province": "GHOR",
    "PC_Code": "2304062",
    "District": "CHAR SADA",
    "د_مرکز_نوم__نام_مرکز": "مسجد قریه شمرق",
    "Polling_Center_Name": "Shamaroq Village Mosque",
    "د_مرکز_ځای__موقعیت_مرکز": " شمرق",
    "Polling_Center_Location": "Shamaroq",
    "Map_Accuracy": "Village",
    "Map_Accuracy_Dari": "قریه",
    "Status": "Open",
    "Status_Dari": null,
    "PS_Male": 2,
    "PS_Female": 1,
    "PS_Total": 3,
    "ولسوالي": "چار صده",
    "Region": "Western Region"
   },
   "geometry": {
    "x": 7258087.4635686493,
    "y": 4186068.6778302998
   }
  },
  {
   "attributes": {
    "OBJECTID": 5720,
    "ولایت": "غور",
    "Province": "GHOR",
    "PC_Code": "2305133",
    "District": "PASABAND",
    "د_مرکز_نوم__نام_مرکز": "مسجد دهن کله گی",
    "Polling_Center_Name": "Dahan Kalagi Mosque",
    "د_مرکز_ځای__موقعیت_مرکز": " دهن کله گی",
    "Polling_Center_Location": "Dahan Kalagi",
    "Map_Accuracy": "Building",
    "Map_Accuracy_Dari": "تعمیر",
    "Status": "Open",
    "Status_Dari": null,
    "PS_Male": 1,
    "PS_Female": 1,
    "PS_Total": 2,
    "ولسوالي": "پسابند ",
    "Region": "Western Region"
   },
   "geometry": {
    "x": 7246682.9631876433,
    "y": 3982184.5044725835
   }
  },
  {
   "attributes": {
    "OBJECTID": 5721,
    "ولایت": "غور",
    "Province": "GHOR",
    "PC_Code": "2307142",
    "District": "LAL WA SARJANGAL",
    "د_مرکز_نوم__نام_مرکز": "مکتب دهن چکه",
    "Polling_Center_Name": "Dahn Chaka School",
    "د_مرکز_ځای__موقعیت_مرکز": " دهنه چکه",
    "Polling_Center_Location": "Dahna Chaka",
    "Map_Accuracy": "Building",
    "Map_Accuracy_Dari": "تعمیر",
    "Status": "Open",
    "Status_Dari": null,
    "PS_Male": 2,
    "PS_Female": 1,
    "PS_Total": 3,
    "ولسوالي": "لعل و سرجنگل ",
    "Region": "Western Region"
   },
   "geometry": {
    "x": 7369856.7207269585,
    "y": 4092603.2560897954
   }
  },
  {
   "attributes": {
    "OBJECTID": 5722,
    "ولایت": "غور",
    "Province": "GHOR",
    "PC_Code": "2307152",
    "District": "LAL WA SARJANGAL",
    "د_مرکز_نوم__نام_مرکز": "مسجد سفید چشمه",
    "Polling_Center_Name": "Safid Chashma Mosque",
    "د_مرکز_ځای__موقعیت_مرکز": "سفید چشمه پتاب",
    "Polling_Center_Location": "Safid Chashma Pitab",
    "Map_Accuracy": "Village",
    "Map_Accuracy_Dari": "قریه",
    "Status": "Open",
    "Status_Dari": null,
    "PS_Male": 2,
    "PS_Female": 1,
    "PS_Total": 3,
    "ولسوالي": "لعل و سرجنگل ",
    "Region": "Western Region"
   },
   "geometry": {
    "x": 7384895.3260349464,
    "y": 4119359.4209332704
   }
  },
  {
   "attributes": {
    "OBJECTID": 5723,
    "ولایت": "غور",
    "Province": "GHOR",
    "PC_Code": "2307171",
    "District": "LAL WA SARJANGAL",
    "د_مرکز_نوم__نام_مرکز": "مکتب چار آسیاب",
    "Polling_Center_Name": "Chahar Asyab School",
    "د_مرکز_ځای__موقعیت_مرکز": "قریه دهن غلامک ",
    "Polling_Center_Location": "Dahan Ghulamak Village",
    "Map_Accuracy": "Building",
    "Map_Accuracy_Dari": "تعمیر",
    "Status": "Open",
    "Status_Dari": null,
    "PS_Male": 2,
    "PS_Female": 1,
    "PS_Total": 3,
    "ولسوالي": "لعل و سرجنگل ",
    "Region": "Western Region"
   },
   "geometry": {
    "x": 7365875.7353611095,
    "y": 4114824.3505621869
   }
  },
  {
   "attributes": {
    "OBJECTID": 5724,
    "ولایت": "غور",
    "Province": "GHOR",
    "PC_Code": "2308225",
    "District": "TAYWARA",
    "د_مرکز_نوم__نام_مرکز": "بازار زلرگک",
    "Polling_Center_Name": "Zalragak Bazar",
    "د_مرکز_ځای__موقعیت_مرکز": "زلر گک",
    "Polling_Center_Location": "Zalargak",
    "Map_Accuracy": "Building",
    "Map_Accuracy_Dari": "تعمیر",
    "Status": "Open",
    "Status_Dari": null,
    "PS_Male": 2,
    "PS_Female": 1,
    "PS_Total": 3,
    "ولسوالي": "تیوره",
    "Region": "Western Region"
   },
   "geometry": {
    "x": 7164643.6944555826,
    "y": 3926197.4111105008
   }
  },
  {
   "attributes": {
    "OBJECTID": 5725,
    "ولایت": "غور",
    "Province": "GHOR",
    "PC_Code": "2309180",
    "District": "TULAK",
    "د_مرکز_نوم__نام_مرکز": "مسجید دهن پالون",
    "Polling_Center_Name": "Dahan Paloon Mosque",
    "د_مرکز_ځای__موقعیت_مرکز": "پا لون",
    "Polling_Center_Location": "Paloon",
    "Map_Accuracy": "Village",
    "Map_Accuracy_Dari": "قریه",
    "Status": "Open",
    "Status_Dari": null,
    "PS_Male": 2,
    "PS_Female": 1,
    "PS_Total": 3,
    "ولسوالي": "تولک ",
    "Region": "Western Region"
   },
   "geometry": {
    "x": 7092361.7505235663,
    "y": 4049165.379438228
   }
  },
  {
   "attributes": {
    "OBJECTID": 5726,
    "ولایت": "غور",
    "Province": "GHOR",
    "PC_Code": "2310203",
    "District": "SAGHAR",
    "د_مرکز_نوم__نام_مرکز": "مسجد جامع شولیچ",
    "Polling_Center_Name": "Sholich Mosque",
    "د_مرکز_ځای__موقعیت_مرکز": " شولیچ",
    "Polling_Center_Location": "Sholich",
    "Map_Accuracy": "Village",
    "Map_Accuracy_Dari": "قریه",
    "Status": "Open",
    "Status_Dari": null,
    "PS_Male": 1,
    "PS_Female": 1,
    "PS_Total": 2,
    "ولسوالي": "ساغر ",
    "Region": "Western Region"
   },
   "geometry": {
    "x": 7058331.4311686391,
    "y": 3976892.5264702048
   }
  },
  {
   "attributes": {
    "OBJECTID": 5727,
    "ولایت": "دایکندی",
    "Province": "DAYKUNDI",
    "PC_Code": "2402018",
    "District": "SHAHRISTAN",
    "د_مرکز_نوم__نام_مرکز": "مسجد دهن ده اوشو",
    "Polling_Center_Name": "Dahn Deh Osho Mosque",
    "د_مرکز_ځای__موقعیت_مرکز": "دهن ده اوشو",
    "Polling_Center_Location": "Dahn Deh Osho",
    "Map_Accuracy": "Building",
    "Map_Accuracy_Dari": "تعمیر",
    "Status": "Open",
    "Status_Dari": null,
    "PS_Male": 1,
    "PS_Female": 1,
    "PS_Total": 2,
    "ولسوالي": "شهرستان",
    "Region": "Central Highlands Region"
   },
   "geometry": {
    "x": 7395869.428529107,
    "y": 4001505.6006253297
   }
  },
  {
   "attributes": {
    "OBJECTID": 5728,
    "ولایت": "دایکندی",
    "Province": "DAYKUNDI",
    "PC_Code": "2402029",
    "District": "SHAHRISTAN",
    "د_مرکز_نوم__نام_مرکز": "مسجد پلالیچ",
    "Polling_Center_Name": "Plalech Mosque",
    "د_مرکز_ځای__موقعیت_مرکز": "پلالیچ لرگر",
    "Polling_Center_Location": "Plalech Largar",
    "Map_Accuracy": "Building",
    "Map_Accuracy_Dari": "تعمیر",
    "Status": "Open",
    "Status_Dari": null,
    "PS_Male": 2,
    "PS_Female": 2,
    "PS_Total": 4,
    "ولسوالي": "شهرستان",
    "Region": "Central Highlands Region"
   },
   "geometry": {
    "x": 7397125.1836297289,
    "y": 4013928.7259206413
   }
  },
  {
   "attributes": {
    "OBJECTID": 5729,
    "ولایت": "دایکندی",
    "Province": "DAYKUNDI",
    "PC_Code": "2404041",
    "District": "ISHTERLAI",
    "د_مرکز_نوم__نام_مرکز": "مسجد کدال",
    "Polling_Center_Name": "Kadaal Mosque",
    "د_مرکز_ځای__موقعیت_مرکز": "کدال، دهن گردیش",
    "Polling_Center_Location": "Kadaal, Dahan Gardish",
    "Map_Accuracy": "Building",
    "Map_Accuracy_Dari": "تعمیر",
    "Status": "Open",
    "Status_Dari": null,
    "PS_Male": 2,
    "PS_Female": 1,
    "PS_Total": 3,
    "ولسوالي": "اشترلی",
    "Region": "Central Highlands Region"
   },
   "geometry": {
    "x": 7385055.0761833973,
    "y": 4048267.6915831822
   }
  },
  {
   "attributes": {
    "OBJECTID": 5730,
    "ولایت": "دایکندی",
    "Province": "DAYKUNDI",
    "PC_Code": "2404051",
    "District": "ISHTERLAI",
    "د_مرکز_نوم__نام_مرکز": "مسجد کورگه سفلا",
    "Polling_Center_Name": "Korga Sufla Mosque",
    "د_مرکز_ځای__موقعیت_مرکز": "کورگه سفلا",
    "Polling_Center_Location": "Korga Sufla",
    "Map_Accuracy": "Building",
    "Map_Accuracy_Dari": "تعمیر",
    "Status": "Open",
    "Status_Dari": null,
    "PS_Male": 4,
    "PS_Female": 2,
    "PS_Total": 6,
    "ولسوالي": "اشترلی",
    "Region": "Central Highlands Region"
   },
   "geometry": {
    "x": 7362654.2639566325,
    "y": 4016647.7008744092
   }
  },
  {
   "attributes": {
    "OBJECTID": 5731,
    "ولایت": "دایکندی",
    "Province": "DAYKUNDI",
    "PC_Code": "2405094",
    "District": "KHEDIR",
    "د_مرکز_نوم__نام_مرکز": "مکتب سیاه بند پشتروق ",
    "Polling_Center_Name": "Siyah Band Pashtaroq School",
    "د_مرکز_ځای__موقعیت_مرکز": "پشتروق",
    "Polling_Center_Location": "Pashtaroq",
    "Map_Accuracy": "Building",
    "Map_Accuracy_Dari": "تعمیر",
    "Status": "Open",
    "Status_Dari": null,
    "PS_Male": 1,
    "PS_Female": 2,
    "PS_Total": 3,
    "ولسوالي": "خدیر",
    "Region": "Central Highlands Region"
   },
   "geometry": {
    "x": 7340124.8142658817,
    "y": 4004886.0790391024
   }
  },
  {
   "attributes": {
    "OBJECTID": 5732,
    "ولایت": "دایکندی",
    "Province": "DAYKUNDI",
    "PC_Code": "2406125",
    "District": "KITI",
    "د_مرکز_نوم__نام_مرکز": "مسجد سر تمران",
    "Polling_Center_Name": "Sar Tamran Mosque",
    "د_مرکز_ځای__موقعیت_مرکز": "سر تمران",
    "Polling_Center_Location": "Sar Tamran",
    "Map_Accuracy": "Building",
    "Map_Accuracy_Dari": "تعمیر",
    "Status": "Open",
    "Status_Dari": null,
    "PS_Male": 1,
    "PS_Female": 2,
    "PS_Total": 3,
    "ولسوالي": "کیتی",
    "Region": "Central Highlands Region"
   },
   "geometry": {
    "x": 7331140.3205778906,
    "y": 3984784.3128471249
   }
  },
  {
   "attributes": {
    "OBJECTID": 5733,
    "ولایت": "دایکندی",
    "Province": "DAYKUNDI",
    "PC_Code": "2407160",
    "District": "MIRAMOR",
    "د_مرکز_نوم__نام_مرکز": "مسجد تقمان دره",
    "Polling_Center_Name": "Tuqman Dara Mosque",
    "د_مرکز_ځای__موقعیت_مرکز": "تقمان دره",
    "Polling_Center_Location": "Tuqman Dara",
    "Map_Accuracy": "Building",
    "Map_Accuracy_Dari": "تعمیر",
    "Status": "Open",
    "Status_Dari": null,
    "PS_Male": 1,
    "PS_Female": 1,
    "PS_Total": 2,
    "ولسوالي": "میرامور",
    "Region": "Central Highlands Region"
   },
   "geometry": {
    "x": 7434942.7022677381,
    "y": 3983056.6051590922
   }
  },
  {
   "attributes": {
    "OBJECTID": 5734,
    "ولایت": "دایکندی",
    "Province": "DAYKUNDI",
    "PC_Code": "2408084",
    "District": "SANG-E-TAKHT",
    "د_مرکز_نوم__نام_مرکز": "مسجد عمومی اسب دوان",
    "Polling_Center_Name": "Asb Dawan Mosque",
    "د_مرکز_ځای__موقعیت_مرکز": "میراسی",
    "Polling_Center_Location": "Mirasi",
    "Map_Accuracy": "Building",
    "Map_Accuracy_Dari": "تعمیر",
    "Status": "Open",
    "Status_Dari": null,
    "PS_Male": 2,
    "PS_Female": 1,
    "PS_Total": 3,
    "ولسوالي": "سنگ تخت",
    "Region": "Central Highlands Region"
   },
   "geometry": {
    "x": 7335244.1737185046,
    "y": 4048227.3777108886
   }
  },
  {
   "attributes": {
    "OBJECTID": 5735,
    "ولایت": "دایکندی",
    "Province": "DAYKUNDI",
    "PC_Code": "2409064",
    "District": "KEJRAN",
    "د_مرکز_نوم__نام_مرکز": "مسجد قلعه لاش",
    "Polling_Center_Name": "Qala-e-Lash Mosque",
    "د_مرکز_ځای__موقعیت_مرکز": "قلعه لاش",
    "Polling_Center_Location": "Qala-e-Lash",
    "Map_Accuracy": "Building",
    "Map_Accuracy_Dari": "تعمیر",
    "Status": "Open",
    "Status_Dari": null,
    "PS_Male": 2,
    "PS_Female": 1,
    "PS_Total": 3,
    "ولسوالي": "کجران",
    "Region": "Central Highlands Region"
   },
   "geometry": {
    "x": 7286435.9134394089,
    "y": 3927672.9946381901
   }
  },
  {
   "attributes": {
    "OBJECTID": 5736,
    "ولایت": "دایکندی",
    "Province": "DAYKUNDI",
    "PC_Code": "2409065",
    "District": "KEJRAN",
    "د_مرکز_نوم__نام_مرکز": "مسجد دهن تاخه",
    "Polling_Center_Name": "Dahan Takha Mosque",
    "د_مرکز_ځای__موقعیت_مرکز": "تاخه",
    "Polling_Center_Location": "Takha",
    "Map_Accuracy": "Building",
    "Map_Accuracy_Dari": "تعمیر",
    "Status": "Open",
    "Status_Dari": null,
    "PS_Male": 1,
    "PS_Female": 1,
    "PS_Total": 2,
    "ولسوالي": "کجران",
    "Region": "Central Highlands Region"
   },
   "geometry": {
    "x": 7284816.2150710057,
    "y": 3924584.4609463452
   }
  },
  {
   "attributes": {
    "OBJECTID": 5737,
    "ولایت": "ارزگان",
    "Province": "UROZGAN",
    "PC_Code": "2501005",
    "District": "TIRINKOT",
    "د_مرکز_نوم__نام_مرکز": "لیسه ملالۍ",
    "Polling_Center_Name": "Malalai High School",
    "د_مرکز_ځای__موقعیت_مرکز": "مرکز ترینکوټ",
    "Polling_Center_Location": "Markaz Trinkot",
    "Map_Accuracy": "Building",
    "Map_Accuracy_Dari": "تعمیر",
    "Status": "Open",
    "Status_Dari": null,
    "PS_Male": 4,
    "PS_Female": 3,
    "PS_Total": 7,
    "ولسوالي": "ترینکوټ",
    "Region": "Southern Region"
   },
   "geometry": {
    "x": 7333781.1450656112,
    "y": 3846572.594188205
   }
  },
  {
   "attributes": {
    "OBJECTID": 5738,
    "ولایت": "ارزگان",
    "Province": "UROZGAN",
    "PC_Code": "2503016",
    "District": "CHORA",
    "د_مرکز_نوم__نام_مرکز": "لیسه مرکزی بازار",
    "Polling_Center_Name": "Markazi Bazar High School",
    "د_مرکز_ځای__موقعیت_مرکز": "بازار ولسوالی",
    "Polling_Center_Location": "District Bazar",
    "Map_Accuracy": "Building",
    "Map_Accuracy_Dari": "تعمیر",
    "Status": "Open",
    "Status_Dari": null,
    "PS_Male": 5,
    "PS_Female": 0,
    "PS_Total": 5,
    "ولسوالي": "چوره",
    "Region": "Southern Region"
   },
   "geometry": {
    "x": 7352096.5175087377,
    "y": 3877166.7020957936
   }
  },
  {
   "attributes": {
    "OBJECTID": 5739,
    "ولایت": "ارزگان",
    "Province": "UROZGAN",
    "PC_Code": "2506045",
    "District": "CHENARTO",
    "د_مرکز_نوم__نام_مرکز": "لیسه معلم فیض محمد",
    "Polling_Center_Name": "Maalem Faiz Mohammad High School",
    "د_مرکز_ځای__موقعیت_مرکز": "بازار",
    "Polling_Center_Location": "Bazar",
    "Map_Accuracy": "Building",
    "Map_Accuracy_Dari": "تعمیر",
    "Status": "Open",
    "Status_Dari": null,
    "PS_Male": 6,
    "PS_Female": 0,
    "PS_Total": 6,
    "ولسوالي": "چنارتو",
    "Region": "Southern Region"
   },
   "geometry": {
    "x": 7378329.2070962219,
    "y": 3860674.3604778489
   }
  },
  {
   "attributes": {
    "OBJECTID": 5740,
    "ولایت": "کندهار",
    "Province": "کندهار",
    "PC_Code": "2701009",
    "District": "KANDAHAR",
    "د_مرکز_نوم__نام_مرکز": "زرغونه انا ليسه",
    "Polling_Center_Name": "Zarghona Ana High School",
    "د_مرکز_ځای__موقعیت_مرکز": "شپږمه ناحيه",
    "Polling_Center_Location": "D06 - Nahia 6",
    "Map_Accuracy": "Building",
    "Map_Accuracy_Dari": "تعمیر",
    "Status": "Open",
    "Status_Dari": null,
    "PS_Male": 1,
    "PS_Female": 6,
    "PS_Total": 7,
    "ولسوالي": "کندهار",
    "Region": "Southern Region"
   },
   "geometry": {
    "x": 7313482.1828611903,
    "y": 3712209.7314654072
   }
  },
  {
   "attributes": {
    "OBJECTID": 5741,
    "ولایت": "کندهار",
    "Province": "کندهار",
    "PC_Code": "2701034",
    "District": "KANDAHAR",
    "د_مرکز_نوم__نام_مرکز": "د صوفي صاحب اناث مكتب",
    "Polling_Center_Name": "Sofi Sahib Girls School",
    "د_مرکز_ځای__موقعیت_مرکز": "شپږمه ناحيه",
    "Polling_Center_Location": "D06 - Nahia 6",
    "Map_Accuracy": "Building",
    "Map_Accuracy_Dari": "تعمیر",
    "Status": "Open",
    "Status_Dari": null,
    "PS_Male": 1,
    "PS_Female": 6,
    "PS_Total": 7,
    "ولسوالي": "کندهار",
    "Region": "Southern Region"
   },
   "geometry": {
    "x": 7311705.1608865866,
    "y": 3715487.7756829853
   }
  },
  {
   "attributes": {
    "OBJECTID": 5742,
    "ولایت": "کندهار",
    "Province": "کندهار",
    "PC_Code": "2701035",
    "District": "KANDAHAR",
    "د_مرکز_نوم__نام_مرکز": "د صوفي صاحب ذکور مكتب",
    "Polling_Center_Name": "Sofi Sahib Boys School",
    "د_مرکز_ځای__موقعیت_مرکز": "شپږمه ناحيه",
    "Polling_Center_Location": "D06 - Nahia 6",
    "Map_Accuracy": "Building",
    "Map_Accuracy_Dari": "تعمیر",
    "Status": "Open",
    "Status_Dari": null,
    "PS_Male": 7,
    "PS_Female": 0,
    "PS_Total": 7,
    "ولسوالي": "کندهار",
    "Region": "Southern Region"
   },
   "geometry": {
    "x": 7312077.9576161066,
    "y": 3715200.7879403541
   }
  },
  {
   "attributes": {
    "OBJECTID": 5743,
    "ولایت": "کندهار",
    "Province": "کندهار",
    "PC_Code": "2701056",
    "District": "KANDAHAR",
    "د_مرکز_نوم__نام_مرکز": "شين غزي اصحابی",
    "Polling_Center_Name": "Sheen Ghazai Ashabi",
    "د_مرکز_ځای__موقعیت_مرکز": "دريمه ناحيه",
    "Polling_Center_Location": "D03 - Nahia 3",
    "Map_Accuracy": "Building",
    "Map_Accuracy_Dari": "تعمیر",
    "Status": "Open",
    "Status_Dari": null,
    "PS_Male": 3,
    "PS_Female": 9,
    "PS_Total": 12,
    "ولسوالي": "کندهار",
    "Region": "Southern Region"
   },
   "geometry": {
    "x": 7316509.6833925508,
    "y": 3710616.2132690893
   }
  },
  {
   "attributes": {
    "OBJECTID": 5744,
    "ولایت": "کندهار",
    "Province": "کندهار",
    "PC_Code": "2702101",
    "District": "ARGHANDAB",
    "د_مرکز_نوم__نام_مرکز": "مكتب خواجه ملك",
    "Polling_Center_Name": "Khwaja Malik School",
    "د_مرکز_ځای__موقعیت_مرکز": "خواجه ملك",
    "Polling_Center_Location": "Khwaja Malik",
    "Map_Accuracy": "Building",
    "Map_Accuracy_Dari": "تعمیر",
    "Status": "Open",
    "Status_Dari": null,
    "PS_Male": 1,
    "PS_Female": 2,
    "PS_Total": 3,
    "ولسوالي": "ارغنداب",
    "Region": "Southern Region"
   },
   "geometry": {
    "x": 7319193.1777542885,
    "y": 3731491.1761897509
   }
  },
  {
   "attributes": {
    "OBJECTID": 5745,
    "ولایت": "کندهار",
    "Province": "کندهار",
    "PC_Code": "2702112",
    "District": "ARGHANDAB",
    "د_مرکز_نوم__نام_مرکز": "د مولوی عبدالواسع مكتب",
    "Polling_Center_Name": "Mawlawi Abdul Wasi School",
    "د_مرکز_ځای__موقعیت_مرکز": "ګل قلعچه",
    "Polling_Center_Location": "Gul Qalacha",
    "Map_Accuracy": "Building",
    "Map_Accuracy_Dari": "تعمیر",
    "Status": "Open",
    "Status_Dari": null,
    "PS_Male": 2,
    "PS_Female": 1,
    "PS_Total": 3,
    "ولسوالي": "ارغنداب",
    "Region": "Southern Region"
   },
   "geometry": {
    "x": 7313161.7074055327,
    "y": 3724829.1425532182
   }
  },
  {
   "attributes": {
    "OBJECTID": 5746,
    "ولایت": "کندهار",
    "Province": "کندهار",
    "PC_Code": "2704173",
    "District": "PANJWAYEE",
    "د_مرکز_نوم__نام_مرکز": "د ملا حسن ليسه",
    "Polling_Center_Name": "Mula Hassan High School",
    "د_مرکز_ځای__موقعیت_مرکز": "ټالكان",
    "Polling_Center_Location": "Talgan",
    "Map_Accuracy": "Village",
    "Map_Accuracy_Dari": "قریه",
    "Status": "Open",
    "Status_Dari": null,
    "PS_Male": 3,
    "PS_Female": 1,
    "PS_Total": 4,
    "ولسوالي": "پنجوایې",
    "Region": "Southern Region"
   },
   "geometry": {
    "x": 7270893.4919234635,
    "y": 3690327.2302880208
   }
  },
  {
   "attributes": {
    "OBJECTID": 5747,
    "ولایت": "کندهار",
    "Province": "کندهار",
    "PC_Code": "2704174",
    "District": "PANJWAYEE",
    "د_مرکز_نوم__نام_مرکز": "مكتب ريګوا",
    "Polling_Center_Name": "Regwa School",
    "د_مرکز_ځای__موقعیت_مرکز": "ريګوا",
    "Polling_Center_Location": "Regwa",
    "Map_Accuracy": "Village",
    "Map_Accuracy_Dari": "قریه",
    "Status": "Open",
    "Status_Dari": null,
    "PS_Male": 2,
    "PS_Female": 0,
    "PS_Total": 2,
    "ولسوالي": "پنجوایې",
    "Region": "Southern Region"
   },
   "geometry": {
    "x": 7285143.5711843865,
    "y": 3696166.5844093068
   }
  },
  {
   "attributes": {
    "OBJECTID": 5748,
    "ولایت": "کندهار",
    "Province": "کندهار",
    "PC_Code": "2704179",
    "District": "PANJWAYEE",
    "د_مرکز_نوم__نام_مرکز": "مكتب سلوات",
    "Polling_Center_Name": "Salawat School",
    "د_مرکز_ځای__موقعیت_مرکز": "پنجوایې",
    "Polling_Center_Location": "Panjwayee",
    "Map_Accuracy": "Building",
    "Map_Accuracy_Dari": "تعمیر",
    "Status": "Open",
    "Status_Dari": null,
    "PS_Male": 4,
    "PS_Female": 0,
    "PS_Total": 4,
    "ولسوالي": "پنجوایې",
    "Region": "Southern Region"
   },
   "geometry": {
    "x": 7296529.3615419678,
    "y": 3700118.859669453
   }
  },
  {
   "attributes": {
    "OBJECTID": 5749,
    "ولایت": "کندهار",
    "Province": "کندهار",
    "PC_Code": "2705154",
    "District": "ZHIRE",
    "د_مرکز_نوم__نام_مرکز": "اتم كمپ ښوونځي",
    "Polling_Center_Name": "8th Camp School",
    "د_مرکز_ځای__موقعیت_مرکز": "د ژړي دښت",
    "Polling_Center_Location": "Zharee Dasht",
    "Map_Accuracy": "Building",
    "Map_Accuracy_Dari": "تعمیر",
    "Status": "Open",
    "Status_Dari": null,
    "PS_Male": 2,
    "PS_Female": 1,
    "PS_Total": 3,
    "ولسوالي": "ژیړی",
    "Region": "Southern Region"
   },
   "geometry": {
    "x": 7277402.0074784802,
    "y": 3722429.5038710078
   }
  },
  {
   "attributes": {
    "OBJECTID": 5750,
    "ولایت": "کندهار",
    "Province": "کندهار",
    "PC_Code": "2705167",
    "District": "ZHIRE",
    "د_مرکز_نوم__نام_مرکز": "د محمد شاه سراچه",
    "Polling_Center_Name": "Mohammad Shah Saracha",
    "د_مرکز_ځای__موقعیت_مرکز": "لاكوخيل",
    "Polling_Center_Location": "Lako Khel",
    "Map_Accuracy": "Village",
    "Map_Accuracy_Dari": "قریه",
    "Status": "Open",
    "Status_Dari": null,
    "PS_Male": 1,
    "PS_Female": 1,
    "PS_Total": 2,
    "ولسوالي": "ژیړی",
    "Region": "Southern Region"
   },
   "geometry": {
    "x": 7270064.9654437751,
    "y": 3701735.424868193
   }
  },
  {
   "attributes": {
    "OBJECTID": 5751,
    "ولایت": "کندهار",
    "Province": "کندهار",
    "PC_Code": "2705168",
    "District": "ZHIRE",
    "د_مرکز_نوم__نام_مرکز": "د پوليسو قومانداني ته نژدي",
    "Polling_Center_Name": "Near Police Station ",
    "د_مرکز_ځای__موقعیت_مرکز": "د كوچيانو كمپ",
    "Polling_Center_Location": "Kochiano Camp",
    "Map_Accuracy": "Village",
    "Map_Accuracy_Dari": "قریه",
    "Status": "Open",
    "Status_Dari": null,
    "PS_Male": 5,
    "PS_Female": 3,
    "PS_Total": 8,
    "ولسوالي": "ژیړی",
    "Region": "Southern Region"
   },
   "geometry": {
    "x": 7275508.2781497343,
    "y": 3711860.5617230791
   }
  },
  {
   "attributes": {
    "OBJECTID": 5752,
    "ولایت": "کندهار",
    "Province": "کندهار",
    "PC_Code": "2706094",
    "District": "SHAH WALI KOT",
    "د_مرکز_نوم__نام_مرکز": "مكتب سيد حليم",
    "Polling_Center_Name": "Sayed Haleem School",
    "د_مرکز_ځای__موقعیت_مرکز": "سيد حليم",
    "Polling_Center_Location": "Sayed Haleem",
    "Map_Accuracy": "Village",
    "Map_Accuracy_Dari": "قریه",
    "Status": "Open",
    "Status_Dari": null,
    "PS_Male": 2,
    "PS_Female": 2,
    "PS_Total": 4,
    "ولسوالي": "شاه ولي كوټ",
    "Region": "Southern Region"
   },
   "geometry": {
    "x": 7322528.0525504323,
    "y": 3734572.1883701566
   }
  },
  {
   "attributes": {
    "OBJECTID": 5753,
    "ولایت": "کندهار",
    "Province": "کندهار",
    "PC_Code": "2707123",
    "District": "KHAKREZ",
    "د_مرکز_نوم__نام_مرکز": "د ولسوالي اداري تعمير",
    "Polling_Center_Name": "District Building Office",
    "د_مرکز_ځای__موقعیت_مرکز": "خاک ریز",
    "Polling_Center_Location": "Khak Rez",
    "Map_Accuracy": "Building",
    "Map_Accuracy_Dari": "تعمیر",
    "Status": "Open",
    "Status_Dari": null,
    "PS_Male": 2,
    "PS_Female": 1,
    "PS_Total": 3,
    "ولسوالي": "خاک ریز",
    "Region": "Southern Region"
   },
   "geometry": {
    "x": 7288609.9844304314,
    "y": 3761036.4354780791
   }
  },
  {
   "attributes": {
    "OBJECTID": 5754,
    "ولایت": "کندهار",
    "Province": "کندهار",
    "PC_Code": "2708251",
    "District": "ARGHISTAN",
    "د_مرکز_نوم__نام_مرکز": "مكتب امين قلعه",
    "Polling_Center_Name": "Ameen Qala School",
    "د_مرکز_ځای__موقعیت_مرکز": "امين قلعه",
    "Polling_Center_Location": "Ameen Qala",
    "Map_Accuracy": "Village",
    "Map_Accuracy_Dari": "قریه",
    "Status": "Open",
    "Status_Dari": null,
    "PS_Male": 2,
    "PS_Female": 1,
    "PS_Total": 3,
    "ولسوالي": "ارغستان",
    "Region": "Southern Region"
   },
   "geometry": {
    "x": 7386334.8785204245,
    "y": 3706595.3663365874
   }
  },
  {
   "attributes": {
    "OBJECTID": 5755,
    "ولایت": "کندهار",
    "Province": "کندهار",
    "PC_Code": "2710136",
    "District": "MAIWAND",
    "د_مرکز_نوم__نام_مرکز": "مكتب مسلم آباد",
    "Polling_Center_Name": "Muslim Abad School",
    "د_مرکز_ځای__موقعیت_مرکز": "مسلم آباد",
    "Polling_Center_Location": "Muslim Abad",
    "Map_Accuracy": "Village",
    "Map_Accuracy_Dari": "قریه",
    "Status": "Open",
    "Status_Dari": null,
    "PS_Male": 2,
    "PS_Female": 1,
    "PS_Total": 3,
    "ولسوالي": "میوند",
    "Region": "Southern Region"
   },
   "geometry": {
    "x": 7212778.8523054039,
    "y": 3724559.6766673164
   }
  },
  {
   "attributes": {
    "OBJECTID": 5756,
    "ولایت": "کندهار",
    "Province": "کندهار",
    "PC_Code": "2710143",
    "District": "MAIWAND",
    "د_مرکز_نوم__نام_مرکز": "د ډاكټر اسم\u0670عيل تیلو پمپ",
    "Polling_Center_Name": "Doctar Ismail Oil Station",
    "د_مرکز_ځای__موقعیت_مرکز": "سنګبر",
    "Polling_Center_Location": "Sangbar",
    "Map_Accuracy": "Building",
    "Map_Accuracy_Dari": "تعمیر",
    "Status": "Open",
    "Status_Dari": null,
    "PS_Male": 2,
    "PS_Female": 1,
    "PS_Total": 3,
    "ولسوالي": "میوند",
    "Region": "Southern Region"
   },
   "geometry": {
    "x": 7222237.0293510351,
    "y": 3733855.7737189783
   }
  },
  {
   "attributes": {
    "OBJECTID": 5757,
    "ولایت": "کندهار",
    "Province": "کندهار",
    "PC_Code": "2711207",
    "District": "SPIN BOLDAK",
    "د_مرکز_نوم__نام_مرکز": "د لوي كاريز كلينيك",
    "Polling_Center_Name": "Loy Karez Clinic",
    "د_مرکز_ځای__موقعیت_مرکز": "لوي كاريز",
    "Polling_Center_Location": "Loy Karez",
    "Map_Accuracy": "Building",
    "Map_Accuracy_Dari": "تعمیر",
    "Status": "Open",
    "Status_Dari": null,
    "PS_Male": 5,
    "PS_Female": 1,
    "PS_Total": 6,
    "ولسوالي": "سپین بولدک",
    "Region": "Southern Region"
   },
   "geometry": {
    "x": 7400681.4272520682,
    "y": 3655805.1913991412
   }
  },
  {
   "attributes": {
    "OBJECTID": 5758,
    "ولایت": "کندهار",
    "Province": "کندهار",
    "PC_Code": "2711218",
    "District": "SPIN BOLDAK",
    "د_مرکز_نوم__نام_مرکز": "د محمد داود باركزي كور",
    "Polling_Center_Name": "Mohamamd Dawood Barakzai Private House",
    "د_مرکز_ځای__موقعیت_مرکز": "نوي كلي",
    "Polling_Center_Location": "Nawai Village",
    "Map_Accuracy": "Village",
    "Map_Accuracy_Dari": "قریه",
    "Status": "Open",
    "Status_Dari": null,
    "PS_Male": 5,
    "PS_Female": 1,
    "PS_Total": 6,
    "ولسوالي": "سپین بولدک",
    "Region": "Southern Region"
   },
   "geometry": {
    "x": 7389902.8941789139,
    "y": 3632796.265155002
   }
  },
  {
   "attributes": {
    "OBJECTID": 5759,
    "ولایت": "کندهار",
    "Province": "کندهار",
    "PC_Code": "2711219",
    "District": "SPIN BOLDAK",
    "د_مرکز_نوم__نام_مرکز": "د عالي نیکه مكتب",
    "Polling_Center_Name": "Aali Neeka School",
    "د_مرکز_ځای__موقعیت_مرکز": "ويش",
    "Polling_Center_Location": "Wesh",
    "Map_Accuracy": "Building",
    "Map_Accuracy_Dari": "تعمیر",
    "Status": "Open",
    "Status_Dari": null,
    "PS_Male": 5,
    "PS_Female": 1,
    "PS_Total": 6,
    "ولسوالي": "سپین بولدک",
    "Region": "Southern Region"
   },
   "geometry": {
    "x": 7394453.6761507569,
    "y": 3626832.7347067366
   }
  },
  {
   "attributes": {
    "OBJECTID": 5760,
    "ولایت": "کندهار",
    "Province": "کندهار",
    "PC_Code": "2715271",
    "District": "MARUF",
    "د_مرکز_نوم__نام_مرکز": "د خوګياڼو د كلي مسجد",
    "Polling_Center_Name": "Khogyano Village Mosque",
    "د_مرکز_ځای__موقعیت_مرکز": "د خوګياڼو كلي",
    "Polling_Center_Location": "Khogyano Village",
    "Map_Accuracy": "Village",
    "Map_Accuracy_Dari": "قریه",
    "Status": "Open",
    "Status_Dari": null,
    "PS_Male": 3,
    "PS_Female": 2,
    "PS_Total": 5,
    "ولسوالي": "معروف",
    "Region": "Southern Region"
   },
   "geometry": {
    "x": 7478264.1626591682,
    "y": 3717188.1346186278
   }
  },
  {
   "attributes": {
    "OBJECTID": 5761,
    "ولایت": "کندهار",
    "Province": "کندهار",
    "PC_Code": "2717017",
    "District": "DAND",
    "د_مرکز_نوم__نام_مرکز": "مكتب سالو كاريز",
    "Polling_Center_Name": "Salo Karez School",
    "د_مرکز_ځای__موقعیت_مرکز": "سالو كاريز",
    "Polling_Center_Location": "Salo Karez",
    "Map_Accuracy": "Village",
    "Map_Accuracy_Dari": "قریه",
    "Status": "Open",
    "Status_Dari": null,
    "PS_Male": 4,
    "PS_Female": 2,
    "PS_Total": 6,
    "ولسوالي": "ډند",
    "Region": "Southern Region"
   },
   "geometry": {
    "x": 7316199.3858779352,
    "y": 3707914.6576815089
   }
  },
  {
   "attributes": {
    "OBJECTID": 5762,
    "ولایت": "جوزجان",
    "Province": "JAWZJAN",
    "PC_Code": "2801010",
    "District": "SHEBERGHAN",
    "د_مرکز_نوم__نام_مرکز": "لیسه قزانچی بابا",
    "Polling_Center_Name": "Qazanchi Baba High School",
    "د_مرکز_ځای__موقعیت_مرکز": "ناحیه چهارم",
    "Polling_Center_Location": "D04 - Nahia 4",
    "Map_Accuracy": "Building",
    "Map_Accuracy_Dari": "تعمیر",
    "Status": "Open",
    "Status_Dari": null,
    "PS_Male": 5,
    "PS_Female": 3,
    "PS_Total": 8,
    "ولسوالي": "شبرغان",
    "Region": "Northern Region"
   },
   "geometry": {
    "x": 7324957.7596238637,
    "y": 4396498.9553849725
   }
  },
  {
   "attributes": {
    "OBJECTID": 5763,
    "ولایت": "جوزجان",
    "Province": "JAWZJAN",
    "PC_Code": "2801019",
    "District": "SHEBERGHAN",
    "د_مرکز_نوم__نام_مرکز": "مکتب متوسطه جلال آباد",
    "Polling_Center_Name": "Jalal Abad Secondary School",
    "د_مرکز_ځای__موقعیت_مرکز": "ناحیه چهارم",
    "Polling_Center_Location": "D04 - Nahia 4",
    "Map_Accuracy": "Building",
    "Map_Accuracy_Dari": "تعمیر",
    "Status": "Open",
    "Status_Dari": null,
    "PS_Male": 4,
    "PS_Female": 2,
    "PS_Total": 6,
    "ولسوالي": "شبرغان",
    "Region": "Northern Region"
   },
   "geometry": {
    "x": 7333299.068218369,
    "y": 4405960.743455776
   }
  },
  {
   "attributes": {
    "OBJECTID": 5764,
    "ولایت": "جوزجان",
    "Province": "JAWZJAN",
    "PC_Code": "2801030",
    "District": "SHEBERGHAN",
    "د_مرکز_نوم__نام_مرکز": "لیسه ذکور منگوتی",
    "Polling_Center_Name": "Mangotai Boys High School",
    "د_مرکز_ځای__موقعیت_مرکز": "ناحیه چهارم",
    "Polling_Center_Location": "D04 - Nahia 4",
    "Map_Accuracy": "Building",
    "Map_Accuracy_Dari": "تعمیر",
    "Status": "Open",
    "Status_Dari": null,
    "PS_Male": 2,
    "PS_Female": 1,
    "PS_Total": 3,
    "ولسوالي": "شبرغان",
    "Region": "Northern Region"
   },
   "geometry": {
    "x": 7321906.4676682921,
    "y": 4393524.8790370962
   }
  },
  {
   "attributes": {
    "OBJECTID": 5765,
    "ولایت": "جوزجان",
    "Province": "JAWZJAN",
    "PC_Code": "2803117",
    "District": "KHANAQA",
    "د_مرکز_نوم__نام_مرکز": "مکتب نسوان ینگی قلعه عربیه",
    "Polling_Center_Name": "Yangee Qala Arabia Girls School",
    "د_مرکز_ځای__موقعیت_مرکز": "ینگی قلعه",
    "Polling_Center_Location": "Yangee Qala",
    "Map_Accuracy": "Building",
    "Map_Accuracy_Dari": "تعمیر",
    "Status": "Open",
    "Status_Dari": null,
    "PS_Male": 1,
    "PS_Female": 1,
    "PS_Total": 2,
    "ولسوالي": "خانقاه",
    "Region": "Northern Region"
   },
   "geometry": {
    "x": 7355606.5112222368,
    "y": 4422580.9977521235
   }
  },
  {
   "attributes": {
    "OBJECTID": 5766,
    "ولایت": "جوزجان",
    "Province": "JAWZJAN",
    "PC_Code": "2804074",
    "District": "MINGAJIK",
    "د_مرکز_نوم__نام_مرکز": "مکتب دالی مهاجر",
    "Polling_Center_Name": "Daali Muhajir School",
    "د_مرکز_ځای__موقعیت_مرکز": "دالی مهاجر",
    "Polling_Center_Location": "Daali Muhajir",
    "Map_Accuracy": "Building",
    "Map_Accuracy_Dari": "تعمیر",
    "Status": "Open",
    "Status_Dari": null,
    "PS_Male": 2,
    "PS_Female": 1,
    "PS_Total": 3,
    "ولسوالي": "منگجیک",
    "Region": "Northern Region"
   },
   "geometry": {
    "x": 7367768.9793368764,
    "y": 4440058.8899355475
   }
  },
  {
   "attributes": {
    "OBJECTID": 5767,
    "ولایت": "جوزجان",
    "Province": "JAWZJAN",
    "PC_Code": "2807037",
    "District": "AQCHAH",
    "د_مرکز_نوم__نام_مرکز": "مکتب کول بقال اولمیه",
    "Polling_Center_Name": "Kol Baqal Ulemya School",
    "د_مرکز_ځای__موقعیت_مرکز": "کول بقال اولیه",
    "Polling_Center_Location": "Kol Baqal Awalia",
    "Map_Accuracy": "Building",
    "Map_Accuracy_Dari": "تعمیر",
    "Status": "Open",
    "Status_Dari": null,
    "PS_Male": 2,
    "PS_Female": 1,
    "PS_Total": 3,
    "ولسوالي": "آقچه",
    "Region": "Northern Region"
   },
   "geometry": {
    "x": 7370211.2775352793,
    "y": 4426305.9687148025
   }
  },
  {
   "attributes": {
    "OBJECTID": 5768,
    "ولایت": "جوزجان",
    "Province": "JAWZJAN",
    "PC_Code": "2807048",
    "District": "AQCHAH",
    "د_مرکز_نوم__نام_مرکز": "لیسه ذکور نمبر اول ",
    "Polling_Center_Name": "Number 1 Boys High School",
    "د_مرکز_ځای__موقعیت_مرکز": "ناحیه دوم",
    "Polling_Center_Location": "D02 - Nahia 2",
    "Map_Accuracy": "Building",
    "Map_Accuracy_Dari": "تعمیر",
    "Status": "Open",
    "Status_Dari": null,
    "PS_Male": 1,
    "PS_Female": 1,
    "PS_Total": 2,
    "ولسوالي": "آقچه",
    "Region": "Northern Region"
   },
   "geometry": {
    "x": 7368602.0888400041,
    "y": 4424266.109796254
   }
  },
  {
   "attributes": {
    "OBJECTID": 5769,
    "ولایت": "جوزجان",
    "Province": "JAWZJAN",
    "PC_Code": "2811101",
    "District": "DARZAB",
    "د_مرکز_نوم__نام_مرکز": "لیسه قزل قشلاق",
    "Polling_Center_Name": "Qazl Qashlaq High School",
    "د_مرکز_ځای__موقعیت_مرکز": "اونچی قریه درزاب ",
    "Polling_Center_Location": "Onchi Village Darzab",
    "Map_Accuracy": "Building",
    "Map_Accuracy_Dari": "تعمیر",
    "Status": "Open",
    "Status_Dari": null,
    "PS_Male": 2,
    "PS_Female": 1,
    "PS_Total": 3,
    "ولسوالي": "درز آب",
    "Region": "Northern Region"
   },
   "geometry": {
    "x": 7276904.8891416369,
    "y": 4298703.9803359751
   }
  },
  {
   "attributes": {
    "OBJECTID": 5770,
    "ولایت": "فارياب",
    "Province": "FARYAB",
    "PC_Code": "2901002",
    "District": "MAIMANA",
    "د_مرکز_نوم__نام_مرکز": "لیسه خراسان",
    "Polling_Center_Name": "Khurasan High School",
    "د_مرکز_ځای__موقعیت_مرکز": "ناحیه چهارم",
    "Polling_Center_Location": "D04 - Nahia 4",
    "Map_Accuracy": "Building",
    "Map_Accuracy_Dari": "تعمیر",
    "Status": "Open",
    "Status_Dari": null,
    "PS_Male": 6,
    "PS_Female": 2,
    "PS_Total": 8,
    "ولسوالي": "میمنه ",
    "Region": "Northern Region"
   },
   "geometry": {
    "x": 7210957.1311024688,
    "y": 4290474.6962758126
   }
  },
  {
   "attributes": {
    "OBJECTID": 5771,
    "ولایت": "فارياب",
    "Province": "FARYAB",
    "PC_Code": "2902033",
    "District": "PASHTUN KOT",
    "د_مرکز_نوم__نام_مرکز": "مسجد هزاره قلعه",
    "Polling_Center_Name": "Hazara Qala Mosque",
    "د_مرکز_ځای__موقعیت_مرکز": "هزاره قلعه",
    "Polling_Center_Location": "Hazara Qala",
    "Map_Accuracy": "Village",
    "Map_Accuracy_Dari": "قریه",
    "Status": "Open",
    "Status_Dari": null,
    "PS_Male": 2,
    "PS_Female": 1,
    "PS_Total": 3,
    "ولسوالي": "پشتون کوت",
    "Region": "Northern Region"
   },
   "geometry": {
    "x": 7234188.3422027621,
    "y": 4289392.8202345725
   }
  },
  {
   "attributes": {
    "OBJECTID": 5772,
    "ولایت": "فارياب",
    "Province": "FARYAB",
    "PC_Code": "2902043",
    "District": "PASHTUN KOT",
    "د_مرکز_نوم__نام_مرکز": "مسجد گردی مریشکار",
    "Polling_Center_Name": "Gardai Mareshkar Mosque",
    "د_مرکز_ځای__موقعیت_مرکز": "گردی مریشکار",
    "Polling_Center_Location": "Gardai Mareshkar",
    "Map_Accuracy": "Village",
    "Map_Accuracy_Dari": "قریه",
    "Status": "Open",
    "Status_Dari": null,
    "PS_Male": 1,
    "PS_Female": 1,
    "PS_Total": 2,
    "ولسوالي": "پشتون کوت",
    "Region": "Northern Region"
   },
   "geometry": {
    "x": 7194375.1745630158,
    "y": 4276583.5293215523
   }
  },
  {
   "attributes": {
    "OBJECTID": 5773,
    "ولایت": "فارياب",
    "Province": "FARYAB",
    "PC_Code": "2903060",
    "District": "KHWAJA SABZ POSH-E-WALI",
    "د_مرکز_نوم__نام_مرکز": "لیسه نسوان قره شیخی ",
    "Polling_Center_Name": "Qara-e-Shekhi Girls High School",
    "د_مرکز_ځای__موقعیت_مرکز": "قره شیخی ",
    "Polling_Center_Location": "Qara-e-Shekhi",
    "Map_Accuracy": "Building",
    "Map_Accuracy_Dari": "تعمیر",
    "Status": "Open",
    "Status_Dari": null,
    "PS_Male": 3,
    "PS_Female": 1,
    "PS_Total": 4,
    "ولسوالي": "خواجه سبز پوش ولی",
    "Region": "Northern Region"
   },
   "geometry": {
    "x": 7221810.7391534066,
    "y": 4320757.4937488642
   }
  },
  {
   "attributes": {
    "OBJECTID": 5774,
    "ولایت": "فارياب",
    "Province": "FARYAB",
    "PC_Code": "2905137",
    "District": "BIL CHIRAGH",
    "د_مرکز_نوم__نام_مرکز": "مکتب ابتدای نیشر",
    "Polling_Center_Name": "Neshar Primary School",
    "د_مرکز_ځای__موقعیت_مرکز": "نیشر",
    "Polling_Center_Location": "Neshar",
    "Map_Accuracy": "Village",
    "Map_Accuracy_Dari": "قریه",
    "Status": "Open",
    "Status_Dari": null,
    "PS_Male": 3,
    "PS_Female": 1,
    "PS_Total": 4,
    "ولسوالي": "بل چراغ",
    "Region": "Northern Region"
   },
   "geometry": {
    "x": 7254633.4168048333,
    "y": 4286813.7437664112
   }
  },
  {
   "attributes": {
    "OBJECTID": 5775,
    "ولایت": "فارياب",
    "Province": "FARYAB",
    "PC_Code": "2906148",
    "District": "SHIRIN TAGAB",
    "د_مرکز_نوم__نام_مرکز": "مسجد جامع تاش قلعه",
    "Polling_Center_Name": "Tash Qala Mosque",
    "د_مرکز_ځای__موقعیت_مرکز": "تاش قلعه",
    "Polling_Center_Location": "Tash Qala",
    "Map_Accuracy": "Building",
    "Map_Accuracy_Dari": "تعمیر",
    "Status": "Open",
    "Status_Dari": null,
    "PS_Male": 3,
    "PS_Female": 1,
    "PS_Total": 4,
    "ولسوالي": "شیرین تگاب",
    "Region": "Northern Region"
   },
   "geometry": {
    "x": 7221241.0605460787,
    "y": 4334920.3139618374
   }
  },
  {
   "attributes": {
    "OBJECTID": 5776,
    "ولایت": "فارياب",
    "Province": "FARYAB",
    "PC_Code": "2906157",
    "District": "SHIRIN TAGAB",
    "د_مرکز_نوم__نام_مرکز": "مسجد قرغقول",
    "Polling_Center_Name": "Qarghaqol Mosque",
    "د_مرکز_ځای__موقعیت_مرکز": "قریه قرغقول",
    "Polling_Center_Location": "Qarghaqol Village",
    "Map_Accuracy": "Village",
    "Map_Accuracy_Dari": "قریه",
    "Status": "Open",
    "Status_Dari": null,
    "PS_Male": 1,
    "PS_Female": 1,
    "PS_Total": 2,
    "ولسوالي": "شیرین تگاب",
    "Region": "Northern Region"
   },
   "geometry": {
    "x": 7237130.8747931886,
    "y": 4326931.3407849297
   }
  },
  {
   "attributes": {
    "OBJECTID": 5777,
    "ولایت": "فارياب",
    "Province": "FARYAB",
    "PC_Code": "2907090",
    "District": "QAISAR",
    "د_مرکز_نوم__نام_مرکز": "مسجد جامع بیرکه",
    "Polling_Center_Name": "Beraka Mosque",
    "د_مرکز_ځای__موقعیت_مرکز": "بیرکه",
    "Polling_Center_Location": "Beraka",
    "Map_Accuracy": "Building",
    "Map_Accuracy_Dari": "تعمیر",
    "Status": "Open",
    "Status_Dari": null,
    "PS_Male": 2,
    "PS_Female": 2,
    "PS_Total": 4,
    "ولسوالي": "قیصار ",
    "Region": "Northern Region"
   },
   "geometry": {
    "x": 7150790.1062777992,
    "y": 4264708.0177449202
   }
  },
  {
   "attributes": {
    "OBJECTID": 5778,
    "ولایت": "فارياب",
    "Province": "FARYAB",
    "PC_Code": "2907203",
    "District": "QAISAR",
    "د_مرکز_نوم__نام_مرکز": "مسجد یکه پسته افغانیه",
    "Polling_Center_Name": "Yaka Pasta Afghania Mosque",
    "د_مرکز_ځای__موقعیت_مرکز": "یکه پسته افغانیه",
    "Polling_Center_Location": "Yaka Pasta Afghania",
    "Map_Accuracy": "Building",
    "Map_Accuracy_Dari": "تعمیر",
    "Status": "Open",
    "Status_Dari": null,
    "PS_Male": 1,
    "PS_Female": 1,
    "PS_Total": 2,
    "ولسوالي": "قیصار",
    "Region": "Northern Region"
   },
   "geometry": {
    "x": 7151293.7657479225,
    "y": 4263125.1404412724
   }
  },
  {
   "attributes": {
    "OBJECTID": 5779,
    "ولایت": "فارياب",
    "Province": "FARYAB",
    "PC_Code": "2908131",
    "District": "GURZIWAN",
    "د_مرکز_نوم__نام_مرکز": "مدرسه گاو کی",
    "Polling_Center_Name": "Gawaki Madrassa",
    "د_مرکز_ځای__موقعیت_مرکز": "قریه گاوکی",
    "Polling_Center_Location": "Gawaki Village",
    "Map_Accuracy": "Building",
    "Map_Accuracy_Dari": "تعمیر",
    "Status": "Open",
    "Status_Dari": null,
    "PS_Male": 3,
    "PS_Female": 1,
    "PS_Total": 4,
    "ولسوالي": "گرزیوان",
    "Region": "Northern Region"
   },
   "geometry": {
    "x": 7251517.3282226948,
    "y": 4256971.8356486959
   }
  },
  {
   "attributes": {
    "OBJECTID": 5780,
    "ولایت": "فارياب",
    "Province": "FARYAB",
    "PC_Code": "2909163",
    "District": "DAWLAT ABAD",
    "د_مرکز_نوم__نام_مرکز": "مکتب متوسطه نسوان قریش",
    "Polling_Center_Name": "Quraish Girls Secondary School",
    "د_مرکز_ځای__موقعیت_مرکز": "قریش",
    "Polling_Center_Location": "Quraish",
    "Map_Accuracy": "Building",
    "Map_Accuracy_Dari": "تعمیر",
    "Status": "Open",
    "Status_Dari": null,
    "PS_Male": 3,
    "PS_Female": 1,
    "PS_Total": 4,
    "ولسوالي": "دولت آباد",
    "Region": "Northern Region"
   },
   "geometry": {
    "x": 7226820.7207039399,
    "y": 4360735.734237602
   }
  },
  {
   "attributes": {
    "OBJECTID": 5781,
    "ولایت": "فارياب",
    "Province": "FARYAB",
    "PC_Code": "2910115",
    "District": "KOHISTAN",
    "د_مرکز_نوم__نام_مرکز": "مسجد تندورک",
    "Polling_Center_Name": "Tandorak Mosque",
    "د_مرکز_ځای__موقعیت_مرکز": "تندورک",
    "Polling_Center_Location": "Tandorak",
    "Map_Accuracy": "Building",
    "Map_Accuracy_Dari": "تعمیر",
    "Status": "Open",
    "Status_Dari": null,
    "PS_Male": 1,
    "PS_Female": 2,
    "PS_Total": 3,
    "ولسوالي": "کوهستان",
    "Region": "Western Region"
   },
   "geometry": {
    "x": 7195230.0559321418,
    "y": 4186936.7691128049
   }
  },
  {
   "attributes": {
    "OBJECTID": 5782,
    "ولایت": "فارياب",
    "Province": "FARYAB",
    "PC_Code": "2912197",
    "District": "QURGHAN",
    "د_مرکز_نوم__نام_مرکز": "آق مسجد",
    "Polling_Center_Name": "Aaq Mosque",
    "د_مرکز_ځای__موقعیت_مرکز": "باغبوستان ",
    "Polling_Center_Location": "Bagh Bostan",
    "Map_Accuracy": "Village",
    "Map_Accuracy_Dari": "قریه",
    "Status": "Open",
    "Status_Dari": null,
    "PS_Male": 2,
    "PS_Female": 2,
    "PS_Total": 4,
    "ولسوالي": "قرغان",
    "Region": "Northern Region"
   },
   "geometry": {
    "x": 7245856.349176812,
    "y": 4429858.1831858782
   }
  },
  {
   "attributes": {
    "OBJECTID": 5783,
    "ولایت": "هلمند",
    "Province": "HELMAND",
    "PC_Code": "3001018",
    "District": "LASHKARGAH",
    "د_مرکز_نوم__نام_مرکز": "د میراجان کور",
    "Polling_Center_Name": "Mira Jaan Private House",
    "د_مرکز_ځای__موقعیت_مرکز": "کاریز",
    "Polling_Center_Location": "Karez",
    "Map_Accuracy": "Building",
    "Map_Accuracy_Dari": "تعمیر",
    "Status": "Open",
    "Status_Dari": null,
    "PS_Male": 0,
    "PS_Female": 5,
    "PS_Total": 5,
    "ولسوالي": "لشکرگاه",
    "Region": "Southern Region"
   },
   "geometry": {
    "x": 7164408.0366595462,
    "y": 3703717.4229305172
   }
  },
  {
   "attributes": {
    "OBJECTID": 5784,
    "ولایت": "هلمند",
    "Province": "HELMAND",
    "PC_Code": "3002069",
    "District": "NAD ALI",
    "د_مرکز_نوم__نام_مرکز": "مکتب مرکز ولسوالی",
    "Polling_Center_Name": "District Center School",
    "د_مرکز_ځای__موقعیت_مرکز": "مرکز ولسوالی",
    "Polling_Center_Location": "District Compound",
    "Map_Accuracy": "Village",
    "Map_Accuracy_Dari": "قریه",
    "Status": "Open",
    "Status_Dari": null,
    "PS_Male": 3,
    "PS_Female": 1,
    "PS_Total": 4,
    "ولسوالي": "نادعلی",
    "Region": "Southern Region"
   },
   "geometry": {
    "x": 7150942.3323418731,
    "y": 3716772.7139731022
   }
  },
  {
   "attributes": {
    "OBJECTID": 5785,
    "ولایت": "هلمند",
    "Province": "HELMAND",
    "PC_Code": "3003091",
    "District": "NAWA-E-BARAKZAYI",
    "د_مرکز_نوم__نام_مرکز": "مكتب سرخ دوز",
    "Polling_Center_Name": "Surkh Doz School",
    "د_مرکز_ځای__موقعیت_مرکز": "سرخ دوز",
    "Polling_Center_Location": "Surkh Doz",
    "Map_Accuracy": "Building",
    "Map_Accuracy_Dari": "تعمیر",
    "Status": "Open",
    "Status_Dari": null,
    "PS_Male": 3,
    "PS_Female": 1,
    "PS_Total": 4,
    "ولسوالي": "ناوه بارکزایی",
    "Region": "Southern Region"
   },
   "geometry": {
    "x": 7157877.5121280113,
    "y": 3678302.0965156057
   }
  },
  {
   "attributes": {
    "OBJECTID": 5786,
    "ولایت": "هلمند",
    "Province": "HELMAND",
    "PC_Code": "3003102",
    "District": "NAWA-E-BARAKZAYI",
    "د_مرکز_نوم__نام_مرکز": "مكتب دوپله",
    "Polling_Center_Name": "Dopala School",
    "د_مرکز_ځای__موقعیت_مرکز": "دوپله",
    "Polling_Center_Location": "Dopala",
    "Map_Accuracy": "Building",
    "Map_Accuracy_Dari": "تعمیر",
    "Status": "Open",
    "Status_Dari": null,
    "PS_Male": 2,
    "PS_Female": 1,
    "PS_Total": 3,
    "ولسوالي": "ناوه بارکزایی",
    "Region": "Southern Region"
   },
   "geometry": {
    "x": 7147660.6203949545,
    "y": 3676325.1817041007
   }
  },
  {
   "attributes": {
    "OBJECTID": 5787,
    "ولایت": "هلمند",
    "Province": "HELMAND",
    "PC_Code": "3004043",
    "District": "NAHR-E-SARAJ",
    "د_مرکز_نوم__نام_مرکز": "مکتب چهار کوچه",
    "Polling_Center_Name": "Chahar Kocha School",
    "د_مرکز_ځای__موقعیت_مرکز": "چهار کوچه",
    "Polling_Center_Location": "Chahar Kocha",
    "Map_Accuracy": "Village",
    "Map_Accuracy_Dari": "قریه",
    "Status": "Open",
    "Status_Dari": null,
    "PS_Male": 4,
    "PS_Female": 1,
    "PS_Total": 5,
    "ولسوالي": "نهرسراج",
    "Region": "Southern Region"
   },
   "geometry": {
    "x": 7180527.7935600393,
    "y": 3734565.181053149
   }
  },
  {
   "attributes": {
    "OBJECTID": 5788,
    "ولایت": "هلمند",
    "Province": "HELMAND",
    "PC_Code": "3005211",
    "District": "WASHER",
    "د_مرکز_نوم__نام_مرکز": "د ولسوالي کلینیک ",
    "Polling_Center_Name": "District Clinic",
    "د_مرکز_ځای__موقعیت_مرکز": "نا کونبیره ( کوچی مرکز )",
    "Polling_Center_Location": "Na Konbira (Kochi Center)",
    "Map_Accuracy": "Building",
    "Map_Accuracy_Dari": "تعمیر",
    "Status": "Open",
    "Status_Dari": null,
    "PS_Male": 4,
    "PS_Female": 2,
    "PS_Total": 6,
    "ولسوالي": "واشیر",
    "Region": "Southern Region"
   },
   "geometry": {
    "x": 7109547.4995283056,
    "y": 3795534.5968255256
   }
  },
  {
   "attributes": {
    "OBJECTID": 5789,
    "ولایت": "هلمند",
    "Province": "HELMAND",
    "PC_Code": "3006109",
    "District": "GARM SER",
    "د_مرکز_نوم__نام_مرکز": "مكتب بنادر سفلا",
    "Polling_Center_Name": "Banadar Sufla School",
    "د_مرکز_ځای__موقعیت_مرکز": "بنادر سفلا",
    "Polling_Center_Location": "Banadar Sufla",
    "Map_Accuracy": "Village",
    "Map_Accuracy_Dari": "قریه",
    "Status": "Open",
    "Status_Dari": null,
    "PS_Male": 3,
    "PS_Female": 0,
    "PS_Total": 3,
    "ولسوالي": "گرم سیر",
    "Region": "Southern Region"
   },
   "geometry": {
    "x": 7125913.1622971557,
    "y": 3581952.5838957489
   }
  },
  {
   "attributes": {
    "OBJECTID": 5790,
    "ولایت": "هلمند",
    "Province": "HELMAND",
    "PC_Code": "3009178",
    "District": "MUSA QALA",
    "د_مرکز_نوم__نام_مرکز": "مدرسه یتمچی",
    "Polling_Center_Name": "Yatamchi Madrassa",
    "د_مرکز_ځای__موقعیت_مرکز": "یتمچی",
    "Polling_Center_Location": "Yatamchi",
    "Map_Accuracy": "Village",
    "Map_Accuracy_Dari": "قریه",
    "Status": "Open",
    "Status_Dari": null,
    "PS_Male": 5,
    "PS_Female": 1,
    "PS_Total": 6,
    "ولسوالي": "موسی قلعه",
    "Region": "Southern Region"
   },
   "geometry": {
    "x": 7212730.8992083576,
    "y": 3802735.0664235246
   }
  },
  {
   "attributes": {
    "OBJECTID": 5791,
    "ولایت": "هلمند",
    "Province": "HELMAND",
    "PC_Code": "3010149",
    "District": "KAJAKI",
    "د_مرکز_نوم__نام_مرکز": "مرکز ولسوالی عقب دوکان های بازار",
    "Polling_Center_Name": "District Building Office",
    "د_مرکز_ځای__موقعیت_مرکز": "مرکز ولسوالی",
    "Polling_Center_Location": "District Compound",
    "Map_Accuracy": "Village",
    "Map_Accuracy_Dari": "قریه",
    "Status": "Open",
    "Status_Dari": null,
    "PS_Male": 4,
    "PS_Female": 0,
    "PS_Total": 4,
    "ولسوالي": "کجکی",
    "Region": "Southern Region"
   },
   "geometry": {
    "x": 7244241.584265599,
    "y": 3800372.4653286934
   }
  },
  {
   "attributes": {
    "OBJECTID": 5792,
    "ولایت": "هلمند",
    "Province": "HELMAND",
    "PC_Code": "3014073",
    "District": "MARJA",
    "د_مرکز_نوم__نام_مرکز": "مکتب مارجه بلاک ۱۰ ـ د",
    "Polling_Center_Name": "Marja Block 10 - D School",
    "د_مرکز_ځای__موقعیت_مرکز": "مارجه بلاک ۱۰ ـ د",
    "Polling_Center_Location": "Marja Block 10 - D",
    "Map_Accuracy": "Village",
    "Map_Accuracy_Dari": "قریه",
    "Status": "Open",
    "Status_Dari": null,
    "PS_Male": 2,
    "PS_Female": 1,
    "PS_Total": 3,
    "ولسوالي": "مارجه",
    "Region": "Southern Region"
   },
   "geometry": {
    "x": 7138865.5256885942,
    "y": 3696333.8066610722
   }
  },
  {
   "attributes": {
    "OBJECTID": 5793,
    "ولایت": "بادغيس",
    "Province": "BADGHIS",
    "PC_Code": "3101001",
    "District": "QALA-E-NOW",
    "د_مرکز_نوم__نام_مرکز": "قلعه نو مکتب حنظله ",
    "Polling_Center_Name": "Hanzala School Qala- e- Naw",
    "د_مرکز_ځای__موقعیت_مرکز": "حنظله ",
    "Polling_Center_Location": "Hanzala",
    "Map_Accuracy": "Building",
    "Map_Accuracy_Dari": "تعمیر",
    "Status": "Open",
    "Status_Dari": null,
    "PS_Male": 7,
    "PS_Female": 7,
    "PS_Total": 14,
    "ولسوالي": "قلعه نو",
    "Region": "Western Region"
   },
   "geometry": {
    "x": 7027582.2927666623,
    "y": 4161979.2165194899
   }
  },
  {
   "attributes": {
    "OBJECTID": 5794,
    "ولایت": "بادغيس",
    "Province": "BADGHIS",
    "PC_Code": "3101011",
    "District": "QALA-E-NOW",
    "د_مرکز_نوم__نام_مرکز": "مسجد جامع  چشمه سنجد",
    "Polling_Center_Name": "Chushma-e- Senjid Bazar",
    "د_مرکز_ځای__موقعیت_مرکز": "بازار چشمه سنجد",
    "Polling_Center_Location": "Chashma-e- Sanjid Bazar",
    "Map_Accuracy": "Building",
    "Map_Accuracy_Dari": "تعمیر",
    "Status": "Open",
    "Status_Dari": null,
    "PS_Male": 4,
    "PS_Female": 2,
    "PS_Total": 6,
    "ولسوالي": "قلعه نو",
    "Region": "Western Region"
   },
   "geometry": {
    "x": 7032612.5099742375,
    "y": 4137801.3133146567
   }
  },
  {
   "attributes": {
    "OBJECTID": 5795,
    "ولایت": "بادغيس",
    "Province": "BADGHIS",
    "PC_Code": "3102042",
    "District": "AB KAMARI",
    "د_مرکز_نوم__نام_مرکز": "لیسه تا شبولاق",
    "Polling_Center_Name": "Tashbolaq High School",
    "د_مرکز_ځای__موقعیت_مرکز": "تا شبولاق",
    "Polling_Center_Location": "Tashbolaq ",
    "Map_Accuracy": "Building",
    "Map_Accuracy_Dari": "تعمیر",
    "Status": "Open",
    "Status_Dari": null,
    "PS_Male": 1,
    "PS_Female": 1,
    "PS_Total": 2,
    "ولسوالي": "آبکمری",
    "Region": "Western Region"
   },
   "geometry": {
    "x": 6999736.1807810282,
    "y": 4141386.5182968881
   }
  },
  {
   "attributes": {
    "OBJECTID": 5796,
    "ولایت": "بادغيس",
    "Province": "BADGHIS",
    "PC_Code": "3103027",
    "District": "MUQUR",
    "د_مرکز_نوم__نام_مرکز": "مکتب قریه سنجیتک",
    "Polling_Center_Name": "Sanjitak Village School",
    "د_مرکز_ځای__موقعیت_مرکز": "سنجیتک ",
    "Polling_Center_Location": "Sanjitak ",
    "Map_Accuracy": "Building",
    "Map_Accuracy_Dari": "تعمیر",
    "Status": "Open",
    "Status_Dari": null,
    "PS_Male": 1,
    "PS_Female": 1,
    "PS_Total": 2,
    "ولسوالي": "مقر",
    "Region": "Western Region"
   },
   "geometry": {
    "x": 7040355.5208335212,
    "y": 4161334.8585778903
   }
  },
  {
   "attributes": {
    "OBJECTID": 5797,
    "ولایت": "بادغيس",
    "Province": "BADGHIS",
    "PC_Code": "3104063",
    "District": "QADIS",
    "د_مرکز_نوم__نام_مرکز": "مکتب قریه  قادس خوردک",
    "Polling_Center_Name": "Qades Khordak School",
    "د_مرکز_ځای__موقعیت_مرکز": "قریه قادس خوردک",
    "Polling_Center_Location": "Qades Khordak Village",
    "Map_Accuracy": "Building",
    "Map_Accuracy_Dari": "تعمیر",
    "Status": "Open",
    "Status_Dari": null,
    "PS_Male": 2,
    "PS_Female": 1,
    "PS_Total": 3,
    "ولسوالي": "قادس",
    "Region": "Western Region"
   },
   "geometry": {
    "x": 7071605.6359058889,
    "y": 4130577.6826629359
   }
  },
  {
   "attributes": {
    "OBJECTID": 5798,
    "ولایت": "بادغيس",
    "Province": "BADGHIS",
    "PC_Code": "3104073",
    "District": "QADIS",
    "د_مرکز_نوم__نام_مرکز": "مکتب  میر غیاث",
    "Polling_Center_Name": "Mir Gheyas School ",
    "د_مرکز_ځای__موقعیت_مرکز": "میر غیاث ",
    "Polling_Center_Location": "Mir Gheyas ",
    "Map_Accuracy": "Building",
    "Map_Accuracy_Dari": "تعمیر",
    "Status": "Open",
    "Status_Dari": null,
    "PS_Male": 2,
    "PS_Female": 1,
    "PS_Total": 3,
    "ولسوالي": "قادس",
    "Region": "Western Region"
   },
   "geometry": {
    "x": 7076258.9242044371,
    "y": 4148335.9262960111
   }
  },
  {
   "attributes": {
    "OBJECTID": 5799,
    "ولایت": "بادغيس",
    "Province": "BADGHIS",
    "PC_Code": "3106103",
    "District": "JAWAND",
    "د_مرکز_نوم__نام_مرکز": "مسجد قریه کادیان",
    "Polling_Center_Name": "Kadian Village Mosque",
    "د_مرکز_ځای__موقعیت_مرکز": "قریه کادیان",
    "Polling_Center_Location": "Kadian Village",
    "Map_Accuracy": "Village",
    "Map_Accuracy_Dari": "قریه",
    "Status": "Open",
    "Status_Dari": null,
    "PS_Male": 1,
    "PS_Female": 1,
    "PS_Total": 2,
    "ولسوالي": "جوند",
    "Region": "Western Region"
   },
   "geometry": {
    "x": 7180476.1290711677,
    "y": 4153585.9328911831
   }
  },
  {
   "attributes": {
    "OBJECTID": 5800,
    "ولایت": "بادغيس",
    "Province": "BADGHIS",
    "PC_Code": "3106180",
    "District": "JAWAND",
    "د_مرکز_نوم__نام_مرکز": "مسجد سمبه کیچ",
    "Polling_Center_Name": "Samba keech Mosque ",
    "د_مرکز_ځای__موقعیت_مرکز": "سمبه کیچ ",
    "Polling_Center_Location": "Samba Keech ",
    "Map_Accuracy": "Village",
    "Map_Accuracy_Dari": "قریه",
    "Status": "Open",
    "Status_Dari": null,
    "PS_Male": 1,
    "PS_Female": 1,
    "PS_Total": 2,
    "ولسوالي": "جوند",
    "Region": "Western Region"
   },
   "geometry": {
    "x": 7171826.6948053148,
    "y": 4176521.3256175467
   }
  }
 ]
}