{
 "displayFieldName": "Polling_Center_Name",
 "fieldAliases": {
  "OBJECTID": "OBJECTID",
  "ولایت": "ولایت",
  "Province": "Province",
  "PC_Code": "PC_Code",
  "District": "District",
  "د_مرکز_نوم__نام_مرکز": "د_مرکز_نوم__نام_مرکز",
  "Polling_Center_Name": "Polling_Center_Name",
  "د_مرکز_ځای__موقعیت_مرکز": "د_مرکز_ځای__موقعیت_مرکز",
  "Polling_Center_Location": "Polling_Center_Location",
  "Map_Accuracy": "Map_Accuracy",
  "Map_Accuracy_Dari": "Map_Accuracy_Dari",
  "Status": "Status",
  "Status_Dari": "Status_Dari",
  "PS_Male": "PS_Male",
  "PS_Female": "PS_Female",
  "PS_Total": "PS_Total",
  "ولسوالي": "ولسوالي",
  "Region": "Region"
 },
 "geometryType": "esriGeometryPoint",
 "spatialReference": {
  "wkid": 102100,
  "latestWkid": 3857
 },
 "fields": [
  {
   "name": "OBJECTID",
   "type": "esriFieldTypeOID",
   "alias": "OBJECTID"
  },
  {
   "name": "ولایت",
   "type": "esriFieldTypeString",
   "alias": "ولایت",
   "length": 255
  },
  {
   "name": "Province",
   "type": "esriFieldTypeString",
   "alias": "Province",
   "length": 255
  },
  {
   "name": "PC_Code",
   "type": "esriFieldTypeString",
   "alias": "PC_Code",
   "length": 255
  },
  {
   "name": "District",
   "type": "esriFieldTypeString",
   "alias": "District",
   "length": 255
  },
  {
   "name": "د_مرکز_نوم__نام_مرکز",
   "type": "esriFieldTypeString",
   "alias": "د_مرکز_نوم__نام_مرکز",
   "length": 255
  },
  {
   "name": "Polling_Center_Name",
   "type": "esriFieldTypeString",
   "alias": "Polling_Center_Name",
   "length": 255
  },
  {
   "name": "د_مرکز_ځای__موقعیت_مرکز",
   "type": "esriFieldTypeString",
   "alias": "د_مرکز_ځای__موقعیت_مرکز",
   "length": 255
  },
  {
   "name": "Polling_Center_Location",
   "type": "esriFieldTypeString",
   "alias": "Polling_Center_Location",
   "length": 255
  },
  {
   "name": "Map_Accuracy",
   "type": "esriFieldTypeString",
   "alias": "Map_Accuracy",
   "length": 10
  },
  {
   "name": "Map_Accuracy_Dari",
   "type": "esriFieldTypeString",
   "alias": "Map_Accuracy_Dari",
   "length": 50
  },
  {
   "name": "Status",
   "type": "esriFieldTypeString",
   "alias": "Status",
   "length": 6
  },
  {
   "name": "Status_Dari",
   "type": "esriFieldTypeString",
   "alias": "Status_Dari",
   "length": 8
  },
  {
   "name": "PS_Male",
   "type": "esriFieldTypeSmallInteger",
   "alias": "PS_Male"
  },
  {
   "name": "PS_Female",
   "type": "esriFieldTypeSmallInteger",
   "alias": "PS_Female"
  },
  {
   "name": "PS_Total",
   "type": "esriFieldTypeSmallInteger",
   "alias": "PS_Total"
  },
  {
   "name": "ولسوالي",
   "type": "esriFieldTypeString",
   "alias": "ولسوالي",
   "length": 255
  },
  {
   "name": "Region",
   "type": "esriFieldTypeString",
   "alias": "Region",
   "length": 50
  }
 ],
 "features": [
  {
   "attributes": {
    "OBJECTID": 3401,
    "ولایت": "ننگرهار",
    "Province": "NANGARHAR",
    "PC_Code": "0603083",
    "District": "SURKH RUD",
    "د_مرکز_نوم__نام_مرکز": "افغان مینه متوسطه",
    "Polling_Center_Name": "Afghan Mena Secondary School",
    "د_مرکز_ځای__موقعیت_مرکز": "افغان مينه",
    "Polling_Center_Location": "Afghan Mena",
    "Map_Accuracy": "Building",
    "Map_Accuracy_Dari": "تعمیر",
    "Status": "Open",
    "Status_Dari": null,
    "PS_Male": 3,
    "PS_Female": 2,
    "PS_Total": 5,
    "ولسوالي": "سرخرود",
    "Region": "Eastern Region"
   },
   "geometry": {
    "x": 7839267.693082069,
    "y": 4089065.2357797921
   }
  },
  {
   "attributes": {
    "OBJECTID": 3402,
    "ولایت": "ننگرهار",
    "Province": "NANGARHAR",
    "PC_Code": "0605153",
    "District": "KAMA",
    "د_مرکز_نوم__نام_مرکز": "خښی جومات",
    "Polling_Center_Name": "Khashe Mosque",
    "د_مرکز_ځای__موقعیت_مرکز": "خښی",
    "Polling_Center_Location": "Khashe ",
    "Map_Accuracy": "Building",
    "Map_Accuracy_Dari": "تعمیر",
    "Status": "Open",
    "Status_Dari": null,
    "PS_Male": 2,
    "PS_Female": 0,
    "PS_Total": 2,
    "ولسوالي": "کامه",
    "Region": "Eastern Region"
   },
   "geometry": {
    "x": 7855139.2075180924,
    "y": 4086833.8701442881
   }
  },
  {
   "attributes": {
    "OBJECTID": 3403,
    "ولایت": "ننگرهار",
    "Province": "NANGARHAR",
    "PC_Code": "0605164",
    "District": "KAMA",
    "د_مرکز_نوم__نام_مرکز": "ماما خيل جومات",
    "Polling_Center_Name": "Mama Khel Mosque",
    "د_مرکز_ځای__موقعیت_مرکز": "ماما خيل",
    "Polling_Center_Location": "Mama Khel",
    "Map_Accuracy": "Village",
    "Map_Accuracy_Dari": "قریه",
    "Status": "Open",
    "Status_Dari": null,
    "PS_Male": 0,
    "PS_Female": 2,
    "PS_Total": 2,
    "ولسوالي": "کامه",
    "Region": "Eastern Region"
   },
   "geometry": {
    "x": 7865552.8197156955,
    "y": 4085975.2558376547
   }
  },
  {
   "attributes": {
    "OBJECTID": 3404,
    "ولایت": "ننگرهار",
    "Province": "NANGARHAR",
    "PC_Code": "0605176",
    "District": "KAMA",
    "د_مرکز_نوم__نام_مرکز": "ګرداوچارديوالي",
    "Polling_Center_Name": "Gardaaw Chardewali",
    "د_مرکز_ځای__موقعیت_مرکز": "ګرداو",
    "Polling_Center_Location": "Gerdaw",
    "Map_Accuracy": "Building",
    "Map_Accuracy_Dari": "تعمیر",
    "Status": "Open",
    "Status_Dari": null,
    "PS_Male": 0,
    "PS_Female": 3,
    "PS_Total": 3,
    "ولسوالي": "کامه",
    "Region": "Eastern Region"
   },
   "geometry": {
    "x": 7872317.619455195,
    "y": 4081681.4426056715
   }
  },
  {
   "attributes": {
    "OBJECTID": 3405,
    "ولایت": "ننگرهار",
    "Province": "NANGARHAR",
    "PC_Code": "0607131",
    "District": "RODAT",
    "د_مرکز_نوم__نام_مرکز": "جامع جومات",
    "Polling_Center_Name": "Mosque",
    "د_مرکز_ځای__موقعیت_مرکز": "کابل کمپ",
    "Polling_Center_Location": "Kabul Camp",
    "Map_Accuracy": "Building",
    "Map_Accuracy_Dari": "تعمیر",
    "Status": "Open",
    "Status_Dari": null,
    "PS_Male": 3,
    "PS_Female": 1,
    "PS_Total": 4,
    "ولسوالي": "رودات",
    "Region": "Eastern Region"
   },
   "geometry": {
    "x": 7861781.1105397502,
    "y": 4071004.7464630767
   }
  },
  {
   "attributes": {
    "OBJECTID": 3406,
    "ولایت": "ننگرهار",
    "Province": "NANGARHAR",
    "PC_Code": "0607132",
    "District": "RODAT",
    "د_مرکز_نوم__نام_مرکز": "زاړه کلی جومات",
    "Polling_Center_Name": "Zaara vvillage Mosque",
    "د_مرکز_ځای__موقعیت_مرکز": "قلعه ميرجی",
    "Polling_Center_Location": "Meerjay Village",
    "Map_Accuracy": "Village",
    "Map_Accuracy_Dari": "قریه",
    "Status": "Open",
    "Status_Dari": null,
    "PS_Male": 0,
    "PS_Female": 2,
    "PS_Total": 2,
    "ولسوالي": "رودات",
    "Region": "Eastern Region"
   },
   "geometry": {
    "x": 7850299.0583222993,
    "y": 4058762.9701731154
   }
  },
  {
   "attributes": {
    "OBJECTID": 3407,
    "ولایت": "ننگرهار",
    "Province": "NANGARHAR",
    "PC_Code": "0607136",
    "District": "RODAT",
    "د_مرکز_نوم__نام_مرکز": "کان ليسه",
    "Polling_Center_Name": "Kaan High School",
    "د_مرکز_ځای__موقعیت_مرکز": "خان کلي",
    "Polling_Center_Location": "Khan Village",
    "Map_Accuracy": "Village",
    "Map_Accuracy_Dari": "قریه",
    "Status": "Open",
    "Status_Dari": null,
    "PS_Male": 2,
    "PS_Female": 0,
    "PS_Total": 2,
    "ولسوالي": "رودات",
    "Region": "Eastern Region"
   },
   "geometry": {
    "x": 7847919.9081087988,
    "y": 4064895.646548809
   }
  },
  {
   "attributes": {
    "OBJECTID": 3408,
    "ولایت": "ننگرهار",
    "Province": "NANGARHAR",
    "PC_Code": "0608282",
    "District": "KHUGYANI",
    "د_مرکز_نوم__نام_مرکز": "نوي بازار جومات",
    "Polling_Center_Name": "Nawi Bazaar Mosque",
    "د_مرکز_ځای__موقعیت_مرکز": "کجه خوګيانې",
    "Polling_Center_Location": "Kaja Khogyany",
    "Map_Accuracy": "Building",
    "Map_Accuracy_Dari": "تعمیر",
    "Status": "Open",
    "Status_Dari": null,
    "PS_Male": 3,
    "PS_Female": 0,
    "PS_Total": 3,
    "ولسوالي": "خوګیاڼي",
    "Region": "Eastern Region"
   },
   "geometry": {
    "x": 7813490.9703552658,
    "y": 4063114.7174068321
   }
  },
  {
   "attributes": {
    "OBJECTID": 3409,
    "ولایت": "ننگرهار",
    "Province": "NANGARHAR",
    "PC_Code": "0608283",
    "District": "KHUGYANI",
    "د_مرکز_نوم__نام_مرکز": "کجه ابتدائيه مکتب",
    "Polling_Center_Name": "Kaja Primary School",
    "د_مرکز_ځای__موقعیت_مرکز": "کجه نوي بازار",
    "Polling_Center_Location": "Kaja Nawi Bazaar",
    "Map_Accuracy": "Building",
    "Map_Accuracy_Dari": "تعمیر",
    "Status": "Open",
    "Status_Dari": null,
    "PS_Male": 2,
    "PS_Female": 1,
    "PS_Total": 3,
    "ولسوالي": "خوګیاڼي",
    "Region": "Eastern Region"
   },
   "geometry": {
    "x": 7813532.6962399995,
    "y": 4062727.0892592706
   }
  },
  {
   "attributes": {
    "OBJECTID": 3410,
    "ولایت": "ننگرهار",
    "Province": "NANGARHAR",
    "PC_Code": "0609440",
    "District": "BATI KOT",
    "د_مرکز_نوم__نام_مرکز": "لوړتۍ جومات",
    "Polling_Center_Name": "Lortai Mosque",
    "د_مرکز_ځای__موقعیت_مرکز": "لورتۍ",
    "Polling_Center_Location": "Lortai",
    "Map_Accuracy": "Building",
    "Map_Accuracy_Dari": "تعمیر",
    "Status": "Open",
    "Status_Dari": null,
    "PS_Male": 3,
    "PS_Female": 2,
    "PS_Total": 5,
    "ولسوالي": "بټي کوټ",
    "Region": "Eastern Region"
   },
   "geometry": {
    "x": 7875030.1158838682,
    "y": 4063395.4185856991
   }
  },
  {
   "attributes": {
    "OBJECTID": 3411,
    "ولایت": "ننگرهار",
    "Province": "NANGARHAR",
    "PC_Code": "0609446",
    "District": "BATI KOT",
    "د_مرکز_نوم__نام_مرکز": "تکيه مکتب",
    "Polling_Center_Name": "Takya School",
    "د_مرکز_ځای__موقعیت_مرکز": "تکيه",
    "Polling_Center_Location": "Takya",
    "Map_Accuracy": "Village",
    "Map_Accuracy_Dari": "قریه",
    "Status": "Open",
    "Status_Dari": null,
    "PS_Male": 3,
    "PS_Female": 2,
    "PS_Total": 5,
    "ولسوالي": "بټي کوټ",
    "Region": "Eastern Region"
   },
   "geometry": {
    "x": 7881035.3883036589,
    "y": 4070613.3845187984
   }
  },
  {
   "attributes": {
    "OBJECTID": 3412,
    "ولایت": "ننگرهار",
    "Province": "NANGARHAR",
    "PC_Code": "0611310",
    "District": "PACHIR WAGAM",
    "د_مرکز_نوم__نام_مرکز": "حیوانی کلینیک",
    "Polling_Center_Name": "Veterinary Clinic",
    "د_مرکز_ځای__موقعیت_مرکز": "لنډيخيل",
    "Polling_Center_Location": "Landi Khel",
    "Map_Accuracy": "Village",
    "Map_Accuracy_Dari": "قریه",
    "Status": "Open",
    "Status_Dari": null,
    "PS_Male": 2,
    "PS_Female": 0,
    "PS_Total": 2,
    "ولسوالي": "پچیر و اګام",
    "Region": "Eastern Region"
   },
   "geometry": {
    "x": 7822815.2500909809,
    "y": 4056408.6988363666
   }
  },
  {
   "attributes": {
    "OBJECTID": 3413,
    "ولایت": "ننگرهار",
    "Province": "NANGARHAR",
    "PC_Code": "0612226",
    "District": "DARAH-E-NOOR",
    "د_مرکز_نوم__نام_مرکز": "برکوټ مکتب",
    "Polling_Center_Name": "BarKot School",
    "د_مرکز_ځای__موقعیت_مرکز": "کاشمونډ کلا",
    "Polling_Center_Location": "Kashmond Kala",
    "Map_Accuracy": "Building",
    "Map_Accuracy_Dari": "تعمیر",
    "Status": "Open",
    "Status_Dari": null,
    "PS_Male": 2,
    "PS_Female": 0,
    "PS_Total": 2,
    "ولسوالي": "دره نور",
    "Region": "Eastern Region"
   },
   "geometry": {
    "x": 7857376.8283573808,
    "y": 4120062.7324487353
   }
  },
  {
   "attributes": {
    "OBJECTID": 3414,
    "ولایت": "ننگرهار",
    "Province": "NANGARHAR",
    "PC_Code": "0612227",
    "District": "DARAH-E-NOOR",
    "د_مرکز_نوم__نام_مرکز": "کاشمونډ کلینيک",
    "Polling_Center_Name": "Kashmond  Clinic",
    "د_مرکز_ځای__موقعیت_مرکز": "کاشمونډ کلا",
    "Polling_Center_Location": "Kashmond Kala",
    "Map_Accuracy": "Building",
    "Map_Accuracy_Dari": "تعمیر",
    "Status": "Open",
    "Status_Dari": null,
    "PS_Male": 1,
    "PS_Female": 2,
    "PS_Total": 3,
    "ولسوالي": "دره نور",
    "Region": "Eastern Region"
   },
   "geometry": {
    "x": 7857499.2720048903,
    "y": 4120754.5828135042
   }
  },
  {
   "attributes": {
    "OBJECTID": 3415,
    "ولایت": "ننگرهار",
    "Province": "NANGARHAR",
    "PC_Code": "0612231",
    "District": "DARAH-E-NOOR",
    "د_مرکز_نوم__نام_مرکز": "مجګنډول ميدان",
    "Polling_Center_Name": "Majangdol Maidan",
    "د_مرکز_ځای__موقعیت_مرکز": "مجګنډول",
    "Polling_Center_Location": "Majangdol",
    "Map_Accuracy": "Village",
    "Map_Accuracy_Dari": "قریه",
    "Status": "Open",
    "Status_Dari": null,
    "PS_Male": 1,
    "PS_Female": 1,
    "PS_Total": 2,
    "ولسوالي": "دره نور",
    "Region": "Eastern Region"
   },
   "geometry": {
    "x": 7862145.1597836874,
    "y": 4125778.0392235243
   }
  },
  {
   "attributes": {
    "OBJECTID": 3416,
    "ولایت": "ننگرهار",
    "Province": "NANGARHAR",
    "PC_Code": "0614487",
    "District": "GOSHTA",
    "د_مرکز_نوم__نام_مرکز": "حميد مومند مکتب",
    "Polling_Center_Name": "Hameed Momand School",
    "د_مرکز_ځای__موقعیت_مرکز": "ګوشته",
    "Polling_Center_Location": "Goshta",
    "Map_Accuracy": "Building",
    "Map_Accuracy_Dari": "تعمیر",
    "Status": "Open",
    "Status_Dari": null,
    "PS_Male": 3,
    "PS_Female": 0,
    "PS_Total": 3,
    "ولسوالي": "ګوشته",
    "Region": "Eastern Region"
   },
   "geometry": {
    "x": 7880607.2457497036,
    "y": 4076697.0376450815
   }
  },
  {
   "attributes": {
    "OBJECTID": 3417,
    "ولایت": "ننگرهار",
    "Province": "NANGARHAR",
    "PC_Code": "0615388",
    "District": "ACHIN",
    "د_مرکز_نوم__نام_مرکز": "د کهی ليسه",
    "Polling_Center_Name": "Kahee High School",
    "د_مرکز_ځای__موقعیت_مرکز": "سره قلعه",
    "Polling_Center_Location": "Sra Qala",
    "Map_Accuracy": "Building",
    "Map_Accuracy_Dari": "تعمیر",
    "Status": "Open",
    "Status_Dari": null,
    "PS_Male": 1,
    "PS_Female": 1,
    "PS_Total": 2,
    "ولسوالي": "اچین",
    "Region": "Eastern Region"
   },
   "geometry": {
    "x": 7871148.2961468063,
    "y": 4045558.7968958076
   }
  },
  {
   "attributes": {
    "OBJECTID": 3418,
    "ولایت": "ننگرهار",
    "Province": "NANGARHAR",
    "PC_Code": "0616429",
    "District": "SHINWAR",
    "د_مرکز_نوم__نام_مرکز": "زراعت اداره",
    "Polling_Center_Name": "Agricultural Office",
    "د_مرکز_ځای__موقعیت_مرکز": "شيرګړ",
    "Polling_Center_Location": "Sher Garh",
    "Map_Accuracy": "Building",
    "Map_Accuracy_Dari": "تعمیر",
    "Status": "Open",
    "Status_Dari": null,
    "PS_Male": 3,
    "PS_Female": 0,
    "PS_Total": 3,
    "ولسوالي": "شینوار",
    "Region": "Eastern Region"
   },
   "geometry": {
    "x": 7881107.8561789701,
    "y": 4055686.5386182619
   }
  },
  {
   "attributes": {
    "OBJECTID": 3419,
    "ولایت": "ننگرهار",
    "Province": "NANGARHAR",
    "PC_Code": "0621261",
    "District": "HESARAK",
    "د_مرکز_نوم__نام_مرکز": "راغه جومات",
    "Polling_Center_Name": "Raagha Mosque",
    "د_مرکز_ځای__موقعیت_مرکز": "راغه کلې",
    "Polling_Center_Location": "Ragha Village",
    "Map_Accuracy": "Village",
    "Map_Accuracy_Dari": "قریه",
    "Status": "Open",
    "Status_Dari": null,
    "PS_Male": 3,
    "PS_Female": 0,
    "PS_Total": 3,
    "ولسوالي": "حصارک",
    "Region": "Eastern Region"
   },
   "geometry": {
    "x": 7770811.2323192144,
    "y": 4068856.6301331143
   }
  },
  {
   "attributes": {
    "OBJECTID": 3420,
    "ولایت": "ننگرهار",
    "Province": "NANGARHAR",
    "PC_Code": "0621262",
    "District": "HESARAK",
    "د_مرکز_نوم__نام_مرکز": "راغه مکتب",
    "Polling_Center_Name": "Raagha School",
    "د_مرکز_ځای__موقعیت_مرکز": "راغه کلې",
    "Polling_Center_Location": "Ragha Village",
    "Map_Accuracy": "Village",
    "Map_Accuracy_Dari": "قریه",
    "Status": "Open",
    "Status_Dari": null,
    "PS_Male": 0,
    "PS_Female": 3,
    "PS_Total": 3,
    "ولسوالي": "حصارک",
    "Region": "Eastern Region"
   },
   "geometry": {
    "x": 7770780.5081397574,
    "y": 4068781.5747671365
   }
  },
  {
   "attributes": {
    "OBJECTID": 3421,
    "ولایت": "لغمان",
    "Province": "LAGHMAN",
    "PC_Code": "0701001",
    "District": "MEHTARLAM",
    "د_مرکز_نوم__نام_مرکز": "روښان لېسه",
    "Polling_Center_Name": "Rokhan High School",
    "د_مرکز_ځای__موقعیت_مرکز": "مهترلام",
    "Polling_Center_Location": "Mahtarlam",
    "Map_Accuracy": "Building",
    "Map_Accuracy_Dari": "تعمیر",
    "Status": "Open",
    "Status_Dari": null,
    "PS_Male": 13,
    "PS_Female": 0,
    "PS_Total": 13,
    "ولسوالي": "مهترلام",
    "Region": "Eastern Region"
   },
   "geometry": {
    "x": 7815683.7338925488,
    "y": 4117993.1866686051
   }
  },
  {
   "attributes": {
    "OBJECTID": 3422,
    "ولایت": "لغمان",
    "Province": "LAGHMAN",
    "PC_Code": "0701002",
    "District": "MEHTARLAM",
    "د_مرکز_نوم__نام_مرکز": "مستورې لېسه",
    "Polling_Center_Name": "Mastory High School",
    "د_مرکز_ځای__موقعیت_مرکز": "مهترلام",
    "Polling_Center_Location": "Mahtarlam",
    "Map_Accuracy": "Building",
    "Map_Accuracy_Dari": "تعمیر",
    "Status": "Open",
    "Status_Dari": null,
    "PS_Male": 0,
    "PS_Female": 6,
    "PS_Total": 6,
    "ولسوالي": "مهترلام",
    "Region": "Eastern Region"
   },
   "geometry": {
    "x": 7815301.8557189656,
    "y": 4118181.751638581
   }
  },
  {
   "attributes": {
    "OBJECTID": 3423,
    "ولایت": "لغمان",
    "Province": "LAGHMAN",
    "PC_Code": "0702033",
    "District": "QARGHAYEE",
    "د_مرکز_نوم__نام_مرکز": "دقرغيودهلکانوعالي لېسه اودنجونومنځنې ښوونځی",
    "Polling_Center_Name": "Qarghayee Boys High School and Girls Secondary School ",
    "د_مرکز_ځای__موقعیت_مرکز": "قرغه يي",
    "Polling_Center_Location": "Qarghayee",
    "Map_Accuracy": "Building",
    "Map_Accuracy_Dari": "تعمیر",
    "Status": "Open",
    "Status_Dari": null,
    "PS_Male": 4,
    "PS_Female": 1,
    "PS_Total": 5,
    "ولسوالي": "قرغه یي",
    "Region": "Eastern Region"
   },
   "geometry": {
    "x": 7819505.0214300966,
    "y": 4102757.2650626907
   }
  },
  {
   "attributes": {
    "OBJECTID": 3424,
    "ولایت": "لغمان",
    "Province": "LAGHMAN",
    "PC_Code": "0703089",
    "District": "ALISHING",
    "د_مرکز_نوم__نام_مرکز": "د غازي آباد تش میدان",
    "Polling_Center_Name": "Ghazi Abad Village Open Space",
    "د_مرکز_ځای__موقعیت_مرکز": "غازی آباد کلی",
    "Polling_Center_Location": "Ghazi Abad Village",
    "Map_Accuracy": "Building",
    "Map_Accuracy_Dari": "تعمیر",
    "Status": "Open",
    "Status_Dari": null,
    "PS_Male": 2,
    "PS_Female": 1,
    "PS_Total": 3,
    "ولسوالي": "علیشنګ",
    "Region": "Eastern Region"
   },
   "geometry": {
    "x": 7803848.0530486898,
    "y": 4140361.6228248281
   }
  },
  {
   "attributes": {
    "OBJECTID": 3425,
    "ولایت": "لغمان",
    "Province": "LAGHMAN",
    "PC_Code": "0703090",
    "District": "ALISHING",
    "د_مرکز_نوم__نام_مرکز": "د وطن ګټو ښوونځی ",
    "Polling_Center_Name": "Watangato School",
    "د_مرکز_ځای__موقعیت_مرکز": "عليشنګ",
    "Polling_Center_Location": "Alishang ",
    "Map_Accuracy": "Building",
    "Map_Accuracy_Dari": "تعمیر",
    "Status": "Open",
    "Status_Dari": null,
    "PS_Male": 3,
    "PS_Female": 1,
    "PS_Total": 4,
    "ولسوالي": "علیشنګ",
    "Region": "Eastern Region"
   },
   "geometry": {
    "x": 7804391.8676855238,
    "y": 4134488.2786687342
   }
  },
  {
   "attributes": {
    "OBJECTID": 3426,
    "ولایت": "لغمان",
    "Province": "LAGHMAN",
    "PC_Code": "0704056",
    "District": "ALINGAR",
    "د_مرکز_نوم__نام_مرکز": "درجائي ښوونځی",
    "Polling_Center_Name": "Rajayee School",
    "د_مرکز_ځای__موقعیت_مرکز": "رجایی",
    "Polling_Center_Location": "Rajayee",
    "Map_Accuracy": "Building",
    "Map_Accuracy_Dari": "تعمیر",
    "Status": "Open",
    "Status_Dari": null,
    "PS_Male": 1,
    "PS_Female": 1,
    "PS_Total": 2,
    "ولسوالي": "علینګار",
    "Region": "Eastern Region"
   },
   "geometry": {
    "x": 7828676.815727327,
    "y": 4136581.0426449915
   }
  },
  {
   "attributes": {
    "OBJECTID": 3427,
    "ولایت": "لغمان",
    "Province": "LAGHMAN",
    "PC_Code": "0704057",
    "District": "ALINGAR",
    "د_مرکز_نوم__نام_مرکز": "د سخرې دکلي جومات ",
    "Polling_Center_Name": "Sakhre Village Mosque",
    "د_مرکز_ځای__موقعیت_مرکز": "سخره",
    "Polling_Center_Location": "Sakhra",
    "Map_Accuracy": "Village",
    "Map_Accuracy_Dari": "قریه",
    "Status": "Open",
    "Status_Dari": null,
    "PS_Male": 1,
    "PS_Female": 1,
    "PS_Total": 2,
    "ولسوالي": "علینګار",
    "Region": "Eastern Region"
   },
   "geometry": {
    "x": 7831543.6800070815,
    "y": 4139122.6356963138
   }
  },
  {
   "attributes": {
    "OBJECTID": 3428,
    "ولایت": "پنجشیر",
    "Province": "PANJSHIR",
    "PC_Code": "0802026",
    "District": "RUKHA",
    "د_مرکز_نوم__نام_مرکز": "مسجد درخیل",
    "Polling_Center_Name": "Dar Khel Mosque",
    "د_مرکز_ځای__موقعیت_مرکز": "درخیل ",
    "Polling_Center_Location": "Dar Khel",
    "Map_Accuracy": "Building",
    "Map_Accuracy_Dari": "تعمیر",
    "Status": "Open",
    "Status_Dari": null,
    "PS_Male": 1,
    "PS_Female": 1,
    "PS_Total": 2,
    "ولسوالي": "رخه",
    "Region": "Central Region"
   },
   "geometry": {
    "x": 7733777.8915889524,
    "y": 4199247.9084269004
   }
  },
  {
   "attributes": {
    "OBJECTID": 3429,
    "ولایت": "پنجشیر",
    "Province": "PANJSHIR",
    "PC_Code": "0802027",
    "District": "RUKHA",
    "د_مرکز_نوم__نام_مرکز": "مکتب کنده ",
    "Polling_Center_Name": "Kanda School",
    "د_مرکز_ځای__موقعیت_مرکز": "کنده وگوت",
    "Polling_Center_Location": "Kanda Wagut",
    "Map_Accuracy": "Building",
    "Map_Accuracy_Dari": "تعمیر",
    "Status": "Open",
    "Status_Dari": null,
    "PS_Male": 1,
    "PS_Female": 1,
    "PS_Total": 2,
    "ولسوالي": "رخه",
    "Region": "Central Region"
   },
   "geometry": {
    "x": 7733832.1565011349,
    "y": 4203540.907487805
   }
  },
  {
   "attributes": {
    "OBJECTID": 3430,
    "ولایت": "پنجشیر",
    "Province": "PANJSHIR",
    "PC_Code": "0803045",
    "District": "DARAH",
    "د_مرکز_نوم__نام_مرکز": "مکتب پسگران",
    "Polling_Center_Name": "Pasgaran School",
    "د_مرکز_ځای__موقعیت_مرکز": "پسگران ",
    "Polling_Center_Location": "Pasgaran",
    "Map_Accuracy": "Building",
    "Map_Accuracy_Dari": "تعمیر",
    "Status": "Open",
    "Status_Dari": null,
    "PS_Male": 2,
    "PS_Female": 1,
    "PS_Total": 3,
    "ولسوالي": "دره",
    "Region": "Central Region"
   },
   "geometry": {
    "x": 7754146.8425836321,
    "y": 4202090.6411972903
   }
  },
  {
   "attributes": {
    "OBJECTID": 3431,
    "ولایت": "پنجشیر",
    "Province": "PANJSHIR",
    "PC_Code": "0803046",
    "District": "DARAH",
    "د_مرکز_نوم__نام_مرکز": "مکتب ملک مرزای شهید",
    "Polling_Center_Name": "Malek Merza Shaheed School",
    "د_مرکز_ځای__موقعیت_مرکز": "بازار عبدالله خیل",
    "Polling_Center_Location": "Bazara Abdullh Khel",
    "Map_Accuracy": "Building",
    "Map_Accuracy_Dari": "تعمیر",
    "Status": "Open",
    "Status_Dari": null,
    "PS_Male": 2,
    "PS_Female": 1,
    "PS_Total": 3,
    "ولسوالي": "دره",
    "Region": "Central Region"
   },
   "geometry": {
    "x": 7749345.2878552992,
    "y": 4196871.8543145033
   }
  },
  {
   "attributes": {
    "OBJECTID": 3432,
    "ولایت": "پنجشیر",
    "Province": "PANJSHIR",
    "PC_Code": "0804017",
    "District": "HISSA-E-AWAL KHINJ",
    "د_مرکز_نوم__نام_مرکز": "مسجد غنجو ",
    "Polling_Center_Name": "Ghanjo Mosque",
    "د_مرکز_ځای__موقعیت_مرکز": "غنجو ",
    "Polling_Center_Location": "Ghanjo",
    "Map_Accuracy": "Village",
    "Map_Accuracy_Dari": "قریه",
    "Status": "Open",
    "Status_Dari": null,
    "PS_Male": 1,
    "PS_Female": 1,
    "PS_Total": 2,
    "ولسوالي": "حصه اول خنج",
    "Region": "Central Region"
   },
   "geometry": {
    "x": 7769677.6013791626,
    "y": 4228574.7958273739
   }
  },
  {
   "attributes": {
    "OBJECTID": 3433,
    "ولایت": "پنجشیر",
    "Province": "PANJSHIR",
    "PC_Code": "0804018",
    "District": "HISSA-E-AWAL KHINJ",
    "د_مرکز_نوم__نام_مرکز": "مدرسه متا",
    "Polling_Center_Name": "Mata Madrassa",
    "د_مرکز_ځای__موقعیت_مرکز": "متا ",
    "Polling_Center_Location": "Mata",
    "Map_Accuracy": "Building",
    "Map_Accuracy_Dari": "تعمیر",
    "Status": "Open",
    "Status_Dari": null,
    "PS_Male": 2,
    "PS_Female": 1,
    "PS_Total": 3,
    "ولسوالي": "حصه اول خنج",
    "Region": "Central Region"
   },
   "geometry": {
    "x": 7764605.8831522344,
    "y": 4224516.1381389573
   }
  },
  {
   "attributes": {
    "OBJECTID": 3434,
    "ولایت": "پنجشیر",
    "Province": "PANJSHIR",
    "PC_Code": "0805030",
    "District": "UNABA",
    "د_مرکز_نوم__نام_مرکز": "مکتب ذکور ",
    "Polling_Center_Name": "Boys School",
    "د_مرکز_ځای__موقعیت_مرکز": "عنابه ",
    "Polling_Center_Location": "Unaba",
    "Map_Accuracy": "Building",
    "Map_Accuracy_Dari": "تعمیر",
    "Status": "Open",
    "Status_Dari": null,
    "PS_Male": 3,
    "PS_Female": 0,
    "PS_Total": 3,
    "ولسوالي": "عنابه",
    "Region": "Central Region"
   },
   "geometry": {
    "x": 7722210.6087165689,
    "y": 4195272.9465665016
   }
  },
  {
   "attributes": {
    "OBJECTID": 3435,
    "ولایت": "پنجشیر",
    "Province": "PANJSHIR",
    "PC_Code": "0806089",
    "District": "SHUTUL",
    "د_مرکز_نوم__نام_مرکز": "مسجد اندروسات ",
    "Polling_Center_Name": "Andarosat Mosque",
    "د_مرکز_ځای__موقعیت_مرکز": "اندروسات",
    "Polling_Center_Location": "Andarosat",
    "Map_Accuracy": "Village",
    "Map_Accuracy_Dari": "قریه",
    "Status": "Open",
    "Status_Dari": null,
    "PS_Male": 1,
    "PS_Female": 1,
    "PS_Total": 2,
    "ولسوالي": "شتل",
    "Region": "Central Region"
   },
   "geometry": {
    "x": 7711966.9446459729,
    "y": 4191131.5108912284
   }
  },
  {
   "attributes": {
    "OBJECTID": 3436,
    "ولایت": "پنجشیر",
    "Province": "PANJSHIR",
    "PC_Code": "0806090",
    "District": "SHUTUL",
    "د_مرکز_نوم__نام_مرکز": "مکتب کورابه ",
    "Polling_Center_Name": "Koraba School ",
    "د_مرکز_ځای__موقعیت_مرکز": "کورابه",
    "Polling_Center_Location": "Koraba",
    "Map_Accuracy": "Building",
    "Map_Accuracy_Dari": "تعمیر",
    "Status": "Open",
    "Status_Dari": null,
    "PS_Male": 2,
    "PS_Female": 1,
    "PS_Total": 3,
    "ولسوالي": "شتل",
    "Region": "Central Region"
   },
   "geometry": {
    "x": 7714982.5896515623,
    "y": 4192259.402450751
   }
  },
  {
   "attributes": {
    "OBJECTID": 3437,
    "ولایت": "پنجشیر",
    "Province": "PANJSHIR",
    "PC_Code": "0807067",
    "District": "PARYAN",
    "د_مرکز_نوم__نام_مرکز": "مسجد بردامه ",
    "Polling_Center_Name": "Bardama Mosque",
    "د_مرکز_ځای__موقعیت_مرکز": "کرپیتاب",
    "Polling_Center_Location": "Karpitab",
    "Map_Accuracy": "Village",
    "Map_Accuracy_Dari": "قریه",
    "Status": "Open",
    "Status_Dari": null,
    "PS_Male": 0,
    "PS_Female": 2,
    "PS_Total": 2,
    "ولسوالي": "پریان",
    "Region": "Central Region"
   },
   "geometry": {
    "x": 7802713.3044609493,
    "y": 4259012.6885148548
   }
  },
  {
   "attributes": {
    "OBJECTID": 3438,
    "ولایت": "پنجشیر",
    "Province": "PANJSHIR",
    "PC_Code": "0807095",
    "District": "PARYAN",
    "د_مرکز_نوم__نام_مرکز": "خیمه دره شال زور",
    "Polling_Center_Name": "Dara-e-Shalzor Tent ",
    "د_مرکز_ځای__موقعیت_مرکز": "دره شال زور ",
    "Polling_Center_Location": "Dara-e-Shalzor",
    "Map_Accuracy": "Village",
    "Map_Accuracy_Dari": "قریه",
    "Status": "Open",
    "Status_Dari": null,
    "PS_Male": 1,
    "PS_Female": 1,
    "PS_Total": 2,
    "ولسوالي": "پریان",
    "Region": "Central Region"
   },
   "geometry": {
    "x": 7810837.2060899287,
    "y": 4264981.4517382979
   }
  },
  {
   "attributes": {
    "OBJECTID": 3439,
    "ولایت": "پنجشیر",
    "Province": "PANJSHIR",
    "PC_Code": "0808051",
    "District": "ABSHAR",
    "د_مرکز_نوم__نام_مرکز": "لیسه ذکور عبدالودود شهید",
    "Polling_Center_Name": "Abdul Wodod Shaheed Boys High School",
    "د_مرکز_ځای__موقعیت_مرکز": "دوست علی",
    "Polling_Center_Location": "Dost Ali",
    "Map_Accuracy": "Village",
    "Map_Accuracy_Dari": "قریه",
    "Status": "Open",
    "Status_Dari": null,
    "PS_Male": 2,
    "PS_Female": 0,
    "PS_Total": 2,
    "ولسوالي": "آبشار",
    "Region": "Central Region"
   },
   "geometry": {
    "x": 7766626.753810999,
    "y": 4198425.7336342335
   }
  },
  {
   "attributes": {
    "OBJECTID": 3440,
    "ولایت": "بغلان",
    "Province": "BAGHLAN",
    "PC_Code": "0901009",
    "District": "PUL-E-KHUMRI",
    "د_مرکز_نوم__نام_مرکز": "لیسه حضرت زید",
    "Polling_Center_Name": "Hazrat Zaid School",
    "د_مرکز_ځای__موقعیت_مرکز": "ناحیه اول",
    "Polling_Center_Location": "First Nahia",
    "Map_Accuracy": "Building",
    "Map_Accuracy_Dari": "تعمیر",
    "Status": "Open",
    "Status_Dari": null,
    "PS_Male": 3,
    "PS_Female": 3,
    "PS_Total": 6,
    "ولسوالي": "پلخمری",
    "Region": "North Eastern Region"
   },
   "geometry": {
    "x": 7648413.811342719,
    "y": 4293271.2693835273
   }
  },
  {
   "attributes": {
    "OBJECTID": 3441,
    "ولایت": "بغلان",
    "Province": "BAGHLAN",
    "PC_Code": "0901010",
    "District": "PUL-E-KHUMRI",
    "د_مرکز_نوم__نام_مرکز": "مکتب نمبر 2",
    "Polling_Center_Name": "Number 2 School",
    "د_مرکز_ځای__موقعیت_مرکز": "ناحیه سوم",
    "Polling_Center_Location": "Third Nahia",
    "Map_Accuracy": "Building",
    "Map_Accuracy_Dari": "تعمیر",
    "Status": "Open",
    "Status_Dari": null,
    "PS_Male": 3,
    "PS_Female": 2,
    "PS_Total": 5,
    "ولسوالي": "پلخمری",
    "Region": "North Eastern Region"
   },
   "geometry": {
    "x": 7648443.4312328259,
    "y": 4295092.7092466159
   }
  },
  {
   "attributes": {
    "OBJECTID": 3442,
    "ولایت": "بغلان",
    "Province": "BAGHLAN",
    "PC_Code": "0901014",
    "District": "PUL-E-KHUMRI",
    "د_مرکز_نوم__نام_مرکز": "مکتب قلعه خواجه",
    "Polling_Center_Name": "Qala Khwaja School",
    "د_مرکز_ځای__موقعیت_مرکز": "قلعه خواجه",
    "Polling_Center_Location": "Qala -e-Khawja",
    "Map_Accuracy": "Building",
    "Map_Accuracy_Dari": "تعمیر",
    "Status": "Open",
    "Status_Dari": null,
    "PS_Male": 2,
    "PS_Female": 2,
    "PS_Total": 4,
    "ولسوالي": "پلخمری",
    "Region": "North Eastern Region"
   },
   "geometry": {
    "x": 7636632.5345603973,
    "y": 4295143.4105859958
   }
  },
  {
   "attributes": {
    "OBJECTID": 3443,
    "ولایت": "بغلان",
    "Province": "BAGHLAN",
    "PC_Code": "0901015",
    "District": "PUL-E-KHUMRI",
    "د_مرکز_نوم__نام_مرکز": "قریه قاضی",
    "Polling_Center_Name": "Qazi Village",
    "د_مرکز_ځای__موقعیت_مرکز": "قریه قاضی",
    "Polling_Center_Location": "Qazi Village",
    "Map_Accuracy": "Building",
    "Map_Accuracy_Dari": "تعمیر",
    "Status": "Open",
    "Status_Dari": null,
    "PS_Male": 3,
    "PS_Female": 2,
    "PS_Total": 5,
    "ولسوالي": "پلخمری",
    "Region": "North Eastern Region"
   },
   "geometry": {
    "x": 7642360.3053007582,
    "y": 4297180.1206501387
   }
  },
  {
   "attributes": {
    "OBJECTID": 3444,
    "ولایت": "بغلان",
    "Province": "BAGHLAN",
    "PC_Code": "0901029",
    "District": "PUL-E-KHUMRI",
    "د_مرکز_نوم__نام_مرکز": "مکتب تاجکان شیر علی داخل قریه",
    "Polling_Center_Name": "Tajikan Sher Ali School",
    "د_مرکز_ځای__موقعیت_مرکز": "تاجکان شیر علی",
    "Polling_Center_Location": "Tajikan Sher Ali",
    "Map_Accuracy": "Building",
    "Map_Accuracy_Dari": "تعمیر",
    "Status": "Open",
    "Status_Dari": null,
    "PS_Male": 3,
    "PS_Female": 1,
    "PS_Total": 4,
    "ولسوالي": "پلخمری",
    "Region": "North Eastern Region"
   },
   "geometry": {
    "x": 7630973.4034180604,
    "y": 4296360.1817004886
   }
  },
  {
   "attributes": {
    "OBJECTID": 3445,
    "ولایت": "بغلان",
    "Province": "BAGHLAN",
    "PC_Code": "0901033",
    "District": "PUL-E-KHUMRI",
    "د_مرکز_نوم__نام_مرکز": "مکتب علی خیل ",
    "Polling_Center_Name": "Ali Khel School",
    "د_مرکز_ځای__موقعیت_مرکز": "قریه علی خیل",
    "Polling_Center_Location": "Ali Khil Village",
    "Map_Accuracy": "Building",
    "Map_Accuracy_Dari": "تعمیر",
    "Status": "Open",
    "Status_Dari": null,
    "PS_Male": 2,
    "PS_Female": 1,
    "PS_Total": 3,
    "ولسوالي": "پلخمری",
    "Region": "North Eastern Region"
   },
   "geometry": {
    "x": 7631927.7365070721,
    "y": 4309463.8424627138
   }
  },
  {
   "attributes": {
    "OBJECTID": 3446,
    "ولایت": "بغلان",
    "Province": "BAGHLAN",
    "PC_Code": "0901034",
    "District": "PUL-E-KHUMRI",
    "د_مرکز_نوم__نام_مرکز": " مرکز شهر مسجد جامع پلخمری",
    "Polling_Center_Name": "Pul-e-Khomri  Mosque",
    "د_مرکز_ځای__موقعیت_مرکز": "مرکز شهر",
    "Polling_Center_Location": "Center of the City",
    "Map_Accuracy": "Building",
    "Map_Accuracy_Dari": "تعمیر",
    "Status": "Open",
    "Status_Dari": null,
    "PS_Male": 2,
    "PS_Female": 2,
    "PS_Total": 4,
    "ولسوالي": "پلخمری",
    "Region": "North Eastern Region"
   },
   "geometry": {
    "x": 7649565.9602800617,
    "y": 4292189.5686724214
   }
  },
  {
   "attributes": {
    "OBJECTID": 3447,
    "ولایت": "بغلان",
    "Province": "BAGHLAN",
    "PC_Code": "0902076",
    "District": "DAHANA-E-GHURI",
    "د_مرکز_نوم__نام_مرکز": "لیسه ذکور شلکتو",
    "Polling_Center_Name": "Shalakto Boys High School",
    "د_مرکز_ځای__موقعیت_مرکز": "شلکتو",
    "Polling_Center_Location": "Shalakto",
    "Map_Accuracy": "Building",
    "Map_Accuracy_Dari": "تعمیر",
    "Status": "Open",
    "Status_Dari": null,
    "PS_Male": 2,
    "PS_Female": 1,
    "PS_Total": 3,
    "ولسوالي": "دهنه غوری",
    "Region": "North Eastern Region"
   },
   "geometry": {
    "x": 7628027.2073031897,
    "y": 4266199.8415197097
   }
  },
  {
   "attributes": {
    "OBJECTID": 3448,
    "ولایت": "بغلان",
    "Province": "BAGHLAN",
    "PC_Code": "0903094",
    "District": "DUSHI",
    "د_مرکز_نوم__نام_مرکز": "مکتب تلختان",
    "Polling_Center_Name": "Talkhan School",
    "د_مرکز_ځای__موقعیت_مرکز": "قریه تلختان",
    "Polling_Center_Location": "Talkhan Village",
    "Map_Accuracy": "Village",
    "Map_Accuracy_Dari": "قریه",
    "Status": "Open",
    "Status_Dari": null,
    "PS_Male": 2,
    "PS_Female": 1,
    "PS_Total": 3,
    "ولسوالي": "دوشی",
    "Region": "North Eastern Region"
   },
   "geometry": {
    "x": 7628070.2200412387,
    "y": 4229888.2581168991
   }
  },
  {
   "attributes": {
    "OBJECTID": 3449,
    "ولایت": "بغلان",
    "Province": "BAGHLAN",
    "PC_Code": "0903095",
    "District": "DUSHI",
    "د_مرکز_نوم__نام_مرکز": " لیسه  شتر جنگل",
    "Polling_Center_Name": "Shotor Jangal High School",
    "د_مرکز_ځای__موقعیت_مرکز": "شترجنگل",
    "Polling_Center_Location": "Shutor Jungle",
    "Map_Accuracy": "Building",
    "Map_Accuracy_Dari": "تعمیر",
    "Status": "Open",
    "Status_Dari": null,
    "PS_Male": 2,
    "PS_Female": 1,
    "PS_Total": 3,
    "ولسوالي": "دوشی",
    "Region": "North Eastern Region"
   },
   "geometry": {
    "x": 7606517.0946049104,
    "y": 4234090.7168874927
   }
  },
  {
   "attributes": {
    "OBJECTID": 3450,
    "ولایت": "بغلان",
    "Province": "BAGHLAN",
    "PC_Code": "0904130",
    "District": "NAHREEN",
    "د_مرکز_نوم__نام_مرکز": "خیمه در جامی و سید ",
    "Polling_Center_Name": "Dar Jami and Sayed Tent",
    "د_مرکز_ځای__موقعیت_مرکز": "بریم وسید جامی",
    "Polling_Center_Location": "Barem Wa Sayed Jami",
    "Map_Accuracy": "Building",
    "Map_Accuracy_Dari": "تعمیر",
    "Status": "Open",
    "Status_Dari": null,
    "PS_Male": 2,
    "PS_Female": 1,
    "PS_Total": 3,
    "ولسوالي": "نهرین",
    "Region": "North Eastern Region"
   },
   "geometry": {
    "x": 7682190.3601072645,
    "y": 4289059.4498642022
   }
  },
  {
   "attributes": {
    "OBJECTID": 3451,
    "ولایت": "بغلان",
    "Province": "BAGHLAN",
    "PC_Code": "0904131",
    "District": "NAHREEN",
    "د_مرکز_نوم__نام_مرکز": "مکتب لیسه المتو",
    "Polling_Center_Name": "Almato High School",
    "د_مرکز_ځای__موقعیت_مرکز": "المتو",
    "Polling_Center_Location": "Almato",
    "Map_Accuracy": "Building",
    "Map_Accuracy_Dari": "تعمیر",
    "Status": "Open",
    "Status_Dari": null,
    "PS_Male": 2,
    "PS_Female": 1,
    "PS_Total": 3,
    "ولسوالي": "نهرین",
    "Region": "North Eastern Region"
   },
   "geometry": {
    "x": 7684224.7917064,
    "y": 4295322.2837100625
   }
  },
  {
   "attributes": {
    "OBJECTID": 3452,
    "ولایت": "بغلان",
    "Province": "BAGHLAN",
    "PC_Code": "0904135",
    "District": "NAHREEN",
    "د_مرکز_نوم__نام_مرکز": "مکتب سجان ",
    "Polling_Center_Name": "Sobhan School",
    "د_مرکز_ځای__موقعیت_مرکز": "قریه سجان",
    "Polling_Center_Location": "Sobhan Village",
    "Map_Accuracy": "Building",
    "Map_Accuracy_Dari": "تعمیر",
    "Status": "Open",
    "Status_Dari": null,
    "PS_Male": 2,
    "PS_Female": 1,
    "PS_Total": 3,
    "ولسوالي": "نهرین",
    "Region": "North Eastern Region"
   },
   "geometry": {
    "x": 7689826.6434047511,
    "y": 4288368.6280729193
   }
  },
  {
   "attributes": {
    "OBJECTID": 3453,
    "ولایت": "بغلان",
    "Province": "BAGHLAN",
    "PC_Code": "0905043",
    "District": "BAGLAN-E-JADEED",
    "د_مرکز_نوم__نام_مرکز": "مکتب چهاد شنبه تیپه",
    "Polling_Center_Name": "Chahar Shanba Tapa School",
    "د_مرکز_ځای__موقعیت_مرکز": "قریه طاهری ها",
    "Polling_Center_Location": "Taheri Ha Village",
    "Map_Accuracy": "Building",
    "Map_Accuracy_Dari": "تعمیر",
    "Status": "Open",
    "Status_Dari": null,
    "PS_Male": 2,
    "PS_Female": 1,
    "PS_Total": 3,
    "ولسوالي": "بغلان جدید",
    "Region": "North Eastern Region"
   },
   "geometry": {
    "x": 7661797.3941588383,
    "y": 4343819.5157008497
   }
  },
  {
   "attributes": {
    "OBJECTID": 3454,
    "ولایت": "بغلان",
    "Province": "BAGHLAN",
    "PC_Code": "0905062",
    "District": "BAGLAN-E-JADEED",
    "د_مرکز_نوم__نام_مرکز": "مسجد جامع بغلان مرکزی",
    "Polling_Center_Name": "Central Baghlan Mosque",
    "د_مرکز_ځای__موقعیت_مرکز": "شهر جدید",
    "Polling_Center_Location": "Shahr-e-Jadeed",
    "Map_Accuracy": "Building",
    "Map_Accuracy_Dari": "تعمیر",
    "Status": "Open",
    "Status_Dari": null,
    "PS_Male": 2,
    "PS_Female": 2,
    "PS_Total": 4,
    "ولسوالي": "بغلان جدید",
    "Region": "North Eastern Region"
   },
   "geometry": {
    "x": 7653004.5525589753,
    "y": 4325495.4131110879
   }
  },
  {
   "attributes": {
    "OBJECTID": 3455,
    "ولایت": "بغلان",
    "Province": "BAGHLAN",
    "PC_Code": "0906113",
    "District": "KHINJAN",
    "د_مرکز_نوم__نام_مرکز": "مکتب لیسه حارث",
    "Polling_Center_Name": "Haris School",
    "د_مرکز_ځای__موقعیت_مرکز": "قریه ولیان",
    "Polling_Center_Location": "Waliyan Village",
    "Map_Accuracy": "Building",
    "Map_Accuracy_Dari": "تعمیر",
    "Status": "Open",
    "Status_Dari": null,
    "PS_Male": 3,
    "PS_Female": 1,
    "PS_Total": 4,
    "ولسوالي": "خنجان",
    "Region": "North Eastern Region"
   },
   "geometry": {
    "x": 7667994.7093981737,
    "y": 4240156.1217048019
   }
  },
  {
   "attributes": {
    "OBJECTID": 3456,
    "ولایت": "بغلان",
    "Province": "BAGHLAN",
    "PC_Code": "0906114",
    "District": "KHINJAN",
    "د_مرکز_نوم__نام_مرکز": "مکتب احمد شاه مسعود ",
    "Polling_Center_Name": "Ahmad Shah Masoud School",
    "د_مرکز_ځای__موقعیت_مرکز": "قریه خوشکک",
    "Polling_Center_Location": "Khoshkak Village",
    "Map_Accuracy": "Building",
    "Map_Accuracy_Dari": "تعمیر",
    "Status": "Open",
    "Status_Dari": null,
    "PS_Male": 2,
    "PS_Female": 1,
    "PS_Total": 3,
    "ولسوالي": "خنجان",
    "Region": "North Eastern Region"
   },
   "geometry": {
    "x": 7687654.8313088361,
    "y": 4235100.2740915213
   }
  },
  {
   "attributes": {
    "OBJECTID": 3457,
    "ولایت": "بغلان",
    "Province": "BAGHLAN",
    "PC_Code": "0906118",
    "District": "KHINJAN",
    "د_مرکز_نوم__نام_مرکز": "مکتب امرود ",
    "Polling_Center_Name": "Amrod School",
    "د_مرکز_ځای__موقعیت_مرکز": "دشت امرود",
    "Polling_Center_Location": "Dasht-e-Amrod",
    "Map_Accuracy": "Building",
    "Map_Accuracy_Dari": "تعمیر",
    "Status": "Open",
    "Status_Dari": null,
    "PS_Male": 1,
    "PS_Female": 1,
    "PS_Total": 2,
    "ولسوالي": "خنجان",
    "Region": "North Eastern Region"
   },
   "geometry": {
    "x": 7677214.9766544672,
    "y": 4245859.3060483811
   }
  },
  {
   "attributes": {
    "OBJECTID": 3458,
    "ولایت": "بغلان",
    "Province": "BAGHLAN",
    "PC_Code": "0908187",
    "District": "DEH SALAH",
    "د_مرکز_نوم__نام_مرکز": "مکتب بازار ده صلاح",
    "Polling_Center_Name": "Deh Salah  Bazar School",
    "د_مرکز_ځای__موقعیت_مرکز": "بازار ده صلاح",
    "Polling_Center_Location": "Deh Salah Bazaar",
    "Map_Accuracy": "Building",
    "Map_Accuracy_Dari": "تعمیر",
    "Status": "Open",
    "Status_Dari": null,
    "PS_Male": 1,
    "PS_Female": 1,
    "PS_Total": 2,
    "ولسوالي": "ده صلاح ",
    "Region": "North Eastern Region"
   },
   "geometry": {
    "x": 7715719.7796022473,
    "y": 4257543.3195455857
   }
  },
  {
   "attributes": {
    "OBJECTID": 3459,
    "ولایت": "بغلان",
    "Province": "BAGHLAN",
    "PC_Code": "0908188",
    "District": "DEH SALAH",
    "د_مرکز_نوم__نام_مرکز": "مکتب تل میر غازی ",
    "Polling_Center_Name": "Tel Merghazi School",
    "د_مرکز_ځای__موقعیت_مرکز": "تل میر غازی",
    "Polling_Center_Location": "Tel Merghazi",
    "Map_Accuracy": "Building",
    "Map_Accuracy_Dari": "تعمیر",
    "Status": "Open",
    "Status_Dari": null,
    "PS_Male": 1,
    "PS_Female": 1,
    "PS_Total": 2,
    "ولسوالي": "ده صلاح ",
    "Region": "North Eastern Region"
   },
   "geometry": {
    "x": 7715922.7027888233,
    "y": 4267042.0855078287
   }
  },
  {
   "attributes": {
    "OBJECTID": 3460,
    "ولایت": "بغلان",
    "Province": "BAGHLAN",
    "PC_Code": "0910153",
    "District": "BURKA",
    "د_مرکز_نوم__نام_مرکز": "لیسه نسوان مرکز ",
    "Polling_Center_Name": "Markaz Girls School",
    "د_مرکز_ځای__موقعیت_مرکز": "مرکز ولسوالی برکه",
    "Polling_Center_Location": "Barka District Center",
    "Map_Accuracy": "Building",
    "Map_Accuracy_Dari": "تعمیر",
    "Status": "Open",
    "Status_Dari": null,
    "PS_Male": 2,
    "PS_Female": 1,
    "PS_Total": 3,
    "ولسوالي": "برکه",
    "Region": "North Eastern Region"
   },
   "geometry": {
    "x": 7697880.5451115314,
    "y": 4331031.321515861
   }
  },
  {
   "attributes": {
    "OBJECTID": 3461,
    "ولایت": "بغلان",
    "Province": "BAGHLAN",
    "PC_Code": "0910154",
    "District": "BURKA",
    "د_مرکز_نوم__نام_مرکز": "مکتب شرشر",
    "Polling_Center_Name": "Sharshar School",
    "د_مرکز_ځای__موقعیت_مرکز": "شرشر",
    "Polling_Center_Location": "Shar Shar",
    "Map_Accuracy": "Building",
    "Map_Accuracy_Dari": "تعمیر",
    "Status": "Open",
    "Status_Dari": null,
    "PS_Male": 2,
    "PS_Female": 1,
    "PS_Total": 3,
    "ولسوالي": "برکه",
    "Region": "North Eastern Region"
   },
   "geometry": {
    "x": 7701914.9471350433,
    "y": 4320644.5708401622
   }
  },
  {
   "attributes": {
    "OBJECTID": 3462,
    "ولایت": "بغلان",
    "Province": "BAGHLAN",
    "PC_Code": "0910158",
    "District": "BURKA",
    "د_مرکز_نوم__نام_مرکز": "مدرسه  جمعلی عرب سای",
    "Polling_Center_Name": "Jamali Arab Sai Mosque",
    "د_مرکز_ځای__موقعیت_مرکز": "جمعلی",
    "Polling_Center_Location": "Jomali ",
    "Map_Accuracy": "Building",
    "Map_Accuracy_Dari": "تعمیر",
    "Status": "Open",
    "Status_Dari": null,
    "PS_Male": 2,
    "PS_Female": 1,
    "PS_Total": 3,
    "ولسوالي": "برکه",
    "Region": "North Eastern Region"
   },
   "geometry": {
    "x": 7681589.3461764706,
    "y": 4345349.8375760866
   }
  },
  {
   "attributes": {
    "OBJECTID": 3463,
    "ولایت": "بغلان",
    "Province": "BAGHLAN",
    "PC_Code": "0911249",
    "District": "TALA WA BARFAK",
    "د_مرکز_نوم__نام_مرکز": "مسجد هر دو آب",
    "Polling_Center_Name": "Har Do Aab Mosque",
    "د_مرکز_ځای__موقعیت_مرکز": "هر دو آب",
    "Polling_Center_Location": "Har Do Aab",
    "Map_Accuracy": "Building",
    "Map_Accuracy_Dari": "تعمیر",
    "Status": "Open",
    "Status_Dari": null,
    "PS_Male": 2,
    "PS_Female": 1,
    "PS_Total": 3,
    "ولسوالي": "تاله و برفک",
    "Region": "North Eastern Region"
   },
   "geometry": {
    "x": 7584580.4100706847,
    "y": 4189041.3474150002
   }
  },
  {
   "attributes": {
    "OBJECTID": 3464,
    "ولایت": "بغلان",
    "Province": "BAGHLAN",
    "PC_Code": "0912173",
    "District": "PUL-E-HISAR",
    "د_مرکز_نوم__نام_مرکز": "مکتب نوبهار",
    "Polling_Center_Name": "Naw Bahar School",
    "د_مرکز_ځای__موقعیت_مرکز": "نوبهار",
    "Polling_Center_Location": "Naw Bahar",
    "Map_Accuracy": "Building",
    "Map_Accuracy_Dari": "تعمیر",
    "Status": "Open",
    "Status_Dari": null,
    "PS_Male": 2,
    "PS_Female": 1,
    "PS_Total": 3,
    "ولسوالي": "پل حصار",
    "Region": "North Eastern Region"
   },
   "geometry": {
    "x": 7719305.2980242753,
    "y": 4255289.0806838479
   }
  },
  {
   "attributes": {
    "OBJECTID": 3465,
    "ولایت": "بغلان",
    "Province": "BAGHLAN",
    "PC_Code": "0913213",
    "District": "KHOST WA FIRING",
    "د_مرکز_نوم__نام_مرکز": "مکتب عبدالحق نارزو",
    "Polling_Center_Name": "Abdul Haq Narzo School",
    "د_مرکز_ځای__موقعیت_مرکز": "ده ملاخطیب",
    "Polling_Center_Location": "Deh Mollah Khatib",
    "Map_Accuracy": "Building",
    "Map_Accuracy_Dari": "تعمیر",
    "Status": "Open",
    "Status_Dari": null,
    "PS_Male": 1,
    "PS_Female": 1,
    "PS_Total": 2,
    "ولسوالي": "خوست و فرنگ",
    "Region": "North Eastern Region"
   },
   "geometry": {
    "x": 7739597.3962688977,
    "y": 4294459.6913299663
   }
  },
  {
   "attributes": {
    "OBJECTID": 3466,
    "ولایت": "بغلان",
    "Province": "BAGHLAN",
    "PC_Code": "0913253",
    "District": "KHOST WA FIRING",
    "د_مرکز_نوم__نام_مرکز": "مدرسه ده میرک",
    "Polling_Center_Name": "Deh Merak Madressa",
    "د_مرکز_ځای__موقعیت_مرکز": "دره گی ",
    "Polling_Center_Location": "Daragee",
    "Map_Accuracy": "Building",
    "Map_Accuracy_Dari": "تعمیر",
    "Status": "Open",
    "Status_Dari": null,
    "PS_Male": 2,
    "PS_Female": 1,
    "PS_Total": 3,
    "ولسوالي": "خوست و فرنگ",
    "Region": "North Eastern Region"
   },
   "geometry": {
    "x": 7737212.2837834749,
    "y": 4291114.8976398865
   }
  },
  {
   "attributes": {
    "OBJECTID": 3467,
    "ولایت": "بغلان",
    "Province": "BAGHLAN",
    "PC_Code": "0913254",
    "District": "KHOST WA FIRING",
    "د_مرکز_نوم__نام_مرکز": "مدرسه ده کلان",
    "Polling_Center_Name": "Deh Kalan Madressa",
    "د_مرکز_ځای__موقعیت_مرکز": "ده کلان",
    "Polling_Center_Location": "Deh Kalan",
    "Map_Accuracy": "Building",
    "Map_Accuracy_Dari": "تعمیر",
    "Status": "Open",
    "Status_Dari": null,
    "PS_Male": 2,
    "PS_Female": 1,
    "PS_Total": 3,
    "ولسوالي": "خوست و فرنگ",
    "Region": "North Eastern Region"
   },
   "geometry": {
    "x": 7769642.5657958239,
    "y": 4303790.3337682867
   }
  },
  {
   "attributes": {
    "OBJECTID": 3468,
    "ولایت": "باميان",
    "Province": "BAMYAN",
    "PC_Code": "1001003",
    "District": "BAMYAN",
    "د_مرکز_نوم__نام_مرکز": "مکتب آق رباط",
    "Polling_Center_Name": "Aaq Rubat School",
    "د_مرکز_ځای__موقعیت_مرکز": "آق رباط",
    "Polling_Center_Location": "Aaq Rubat",
    "Map_Accuracy": "Building",
    "Map_Accuracy_Dari": "تعمیر",
    "Status": "Open",
    "Status_Dari": null,
    "PS_Male": 2,
    "PS_Female": 2,
    "PS_Total": 4,
    "ولسوالي": "بامیان",
    "Region": "Central Highlands Region"
   },
   "geometry": {
    "x": 7531344.1846101852,
    "y": 4154247.1446891706
   }
  },
  {
   "attributes": {
    "OBJECTID": 3469,
    "ولایت": "باميان",
    "Province": "BAMYAN",
    "PC_Code": "1002026",
    "District": "SHEBAR",
    "د_مرکز_نوم__نام_مرکز": "مسجد سبز آب",
    "Polling_Center_Name": "Sabz Aab Mosque",
    "د_مرکز_ځای__موقعیت_مرکز": "سبز آب",
    "Polling_Center_Location": "Sabz Aab",
    "Map_Accuracy": "Building",
    "Map_Accuracy_Dari": "تعمیر",
    "Status": "Open",
    "Status_Dari": null,
    "PS_Male": 1,
    "PS_Female": 1,
    "PS_Total": 2,
    "ولسوالي": "شیبر",
    "Region": "Central Highlands Region"
   },
   "geometry": {
    "x": 7570593.1783914296,
    "y": 4130603.3839531424
   }
  },
  {
   "attributes": {
    "OBJECTID": 3470,
    "ولایت": "باميان",
    "Province": "BAMYAN",
    "PC_Code": "1002027",
    "District": "SHEBAR",
    "د_مرکز_نوم__نام_مرکز": "لیسه دهن دیوالک",
    "Polling_Center_Name": "Dahan-e-Dewalak High School",
    "د_مرکز_ځای__موقعیت_مرکز": "دهن دیوالک",
    "Polling_Center_Location": "Dahan-e-Dewalak",
    "Map_Accuracy": "Building",
    "Map_Accuracy_Dari": "تعمیر",
    "Status": "Open",
    "Status_Dari": null,
    "PS_Male": 2,
    "PS_Female": 1,
    "PS_Total": 3,
    "ولسوالي": "شیبر",
    "Region": "Central Highlands Region"
   },
   "geometry": {
    "x": 7570797.1624527462,
    "y": 4120223.5335029582
   }
  },
  {
   "attributes": {
    "OBJECTID": 3471,
    "ولایت": "باميان",
    "Province": "BAMYAN",
    "PC_Code": "1002031",
    "District": "SHEBAR",
    "د_مرکز_نوم__نام_مرکز": "مکتب نسوان دهن غندک",
    "Polling_Center_Name": "Dahan-e-Ghundak Girls School",
    "د_مرکز_ځای__موقعیت_مرکز": "دهن غندک",
    "Polling_Center_Location": "Dahan-e-Ghundak ",
    "Map_Accuracy": "Building",
    "Map_Accuracy_Dari": "تعمیر",
    "Status": "Open",
    "Status_Dari": null,
    "PS_Male": 0,
    "PS_Female": 2,
    "PS_Total": 2,
    "ولسوالي": "شیبر",
    "Region": "Central Highlands Region"
   },
   "geometry": {
    "x": 7572190.1366368914,
    "y": 4163038.588133886
   }
  },
  {
   "attributes": {
    "OBJECTID": 3472,
    "ولایت": "باميان",
    "Province": "BAMYAN",
    "PC_Code": "1003048",
    "District": "SAIGHAN",
    "د_مرکز_نوم__نام_مرکز": "مسجد کوگدای",
    "Polling_Center_Name": "Kogdaay Mosque",
    "د_مرکز_ځای__موقعیت_مرکز": "کوگدای",
    "Polling_Center_Location": "Kogdaay",
    "Map_Accuracy": "Building",
    "Map_Accuracy_Dari": "تعمیر",
    "Status": "Open",
    "Status_Dari": null,
    "PS_Male": 1,
    "PS_Female": 1,
    "PS_Total": 2,
    "ولسوالي": "سیغان",
    "Region": "Central Highlands Region"
   },
   "geometry": {
    "x": 7529515.1430375362,
    "y": 4167869.9058524026
   }
  },
  {
   "attributes": {
    "OBJECTID": 3473,
    "ولایت": "باميان",
    "Province": "BAMYAN",
    "PC_Code": "1003049",
    "District": "SAIGHAN",
    "د_مرکز_نوم__نام_مرکز": "دفتر شورای سوخته چنار",
    "Polling_Center_Name": "Sokhta Chenar Council Office",
    "د_مرکز_ځای__موقعیت_مرکز": "سوخته چنار",
    "Polling_Center_Location": "Sokhta Chenar",
    "Map_Accuracy": "Building",
    "Map_Accuracy_Dari": "تعمیر",
    "Status": "Open",
    "Status_Dari": null,
    "PS_Male": 1,
    "PS_Female": 1,
    "PS_Total": 2,
    "ولسوالي": "سیغان",
    "Region": "Central Highlands Region"
   },
   "geometry": {
    "x": 7535364.1228922559,
    "y": 4179907.6517159408
   }
  },
  {
   "attributes": {
    "OBJECTID": 3474,
    "ولایت": "باميان",
    "Province": "BAMYAN",
    "PC_Code": "1004052",
    "District": "KAHMARD",
    "د_مرکز_نوم__نام_مرکز": "مسجد دوشاخ",
    "Polling_Center_Name": "Du Shaakh Mosque",
    "د_مرکز_ځای__موقعیت_مرکز": "دوشاخ",
    "Polling_Center_Location": "Du Shaakh",
    "Map_Accuracy": "Building",
    "Map_Accuracy_Dari": "تعمیر",
    "Status": "Open",
    "Status_Dari": null,
    "PS_Male": 1,
    "PS_Female": 1,
    "PS_Total": 2,
    "ولسوالي": "کهمرد",
    "Region": "Central Highlands Region"
   },
   "geometry": {
    "x": 7546015.8775369255,
    "y": 4214591.1573379636
   }
  },
  {
   "attributes": {
    "OBJECTID": 3475,
    "ولایت": "باميان",
    "Province": "BAMYAN",
    "PC_Code": "1007156",
    "District": "WARAS",
    "د_مرکز_نوم__نام_مرکز": "مکتب آچه مزار",
    "Polling_Center_Name": "Aacha Mazaar Madrassa",
    "د_مرکز_ځای__موقعیت_مرکز": "آچه مزار",
    "Polling_Center_Location": "Aacha Mazaar",
    "Map_Accuracy": "Building",
    "Map_Accuracy_Dari": "تعمیر",
    "Status": "Open",
    "Status_Dari": null,
    "PS_Male": 2,
    "PS_Female": 1,
    "PS_Total": 3,
    "ولسوالي": "ورس",
    "Region": "Central Highlands Region"
   },
   "geometry": {
    "x": 7436807.9059769679,
    "y": 4068143.1755603249
   }
  },
  {
   "attributes": {
    "OBJECTID": 3476,
    "ولایت": "باميان",
    "Province": "BAMYAN",
    "PC_Code": "1007160",
    "District": "WARAS",
    "د_مرکز_نوم__نام_مرکز": "مسجد خیمه کلان زمین",
    "Polling_Center_Name": "Khaima-e-Kalan Zamen Mosque",
    "د_مرکز_ځای__موقعیت_مرکز": "خیمه کلان زمین",
    "Polling_Center_Location": "Khaima-e-Kalan Zamen",
    "Map_Accuracy": "Building",
    "Map_Accuracy_Dari": "تعمیر",
    "Status": "Open",
    "Status_Dari": null,
    "PS_Male": 1,
    "PS_Female": 1,
    "PS_Total": 2,
    "ولسوالي": "ورس",
    "Region": "Central Highlands Region"
   },
   "geometry": {
    "x": 7495716.634277042,
    "y": 4044565.0113787712
   }
  },
  {
   "attributes": {
    "OBJECTID": 3477,
    "ولایت": "غزنى",
    "Province": "GHAZNI",
    "PC_Code": "1101015",
    "District": "GHAZNI",
    "د_مرکز_نوم__نام_مرکز": "مسجد برج برق",
    "Polling_Center_Name": "Burj-e-Barq Mosque",
    "د_مرکز_ځای__موقعیت_مرکز": "ناحیه دوم",
    "Polling_Center_Location": "Nahia 2",
    "Map_Accuracy": "Building",
    "Map_Accuracy_Dari": "تعمیر",
    "Status": "Open",
    "Status_Dari": null,
    "PS_Male": 5,
    "PS_Female": 0,
    "PS_Total": 5,
    "ولسوالي": "غزنی",
    "Region": "South Eastern Region"
   },
   "geometry": {
    "x": 7616532.8353576884,
    "y": 3969003.074909782
   }
  },
  {
   "attributes": {
    "OBJECTID": 3478,
    "ولایت": "غزنى",
    "Province": "GHAZNI",
    "PC_Code": "1101016",
    "District": "GHAZNI",
    "د_مرکز_نوم__نام_مرکز": "مسجد خاتم المرسلین",
    "Polling_Center_Name": "Khatem ul Mursaleen Mosque",
    "د_مرکز_ځای__موقعیت_مرکز": "کلا سبز",
    "Polling_Center_Location": "Kala-e-Sabz",
    "Map_Accuracy": "Building",
    "Map_Accuracy_Dari": "تعمیر",
    "Status": "Open",
    "Status_Dari": null,
    "PS_Male": 6,
    "PS_Female": 0,
    "PS_Total": 6,
    "ولسوالي": "غزنی",
    "Region": "South Eastern Region"
   },
   "geometry": {
    "x": 7616853.5824328978,
    "y": 3968986.6248545712
   }
  },
  {
   "attributes": {
    "OBJECTID": 3479,
    "ولایت": "غزنى",
    "Province": "GHAZNI",
    "PC_Code": "1101036",
    "District": "GHAZNI",
    "د_مرکز_نوم__نام_مرکز": "مسجد حضرت علی",
    "Polling_Center_Name": "Hazrat-e-Ali Mosque",
    "د_مرکز_ځای__موقعیت_مرکز": "قلعه شهاده",
    "Polling_Center_Location": "Qala-e-Shahada",
    "Map_Accuracy": "Building",
    "Map_Accuracy_Dari": "تعمیر",
    "Status": "Open",
    "Status_Dari": null,
    "PS_Male": 0,
    "PS_Female": 7,
    "PS_Total": 7,
    "ولسوالي": "غزنی",
    "Region": "South Eastern Region"
   },
   "geometry": {
    "x": 7614826.7472758172,
    "y": 3974598.1302458677
   }
  },
  {
   "attributes": {
    "OBJECTID": 3480,
    "ولایت": "غزنى",
    "Province": "GHAZNI",
    "PC_Code": "1101057",
    "District": "GHAZNI",
    "د_مرکز_نوم__نام_مرکز": "مکتب پشتون آباد",
    "Polling_Center_Name": "Pashtoon Abad School",
    "د_مرکز_ځای__موقعیت_مرکز": "ساحه پشتون آباد",
    "Polling_Center_Location": "Pashtoon Abad",
    "Map_Accuracy": "Building",
    "Map_Accuracy_Dari": "تعمیر",
    "Status": "Open",
    "Status_Dari": null,
    "PS_Male": 3,
    "PS_Female": 1,
    "PS_Total": 4,
    "ولسوالي": "غزنی",
    "Region": "South Eastern Region"
   },
   "geometry": {
    "x": 7616197.9707446517,
    "y": 3965232.8478273181
   }
  },
  {
   "attributes": {
    "OBJECTID": 3481,
    "ولایت": "غزنى",
    "Province": "GHAZNI",
    "PC_Code": "1101058",
    "District": "GHAZNI",
    "د_مرکز_نوم__نام_مرکز": "مکتب شهرک مهاجرین",
    "Polling_Center_Name": "Shahrak-e-Muhajerin School",
    "د_مرکز_ځای__موقعیت_مرکز": "مکتب شهرک مهاجرین ",
    "Polling_Center_Location": "Shahrak-e-Muhajerin",
    "Map_Accuracy": "Village",
    "Map_Accuracy_Dari": "قریه",
    "Status": "Open",
    "Status_Dari": null,
    "PS_Male": 3,
    "PS_Female": 1,
    "PS_Total": 4,
    "ولسوالي": "غزنی",
    "Region": "South Eastern Region"
   },
   "geometry": {
    "x": 7611963.2526370464,
    "y": 3966015.2986477106
   }
  },
  {
   "attributes": {
    "OBJECTID": 3482,
    "ولایت": "غزنى",
    "Province": "GHAZNI",
    "PC_Code": "1105063",
    "District": "DEH YAK",
    "د_مرکز_نوم__نام_مرکز": "مکتب سلیمان زی",
    "Polling_Center_Name": "Sulaiman Zai School",
    "د_مرکز_ځای__موقعیت_مرکز": "سلیمان زی",
    "Polling_Center_Location": "Sulaiman Zai",
    "Map_Accuracy": "Village",
    "Map_Accuracy_Dari": "قریه",
    "Status": "Open",
    "Status_Dari": null,
    "PS_Male": 2,
    "PS_Female": 1,
    "PS_Total": 3,
    "ولسوالي": "ده یک",
    "Region": "South Eastern Region"
   },
   "geometry": {
    "x": 7638686.7899344545,
    "y": 3952504.4007999925
   }
  },
  {
   "attributes": {
    "OBJECTID": 3483,
    "ولایت": "غزنى",
    "Province": "GHAZNI",
    "PC_Code": "1105064",
    "District": "DEH YAK",
    "د_مرکز_نوم__نام_مرکز": "مسجد ده یک",
    "Polling_Center_Name": "Deh Yak Mosque",
    "د_مرکز_ځای__موقعیت_مرکز": " ده یک",
    "Polling_Center_Location": "Deh Yak",
    "Map_Accuracy": "Village",
    "Map_Accuracy_Dari": "قریه",
    "Status": "Open",
    "Status_Dari": null,
    "PS_Male": 2,
    "PS_Female": 1,
    "PS_Total": 3,
    "ولسوالي": "ده یک",
    "Region": "South Eastern Region"
   },
   "geometry": {
    "x": 7642356.2944595059,
    "y": 3958617.8572668345
   }
  },
  {
   "attributes": {
    "OBJECTID": 3484,
    "ولایت": "غزنى",
    "Province": "GHAZNI",
    "PC_Code": "1105068",
    "District": "DEH YAK",
    "د_مرکز_نوم__نام_مرکز": "مسجد قریه رامک",
    "Polling_Center_Name": "Ramak Village Mosque",
    "د_مرکز_ځای__موقعیت_مرکز": "قریه رامک",
    "Polling_Center_Location": "Ramak Village",
    "Map_Accuracy": "Village",
    "Map_Accuracy_Dari": "قریه",
    "Status": "Open",
    "Status_Dari": null,
    "PS_Male": 2,
    "PS_Female": 1,
    "PS_Total": 3,
    "ولسوالي": "ده یک",
    "Region": "South Eastern Region"
   },
   "geometry": {
    "x": 7638761.3394842437,
    "y": 3961974.8901197733
   }
  },
  {
   "attributes": {
    "OBJECTID": 3485,
    "ولایت": "غزنى",
    "Province": "GHAZNI",
    "PC_Code": "1106110",
    "District": "JAGHATU",
    "د_مرکز_نوم__نام_مرکز": "لیسه البیرونی جرمتو",
    "Polling_Center_Name": "Alberooni Jarmato High School ",
    "د_مرکز_ځای__موقعیت_مرکز": "قریه سرخی ",
    "Polling_Center_Location": "Sorkhi Village",
    "Map_Accuracy": "Building",
    "Map_Accuracy_Dari": "تعمیر",
    "Status": "Open",
    "Status_Dari": null,
    "PS_Male": 0,
    "PS_Female": 3,
    "PS_Total": 3,
    "ولسوالي": "جغتو",
    "Region": "South Eastern Region"
   },
   "geometry": {
    "x": 7587335.5084684901,
    "y": 3978090.1699117469
   }
  },
  {
   "attributes": {
    "OBJECTID": 3486,
    "ولایت": "غزنى",
    "Province": "GHAZNI",
    "PC_Code": "1107248",
    "District": "ANDAR",
    "د_مرکز_نوم__نام_مرکز": "مسجد قریه صاحب خان",
    "Polling_Center_Name": "Sahib Khan Village Mosque",
    "د_مرکز_ځای__موقعیت_مرکز": "قریه صاحب خان ",
    "Polling_Center_Location": "Sahib Khan Village",
    "Map_Accuracy": "Building",
    "Map_Accuracy_Dari": "تعمیر",
    "Status": "Open",
    "Status_Dari": null,
    "PS_Male": 0,
    "PS_Female": 3,
    "PS_Total": 3,
    "ولسوالي": "اندر",
    "Region": "South Eastern Region"
   },
   "geometry": {
    "x": 7616012.6338112364,
    "y": 3938494.1574329701
   }
  },
  {
   "attributes": {
    "OBJECTID": 3487,
    "ولایت": "غزنى",
    "Province": "GHAZNI",
    "PC_Code": "1107253",
    "District": "ANDAR",
    "د_مرکز_نوم__نام_مرکز": "مسجد قریه سرکی",
    "Polling_Center_Name": "Sarki Village Mosque",
    "د_مرکز_ځای__موقعیت_مرکز": "قریه سرکی",
    "Polling_Center_Location": "Sarki Village",
    "Map_Accuracy": "Village",
    "Map_Accuracy_Dari": "قریه",
    "Status": "Open",
    "Status_Dari": null,
    "PS_Male": 2,
    "PS_Female": 2,
    "PS_Total": 4,
    "ولسوالي": "اندر",
    "Region": "South Eastern Region"
   },
   "geometry": {
    "x": 7629717.8319945978,
    "y": 3938004.9504202618
   }
  },
  {
   "attributes": {
    "OBJECTID": 3488,
    "ولایت": "غزنى",
    "Province": "GHAZNI",
    "PC_Code": "1108071",
    "District": "ZANAKHAN",
    "د_مرکز_نوم__نام_مرکز": "مرکز ولسوالی حویلی کمشنر",
    "Polling_Center_Name": "Commissionar House",
    "د_مرکز_ځای__موقعیت_مرکز": " مر کز ولسوالی",
    "Polling_Center_Location": "District Compound",
    "Map_Accuracy": "Village",
    "Map_Accuracy_Dari": "قریه",
    "Status": "Open",
    "Status_Dari": null,
    "PS_Male": 3,
    "PS_Female": 2,
    "PS_Total": 5,
    "ولسوالي": "زنخان",
    "Region": "South Eastern Region"
   },
   "geometry": {
    "x": 7637521.4195811879,
    "y": 3986279.1803060332
   }
  },
  {
   "attributes": {
    "OBJECTID": 3489,
    "ولایت": "غزنى",
    "Province": "GHAZNI",
    "PC_Code": "1110281",
    "District": "NAWUR",
    "د_مرکز_نوم__نام_مرکز": "مسجد قریه میانه بید",
    "Polling_Center_Name": "Miana Bad Village Mosque",
    "د_مرکز_ځای__موقعیت_مرکز": "قریه میانه بید ",
    "Polling_Center_Location": "Miana Bed Village",
    "Map_Accuracy": "Building",
    "Map_Accuracy_Dari": "تعمیر",
    "Status": "Open",
    "Status_Dari": null,
    "PS_Male": 1,
    "PS_Female": 1,
    "PS_Total": 2,
    "ولسوالي": "ناور",
    "Region": "South Eastern Region"
   },
   "geometry": {
    "x": 7547938.4976131218,
    "y": 4029235.3819069522
   }
  },
  {
   "attributes": {
    "OBJECTID": 3490,
    "ولایت": "غزنى",
    "Province": "GHAZNI",
    "PC_Code": "1110282",
    "District": "NAWUR",
    "د_مرکز_نوم__نام_مرکز": "مسجد فراخ تاله",
    "Polling_Center_Name": "Farkhtala Mosque",
    "د_مرکز_ځای__موقعیت_مرکز": "قریه فراخ تاله ",
    "Polling_Center_Location": "Farakhtala Village",
    "Map_Accuracy": "Building",
    "Map_Accuracy_Dari": "تعمیر",
    "Status": "Open",
    "Status_Dari": null,
    "PS_Male": 1,
    "PS_Female": 1,
    "PS_Total": 2,
    "ولسوالي": "ناور",
    "Region": "South Eastern Region"
   },
   "geometry": {
    "x": 7522816.5772818662,
    "y": 4003727.4912013547
   }
  },
  {
   "attributes": {
    "OBJECTID": 3491,
    "ولایت": "غزنى",
    "Province": "GHAZNI",
    "PC_Code": "1110285",
    "District": "NAWUR",
    "د_مرکز_نوم__نام_مرکز": "مکتب ابتدائیه شهید محمد علی",
    "Polling_Center_Name": "Shaheed Mohammad Ali Primary School",
    "د_مرکز_ځای__موقعیت_مرکز": "قریه قاش ",
    "Polling_Center_Location": "Qaash Village",
    "Map_Accuracy": "Building",
    "Map_Accuracy_Dari": "تعمیر",
    "Status": "Open",
    "Status_Dari": null,
    "PS_Male": 2,
    "PS_Female": 1,
    "PS_Total": 3,
    "ولسوالي": "ناور",
    "Region": "South Eastern Region"
   },
   "geometry": {
    "x": 7568430.8340181978,
    "y": 3989256.035432227
   }
  },
  {
   "attributes": {
    "OBJECTID": 3492,
    "ولایت": "غزنى",
    "Province": "GHAZNI",
    "PC_Code": "1111148",
    "District": "QARA BAGH",
    "د_مرکز_نوم__نام_مرکز": "مسجد بالا قلعه باران",
    "Polling_Center_Name": "Qala-e-Baran Upper Mosque",
    "د_مرکز_ځای__موقعیت_مرکز": "قلعه باران",
    "Polling_Center_Location": "Qala-e-Baran",
    "Map_Accuracy": "Village",
    "Map_Accuracy_Dari": "قریه",
    "Status": "Open",
    "Status_Dari": null,
    "PS_Male": 4,
    "PS_Female": 0,
    "PS_Total": 4,
    "ولسوالي": "قره باغ",
    "Region": "South Eastern Region"
   },
   "geometry": {
    "x": 7596006.9383525271,
    "y": 3928161.4601227846
   }
  },
  {
   "attributes": {
    "OBJECTID": 3493,
    "ولایت": "غزنى",
    "Province": "GHAZNI",
    "PC_Code": "1111166",
    "District": "QARA BAGH",
    "د_مرکز_نوم__نام_مرکز": "مکتب سلطان ابراهیم",
    "Polling_Center_Name": "Sultan Ibrahim School",
    "د_مرکز_ځای__موقعیت_مرکز": "قریه آهین",
    "Polling_Center_Location": "Aaheen Village",
    "Map_Accuracy": "Building",
    "Map_Accuracy_Dari": "تعمیر",
    "Status": "Open",
    "Status_Dari": null,
    "PS_Male": 2,
    "PS_Female": 0,
    "PS_Total": 2,
    "ولسوالي": "قره باغ",
    "Region": "South Eastern Region"
   },
   "geometry": {
    "x": 7582562.1843630178,
    "y": 3930685.6895957082
   }
  },
  {
   "attributes": {
    "OBJECTID": 3494,
    "ولایت": "غزنى",
    "Province": "GHAZNI",
    "PC_Code": "1111170",
    "District": "QARA BAGH",
    "د_مرکز_نوم__نام_مرکز": "مسجد قرچه",
    "Polling_Center_Name": "Qarcha Mosque",
    "د_مرکز_ځای__موقعیت_مرکز": "قریه قرچه",
    "Polling_Center_Location": "Qarch Village",
    "Map_Accuracy": "Building",
    "Map_Accuracy_Dari": "تعمیر",
    "Status": "Open",
    "Status_Dari": null,
    "PS_Male": 2,
    "PS_Female": 0,
    "PS_Total": 2,
    "ولسوالي": "قره باغ",
    "Region": "South Eastern Region"
   },
   "geometry": {
    "x": 7581942.2973257611,
    "y": 3923751.5274155471
   }
  },
  {
   "attributes": {
    "OBJECTID": 3495,
    "ولایت": "غزنى",
    "Province": "GHAZNI",
    "PC_Code": "1111171",
    "District": "QARA BAGH",
    "د_مرکز_نوم__نام_مرکز": "مسجد میرک",
    "Polling_Center_Name": "Meerak Mosque",
    "د_مرکز_ځای__موقعیت_مرکز": "قریه میرک",
    "Polling_Center_Location": "Meerak Village",
    "Map_Accuracy": "Village",
    "Map_Accuracy_Dari": "قریه",
    "Status": "Open",
    "Status_Dari": null,
    "PS_Male": 0,
    "PS_Female": 2,
    "PS_Total": 2,
    "ولسوالي": "قره باغ",
    "Region": "South Eastern Region"
   },
   "geometry": {
    "x": 7580865.8901699511,
    "y": 3926911.7534019439
   }
  },
  {
   "attributes": {
    "OBJECTID": 3496,
    "ولایت": "غزنى",
    "Province": "GHAZNI",
    "PC_Code": "1113380",
    "District": "AB BAND",
    "د_مرکز_نوم__نام_مرکز": " مسجد  قریه لنده خیل  ",
    "Polling_Center_Name": "Landa Khel Village Mosque",
    "د_مرکز_ځای__موقعیت_مرکز": " قریه لنده خیل  ",
    "Polling_Center_Location": "Landa Khel Village",
    "Map_Accuracy": "Village",
    "Map_Accuracy_Dari": "قریه",
    "Status": "Open",
    "Status_Dari": null,
    "PS_Male": 2,
    "PS_Female": 0,
    "PS_Total": 2,
    "ولسوالي": "آب بند",
    "Region": "South Eastern Region"
   },
   "geometry": {
    "x": 7561758.0209135255,
    "y": 3892943.7297373107
   }
  },
  {
   "attributes": {
    "OBJECTID": 3497,
    "ولایت": "غزنى",
    "Province": "GHAZNI",
    "PC_Code": "1114338",
    "District": "JAGHURI",
    "د_مرکز_نوم__نام_مرکز": "مکتب ابتدائیه مهاجرین",
    "Polling_Center_Name": "Immigrants Primary School",
    "د_مرکز_ځای__موقعیت_مرکز": "قریه مهاجرین",
    "Polling_Center_Location": "Immigrants Village",
    "Map_Accuracy": "Building",
    "Map_Accuracy_Dari": "تعمیر",
    "Status": "Open",
    "Status_Dari": null,
    "PS_Male": 3,
    "PS_Female": 1,
    "PS_Total": 4,
    "ولسوالي": "جاغوری",
    "Region": "South Eastern Region"
   },
   "geometry": {
    "x": 7523141.027956536,
    "y": 3903981.1872251001
   }
  },
  {
   "attributes": {
    "OBJECTID": 3498,
    "ولایت": "غزنى",
    "Province": "GHAZNI",
    "PC_Code": "1114339",
    "District": "JAGHURI",
    "د_مرکز_نوم__نام_مرکز": "لیسه عالی قریه پاتو",
    "Polling_Center_Name": "Patoo Village High School",
    "د_مرکز_ځای__موقعیت_مرکز": "قریه پاتو ",
    "Polling_Center_Location": "Patoo Village",
    "Map_Accuracy": "Building",
    "Map_Accuracy_Dari": "تعمیر",
    "Status": "Open",
    "Status_Dari": null,
    "PS_Male": 2,
    "PS_Female": 2,
    "PS_Total": 4,
    "ولسوالي": "جاغوری",
    "Region": "South Eastern Region"
   },
   "geometry": {
    "x": 7498796.8290025629,
    "y": 3926186.1654343931
   }
  },
  {
   "attributes": {
    "OBJECTID": 3499,
    "ولایت": "غزنى",
    "Province": "GHAZNI",
    "PC_Code": "1114353",
    "District": "JAGHURI",
    "د_مرکز_نوم__نام_مرکز": "مسجد عمومی پیدګه",
    "Polling_Center_Name": "Payedgah Public Mosque",
    "د_مرکز_ځای__موقعیت_مرکز": "قریه پیدګه ",
    "Polling_Center_Location": "Payedga Village",
    "Map_Accuracy": "Building",
    "Map_Accuracy_Dari": "تعمیر",
    "Status": "Open",
    "Status_Dari": null,
    "PS_Male": 1,
    "PS_Female": 1,
    "PS_Total": 2,
    "ولسوالي": "جاغوری",
    "Region": "South Eastern Region"
   },
   "geometry": {
    "x": 7496886.2214126242,
    "y": 3905159.1201414438
   }
  },
  {
   "attributes": {
    "OBJECTID": 3500,
    "ولایت": "غزنى",
    "Province": "GHAZNI",
    "PC_Code": "1114354",
    "District": "JAGHURI",
    "د_مرکز_نوم__نام_مرکز": "مسجد عامه بارک",
    "Polling_Center_Name": "Barak Public Mosque",
    "د_مرکز_ځای__موقعیت_مرکز": "قریه بارک",
    "Polling_Center_Location": "Barak Village",
    "Map_Accuracy": "Village",
    "Map_Accuracy_Dari": "قریه",
    "Status": "Open",
    "Status_Dari": null,
    "PS_Male": 1,
    "PS_Female": 1,
    "PS_Total": 2,
    "ولسوالي": "جاغوری",
    "Region": "South Eastern Region"
   },
   "geometry": {
    "x": 7533122.8863959033,
    "y": 3929344.6578814071
   }
  },
  {
   "attributes": {
    "OBJECTID": 3501,
    "ولایت": "غزنى",
    "Province": "GHAZNI",
    "PC_Code": "1115358",
    "District": "MUQUR",
    "د_مرکز_نوم__نام_مرکز": "مسجد نو آباد خانه دار",
    "Polling_Center_Name": "Naw Abad Khanadar Mosque",
    "د_مرکز_ځای__موقعیت_مرکز": "قریه خاندار ",
    "Polling_Center_Location": "Khanadar Village",
    "Map_Accuracy": "Building",
    "Map_Accuracy_Dari": "تعمیر",
    "Status": "Open",
    "Status_Dari": null,
    "PS_Male": 3,
    "PS_Female": 1,
    "PS_Total": 4,
    "ولسوالي": "مقر",
    "Region": "South Eastern Region"
   },
   "geometry": {
    "x": 7543743.0797385462,
    "y": 3871976.3523142962
   }
  },
  {
   "attributes": {
    "OBJECTID": 3502,
    "ولایت": "غزنى",
    "Province": "GHAZNI",
    "PC_Code": "1116298",
    "District": "MALISTAN",
    "د_مرکز_نوم__نام_مرکز": "مسجد ولیعصر شیرداغ",
    "Polling_Center_Name": "Wali Asr Sherdagh Mosque",
    "د_مرکز_ځای__موقعیت_مرکز": "قریه دادی",
    "Polling_Center_Location": "Payen Village",
    "Map_Accuracy": "Village",
    "Map_Accuracy_Dari": "قریه",
    "Status": "Open",
    "Status_Dari": null,
    "PS_Male": 3,
    "PS_Female": 1,
    "PS_Total": 4,
    "ولسوالي": "مالستان",
    "Region": "South Eastern Region"
   },
   "geometry": {
    "x": 7459331.3844902292,
    "y": 3904972.6230021189
   }
  },
  {
   "attributes": {
    "OBJECTID": 3503,
    "ولایت": "غزنى",
    "Province": "GHAZNI",
    "PC_Code": "1116303",
    "District": "MALISTAN",
    "د_مرکز_نوم__نام_مرکز": "لیسه نسوان جمبود",
    "Polling_Center_Name": "Jambood Girls High School",
    "د_مرکز_ځای__موقعیت_مرکز": "قریه جمبود ",
    "Polling_Center_Location": "Jambood Village",
    "Map_Accuracy": "Building",
    "Map_Accuracy_Dari": "تعمیر",
    "Status": "Open",
    "Status_Dari": null,
    "PS_Male": 2,
    "PS_Female": 1,
    "PS_Total": 3,
    "ولسوالي": "مالستان",
    "Region": "South Eastern Region"
   },
   "geometry": {
    "x": 7491773.4930852847,
    "y": 3940660.0522931269
   }
  },
  {
   "attributes": {
    "OBJECTID": 3504,
    "ولایت": "غزنى",
    "Province": "GHAZNI",
    "PC_Code": "1116304",
    "District": "MALISTAN",
    "د_مرکز_نوم__نام_مرکز": "مسجد شفالی",
    "Polling_Center_Name": "Shafali Mosque",
    "د_مرکز_ځای__موقعیت_مرکز": "قریه جانی شیرداغ ",
    "Polling_Center_Location": "Jani Shir Dagh Village",
    "Map_Accuracy": "Building",
    "Map_Accuracy_Dari": "تعمیر",
    "Status": "Open",
    "Status_Dari": null,
    "PS_Male": 1,
    "PS_Female": 1,
    "PS_Total": 2,
    "ولسوالي": "مالستان",
    "Region": "South Eastern Region"
   },
   "geometry": {
    "x": 7454616.2515353803,
    "y": 3906402.4280938935
   }
  },
  {
   "attributes": {
    "OBJECTID": 3505,
    "ولایت": "غزنى",
    "Province": "GHAZNI",
    "PC_Code": "1117386",
    "District": "GELAN",
    "د_مرکز_نوم__نام_مرکز": "مسجد قریه شینکی",
    "Polling_Center_Name": "Sheenki Village Mosque",
    "د_مرکز_ځای__موقعیت_مرکز": "قریه شینکی",
    "Polling_Center_Location": "Sheenki Village",
    "Map_Accuracy": "Building",
    "Map_Accuracy_Dari": "تعمیر",
    "Status": "Open",
    "Status_Dari": null,
    "PS_Male": 3,
    "PS_Female": 1,
    "PS_Total": 4,
    "ولسوالي": "گیلان",
    "Region": "South Eastern Region"
   },
   "geometry": {
    "x": 7527065.70903714,
    "y": 3865919.7083071289
   }
  },
  {
   "attributes": {
    "OBJECTID": 3506,
    "ولایت": "پکتيکا",
    "Province": "PAKTIKA",
    "PC_Code": "1201022",
    "District": "SHARAN",
    "د_مرکز_نوم__نام_مرکز": "جومات شهاب الدین",
    "Polling_Center_Name": "Shahabuddin Mosque",
    "د_مرکز_ځای__موقعیت_مرکز": "شهاب الدین",
    "Polling_Center_Location": "Shahabuddin",
    "Map_Accuracy": "Village",
    "Map_Accuracy_Dari": "قریه",
    "Status": "Open",
    "Status_Dari": null,
    "PS_Male": 0,
    "PS_Female": 3,
    "PS_Total": 3,
    "ولسوالي": "شرن",
    "Region": "South Eastern Region"
   },
   "geometry": {
    "x": 7656801.950933801,
    "y": 3921030.8861961896
   }
  },
  {
   "attributes": {
    "OBJECTID": 3507,
    "ولایت": "پکتيکا",
    "Province": "PAKTIKA",
    "PC_Code": "1202034",
    "District": "MATA KHAN",
    "د_مرکز_نوم__نام_مرکز": "ښوونځی ذکور و اناث لاغړ",
    "Polling_Center_Name": "Laghar Village Boys & Girls School",
    "د_مرکز_ځای__موقعیت_مرکز": "لاغړ",
    "Polling_Center_Location": "Laghar Village",
    "Map_Accuracy": "Village",
    "Map_Accuracy_Dari": "قریه",
    "Status": "Open",
    "Status_Dari": null,
    "PS_Male": 3,
    "PS_Female": 1,
    "PS_Total": 4,
    "ولسوالي": "مټا خان",
    "Region": "South Eastern Region"
   },
   "geometry": {
    "x": 7660654.018310559,
    "y": 3929586.5026374231
   }
  },
  {
   "attributes": {
    "OBJECTID": 3508,
    "ولایت": "پکتيکا",
    "Province": "PAKTIKA",
    "PC_Code": "1204058",
    "District": "YAHYA KHEL",
    "د_مرکز_نوم__نام_مرکز": "جومات محمد یعقوب ",
    "Polling_Center_Name": "Mohammd Yaqoob Mosque",
    "د_مرکز_ځای__موقعیت_مرکز": "محمد یعقوب کلی",
    "Polling_Center_Location": "Mohammd Yaqoob Village",
    "Map_Accuracy": "District",
    "Map_Accuracy_Dari": "ولسوالی",
    "Status": "Open",
    "Status_Dari": null,
    "PS_Male": 3,
    "PS_Female": 1,
    "PS_Total": 4,
    "ولسوالي": "یحی خیل",
    "Region": "South Eastern Region"
   },
   "geometry": {
    "x": 7643909.9082348384,
    "y": 3894122.5720678214
   }
  },
  {
   "attributes": {
    "OBJECTID": 3509,
    "ولایت": "پکتيکا",
    "Province": "PAKTIKA",
    "PC_Code": "1206068",
    "District": "OMNA",
    "د_مرکز_نوم__نام_مرکز": "مرکز ولسوالی خیمه ",
    "Polling_Center_Name": "Raji Khel Mosque",
    "د_مرکز_ځای__موقعیت_مرکز": "مرکز ولسوالی",
    "Polling_Center_Location": "District Center",
    "Map_Accuracy": "Village",
    "Map_Accuracy_Dari": "قریه",
    "Status": "Open",
    "Status_Dari": null,
    "PS_Male": 2,
    "PS_Female": 1,
    "PS_Total": 3,
    "ولسوالي": "اومنه",
    "Region": "South Eastern Region"
   },
   "geometry": {
    "x": 7658366.4105671262,
    "y": 3882103.1156464671
   }
  },
  {
   "attributes": {
    "OBJECTID": 3510,
    "ولایت": "پکتيکا",
    "Province": "PAKTIKA",
    "PC_Code": "1207089",
    "District": "ZARGHUN SHAHR",
    "د_مرکز_نوم__نام_مرکز": "پاینده خیل کلی ښوونځی ",
    "Polling_Center_Name": "Payanda Khel Village School",
    "د_مرکز_ځای__موقعیت_مرکز": "پاینده خیل کلی ",
    "Polling_Center_Location": "Payanda Khil Village",
    "Map_Accuracy": "Village",
    "Map_Accuracy_Dari": "قریه",
    "Status": "Open",
    "Status_Dari": null,
    "PS_Male": 2,
    "PS_Female": 0,
    "PS_Total": 2,
    "ولسوالي": "زرغون شهر ",
    "Region": "South Eastern Region"
   },
   "geometry": {
    "x": 7628997.6216058414,
    "y": 3877333.7869339171
   }
  },
  {
   "attributes": {
    "OBJECTID": 3511,
    "ولایت": "پکتيکا",
    "Province": "PAKTIKA",
    "PC_Code": "1207100",
    "District": "ZARGHUN SHAHR",
    "د_مرکز_نوم__نام_مرکز": "فاصله کام ﭙاوند",
    "Polling_Center_Name": "Fasela Compound",
    "د_مرکز_ځای__موقعیت_مرکز": "زرغون شهر ",
    "Polling_Center_Location": "Zarghon Shahr",
    "Map_Accuracy": "Village",
    "Map_Accuracy_Dari": "قریه",
    "Status": "Open",
    "Status_Dari": null,
    "PS_Male": 2,
    "PS_Female": 2,
    "PS_Total": 4,
    "ولسوالي": "زرغون شهر ",
    "Region": "South Eastern Region"
   },
   "geometry": {
    "x": 7620103.3712894497,
    "y": 3875154.1269519818
   }
  },
  {
   "attributes": {
    "OBJECTID": 3512,
    "ولایت": "پکتيکا",
    "Province": "PAKTIKA",
    "PC_Code": "1207107",
    "District": "ZARGHUN SHAHR",
    "د_مرکز_نوم__نام_مرکز": "حاجی خیال گل جومات",
    "Polling_Center_Name": "Haji Kheyal Gul Mosque",
    "د_مرکز_ځای__موقعیت_مرکز": "حاجی خیال گل",
    "Polling_Center_Location": "Haji Kheyal Gul",
    "Map_Accuracy": "Village",
    "Map_Accuracy_Dari": "قریه",
    "Status": "Open",
    "Status_Dari": null,
    "PS_Male": 2,
    "PS_Female": 0,
    "PS_Total": 2,
    "ولسوالي": "زرغون شهر ",
    "Region": "South Eastern Region"
   },
   "geometry": {
    "x": 7630148.9835143853,
    "y": 3871437.2379121562
   }
  },
  {
   "attributes": {
    "OBJECTID": 3513,
    "ولایت": "پکتيکا",
    "Province": "PAKTIKA",
    "PC_Code": "1208144",
    "District": "GOMAL",
    "د_مرکز_نوم__نام_مرکز": "سعید خیل جومات",
    "Polling_Center_Name": "Saied Khel Mosque",
    "د_مرکز_ځای__موقعیت_مرکز": "سعید خیل",
    "Polling_Center_Location": "Saied Khel",
    "Map_Accuracy": "Village",
    "Map_Accuracy_Dari": "قریه",
    "Status": "Open",
    "Status_Dari": null,
    "PS_Male": 0,
    "PS_Female": 3,
    "PS_Total": 3,
    "ولسوالي": "گومل",
    "Region": "South Eastern Region"
   },
   "geometry": {
    "x": 7670394.3479639506,
    "y": 3861574.4127114872
   }
  },
  {
   "attributes": {
    "OBJECTID": 3514,
    "ولایت": "پکتيکا",
    "Province": "PAKTIKA",
    "PC_Code": "1209124",
    "District": "JANI KHEL",
    "د_مرکز_نوم__نام_مرکز": "د حاجی حریم خان کور",
    "Polling_Center_Name": "Haji Hareem Khan House",
    "د_مرکز_ځای__موقعیت_مرکز": "شهنشاه حاجی حریم خان کلی",
    "Polling_Center_Location": "Shahen Shah Haji Hareem Khan Village",
    "Map_Accuracy": "Village",
    "Map_Accuracy_Dari": "قریه",
    "Status": "Open",
    "Status_Dari": null,
    "PS_Male": 0,
    "PS_Female": 2,
    "PS_Total": 2,
    "ولسوالي": "جانی خیل",
    "Region": "South Eastern Region"
   },
   "geometry": {
    "x": 7627965.3637600793,
    "y": 3834061.0266748769
   }
  },
  {
   "attributes": {
    "OBJECTID": 3515,
    "ولایت": "پکتيکا",
    "Province": "PAKTIKA",
    "PC_Code": "1211180",
    "District": "URGOON",
    "د_مرکز_نوم__نام_مرکز": "علی باز میلمستون",
    "Polling_Center_Name": "Ali Baz Guest House",
    "د_مرکز_ځای__موقعیت_مرکز": "ﭙشتی کلی",
    "Polling_Center_Location": "Pashti Village",
    "Map_Accuracy": "Village",
    "Map_Accuracy_Dari": "قریه",
    "Status": "Open",
    "Status_Dari": null,
    "PS_Male": 0,
    "PS_Female": 2,
    "PS_Total": 2,
    "ولسوالي": "اورگون",
    "Region": "South Eastern Region"
   },
   "geometry": {
    "x": 7705569.225380145,
    "y": 3892417.1660315054
   }
  },
  {
   "attributes": {
    "OBJECTID": 3516,
    "ولایت": "پکتيکا",
    "Province": "PAKTIKA",
    "PC_Code": "1211181",
    "District": "URGOON",
    "د_مرکز_نوم__نام_مرکز": "گربوزی میلمستون",
    "Polling_Center_Name": "Garbozi Guest House",
    "د_مرکز_ځای__موقعیت_مرکز": "گربوزی کلی",
    "Polling_Center_Location": "Garbozi Village",
    "Map_Accuracy": "Village",
    "Map_Accuracy_Dari": "قریه",
    "Status": "Open",
    "Status_Dari": null,
    "PS_Male": 2,
    "PS_Female": 0,
    "PS_Total": 2,
    "ولسوالي": "اورگون",
    "Region": "South Eastern Region"
   },
   "geometry": {
    "x": 7711758.9219135307,
    "y": 3895281.319119148
   }
  },
  {
   "attributes": {
    "OBJECTID": 3517,
    "ولایت": "پکتيکا",
    "Province": "PAKTIKA",
    "PC_Code": "1212194",
    "District": "ZIRUK",
    "د_مرکز_نوم__نام_مرکز": "جمیل حان جومات",
    "Polling_Center_Name": "Jamil Khan Mosque",
    "د_مرکز_ځای__موقعیت_مرکز": "سرو میدان",
    "Polling_Center_Location": "Sro Maidan",
    "Map_Accuracy": "Village",
    "Map_Accuracy_Dari": "قریه",
    "Status": "Open",
    "Status_Dari": null,
    "PS_Male": 0,
    "PS_Female": 2,
    "PS_Total": 2,
    "ولسوالي": "زیړوک",
    "Region": "South Eastern Region"
   },
   "geometry": {
    "x": 7709301.477362575,
    "y": 3911967.8827311066
   }
  },
  {
   "attributes": {
    "OBJECTID": 3518,
    "ولایت": "پکتيکا",
    "Province": "PAKTIKA",
    "PC_Code": "1215278",
    "District": "GIYAN",
    "د_مرکز_نوم__نام_مرکز": "لطیف میلمستون",
    "Polling_Center_Name": "Latif Guest House",
    "د_مرکز_ځای__موقعیت_مرکز": "ګلی",
    "Polling_Center_Location": "Gali",
    "Map_Accuracy": "District",
    "Map_Accuracy_Dari": "ولسوالی",
    "Status": "Open",
    "Status_Dari": null,
    "PS_Male": 3,
    "PS_Female": 1,
    "PS_Total": 4,
    "ولسوالي": "گیان",
    "Region": "South Eastern Region"
   },
   "geometry": {
    "x": 7724616.3631751696,
    "y": 3892684.8433864187
   }
  },
  {
   "attributes": {
    "OBJECTID": 3519,
    "ولایت": "پکتيکا",
    "Province": "PAKTIKA",
    "PC_Code": "1215279",
    "District": "GIYAN",
    "د_مرکز_نوم__نام_مرکز": "گیان ولسوالی مرکز جومات",
    "Polling_Center_Name": "Geyan District Mosque",
    "د_مرکز_ځای__موقعیت_مرکز": "گیان ولسوالی مرکز",
    "Polling_Center_Location": "Geyan District Center",
    "Map_Accuracy": "Village",
    "Map_Accuracy_Dari": "قریه",
    "Status": "Open",
    "Status_Dari": null,
    "PS_Male": 3,
    "PS_Female": 0,
    "PS_Total": 3,
    "ولسوالي": "گیان",
    "Region": "South Eastern Region"
   },
   "geometry": {
    "x": 7722541.337810521,
    "y": 3892233.4581317371
   }
  },
  {
   "attributes": {
    "OBJECTID": 3520,
    "ولایت": "پکتيکا",
    "Province": "PAKTIKA",
    "PC_Code": "1217222",
    "District": "WAZAKHWAH",
    "د_مرکز_نوم__نام_مرکز": "حاجی فتح خان جومات",
    "Polling_Center_Name": "Haji Fateh Khan Mosque",
    "د_مرکز_ځای__موقعیت_مرکز": "مرجان کلی",
    "Polling_Center_Location": "Marjan Village",
    "Map_Accuracy": "Village",
    "Map_Accuracy_Dari": "قریه",
    "Status": "Open",
    "Status_Dari": null,
    "PS_Male": 0,
    "PS_Female": 4,
    "PS_Total": 4,
    "ولسوالي": "وازه خواه",
    "Region": "South Eastern Region"
   },
   "geometry": {
    "x": 7598729.4936103886,
    "y": 3787546.5648174006
   }
  },
  {
   "attributes": {
    "OBJECTID": 3521,
    "ولایت": "پکتيکا",
    "Province": "PAKTIKA",
    "PC_Code": "1217224",
    "District": "WAZAKHWAH",
    "د_مرکز_نوم__نام_مرکز": "مرکز ولسوالی خیمه ",
    "Polling_Center_Name": "District Compound Tent",
    "د_مرکز_ځای__موقعیت_مرکز": "مرکز ولسوالی",
    "Polling_Center_Location": "District Center",
    "Map_Accuracy": "Building",
    "Map_Accuracy_Dari": "تعمیر",
    "Status": "Open",
    "Status_Dari": null,
    "PS_Male": 3,
    "PS_Female": 1,
    "PS_Total": 4,
    "ولسوالي": "وازه خواه",
    "Region": "South Eastern Region"
   },
   "geometry": {
    "x": 7610054.569761103,
    "y": 3787233.8701937045
   }
  },
  {
   "attributes": {
    "OBJECTID": 3522,
    "ولایت": "پکتيکا",
    "Province": "PAKTIKA",
    "PC_Code": "1218239",
    "District": "WOR MAMY",
    "د_مرکز_نوم__نام_مرکز": "حاجی بلول میلمستون",
    "Polling_Center_Name": "Haji Balol Guest House",
    "د_مرکز_ځای__موقعیت_مرکز": "مامی",
    "Polling_Center_Location": "Mami",
    "Map_Accuracy": "Building",
    "Map_Accuracy_Dari": "تعمیر",
    "Status": "Open",
    "Status_Dari": null,
    "PS_Male": 3,
    "PS_Female": 1,
    "PS_Total": 4,
    "ولسوالي": "وړممی",
    "Region": "South Eastern Region"
   },
   "geometry": {
    "x": 7663735.849432596,
    "y": 3766788.0426014289
   }
  },
  {
   "attributes": {
    "OBJECTID": 3523,
    "ولایت": "پکتيکا",
    "Province": "PAKTIKA",
    "PC_Code": "1219236",
    "District": "TURWO",
    "د_مرکز_نوم__نام_مرکز": "د دوست محمد دوکان",
    "Polling_Center_Name": "Dost Mohammad Shop",
    "د_مرکز_ځای__موقعیت_مرکز": "ولسوالی مرکز بازار",
    "Polling_Center_Location": "District Center Bazar",
    "Map_Accuracy": "Village",
    "Map_Accuracy_Dari": "قریه",
    "Status": "Open",
    "Status_Dari": null,
    "PS_Male": 2,
    "PS_Female": 2,
    "PS_Total": 4,
    "ولسوالي": "تروو",
    "Region": "South Eastern Region"
   },
   "geometry": {
    "x": 7614816.9233307503,
    "y": 3736329.4256722196
   }
  },
  {
   "attributes": {
    "OBJECTID": 3524,
    "ولایت": "پکتيا",
    "Province": "PAKTYA",
    "PC_Code": "1301013",
    "District": "GARDEZ",
    "د_مرکز_نوم__نام_مرکز": "د کجیر خیمه",
    "Polling_Center_Name": "Kajeer Tent",
    "د_مرکز_ځای__موقعیت_مرکز": "  بنوزی",
    "Polling_Center_Location": "Banozai",
    "Map_Accuracy": "Village",
    "Map_Accuracy_Dari": "قریه",
    "Status": "Open",
    "Status_Dari": null,
    "PS_Male": 2,
    "PS_Female": 1,
    "PS_Total": 3,
    "ولسوالي": "گردیز",
    "Region": "South Eastern Region"
   },
   "geometry": {
    "x": 7711083.9439734649,
    "y": 3966440.5124503295
   }
  },
  {
   "attributes": {
    "OBJECTID": 3525,
    "ولایت": "پکتيا",
    "Province": "PAKTYA",
    "PC_Code": "1302193",
    "District": "AHMADABA",
    "د_مرکز_نوم__نام_مرکز": "خواجه علی زیارت",
    "Polling_Center_Name": "Khwaja Ali Ziarat",
    "د_مرکز_ځای__موقعیت_مرکز": "عیسی خیل",
    "Polling_Center_Location": "Esa Khel",
    "Map_Accuracy": "Village",
    "Map_Accuracy_Dari": "قریه",
    "Status": "Open",
    "Status_Dari": null,
    "PS_Male": 3,
    "PS_Female": 0,
    "PS_Total": 3,
    "ولسوالي": "احمد آبا",
    "Region": "South Eastern Region"
   },
   "geometry": {
    "x": 7714665.8623231649,
    "y": 3979731.5347286528
   }
  },
  {
   "attributes": {
    "OBJECTID": 3526,
    "ولایت": "پکتيا",
    "Province": "PAKTYA",
    "PC_Code": "1303093",
    "District": "ZURMAT",
    "د_مرکز_نوم__نام_مرکز": "د حسین هجره",
    "Polling_Center_Name": "Hussain Hojra",
    "د_مرکز_ځای__موقعیت_مرکز": "گلدت خیل",
    "Polling_Center_Location": "Guldat Khel",
    "Map_Accuracy": "Village",
    "Map_Accuracy_Dari": "قریه",
    "Status": "Open",
    "Status_Dari": null,
    "PS_Male": 0,
    "PS_Female": 2,
    "PS_Total": 2,
    "ولسوالي": "زرمت",
    "Region": "South Eastern Region"
   },
   "geometry": {
    "x": 7678378.2452957509,
    "y": 3953388.6366392025
   }
  },
  {
   "attributes": {
    "OBJECTID": 3527,
    "ولایت": "پکتيا",
    "Province": "PAKTYA",
    "PC_Code": "1304112",
    "District": "SHWAK",
    "د_مرکز_نوم__نام_مرکز": "لیسه ابراهیم خیل",
    "Polling_Center_Name": "Ibrahim Khel High School",
    "د_مرکز_ځای__موقعیت_مرکز": "ابراهیم خیل",
    "Polling_Center_Location": "Ibrahim Khel",
    "Map_Accuracy": "Building",
    "Map_Accuracy_Dari": "تعمیر",
    "Status": "Open",
    "Status_Dari": null,
    "PS_Male": 5,
    "PS_Female": 2,
    "PS_Total": 7,
    "ولسوالي": "شواک",
    "Region": "South Eastern Region"
   },
   "geometry": {
    "x": 7722842.5906165037,
    "y": 3954200.6174749047
   }
  },
  {
   "attributes": {
    "OBJECTID": 3528,
    "ولایت": "پکتيا",
    "Province": "PAKTYA",
    "PC_Code": "1305126",
    "District": "WUZA ZADRAN",
    "د_مرکز_نوم__نام_مرکز": "کلیژه خوله",
    "Polling_Center_Name": "Kalazai Khola",
    "د_مرکز_ځای__موقعیت_مرکز": "کلیژه خوله",
    "Polling_Center_Location": "Kaliza Khola",
    "Map_Accuracy": "Village",
    "Map_Accuracy_Dari": "قریه",
    "Status": "Open",
    "Status_Dari": null,
    "PS_Male": 0,
    "PS_Female": 3,
    "PS_Total": 3,
    "ولسوالي": "وزه ځدراڼ",
    "Region": "South Eastern Region"
   },
   "geometry": {
    "x": 7719189.0515328245,
    "y": 3933436.2217691951
   }
  },
  {
   "attributes": {
    "OBJECTID": 3529,
    "ولایت": "پکتيا",
    "Province": "PAKTYA",
    "PC_Code": "1307053",
    "District": "JAJI ARYOB",
    "د_مرکز_نوم__نام_مرکز": "د هاشم دوکان",
    "Polling_Center_Name": "Hashim Shop",
    "د_مرکز_ځای__موقعیت_مرکز": "علی خیل",
    "Polling_Center_Location": "Ali Khel",
    "Map_Accuracy": "Building",
    "Map_Accuracy_Dari": "تعمیر",
    "Status": "Open",
    "Status_Dari": null,
    "PS_Male": 5,
    "PS_Female": 0,
    "PS_Total": 5,
    "ولسوالي": "ځاځی اریوب",
    "Region": "South Eastern Region"
   },
   "geometry": {
    "x": 7760731.1978813335,
    "y": 4021080.8530337643
   }
  },
  {
   "attributes": {
    "OBJECTID": 3530,
    "ولایت": "پکتيا",
    "Province": "PAKTYA",
    "PC_Code": "1307064",
    "District": "JAJI ARYOB",
    "د_مرکز_نوم__نام_مرکز": "د حسن الگادی مسجد",
    "Polling_Center_Name": "Hassan Algadi Mosque",
    "د_مرکز_ځای__موقعیت_مرکز": "حسن لګاډه",
    "Polling_Center_Location": "Hassan Lagada",
    "Map_Accuracy": "Village",
    "Map_Accuracy_Dari": "قریه",
    "Status": "Open",
    "Status_Dari": null,
    "PS_Male": 0,
    "PS_Female": 3,
    "PS_Total": 3,
    "ولسوالي": "ځاځی اریوب",
    "Region": "South Eastern Region"
   },
   "geometry": {
    "x": 7751574.3816215936,
    "y": 4030338.0836220677
   }
  },
  {
   "attributes": {
    "OBJECTID": 3531,
    "ولایت": "پکتيا",
    "Province": "PAKTYA",
    "PC_Code": "1307213",
    "District": "JAJI ARYOB",
    "د_مرکز_نوم__نام_مرکز": "دسورګل مكتب",
    "Polling_Center_Name": "Sor Gul School",
    "د_مرکز_ځای__موقعیت_مرکز": "سورګل",
    "Polling_Center_Location": "Sor Gul ",
    "Map_Accuracy": "Building",
    "Map_Accuracy_Dari": "تعمیر",
    "Status": "Open",
    "Status_Dari": null,
    "PS_Male": 1,
    "PS_Female": 2,
    "PS_Total": 3,
    "ولسوالي": "ځاځی اریوب",
    "Region": "South Eastern Region"
   },
   "geometry": {
    "x": 7774133.3777315868,
    "y": 4028049.4404328964
   }
  },
  {
   "attributes": {
    "OBJECTID": 3532,
    "ولایت": "پکتيا",
    "Province": "PAKTYA",
    "PC_Code": "1309171",
    "District": "JANI KHEL",
    "د_مرکز_نوم__نام_مرکز": "عجب خان هجره",
    "Polling_Center_Name": "Ajab Khan Hojra",
    "د_مرکز_ځای__موقعیت_مرکز": "کوټکی، سترکلی",
    "Polling_Center_Location": "Kotkai, Setar Kalai",
    "Map_Accuracy": "Building",
    "Map_Accuracy_Dari": "تعمیر",
    "Status": "Open",
    "Status_Dari": null,
    "PS_Male": 0,
    "PS_Female": 2,
    "PS_Total": 2,
    "ولسوالي": "جانی خیل",
    "Region": "South Eastern Region"
   },
   "geometry": {
    "x": 7778357.4069416858,
    "y": 3980964.6875453671
   }
  },
  {
   "attributes": {
    "OBJECTID": 3533,
    "ولایت": "پکتيا",
    "Province": "PAKTYA",
    "PC_Code": "1310165",
    "District": "SAMKANI",
    "د_مرکز_نوم__نام_مرکز": "د نرګسی مکتب",
    "Polling_Center_Name": "Nargisi School",
    "د_مرکز_ځای__موقعیت_مرکز": "نرگسی",
    "Polling_Center_Location": "Nargisi",
    "Map_Accuracy": "Village",
    "Map_Accuracy_Dari": "قریه",
    "Status": "Open",
    "Status_Dari": null,
    "PS_Male": 3,
    "PS_Female": 1,
    "PS_Total": 4,
    "ولسوالي": "څمکنی",
    "Region": "South Eastern Region"
   },
   "geometry": {
    "x": 7768691.9173819637,
    "y": 4002251.1244613403
   }
  },
  {
   "attributes": {
    "OBJECTID": 3534,
    "ولایت": "پکتيا",
    "Province": "PAKTYA",
    "PC_Code": "1310166",
    "District": "SAMKANI",
    "د_مرکز_نوم__نام_مرکز": "د لوا ړی مدرسه",
    "Polling_Center_Name": "Lowarry Madrassa",
    "د_مرکز_ځای__موقعیت_مرکز": "لوا ړی",
    "Polling_Center_Location": "Lowarry ",
    "Map_Accuracy": "Village",
    "Map_Accuracy_Dari": "قریه",
    "Status": "Open",
    "Status_Dari": null,
    "PS_Male": 4,
    "PS_Female": 0,
    "PS_Total": 4,
    "ولسوالي": "څمکنی",
    "Region": "South Eastern Region"
   },
   "geometry": {
    "x": 7768600.1088583181,
    "y": 3991479.3674401869
   }
  },
  {
   "attributes": {
    "OBJECTID": 3535,
    "ولایت": "خوست",
    "Province": "KHOST",
    "PC_Code": "1401002",
    "District": "KHOST",
    "د_مرکز_نوم__نام_مرکز": "د شربت خان حجره",
    "Polling_Center_Name": "Sharbat Khan Hojra",
    "د_مرکز_ځای__موقعیت_مرکز": "د شمل زوړ کلى",
    "Polling_Center_Location": "Shamal Old Village",
    "Map_Accuracy": "Building",
    "Map_Accuracy_Dari": "تعمیر",
    "Status": "Open",
    "Status_Dari": null,
    "PS_Male": 3,
    "PS_Female": 2,
    "PS_Total": 5,
    "ولسوالي": "خوست",
    "Region": "South Eastern Region"
   },
   "geometry": {
    "x": 7790418.1368341092,
    "y": 3937856.284246638
   }
  },
  {
   "attributes": {
    "OBJECTID": 3536,
    "ولایت": "خوست",
    "Province": "KHOST",
    "PC_Code": "1401013",
    "District": "KHOST",
    "د_مرکز_نوم__نام_مرکز": "د تازه کلي جومات متون ",
    "Polling_Center_Name": "Taza Village Mosque",
    "د_مرکز_ځای__موقعیت_مرکز": "متون شکرې کلى",
    "Polling_Center_Location": "Maton Shakari Village",
    "Map_Accuracy": "Village",
    "Map_Accuracy_Dari": "قریه",
    "Status": "Open",
    "Status_Dari": null,
    "PS_Male": 3,
    "PS_Female": 2,
    "PS_Total": 5,
    "ولسوالي": "خوست",
    "Region": "South Eastern Region"
   },
   "geometry": {
    "x": 7781652.6698102253,
    "y": 3943854.2104227962
   }
  },
  {
   "attributes": {
    "OBJECTID": 3537,
    "ولایت": "خوست",
    "Province": "KHOST",
    "PC_Code": "1401014",
    "District": "KHOST",
    "د_مرکز_نوم__نام_مرکز": "متون منديخيل جومات",
    "Polling_Center_Name": "Maton Mandikhel Mosque",
    "د_مرکز_ځای__موقعیت_مرکز": "متون منديخيل ",
    "Polling_Center_Location": "Maton Mandikhel",
    "Map_Accuracy": "Village",
    "Map_Accuracy_Dari": "قریه",
    "Status": "Open",
    "Status_Dari": null,
    "PS_Male": 2,
    "PS_Female": 2,
    "PS_Total": 4,
    "ولسوالي": "خوست",
    "Region": "South Eastern Region"
   },
   "geometry": {
    "x": 7783252.772831304,
    "y": 3941370.8387032994
   }
  },
  {
   "attributes": {
    "OBJECTID": 3538,
    "ولایت": "خوست",
    "Province": "KHOST",
    "PC_Code": "1401025",
    "District": "KHOST",
    "د_مرکز_نوم__نام_مرکز": "د منګسو کلي جومات",
    "Polling_Center_Name": "Mangaso Village Mosque",
    "د_مرکز_ځای__موقعیت_مرکز": " منګس",
    "Polling_Center_Location": "Mangas ",
    "Map_Accuracy": "Village",
    "Map_Accuracy_Dari": "قریه",
    "Status": "Open",
    "Status_Dari": null,
    "PS_Male": 3,
    "PS_Female": 1,
    "PS_Total": 4,
    "ولسوالي": "خوست",
    "Region": "South Eastern Region"
   },
   "geometry": {
    "x": 7794021.8593324684,
    "y": 3944316.5643361555
   }
  },
  {
   "attributes": {
    "OBJECTID": 3539,
    "ولایت": "خوست",
    "Province": "KHOST",
    "PC_Code": "1401041",
    "District": "KHOST",
    "د_مرکز_نوم__نام_مرکز": "جومات کاروان سراى",
    "Polling_Center_Name": "Mosque",
    "د_مرکز_ځای__موقعیت_مرکز": "کاروان سراى",
    "Polling_Center_Location": "Karwan Sarai",
    "Map_Accuracy": "Village",
    "Map_Accuracy_Dari": "قریه",
    "Status": "Open",
    "Status_Dari": null,
    "PS_Male": 3,
    "PS_Female": 1,
    "PS_Total": 4,
    "ولسوالي": "خوست",
    "Region": "South Eastern Region"
   },
   "geometry": {
    "x": 7789475.8919286048,
    "y": 3941161.8999933829
   }
  },
  {
   "attributes": {
    "OBJECTID": 3540,
    "ولایت": "خوست",
    "Province": "KHOST",
    "PC_Code": "1401042",
    "District": "KHOST",
    "د_مرکز_نوم__نام_مرکز": "د ګل بادشاه هجره ",
    "Polling_Center_Name": "Gul Badsha Hojra",
    "د_مرکز_ځای__موقعیت_مرکز": " لټک حاجي ګل بادشاه کلى",
    "Polling_Center_Location": "Latak Haji Gul Badsha Village",
    "Map_Accuracy": "Village",
    "Map_Accuracy_Dari": "قریه",
    "Status": "Open",
    "Status_Dari": null,
    "PS_Male": 3,
    "PS_Female": 1,
    "PS_Total": 4,
    "ولسوالي": "خوست",
    "Region": "South Eastern Region"
   },
   "geometry": {
    "x": 7790317.8680291651,
    "y": 3940020.7649531965
   }
  },
  {
   "attributes": {
    "OBJECTID": 3541,
    "ولایت": "خوست",
    "Province": "KHOST",
    "PC_Code": "1401046",
    "District": "KHOST",
    "د_مرکز_نوم__نام_مرکز": "د تورغونډى مکتب",
    "Polling_Center_Name": "Toor Ghondy School ",
    "د_مرکز_ځای__موقعیت_مرکز": "د تورغونډى وزیان کلی",
    "Polling_Center_Location": "Tori Ghonday Wazian Village",
    "Map_Accuracy": "Building",
    "Map_Accuracy_Dari": "تعمیر",
    "Status": "Open",
    "Status_Dari": null,
    "PS_Male": 3,
    "PS_Female": 1,
    "PS_Total": 4,
    "ولسوالي": "خوست",
    "Region": "South Eastern Region"
   },
   "geometry": {
    "x": 7781711.0435248083,
    "y": 3935871.9332814543
   }
  },
  {
   "attributes": {
    "OBJECTID": 3542,
    "ولایت": "خوست",
    "Province": "KHOST",
    "PC_Code": "1404140",
    "District": "TANAY",
    "د_مرکز_نوم__نام_مرکز": "د بنده خيلو جومات",
    "Polling_Center_Name": "Banda Khel Mosque",
    "د_مرکز_ځای__موقعیت_مرکز": " بنده خيل",
    "Polling_Center_Location": "Banda Khel ",
    "Map_Accuracy": "Village",
    "Map_Accuracy_Dari": "قریه",
    "Status": "Open",
    "Status_Dari": null,
    "PS_Male": 2,
    "PS_Female": 1,
    "PS_Total": 3,
    "ولسوالي": "تڼي",
    "Region": "South Eastern Region"
   },
   "geometry": {
    "x": 7753086.0591183528,
    "y": 3918659.258885154
   }
  },
  {
   "attributes": {
    "OBJECTID": 3543,
    "ولایت": "خوست",
    "Province": "KHOST",
    "PC_Code": "1404141",
    "District": "TANAY",
    "د_مرکز_نوم__نام_مرکز": "د نريزيې جومات",
    "Polling_Center_Name": "Narzaye Mosque",
    "د_مرکز_ځای__موقعیت_مرکز": " نريزي",
    "Polling_Center_Location": "Narezi",
    "Map_Accuracy": "Building",
    "Map_Accuracy_Dari": "تعمیر",
    "Status": "Open",
    "Status_Dari": null,
    "PS_Male": 3,
    "PS_Female": 1,
    "PS_Total": 4,
    "ولسوالي": "تڼي",
    "Region": "South Eastern Region"
   },
   "geometry": {
    "x": 7759282.1754467711,
    "y": 3915631.1054158933
   }
  },
  {
   "attributes": {
    "OBJECTID": 3544,
    "ولایت": "خوست",
    "Province": "KHOST",
    "PC_Code": "1404145",
    "District": "TANAY",
    "د_مرکز_نوم__نام_مرکز": "د داخيو کلي جومات",
    "Polling_Center_Name": "Dakhi Village Mosque",
    "د_مرکز_ځای__موقعیت_مرکز": "داخي کلى",
    "Polling_Center_Location": "Dakhi Village",
    "Map_Accuracy": "Building",
    "Map_Accuracy_Dari": "تعمیر",
    "Status": "Open",
    "Status_Dari": null,
    "PS_Male": 3,
    "PS_Female": 1,
    "PS_Total": 4,
    "ولسوالي": "تڼي",
    "Region": "South Eastern Region"
   },
   "geometry": {
    "x": 7759480.9854894821,
    "y": 3936083.0868620276
   }
  },
  {
   "attributes": {
    "OBJECTID": 3545,
    "ولایت": "خوست",
    "Province": "KHOST",
    "PC_Code": "1406116",
    "District": "NADIRSHAH KOT",
    "د_مرکز_نوم__نام_مرکز": "د کيخې کلي جومات",
    "Polling_Center_Name": "Kekha Village Mosque",
    "د_مرکز_ځای__موقعیت_مرکز": "کيخه کلى",
    "Polling_Center_Location": "Kekha Village ",
    "Map_Accuracy": "Building",
    "Map_Accuracy_Dari": "تعمیر",
    "Status": "Open",
    "Status_Dari": null,
    "PS_Male": 1,
    "PS_Female": 1,
    "PS_Total": 2,
    "ولسوالي": "نادرشاه کوت",
    "Region": "South Eastern Region"
   },
   "geometry": {
    "x": 7750511.1224108441,
    "y": 3934209.2762083765
   }
  },
  {
   "attributes": {
    "OBJECTID": 3546,
    "ولایت": "خوست",
    "Province": "KHOST",
    "PC_Code": "1406117",
    "District": "NADIRSHAH KOT",
    "د_مرکز_نوم__نام_مرکز": "د شمبوات کلينيک",
    "Polling_Center_Name": "Shambowat Clinic",
    "د_مرکز_ځای__موقعیت_مرکز": "شمبوات",
    "Polling_Center_Location": "Shambowat",
    "Map_Accuracy": "Building",
    "Map_Accuracy_Dari": "تعمیر",
    "Status": "Open",
    "Status_Dari": null,
    "PS_Male": 1,
    "PS_Female": 1,
    "PS_Total": 2,
    "ولسوالي": "نادرشاه کوت",
    "Region": "South Eastern Region"
   },
   "geometry": {
    "x": 7763301.3756806199,
    "y": 3944859.0224225661
   }
  },
  {
   "attributes": {
    "OBJECTID": 3547,
    "ولایت": "خوست",
    "Province": "KHOST",
    "PC_Code": "1406121",
    "District": "NADIRSHAH KOT",
    "د_مرکز_نوم__نام_مرکز": "د کاڼي جومات",
    "Polling_Center_Name": "Kani Mosque",
    "د_مرکز_ځای__موقعیت_مرکز": "کاڼى",
    "Polling_Center_Location": "Kani",
    "Map_Accuracy": "Village",
    "Map_Accuracy_Dari": "قریه",
    "Status": "Open",
    "Status_Dari": null,
    "PS_Male": 1,
    "PS_Female": 1,
    "PS_Total": 2,
    "ولسوالي": "نادرشاه کوت",
    "Region": "South Eastern Region"
   },
   "geometry": {
    "x": 7758704.3304415988,
    "y": 3947652.3280104608
   }
  },
  {
   "attributes": {
    "OBJECTID": 3548,
    "ولایت": "خوست",
    "Province": "KHOST",
    "PC_Code": "1410105",
    "District": "QALANDAR",
    "د_مرکز_نوم__نام_مرکز": "د حاجي ګلستان کور مل کلى",
    "Polling_Center_Name": "Haji Gulstan House",
    "د_مرکز_ځای__موقعیت_مرکز": "مل کلى",
    "Polling_Center_Location": "Mal Village",
    "Map_Accuracy": "Building",
    "Map_Accuracy_Dari": "تعمیر",
    "Status": "Open",
    "Status_Dari": null,
    "PS_Male": 3,
    "PS_Female": 1,
    "PS_Total": 4,
    "ولسوالي": "قلندر",
    "Region": "South Eastern Region"
   },
   "geometry": {
    "x": 7751401.0649667941,
    "y": 3966769.6457688631
   }
  },
  {
   "attributes": {
    "OBJECTID": 3549,
    "ولایت": "خوست",
    "Province": "KHOST",
    "PC_Code": "1411131",
    "District": "SPERA",
    "د_مرکز_نوم__نام_مرکز": "شينشوبي کاڅکى",
    "Polling_Center_Name": "Shinshobi Kaski",
    "د_مرکز_ځای__موقعیت_مرکز": " جهانګير کلى",
    "Polling_Center_Location": "Jahangeer Village",
    "Map_Accuracy": "Village",
    "Map_Accuracy_Dari": "قریه",
    "Status": "Open",
    "Status_Dari": null,
    "PS_Male": 2,
    "PS_Female": 1,
    "PS_Total": 3,
    "ولسوالي": "سپیره",
    "Region": "South Eastern Region"
   },
   "geometry": {
    "x": 7740548.9853324611,
    "y": 3919119.6821754002
   }
  },
  {
   "attributes": {
    "OBJECTID": 3550,
    "ولایت": "خوست",
    "Province": "KHOST",
    "PC_Code": "1412159",
    "District": "SHAMUL",
    "د_مرکز_نوم__نام_مرکز": "د بورگى کلي دمکتب او مدرسې ترمنځ هوار ميدان",
    "Polling_Center_Name": "Open Space",
    "د_مرکز_ځای__موقعیت_مرکز": "د بورگى کلي",
    "Polling_Center_Location": "Borgie Village",
    "Map_Accuracy": "Building",
    "Map_Accuracy_Dari": "تعمیر",
    "Status": "Open",
    "Status_Dari": null,
    "PS_Male": 2,
    "PS_Female": 2,
    "PS_Total": 4,
    "ولسوالي": "شمل",
    "Region": "South Eastern Region"
   },
   "geometry": {
    "x": 7743065.7954546642,
    "y": 3935500.1845021108
   }
  },
  {
   "attributes": {
    "OBJECTID": 3551,
    "ولایت": "خوست",
    "Province": "KHOST",
    "PC_Code": "1412160",
    "District": "SHAMUL",
    "د_مرکز_نوم__نام_مرکز": "د خلوټي کلي جومات",
    "Polling_Center_Name": "Khaloti Village Mosque",
    "د_مرکز_ځای__موقعیت_مرکز": " خلوټى",
    "Polling_Center_Location": "Khalotai",
    "Map_Accuracy": "Building",
    "Map_Accuracy_Dari": "تعمیر",
    "Status": "Open",
    "Status_Dari": null,
    "PS_Male": 1,
    "PS_Female": 1,
    "PS_Total": 2,
    "ولسوالي": "شمل",
    "Region": "South Eastern Region"
   },
   "geometry": {
    "x": 7746062.8990858691,
    "y": 3932908.7119346671
   }
  },
  {
   "attributes": {
    "OBJECTID": 3552,
    "ولایت": "کنړ ",
    "Province": "KUNAR",
    "PC_Code": "1501008",
    "District": "ASAD ABAD",
    "د_مرکز_نوم__نام_مرکز": "شهید مینا ابتدائیه ",
    "Polling_Center_Name": "Shaheed Minaa Primary School",
    "د_مرکز_ځای__موقعیت_مرکز": "یارګل",
    "Polling_Center_Location": "Yar Gul ",
    "Map_Accuracy": "Village",
    "Map_Accuracy_Dari": "قریه",
    "Status": "Open",
    "Status_Dari": null,
    "PS_Male": 3,
    "PS_Female": 1,
    "PS_Total": 4,
    "ولسوالي": "اسعد آباد",
    "Region": "Eastern Region"
   },
   "geometry": {
    "x": 7919555.7770933444,
    "y": 4144997.5347336577
   }
  },
  {
   "attributes": {
    "OBJECTID": 3553,
    "ولایت": "کنړ ",
    "Province": "KUNAR",
    "PC_Code": "1501009",
    "District": "ASAD ABAD",
    "د_مرکز_نوم__نام_مرکز": "ریاست مخابرات",
    "Polling_Center_Name": "Communications Department",
    "د_مرکز_ځای__موقعیت_مرکز": "دم کلی",
    "Polling_Center_Location": "Dam Village",
    "Map_Accuracy": "Village",
    "Map_Accuracy_Dari": "قریه",
    "Status": "Open",
    "Status_Dari": null,
    "PS_Male": 4,
    "PS_Female": 2,
    "PS_Total": 6,
    "ولسوالي": "اسعد آباد",
    "Region": "Eastern Region"
   },
   "geometry": {
    "x": 7920515.0460885763,
    "y": 4146648.9488097653
   }
  },
  {
   "attributes": {
    "OBJECTID": 3554,
    "ولایت": "کنړ ",
    "Province": "KUNAR",
    "PC_Code": "1504037",
    "District": "NARANG",
    "د_مرکز_نوم__نام_مرکز": "لیسه بر نرنګ",
    "Polling_Center_Name": "Bar Narang High School",
    "د_مرکز_ځای__موقعیت_مرکز": "بر نرنګ ",
    "Polling_Center_Location": "Bar Narang",
    "Map_Accuracy": "Building",
    "Map_Accuracy_Dari": "تعمیر",
    "Status": "Open",
    "Status_Dari": null,
    "PS_Male": 3,
    "PS_Female": 1,
    "PS_Total": 4,
    "ولسوالي": "نرنګ",
    "Region": "Eastern Region"
   },
   "geometry": {
    "x": 7911210.9329918157,
    "y": 4132859.5177173885
   }
  },
  {
   "attributes": {
    "OBJECTID": 3555,
    "ولایت": "کنړ ",
    "Province": "KUNAR",
    "PC_Code": "1505038",
    "District": "SAR KANI",
    "د_مرکز_نوم__نام_مرکز": "سرکاڼو مرکزي لیسه",
    "Polling_Center_Name": "Sarkany Central High School",
    "د_مرکز_ځای__موقعیت_مرکز": "سرکاڼو مرکزی  کلی",
    "Polling_Center_Location": "Sarkany",
    "Map_Accuracy": "Building",
    "Map_Accuracy_Dari": "تعمیر",
    "Status": "Open",
    "Status_Dari": null,
    "PS_Male": 5,
    "PS_Female": 3,
    "PS_Total": 8,
    "ولسوالي": "سرکاڼو",
    "Region": "Eastern Region"
   },
   "geometry": {
    "x": 7915616.3862552261,
    "y": 4134968.5362054519
   }
  },
  {
   "attributes": {
    "OBJECTID": 3556,
    "ولایت": "کنړ ",
    "Province": "KUNAR",
    "PC_Code": "1507028",
    "District": "DARA-E-PECH",
    "د_مرکز_نوم__نام_مرکز": "مسجد قریه",
    "Polling_Center_Name": "Khara Village Mosque",
    "د_مرکز_ځای__موقعیت_مرکز": "خاره",
    "Polling_Center_Location": "Khara",
    "Map_Accuracy": "Village",
    "Map_Accuracy_Dari": "قریه",
    "Status": "Open",
    "Status_Dari": null,
    "PS_Male": 1,
    "PS_Female": 2,
    "PS_Total": 3,
    "ولسوالي": "دره پیچ",
    "Region": "Eastern Region"
   },
   "geometry": {
    "x": 7903246.3941194573,
    "y": 4155607.8891889737
   }
  },
  {
   "attributes": {
    "OBJECTID": 3557,
    "ولایت": "کنړ ",
    "Province": "KUNAR",
    "PC_Code": "1507029",
    "District": "DARA-E-PECH",
    "د_مرکز_نوم__نام_مرکز": "مدرسه قریه",
    "Polling_Center_Name": "Tarra Village Madrassa",
    "د_مرکز_ځای__موقعیت_مرکز": "ترړه",
    "Polling_Center_Location": "Tarra",
    "Map_Accuracy": "Village",
    "Map_Accuracy_Dari": "قریه",
    "Status": "Open",
    "Status_Dari": null,
    "PS_Male": 2,
    "PS_Female": 1,
    "PS_Total": 3,
    "ولسوالي": "دره پیچ",
    "Region": "Eastern Region"
   },
   "geometry": {
    "x": 7906220.1413630201,
    "y": 4156107.3482002905
   }
  },
  {
   "attributes": {
    "OBJECTID": 3558,
    "ولایت": "کنړ ",
    "Province": "KUNAR",
    "PC_Code": "1508058",
    "District": "BAR KUNAR",
    "د_مرکز_نوم__نام_مرکز": "مکتب دخترانه",
    "Polling_Center_Name": "Zor Asmar Girls School",
    "د_مرکز_ځای__موقعیت_مرکز": "زور اسمار",
    "Polling_Center_Location": "Zor Asmar",
    "Map_Accuracy": "Building",
    "Map_Accuracy_Dari": "تعمیر",
    "Status": "Open",
    "Status_Dari": null,
    "PS_Male": 2,
    "PS_Female": 1,
    "PS_Total": 3,
    "ولسوالي": "بر کنړ ",
    "Region": "Eastern Region"
   },
   "geometry": {
    "x": 7943482.1516969651,
    "y": 4168371.32908992
   }
  },
  {
   "attributes": {
    "OBJECTID": 3559,
    "ولایت": "کنړ ",
    "Province": "KUNAR",
    "PC_Code": "1510102",
    "District": "KHAS KUNAR",
    "د_مرکز_نوم__نام_مرکز": "مکتب متوسطه",
    "Polling_Center_Name": "Khas Kunar Primary School",
    "د_مرکز_ځای__موقعیت_مرکز": "خاص کنر",
    "Polling_Center_Location": "Khas Kunar",
    "Map_Accuracy": "Village",
    "Map_Accuracy_Dari": "قریه",
    "Status": "Open",
    "Status_Dari": null,
    "PS_Male": 2,
    "PS_Female": 2,
    "PS_Total": 4,
    "ولسوالي": "خاص کنړ",
    "Region": "Eastern Region"
   },
   "geometry": {
    "x": 7888902.906673816,
    "y": 4114663.0437596347
   }
  },
  {
   "attributes": {
    "OBJECTID": 3560,
    "ولایت": "کنړ ",
    "Province": "KUNAR",
    "PC_Code": "1510103",
    "District": "KHAS KUNAR",
    "د_مرکز_نوم__نام_مرکز": "مسجد قریه",
    "Polling_Center_Name": "Koza Arazi Village Mosque",
    "د_مرکز_ځای__موقعیت_مرکز": "کوزه اراضی",
    "Polling_Center_Location": "Koza Arazi",
    "Map_Accuracy": "Village",
    "Map_Accuracy_Dari": "قریه",
    "Status": "Open",
    "Status_Dari": null,
    "PS_Male": 4,
    "PS_Female": 2,
    "PS_Total": 6,
    "ولسوالي": "خاص کنړ",
    "Region": "Eastern Region"
   },
   "geometry": {
    "x": 7891228.5578532303,
    "y": 4116723.644595732
   }
  },
  {
   "attributes": {
    "OBJECTID": 3561,
    "ولایت": "کنړ ",
    "Province": "KUNAR",
    "PC_Code": "1514084",
    "District": "NOOR GAL",
    "د_مرکز_نوم__نام_مرکز": "سرکاری قلعه مسجد",
    "Polling_Center_Name": "Sarkari Qala Mosque",
    "د_مرکز_ځای__موقعیت_مرکز": "سرکاری قلعه",
    "Polling_Center_Location": "Sarkari Qala",
    "Map_Accuracy": "Village",
    "Map_Accuracy_Dari": "قریه",
    "Status": "Open",
    "Status_Dari": null,
    "PS_Male": 3,
    "PS_Female": 2,
    "PS_Total": 5,
    "ولسوالي": "نور ګل",
    "Region": "Eastern Region"
   },
   "geometry": {
    "x": 7877170.3533194205,
    "y": 4110239.1130692307
   }
  },
  {
   "attributes": {
    "OBJECTID": 3562,
    "ولایت": "نورستان",
    "Province": "NOORISTAN",
    "PC_Code": "1604011",
    "District": "NOOR GRAM",
    "د_مرکز_نوم__نام_مرکز": "لیسه عالی ننګراج",
    "Polling_Center_Name": "Nangraj High School",
    "د_مرکز_ځای__موقعیت_مرکز": "ننګراج",
    "Polling_Center_Location": "Nangraj",
    "Map_Accuracy": "Building",
    "Map_Accuracy_Dari": "تعمیر",
    "Status": "Open",
    "Status_Dari": null,
    "PS_Male": 3,
    "PS_Female": 1,
    "PS_Total": 4,
    "ولسوالي": "نورګرام",
    "Region": "Eastern Region"
   },
   "geometry": {
    "x": 7834824.2175333779,
    "y": 4156067.8975063907
   }
  },
  {
   "attributes": {
    "OBJECTID": 3563,
    "ولایت": "نورستان",
    "Province": "NOORISTAN",
    "PC_Code": "1604012",
    "District": "NOOR GRAM",
    "د_مرکز_نوم__نام_مرکز": "مکتب متوسطه ودهو",
    "Polling_Center_Name": "Wadaho Secondary School",
    "د_مرکز_ځای__موقعیت_مرکز": "ودهو مامو",
    "Polling_Center_Location": "Wadaho",
    "Map_Accuracy": "Building",
    "Map_Accuracy_Dari": "تعمیر",
    "Status": "Open",
    "Status_Dari": null,
    "PS_Male": 2,
    "PS_Female": 1,
    "PS_Total": 3,
    "ولسوالي": "نورګرام",
    "Region": "Eastern Region"
   },
   "geometry": {
    "x": 7831601.8010264216,
    "y": 4157638.0657471288
   }
  },
  {
   "attributes": {
    "OBJECTID": 3564,
    "ولایت": "نورستان",
    "Province": "NOORISTAN",
    "PC_Code": "1604016",
    "District": "NOOR GRAM",
    "د_مرکز_نوم__نام_مرکز": "مکتب متوسطه تیتین",
    "Polling_Center_Name": "Teteen Secondary School",
    "د_مرکز_ځای__موقعیت_مرکز": "تروت",
    "Polling_Center_Location": "Tarwat",
    "Map_Accuracy": "Village",
    "Map_Accuracy_Dari": "قریه",
    "Status": "Open",
    "Status_Dari": null,
    "PS_Male": 2,
    "PS_Female": 1,
    "PS_Total": 3,
    "ولسوالي": "نورګرام",
    "Region": "Eastern Region"
   },
   "geometry": {
    "x": 7847189.2047448447,
    "y": 4164371.8903180552
   }
  },
  {
   "attributes": {
    "OBJECTID": 3565,
    "ولایت": "نورستان",
    "Province": "NOORISTAN",
    "PC_Code": "1606073",
    "District": "KAMDESH",
    "د_مرکز_نوم__نام_مرکز": "مکتب قریه کامدیش",
    "Polling_Center_Name": "Kamdesh Village School",
    "د_مرکز_ځای__موقعیت_مرکز": "قریه کامدیش",
    "Polling_Center_Location": "Kamdesh Village",
    "Map_Accuracy": "Village",
    "Map_Accuracy_Dari": "قریه",
    "Status": "Open",
    "Status_Dari": null,
    "PS_Male": 2,
    "PS_Female": 2,
    "PS_Total": 4,
    "ولسوالي": "کامدیش",
    "Region": "Eastern Region"
   },
   "geometry": {
    "x": 7940280.2769756392,
    "y": 4219628.2762050172
   }
  },
  {
   "attributes": {
    "OBJECTID": 3566,
    "ولایت": "نورستان",
    "Province": "NOORISTAN",
    "PC_Code": "1608071",
    "District": "BARG-E-MATAL",
    "د_مرکز_نوم__نام_مرکز": "خانه ملک قریه افسی",
    "Polling_Center_Name": "Afsi Village Malak House",
    "د_مرکز_ځای__موقعیت_مرکز": "قریه افسی",
    "Polling_Center_Location": "Afsi Village",
    "Map_Accuracy": "Village",
    "Map_Accuracy_Dari": "قریه",
    "Status": "Open",
    "Status_Dari": null,
    "PS_Male": 2,
    "PS_Female": 1,
    "PS_Total": 3,
    "ولسوالي": "برګ مټال",
    "Region": "Eastern Region"
   },
   "geometry": {
    "x": 7943152.1283685826,
    "y": 4268998.2026478294
   }
  },
  {
   "attributes": {
    "OBJECTID": 3567,
    "ولایت": "بدخشان",
    "Province": "BADAKHSHAN",
    "PC_Code": "1701020",
    "District": "FAIZ ABAD",
    "د_مرکز_نوم__نام_مرکز": "مکتب شور ابک",
    "Polling_Center_Name": "Shorabak School",
    "د_مرکز_ځای__موقعیت_مرکز": "شور ابک",
    "Polling_Center_Location": "Shorabak",
    "Map_Accuracy": "Building",
    "Map_Accuracy_Dari": "تعمیر",
    "Status": "Open",
    "Status_Dari": null,
    "PS_Male": 1,
    "PS_Female": 1,
    "PS_Total": 2,
    "ولسوالي": "فیض آباد",
    "Region": "North Eastern Region"
   },
   "geometry": {
    "x": 7859259.6394704729,
    "y": 4449266.9318037592
   }
  },
  {
   "attributes": {
    "OBJECTID": 3568,
    "ولایت": "بدخشان",
    "Province": "BADAKHSHAN",
    "PC_Code": "1701021",
    "District": "FAIZ ABAD",
    "د_مرکز_نوم__نام_مرکز": "مکتب دیگه ",
    "Polling_Center_Name": "Dega School",
    "د_مرکز_ځای__موقعیت_مرکز": "دیگه",
    "Polling_Center_Location": "Dega",
    "Map_Accuracy": "Building",
    "Map_Accuracy_Dari": "تعمیر",
    "Status": "Open",
    "Status_Dari": null,
    "PS_Male": 1,
    "PS_Female": 1,
    "PS_Total": 2,
    "ولسوالي": "فیض آباد",
    "Region": "North Eastern Region"
   },
   "geometry": {
    "x": 7862118.0824307483,
    "y": 4472010.4160287287
   }
  },
  {
   "attributes": {
    "OBJECTID": 3569,
    "ولایت": "بدخشان",
    "Province": "BADAKHSHAN",
    "PC_Code": "1702039",
    "District": "ARGO",
    "د_مرکز_نوم__نام_مرکز": "مکتب برلاس شمر",
    "Polling_Center_Name": "Barlaas Shamar School",
    "د_مرکز_ځای__موقعیت_مرکز": "نسوان شمر",
    "Polling_Center_Location": "Naswan Shamar",
    "Map_Accuracy": "Building",
    "Map_Accuracy_Dari": "تعمیر",
    "Status": "Open",
    "Status_Dari": null,
    "PS_Male": 3,
    "PS_Female": 1,
    "PS_Total": 4,
    "ولسوالي": "ارگو",
    "Region": "North Eastern Region"
   },
   "geometry": {
    "x": 7828657.1422337228,
    "y": 4443694.802351689
   }
  },
  {
   "attributes": {
    "OBJECTID": 3570,
    "ولایت": "بدخشان",
    "Province": "BADAKHSHAN",
    "PC_Code": "1702040",
    "District": "ARGO",
    "د_مرکز_نوم__نام_مرکز": "مکتب بوینی قره",
    "Polling_Center_Name": "Boyeni Qara School",
    "د_مرکز_ځای__موقعیت_مرکز": "قریه بوینی قره",
    "Polling_Center_Location": "Boyeni Qara Village",
    "Map_Accuracy": "Building",
    "Map_Accuracy_Dari": "تعمیر",
    "Status": "Open",
    "Status_Dari": null,
    "PS_Male": 1,
    "PS_Female": 2,
    "PS_Total": 3,
    "ولسوالي": "ارگو",
    "Region": "North Eastern Region"
   },
   "geometry": {
    "x": 7832173.4143665032,
    "y": 4456281.2515987521
   }
  },
  {
   "attributes": {
    "OBJECTID": 3571,
    "ولایت": "بدخشان",
    "Province": "BADAKHSHAN",
    "PC_Code": "1704033",
    "District": "YAFTAL-E-SUFLA",
    "د_مرکز_نوم__نام_مرکز": "لیسه اناث شکر لب ",
    "Polling_Center_Name": "Shakarlab Girls High School",
    "د_مرکز_ځای__موقعیت_مرکز": "شکر لب ",
    "Polling_Center_Location": "Shakarlab",
    "Map_Accuracy": "Building",
    "Map_Accuracy_Dari": "تعمیر",
    "Status": "Open",
    "Status_Dari": null,
    "PS_Male": 3,
    "PS_Female": 1,
    "PS_Total": 4,
    "ولسوالي": "یفتل سفلا",
    "Region": "North Eastern Region"
   },
   "geometry": {
    "x": 7840979.8046615887,
    "y": 4484845.8459116854
   }
  },
  {
   "attributes": {
    "OBJECTID": 3572,
    "ولایت": "بدخشان",
    "Province": "BADAKHSHAN",
    "PC_Code": "1707067",
    "District": "DARAYIM",
    "د_مرکز_نوم__نام_مرکز": "مسجد جامع قریشی ",
    "Polling_Center_Name": "Quraishi Mosque",
    "د_مرکز_ځای__موقعیت_مرکز": "قریشی ",
    "Polling_Center_Location": "Quraishi",
    "Map_Accuracy": "Building",
    "Map_Accuracy_Dari": "تعمیر",
    "Status": "Open",
    "Status_Dari": null,
    "PS_Male": 1,
    "PS_Female": 1,
    "PS_Total": 2,
    "ولسوالي": "درایم",
    "Region": "North Eastern Region"
   },
   "geometry": {
    "x": 7843233.2350949654,
    "y": 4427697.0844227076
   }
  },
  {
   "attributes": {
    "OBJECTID": 3573,
    "ولایت": "بدخشان",
    "Province": "BADAKHSHAN",
    "PC_Code": "1709131",
    "District": "YAWAN",
    "د_مرکز_نوم__نام_مرکز": "مسجد روی رزا ",
    "Polling_Center_Name": "Roy Raza Mosque",
    "د_مرکز_ځای__موقعیت_مرکز": "روی رزا",
    "Polling_Center_Location": "Roy Raza",
    "Map_Accuracy": "Building",
    "Map_Accuracy_Dari": "تعمیر",
    "Status": "Open",
    "Status_Dari": null,
    "PS_Male": 1,
    "PS_Female": 1,
    "PS_Total": 2,
    "ولسوالي": "یاوان",
    "Region": "North Eastern Region"
   },
   "geometry": {
    "x": 7820836.700876222,
    "y": 4516516.163180111
   }
  },
  {
   "attributes": {
    "OBJECTID": 3574,
    "ولایت": "بدخشان",
    "Province": "BADAKHSHAN",
    "PC_Code": "1715164",
    "District": "KISHM",
    "د_مرکز_نوم__نام_مرکز": "مسجد محمد حسن",
    "Polling_Center_Name": "Mohammad Hassan Mosque",
    "د_مرکز_ځای__موقعیت_مرکز": "دره جیم",
    "Polling_Center_Location": "Dara-e-Jeem",
    "Map_Accuracy": "Building",
    "Map_Accuracy_Dari": "تعمیر",
    "Status": "Open",
    "Status_Dari": null,
    "PS_Male": 1,
    "PS_Female": 1,
    "PS_Total": 2,
    "ولسوالي": "کشم",
    "Region": "North Eastern Region"
   },
   "geometry": {
    "x": 7805674.4964244189,
    "y": 4400152.4184639379
   }
  },
  {
   "attributes": {
    "OBJECTID": 3575,
    "ولایت": "بدخشان",
    "Province": "BADAKHSHAN",
    "PC_Code": "1718253",
    "District": "YAMGAN",
    "د_مرکز_نوم__نام_مرکز": "مکتب چهار مغزستان ",
    "Polling_Center_Name": "Chahar Maghzistan School",
    "د_مرکز_ځای__موقعیت_مرکز": "چهار مغزستان",
    "Polling_Center_Location": "Chahar Maghzistan",
    "Map_Accuracy": "Building",
    "Map_Accuracy_Dari": "تعمیر",
    "Status": "Open",
    "Status_Dari": null,
    "PS_Male": 3,
    "PS_Female": 1,
    "PS_Total": 4,
    "ولسوالي": "یمگان",
    "Region": "North Eastern Region"
   },
   "geometry": {
    "x": 7894717.4709947584,
    "y": 4377434.819304998
   }
  },
  {
   "attributes": {
    "OBJECTID": 3576,
    "ولایت": "بدخشان",
    "Province": "BADAKHSHAN",
    "PC_Code": "1720239",
    "District": "KHWAHAN",
    "د_مرکز_نوم__نام_مرکز": "لیسه ذکور چشمه توت",
    "Polling_Center_Name": "Chashma Toot Boys High School",
    "د_مرکز_ځای__موقعیت_مرکز": "چشمه توت",
    "Polling_Center_Location": "Chashma Toot",
    "Map_Accuracy": "Building",
    "Map_Accuracy_Dari": "تعمیر",
    "Status": "Open",
    "Status_Dari": null,
    "PS_Male": 2,
    "PS_Female": 1,
    "PS_Total": 3,
    "ولسوالي": "خواهان",
    "Region": "North Eastern Region"
   },
   "geometry": {
    "x": 7816664.2259486979,
    "y": 4564300.3362557106
   }
  },
  {
   "attributes": {
    "OBJECTID": 3577,
    "ولایت": "بدخشان",
    "Province": "BADAKHSHAN",
    "PC_Code": "1720240",
    "District": "KHWAHAN",
    "د_مرکز_نوم__نام_مرکز": "مکتب ته کمر ",
    "Polling_Center_Name": "Teh Kamar School",
    "د_مرکز_ځای__موقعیت_مرکز": "ته کمر",
    "Polling_Center_Location": "Teh Kamar",
    "Map_Accuracy": "Building",
    "Map_Accuracy_Dari": "تعمیر",
    "Status": "Open",
    "Status_Dari": null,
    "PS_Male": 1,
    "PS_Female": 1,
    "PS_Total": 2,
    "ولسوالي": "خواهان",
    "Region": "North Eastern Region"
   },
   "geometry": {
    "x": 7814902.9323049532,
    "y": 4568623.1708626952
   }
  },
  {
   "attributes": {
    "OBJECTID": 3578,
    "ولایت": "بدخشان",
    "Province": "BADAKHSHAN",
    "PC_Code": "1720244",
    "District": "KHWAHAN",
    "د_مرکز_نوم__نام_مرکز": "مسجد جر پایان ",
    "Polling_Center_Name": "Jar Payan Mosque",
    "د_مرکز_ځای__موقعیت_مرکز": "جر پایان ",
    "Polling_Center_Location": "Jar Payan",
    "Map_Accuracy": "Building",
    "Map_Accuracy_Dari": "تعمیر",
    "Status": "Open",
    "Status_Dari": null,
    "PS_Male": 1,
    "PS_Female": 1,
    "PS_Total": 2,
    "ولسوالي": "خواهان",
    "Region": "North Eastern Region"
   },
   "geometry": {
    "x": 7837807.6700554248,
    "y": 4556735.6732845306
   }
  },
  {
   "attributes": {
    "OBJECTID": 3579,
    "ولایت": "بدخشان",
    "Province": "BADAKHSHAN",
    "PC_Code": "1723196",
    "District": "ESHKASHIM",
    "د_مرکز_نوم__نام_مرکز": "لیسه بازگیر ",
    "Polling_Center_Name": "Bazgir High School",
    "د_مرکز_ځای__موقعیت_مرکز": "بازگیر ",
    "Polling_Center_Location": "Bazgir",
    "Map_Accuracy": "Building",
    "Map_Accuracy_Dari": "تعمیر",
    "Status": "Open",
    "Status_Dari": null,
    "PS_Male": 2,
    "PS_Female": 1,
    "PS_Total": 3,
    "ولسوالي": "اشکاشم",
    "Region": "North Eastern Region"
   },
   "geometry": {
    "x": 7954815.7738449844,
    "y": 4389438.8538732976
   }
  },
  {
   "attributes": {
    "OBJECTID": 3580,
    "ولایت": "بدخشان",
    "Province": "BADAKHSHAN",
    "PC_Code": "1723197",
    "District": "ESHKASHIM",
    "د_مرکز_نوم__نام_مرکز": "لیسه اشکاشم ",
    "Polling_Center_Name": "Ashkasham High School",
    "د_مرکز_ځای__موقعیت_مرکز": "اشکاشم ",
    "Polling_Center_Location": "Ashkashm",
    "Map_Accuracy": "Building",
    "Map_Accuracy_Dari": "تعمیر",
    "Status": "Open",
    "Status_Dari": null,
    "PS_Male": 2,
    "PS_Female": 1,
    "PS_Total": 3,
    "ولسوالي": "اشکاشم",
    "Region": "North Eastern Region"
   },
   "geometry": {
    "x": 7967603.2240899811,
    "y": 4398594.3003556449
   }
  },
  {
   "attributes": {
    "OBJECTID": 3581,
    "ولایت": "بدخشان",
    "Province": "BADAKHSHAN",
    "PC_Code": "1723201",
    "District": "ESHKASHIM",
    "د_مرکز_نوم__نام_مرکز": "مکتب گل باغ",
    "Polling_Center_Name": "Gul Bagh School",
    "د_مرکز_ځای__موقعیت_مرکز": "گل باغ",
    "Polling_Center_Location": "Gul Bagh",
    "Map_Accuracy": "Building",
    "Map_Accuracy_Dari": "تعمیر",
    "Status": "Open",
    "Status_Dari": null,
    "PS_Male": 1,
    "PS_Female": 1,
    "PS_Total": 2,
    "ولسوالي": "اشکاشم",
    "Region": "North Eastern Region"
   },
   "geometry": {
    "x": 7954587.8427348016,
    "y": 4469440.8844873728
   }
  },
  {
   "attributes": {
    "OBJECTID": 3582,
    "ولایت": "بدخشان",
    "Province": "BADAKHSHAN",
    "PC_Code": "1727269",
    "District": "DARWAZ-E-BALA",
    "د_مرکز_نوم__نام_مرکز": "مکتب سرپل",
    "Polling_Center_Name": "Sar-e-Pul School",
    "د_مرکز_ځای__موقعیت_مرکز": "سرپل",
    "Polling_Center_Location": "Sare-e-Pul",
    "Map_Accuracy": "Village",
    "Map_Accuracy_Dari": "قریه",
    "Status": "Open",
    "Status_Dari": null,
    "PS_Male": 3,
    "PS_Female": 1,
    "PS_Total": 4,
    "ولسوالي": "درواز بالا (نسی) ",
    "Region": "North Eastern Region"
   },
   "geometry": {
    "x": 7884381.2859557793,
    "y": 4619487.0613376368
   }
  },
  {
   "attributes": {
    "OBJECTID": 3583,
    "ولایت": "بدخشان",
    "Province": "BADAKHSHAN",
    "PC_Code": "1727270",
    "District": "DARWAZ-E-BALA",
    "د_مرکز_نوم__نام_مرکز": "مکتب زوغار",
    "Polling_Center_Name": "Zoghar School",
    "د_مرکز_ځای__موقعیت_مرکز": "زوغار",
    "Polling_Center_Location": "Zoghar",
    "Map_Accuracy": "Village",
    "Map_Accuracy_Dari": "قریه",
    "Status": "Open",
    "Status_Dari": null,
    "PS_Male": 2,
    "PS_Female": 1,
    "PS_Total": 3,
    "ولسوالي": "درواز بالا (نسی) ",
    "Region": "North Eastern Region"
   },
   "geometry": {
    "x": 7886014.5132045364,
    "y": 4634533.7468547607
   }
  },
  {
   "attributes": {
    "OBJECTID": 3584,
    "ولایت": "بدخشان",
    "Province": "BADAKHSHAN",
    "PC_Code": "1727274",
    "District": "DARWAZ-E-BALA",
    "د_مرکز_نوم__نام_مرکز": "مکتب مگی",
    "Polling_Center_Name": "Magai School",
    "د_مرکز_ځای__موقعیت_مرکز": "مگی",
    "Polling_Center_Location": "Magai",
    "Map_Accuracy": "Village",
    "Map_Accuracy_Dari": "قریه",
    "Status": "Open",
    "Status_Dari": null,
    "PS_Male": 1,
    "PS_Female": 1,
    "PS_Total": 2,
    "ولسوالي": "درواز بالا (نسی) ",
    "Region": "North Eastern Region"
   },
   "geometry": {
    "x": 7894178.4976425711,
    "y": 4613313.7973758867
   }
  },
  {
   "attributes": {
    "OBJECTID": 3585,
    "ولایت": "تخار",
    "Province": "TAKHAR",
    "PC_Code": "1801012",
    "District": "TALUQAN",
    "د_مرکز_نوم__نام_مرکز": "لیسه ملا عبدالودود",
    "Polling_Center_Name": "Mullah Abdul Wodood High School",
    "د_مرکز_ځای__موقعیت_مرکز": "گولایی باغ",
    "Polling_Center_Location": "Golayee Bagh",
    "Map_Accuracy": "Building",
    "Map_Accuracy_Dari": "تعمیر",
    "Status": "Open",
    "Status_Dari": null,
    "PS_Male": 8,
    "PS_Female": 5,
    "PS_Total": 13,
    "ولسوالي": "تالقان",
    "Region": "North Eastern Region"
   },
   "geometry": {
    "x": 7738587.3700386481,
    "y": 4401596.6562004015
   }
  },
  {
   "attributes": {
    "OBJECTID": 3586,
    "ولایت": "تخار",
    "Province": "TAKHAR",
    "PC_Code": "1801013",
    "District": "TALUQAN",
    "د_مرکز_نوم__نام_مرکز": "لیسه بی بی مریم",
    "Polling_Center_Name": "Bibi Maryam High School",
    "د_مرکز_ځای__موقعیت_مرکز": "ناحیه چهارم",
    "Polling_Center_Location": "D04 - Nahia 4",
    "Map_Accuracy": "Building",
    "Map_Accuracy_Dari": "تعمیر",
    "Status": "Open",
    "Status_Dari": null,
    "PS_Male": 4,
    "PS_Female": 3,
    "PS_Total": 7,
    "ولسوالي": "تالقان",
    "Region": "North Eastern Region"
   },
   "geometry": {
    "x": 7739949.1703125853,
    "y": 4401685.2903869608
   }
  },
  {
   "attributes": {
    "OBJECTID": 3587,
    "ولایت": "تخار",
    "Province": "TAKHAR",
    "PC_Code": "1803045",
    "District": "BAHARAK",
    "د_مرکز_نوم__نام_مرکز": "مکتب شور قدوق",
    "Polling_Center_Name": "Shor Qadoq School",
    "د_مرکز_ځای__موقعیت_مرکز": "شور قدوق",
    "Polling_Center_Location": "Shor Qadoq",
    "Map_Accuracy": "Building",
    "Map_Accuracy_Dari": "تعمیر",
    "Status": "Open",
    "Status_Dari": null,
    "PS_Male": 1,
    "PS_Female": 1,
    "PS_Total": 2,
    "ولسوالي": "بهارک",
    "Region": "North Eastern Region"
   },
   "geometry": {
    "x": 7737296.2398302369,
    "y": 4423109.6100284765
   }
  },
  {
   "attributes": {
    "OBJECTID": 3588,
    "ولایت": "تخار",
    "Province": "TAKHAR",
    "PC_Code": "1803188",
    "District": "BAHARAK",
    "د_مرکز_نوم__نام_مرکز": "مکتب قزل سای ",
    "Polling_Center_Name": "Qazal Say School",
    "د_مرکز_ځای__موقعیت_مرکز": "قزل سای ",
    "Polling_Center_Location": "Qazal Say",
    "Map_Accuracy": "Building",
    "Map_Accuracy_Dari": "تعمیر",
    "Status": "Open",
    "Status_Dari": null,
    "PS_Male": 1,
    "PS_Female": 1,
    "PS_Total": 2,
    "ولسوالي": "بهارک",
    "Region": "North Eastern Region"
   },
   "geometry": {
    "x": 7731805.5562281758,
    "y": 4429953.3925490221
   }
  },
  {
   "attributes": {
    "OBJECTID": 3589,
    "ولایت": "تخار",
    "Province": "TAKHAR",
    "PC_Code": "1804061",
    "District": "BANGI",
    "د_مرکز_نوم__نام_مرکز": "لیسه چارچنار",
    "Polling_Center_Name": "Chaar Chenar High School",
    "د_مرکز_ځای__موقعیت_مرکز": "چارچنار",
    "Polling_Center_Location": "Chaar Chenar",
    "Map_Accuracy": "Building",
    "Map_Accuracy_Dari": "تعمیر",
    "Status": "Open",
    "Status_Dari": null,
    "PS_Male": 2,
    "PS_Female": 2,
    "PS_Total": 4,
    "ولسوالي": "بنگی",
    "Region": "North Eastern Region"
   },
   "geometry": {
    "x": 7727266.6609515594,
    "y": 4378176.0451320652
   }
  },
  {
   "attributes": {
    "OBJECTID": 3590,
    "ولایت": "تخار",
    "Province": "TAKHAR",
    "PC_Code": "1807099",
    "District": "KALAFGAN",
    "د_مرکز_نوم__نام_مرکز": "مکتب متوسطۀ گزستان",
    "Polling_Center_Name": "Gazestan Secondary School",
    "د_مرکز_ځای__موقعیت_مرکز": "گزستان",
    "Polling_Center_Location": "Gazestan",
    "Map_Accuracy": "Building",
    "Map_Accuracy_Dari": "تعمیر",
    "Status": "Open",
    "Status_Dari": null,
    "PS_Male": 2,
    "PS_Female": 2,
    "PS_Total": 4,
    "ولسوالي": "کلفگان",
    "Region": "North Eastern Region"
   },
   "geometry": {
    "x": 7772708.8266606843,
    "y": 4396624.5513077378
   }
  },
  {
   "attributes": {
    "OBJECTID": 3591,
    "ولایت": "تخار",
    "Province": "TAKHAR",
    "PC_Code": "1810121",
    "District": "RUSTAQ",
    "د_مرکز_نوم__نام_مرکز": "لیسه ابوالقاسم گرگانی",
    "Polling_Center_Name": "Abul Qaasam Gorgany High School",
    "د_مرکز_ځای__موقعیت_مرکز": "گرگان",
    "Polling_Center_Location": "Gorgan",
    "Map_Accuracy": "Building",
    "Map_Accuracy_Dari": "تعمیر",
    "Status": "Open",
    "Status_Dari": null,
    "PS_Male": 2,
    "PS_Female": 2,
    "PS_Total": 4,
    "ولسوالي": "رستاق",
    "Region": "North Eastern Region"
   },
   "geometry": {
    "x": 7781011.8847649563,
    "y": 4472731.9109530253
   }
  },
  {
   "attributes": {
    "OBJECTID": 3592,
    "ولایت": "تخار",
    "Province": "TAKHAR",
    "PC_Code": "1811068",
    "District": "ESHKAMESH",
    "د_مرکز_نوم__نام_مرکز": "مکتب کوکه بلا ق",
    "Polling_Center_Name": "Koka Balaq School",
    "د_مرکز_ځای__موقعیت_مرکز": "کوکه بلا ق",
    "Polling_Center_Location": "Koka Balaq",
    "Map_Accuracy": "Building",
    "Map_Accuracy_Dari": "تعمیر",
    "Status": "Open",
    "Status_Dari": null,
    "PS_Male": 2,
    "PS_Female": 2,
    "PS_Total": 4,
    "ولسوالي": "اشکمش",
    "Region": "North Eastern Region"
   },
   "geometry": {
    "x": 7708675.7182221701,
    "y": 4343689.1656283895
   }
  },
  {
   "attributes": {
    "OBJECTID": 3593,
    "ولایت": "تخار",
    "Province": "TAKHAR",
    "PC_Code": "1811069",
    "District": "ESHKAMESH",
    "د_مرکز_نوم__نام_مرکز": "مکتب متوسطه قينر",
    "Polling_Center_Name": "Qenar Secondary School",
    "د_مرکز_ځای__موقعیت_مرکز": "قينر",
    "Polling_Center_Location": "Qenar",
    "Map_Accuracy": "Building",
    "Map_Accuracy_Dari": "تعمیر",
    "Status": "Open",
    "Status_Dari": null,
    "PS_Male": 3,
    "PS_Female": 2,
    "PS_Total": 5,
    "ولسوالي": "اشکمش",
    "Region": "North Eastern Region"
   },
   "geometry": {
    "x": 7725947.3969682474,
    "y": 4360133.87184639
   }
  },
  {
   "attributes": {
    "OBJECTID": 3594,
    "ولایت": "تخار",
    "Province": "TAKHAR",
    "PC_Code": "1811073",
    "District": "ESHKAMESH",
    "د_مرکز_نوم__نام_مرکز": "مسجد مرکز نو آباد",
    "Polling_Center_Name": "Nawabad Markaz Mosque",
    "د_مرکز_ځای__موقعیت_مرکز": "نو آباد",
    "Polling_Center_Location": "Nawabad",
    "Map_Accuracy": "Building",
    "Map_Accuracy_Dari": "تعمیر",
    "Status": "Open",
    "Status_Dari": null,
    "PS_Male": 2,
    "PS_Female": 1,
    "PS_Total": 3,
    "ولسوالي": "اشکمش",
    "Region": "North Eastern Region"
   },
   "geometry": {
    "x": 7729520.0646682577,
    "y": 4358353.9864762584
   }
  },
  {
   "attributes": {
    "OBJECTID": 3595,
    "ولایت": "تخار",
    "Province": "TAKHAR",
    "PC_Code": "1813180",
    "District": "WARSAJ",
    "د_مرکز_نوم__نام_مرکز": "مکتب متوسطه پست آب",
    "Polling_Center_Name": "Past Aab Secondary School",
    "د_مرکز_ځای__موقعیت_مرکز": "پست آب",
    "Polling_Center_Location": "Past Aab",
    "Map_Accuracy": "Building",
    "Map_Accuracy_Dari": "تعمیر",
    "Status": "Open",
    "Status_Dari": null,
    "PS_Male": 2,
    "PS_Female": 1,
    "PS_Total": 3,
    "ولسوالي": "ورسج",
    "Region": "North Eastern Region"
   },
   "geometry": {
    "x": 7788582.5407698443,
    "y": 4339461.6912663281
   }
  },
  {
   "attributes": {
    "OBJECTID": 3596,
    "ولایت": "تخار",
    "Province": "TAKHAR",
    "PC_Code": "1813181",
    "District": "WARSAJ",
    "د_مرکز_نوم__نام_مرکز": "لیسه اشرفیه",
    "Polling_Center_Name": "Ishrafia High School",
    "د_مرکز_ځای__موقعیت_مرکز": "میان شهر",
    "Polling_Center_Location": "Miyan Shahr",
    "Map_Accuracy": "Building",
    "Map_Accuracy_Dari": "تعمیر",
    "Status": "Open",
    "Status_Dari": null,
    "PS_Male": 2,
    "PS_Female": 2,
    "PS_Total": 4,
    "ولسوالي": "ورسج",
    "Region": "North Eastern Region"
   },
   "geometry": {
    "x": 7795113.3836751292,
    "y": 4321452.0296881925
   }
  },
  {
   "attributes": {
    "OBJECTID": 3597,
    "ولایت": "تخار",
    "Province": "TAKHAR",
    "PC_Code": "1816133",
    "District": "CHAH AB",
    "د_مرکز_نوم__نام_مرکز": "لیسه ذکور چاه آب",
    "Polling_Center_Name": "Chaah Aab Boys High School",
    "د_مرکز_ځای__موقعیت_مرکز": "مرکز شهر",
    "Polling_Center_Location": "Markaz Shahr",
    "Map_Accuracy": "Building",
    "Map_Accuracy_Dari": "تعمیر",
    "Status": "Open",
    "Status_Dari": null,
    "PS_Male": 4,
    "PS_Female": 2,
    "PS_Total": 6,
    "ولسوالي": "چا آب",
    "Region": "North Eastern Region"
   },
   "geometry": {
    "x": 7771082.3253355622,
    "y": 4494654.2076700274
   }
  },
  {
   "attributes": {
    "OBJECTID": 3598,
    "ولایت": "تخار",
    "Province": "TAKHAR",
    "PC_Code": "1816134",
    "District": "CHAH AB",
    "د_مرکز_نوم__نام_مرکز": "مکتب ابتدائیه چاه اب",
    "Polling_Center_Name": "Chaah Aab Primary School",
    "د_مرکز_ځای__موقعیت_مرکز": "مرکز شهر",
    "Polling_Center_Location": "Markaz Shahr",
    "Map_Accuracy": "Building",
    "Map_Accuracy_Dari": "تعمیر",
    "Status": "Open",
    "Status_Dari": null,
    "PS_Male": 3,
    "PS_Female": 3,
    "PS_Total": 6,
    "ولسوالي": "چا آب",
    "Region": "North Eastern Region"
   },
   "geometry": {
    "x": 7772223.0540063456,
    "y": 4494253.940053721
   }
  },
  {
   "attributes": {
    "OBJECTID": 3599,
    "ولایت": "تخار",
    "Province": "TAKHAR",
    "PC_Code": "1816138",
    "District": "CHAH AB",
    "د_مرکز_نوم__نام_مرکز": "مکتب ابتدائیه خاسار",
    "Polling_Center_Name": "Khasaar Primary School",
    "د_مرکز_ځای__موقعیت_مرکز": "خاسار",
    "Polling_Center_Location": "Khasaar",
    "Map_Accuracy": "Building",
    "Map_Accuracy_Dari": "تعمیر",
    "Status": "Open",
    "Status_Dari": null,
    "PS_Male": 2,
    "PS_Female": 2,
    "PS_Total": 4,
    "ولسوالي": "چا آب",
    "Region": "North Eastern Region"
   },
   "geometry": {
    "x": 7772775.1586056622,
    "y": 4508122.8554073498
   }
  },
  {
   "attributes": {
    "OBJECTID": 3600,
    "ولایت": "تخار",
    "Province": "TAKHAR",
    "PC_Code": "1817154",
    "District": "YANGI QALA",
    "د_مرکز_نوم__نام_مرکز": "لیسه ایشان آباد",
    "Polling_Center_Name": "Eshan Abad High School",
    "د_مرکز_ځای__موقعیت_مرکز": "ایشان آباد",
    "Polling_Center_Location": "Eshan Abad",
    "Map_Accuracy": "Building",
    "Map_Accuracy_Dari": "تعمیر",
    "Status": "Open",
    "Status_Dari": null,
    "PS_Male": 1,
    "PS_Female": 1,
    "PS_Total": 2,
    "ولسوالي": "ینگی قلعه",
    "Region": "North Eastern Region"
   },
   "geometry": {
    "x": 7746243.3591123912,
    "y": 4512322.1415504571
   }
  }
 ]
}