{
 "displayFieldName": "Polling_Center_Name",
 "fieldAliases": {
  "OBJECTID": "OBJECTID",
  "ولایت": "ولایت",
  "Province": "Province",
  "PC_Code": "PC_Code",
  "District": "District",
  "د_مرکز_نوم__نام_مرکز": "د_مرکز_نوم__نام_مرکز",
  "Polling_Center_Name": "Polling_Center_Name",
  "د_مرکز_ځای__موقعیت_مرکز": "د_مرکز_ځای__موقعیت_مرکز",
  "Polling_Center_Location": "Polling_Center_Location",
  "Map_Accuracy": "Map_Accuracy",
  "Map_Accuracy_Dari": "Map_Accuracy_Dari",
  "Status": "Status",
  "Status_Dari": "Status_Dari",
  "PS_Male": "PS_Male",
  "PS_Female": "PS_Female",
  "PS_Total": "PS_Total",
  "ولسوالي": "ولسوالي",
  "Region": "Region"
 },
 "geometryType": "esriGeometryPoint",
 "spatialReference": {
  "wkid": 102100,
  "latestWkid": 3857
 },
 "fields": [
  {
   "name": "OBJECTID",
   "type": "esriFieldTypeOID",
   "alias": "OBJECTID"
  },
  {
   "name": "ولایت",
   "type": "esriFieldTypeString",
   "alias": "ولایت",
   "length": 255
  },
  {
   "name": "Province",
   "type": "esriFieldTypeString",
   "alias": "Province",
   "length": 255
  },
  {
   "name": "PC_Code",
   "type": "esriFieldTypeString",
   "alias": "PC_Code",
   "length": 255
  },
  {
   "name": "District",
   "type": "esriFieldTypeString",
   "alias": "District",
   "length": 255
  },
  {
   "name": "د_مرکز_نوم__نام_مرکز",
   "type": "esriFieldTypeString",
   "alias": "د_مرکز_نوم__نام_مرکز",
   "length": 255
  },
  {
   "name": "Polling_Center_Name",
   "type": "esriFieldTypeString",
   "alias": "Polling_Center_Name",
   "length": 255
  },
  {
   "name": "د_مرکز_ځای__موقعیت_مرکز",
   "type": "esriFieldTypeString",
   "alias": "د_مرکز_ځای__موقعیت_مرکز",
   "length": 255
  },
  {
   "name": "Polling_Center_Location",
   "type": "esriFieldTypeString",
   "alias": "Polling_Center_Location",
   "length": 255
  },
  {
   "name": "Map_Accuracy",
   "type": "esriFieldTypeString",
   "alias": "Map_Accuracy",
   "length": 10
  },
  {
   "name": "Map_Accuracy_Dari",
   "type": "esriFieldTypeString",
   "alias": "Map_Accuracy_Dari",
   "length": 50
  },
  {
   "name": "Status",
   "type": "esriFieldTypeString",
   "alias": "Status",
   "length": 6
  },
  {
   "name": "Status_Dari",
   "type": "esriFieldTypeString",
   "alias": "Status_Dari",
   "length": 8
  },
  {
   "name": "PS_Male",
   "type": "esriFieldTypeSmallInteger",
   "alias": "PS_Male"
  },
  {
   "name": "PS_Female",
   "type": "esriFieldTypeSmallInteger",
   "alias": "PS_Female"
  },
  {
   "name": "PS_Total",
   "type": "esriFieldTypeSmallInteger",
   "alias": "PS_Total"
  },
  {
   "name": "ولسوالي",
   "type": "esriFieldTypeString",
   "alias": "ولسوالي",
   "length": 255
  },
  {
   "name": "Region",
   "type": "esriFieldTypeString",
   "alias": "Region",
   "length": 50
  }
 ],
 "features": [
  {
   "attributes": {
    "OBJECTID": 4401,
    "ولایت": "بغلان",
    "Province": "BAGHLAN",
    "PC_Code": "0901016",
    "District": "PUL-E-KHUMRI",
    "د_مرکز_نوم__نام_مرکز": "مسجد قریه وزیر آیاد",
    "Polling_Center_Name": "Wazir Abad Village Mosque",
    "د_مرکز_ځای__موقعیت_مرکز": "قریه وزیر آیاد",
    "Polling_Center_Location": "Wazir Abad Village",
    "Map_Accuracy": "Building",
    "Map_Accuracy_Dari": "تعمیر",
    "Status": "Open",
    "Status_Dari": null,
    "PS_Male": 2,
    "PS_Female": 2,
    "PS_Total": 4,
    "ولسوالي": "پلخمری",
    "Region": "North Eastern Region"
   },
   "geometry": {
    "x": 7644078.998088575,
    "y": 4297561.6288262019
   }
  },
  {
   "attributes": {
    "OBJECTID": 4402,
    "ولایت": "بغلان",
    "Province": "BAGHLAN",
    "PC_Code": "0901026",
    "District": "PUL-E-KHUMRI",
    "د_مرکز_نوم__نام_مرکز": "لیسه عبدالرزاق شهید",
    "Polling_Center_Name": "Abdul Razaq Shaheed High School",
    "د_مرکز_ځای__موقعیت_مرکز": "وردگ ها",
    "Polling_Center_Location": "Wardak Ha",
    "Map_Accuracy": "Building",
    "Map_Accuracy_Dari": "تعمیر",
    "Status": "Open",
    "Status_Dari": null,
    "PS_Male": 3,
    "PS_Female": 1,
    "PS_Total": 4,
    "ولسوالي": "پلخمری",
    "Region": "North Eastern Region"
   },
   "geometry": {
    "x": 7642153.490384792,
    "y": 4290432.4972021393
   }
  },
  {
   "attributes": {
    "OBJECTID": 4403,
    "ولایت": "بغلان",
    "Province": "BAGHLAN",
    "PC_Code": "0901035",
    "District": "PUL-E-KHUMRI",
    "د_مرکز_نوم__نام_مرکز": "چپ دریا مقابل باغ قهوه خانه، مکتب کارته اتفاق",
    "Polling_Center_Name": "Karta-e-Etifaq School",
    "د_مرکز_ځای__موقعیت_مرکز": "ناحیه اول",
    "Polling_Center_Location": "First Nahia -House, Opposite to Café Shop left of river",
    "Map_Accuracy": "Building",
    "Map_Accuracy_Dari": "تعمیر",
    "Status": "Open",
    "Status_Dari": null,
    "PS_Male": 2,
    "PS_Female": 1,
    "PS_Total": 3,
    "ولسوالي": "پلخمری",
    "Region": "North Eastern Region"
   },
   "geometry": {
    "x": 7649986.2347724121,
    "y": 4290231.5324960686
   }
  },
  {
   "attributes": {
    "OBJECTID": 4404,
    "ولایت": "بغلان",
    "Province": "BAGHLAN",
    "PC_Code": "0901230",
    "District": "PUL-E-KHUMRI",
    "د_مرکز_نوم__نام_مرکز": "مسجد حاجی عبدالغفار",
    "Polling_Center_Name": "Haji Abdul Ghafar Mosque",
    "د_مرکز_ځای__موقعیت_مرکز": "ناحیه سوم",
    "Polling_Center_Location": "Third Nahia",
    "Map_Accuracy": "Building",
    "Map_Accuracy_Dari": "تعمیر",
    "Status": "Open",
    "Status_Dari": null,
    "PS_Male": 2,
    "PS_Female": 1,
    "PS_Total": 3,
    "ولسوالي": "پلخمری",
    "Region": "North Eastern Region"
   },
   "geometry": {
    "x": 7649461.4067879226,
    "y": 4293499.6392867696
   }
  },
  {
   "attributes": {
    "OBJECTID": 4405,
    "ولایت": "بغلان",
    "Province": "BAGHLAN",
    "PC_Code": "0902092",
    "District": "DAHANA-E-GHURI",
    "د_مرکز_نوم__نام_مرکز": "خیمه",
    "Polling_Center_Name": "Tent",
    "د_مرکز_ځای__موقعیت_مرکز": "قریه حاجی بشر",
    "Polling_Center_Location": "Haji Bashar Village",
    "Map_Accuracy": "Building",
    "Map_Accuracy_Dari": "تعمیر",
    "Status": "Open",
    "Status_Dari": null,
    "PS_Male": 1,
    "PS_Female": 1,
    "PS_Total": 2,
    "ولسوالي": "دهنه غوری",
    "Region": "North Eastern Region"
   },
   "geometry": {
    "x": 7623619.8715158645,
    "y": 4293304.950270135
   }
  },
  {
   "attributes": {
    "OBJECTID": 4406,
    "ولایت": "بغلان",
    "Province": "BAGHLAN",
    "PC_Code": "0903101",
    "District": "DUSHI",
    "د_مرکز_نوم__نام_مرکز": "نزدیک پل بید دره مکتب دوشی",
    "Polling_Center_Name": "Doshi School",
    "د_مرکز_ځای__موقعیت_مرکز": "دوشی",
    "Polling_Center_Location": "Doshi near Bid Dara ",
    "Map_Accuracy": "Building",
    "Map_Accuracy_Dari": "تعمیر",
    "Status": "Open",
    "Status_Dari": null,
    "PS_Male": 3,
    "PS_Female": 1,
    "PS_Total": 4,
    "ولسوالي": "دوشی",
    "Region": "North Eastern Region"
   },
   "geometry": {
    "x": 7656866.9002907062,
    "y": 4244427.9189907443
   }
  },
  {
   "attributes": {
    "OBJECTID": 4407,
    "ولایت": "بغلان",
    "Province": "BAGHLAN",
    "PC_Code": "0903111",
    "District": "DUSHI",
    "د_مرکز_نوم__نام_مرکز": "داخل قریه خان محمد ناصری",
    "Polling_Center_Name": "Khan Mohammad Naseri, Open Space",
    "د_مرکز_ځای__موقعیت_مرکز": "قریه خان محمد ناصری",
    "Polling_Center_Location": "Khan Mohammad Naseri Village",
    "Map_Accuracy": "Building",
    "Map_Accuracy_Dari": "تعمیر",
    "Status": "Open",
    "Status_Dari": null,
    "PS_Male": 2,
    "PS_Female": 2,
    "PS_Total": 4,
    "ولسوالي": "دوشی",
    "Region": "North Eastern Region"
   },
   "geometry": {
    "x": 7658712.6665036492,
    "y": 4277173.0183489826
   }
  },
  {
   "attributes": {
    "OBJECTID": 4408,
    "ولایت": "بغلان",
    "Province": "BAGHLAN",
    "PC_Code": "0904138",
    "District": "NAHREEN",
    "د_مرکز_نوم__نام_مرکز": "لیسه گلمیران شهید ",
    "Polling_Center_Name": "Gul Meran Shaheed High School",
    "د_مرکز_ځای__موقعیت_مرکز": "قریه لوگری ها",
    "Polling_Center_Location": "Logari Ha Village",
    "Map_Accuracy": "Building",
    "Map_Accuracy_Dari": "تعمیر",
    "Status": "Open",
    "Status_Dari": null,
    "PS_Male": 2,
    "PS_Female": 1,
    "PS_Total": 3,
    "ولسوالي": "نهرین",
    "Region": "North Eastern Region"
   },
   "geometry": {
    "x": 7694155.8261190476,
    "y": 4308803.9211280365
   }
  },
  {
   "attributes": {
    "OBJECTID": 4409,
    "ولایت": "بغلان",
    "Province": "BAGHLAN",
    "PC_Code": "0904244",
    "District": "NAHREEN",
    "د_مرکز_نوم__نام_مرکز": "مسجد اگری",
    "Polling_Center_Name": "Agari Mosque",
    "د_مرکز_ځای__موقعیت_مرکز": "اگری",
    "Polling_Center_Location": "Agri",
    "Map_Accuracy": "Building",
    "Map_Accuracy_Dari": "تعمیر",
    "Status": "Open",
    "Status_Dari": null,
    "PS_Male": 2,
    "PS_Female": 1,
    "PS_Total": 3,
    "ولسوالي": "نهرین",
    "Region": "North Eastern Region"
   },
   "geometry": {
    "x": 7689455.7201822596,
    "y": 4312140.7792912191
   }
  },
  {
   "attributes": {
    "OBJECTID": 4410,
    "ولایت": "بغلان",
    "Province": "BAGHLAN",
    "PC_Code": "0905049",
    "District": "BAGLAN-E-JADEED",
    "د_مرکز_نوم__نام_مرکز": "مکتب ابوحد جرخشک",
    "Polling_Center_Name": "Abuhad Jarkhoshk School",
    "د_مرکز_ځای__موقعیت_مرکز": "جرخشک",
    "Polling_Center_Location": "Jarkhoshkak",
    "Map_Accuracy": "Building",
    "Map_Accuracy_Dari": "تعمیر",
    "Status": "Open",
    "Status_Dari": null,
    "PS_Male": 2,
    "PS_Female": 1,
    "PS_Total": 3,
    "ولسوالي": "بغلان جدید",
    "Region": "North Eastern Region"
   },
   "geometry": {
    "x": 7659794.2956567779,
    "y": 4339984.0620320002
   }
  },
  {
   "attributes": {
    "OBJECTID": 4411,
    "ولایت": "بغلان",
    "Province": "BAGHLAN",
    "PC_Code": "0905059",
    "District": "BAGLAN-E-JADEED",
    "د_مرکز_نوم__نام_مرکز": "فابریکه قند لیسه ذکور بغلان صنعتی",
    "Polling_Center_Name": "Baghlan  Sanhaty Boys High School",
    "د_مرکز_ځای__موقعیت_مرکز": "شهرفابریکه",
    "Polling_Center_Location": "Shahr Fabrika",
    "Map_Accuracy": "Building",
    "Map_Accuracy_Dari": "تعمیر",
    "Status": "Open",
    "Status_Dari": null,
    "PS_Male": 2,
    "PS_Female": 1,
    "PS_Total": 3,
    "ولسوالي": "بغلان جدید",
    "Region": "North Eastern Region"
   },
   "geometry": {
    "x": 7645930.9848346682,
    "y": 4317491.6779633425
   }
  },
  {
   "attributes": {
    "OBJECTID": 4412,
    "ولایت": "بغلان",
    "Province": "BAGHLAN",
    "PC_Code": "0905068",
    "District": "BAGLAN-E-JADEED",
    "د_مرکز_نوم__نام_مرکز": "قنداری عبدالله جان",
    "Polling_Center_Name": "Qandari Abdullah Jan",
    "د_مرکز_ځای__موقعیت_مرکز": "قریه ظریف قنداری بایسقال",
    "Polling_Center_Location": "Zarif Qandari Baisqal Village ",
    "Map_Accuracy": "Village",
    "Map_Accuracy_Dari": "قریه",
    "Status": "Open",
    "Status_Dari": null,
    "PS_Male": 1,
    "PS_Female": 1,
    "PS_Total": 2,
    "ولسوالي": "بغلان جدید",
    "Region": "North Eastern Region"
   },
   "geometry": {
    "x": 7630401.0097283479,
    "y": 4335322.3743435182
   }
  },
  {
   "attributes": {
    "OBJECTID": 4413,
    "ولایت": "بغلان",
    "Province": "BAGHLAN",
    "PC_Code": "0905236",
    "District": "BAGLAN-E-JADEED",
    "د_مرکز_نوم__نام_مرکز": "مسجد همت خیل",
    "Polling_Center_Name": "Hemat Khel Mosque",
    "د_مرکز_ځای__موقعیت_مرکز": "قریه همت خیل",
    "Polling_Center_Location": "Hemat Khel Village",
    "Map_Accuracy": "Village",
    "Map_Accuracy_Dari": "قریه",
    "Status": "Open",
    "Status_Dari": null,
    "PS_Male": 2,
    "PS_Female": 2,
    "PS_Total": 4,
    "ولسوالي": "بغلان جدید",
    "Region": "North Eastern Region"
   },
   "geometry": {
    "x": 7655944.6617240878,
    "y": 4339285.6483111354
   }
  },
  {
   "attributes": {
    "OBJECTID": 4414,
    "ولایت": "بغلان",
    "Province": "BAGHLAN",
    "PC_Code": "0907120",
    "District": "ANDARAB",
    "د_مرکز_نوم__نام_مرکز": "لیسه یوچ ",
    "Polling_Center_Name": "Youch High School",
    "د_مرکز_ځای__موقعیت_مرکز": "قریه یوچ",
    "Polling_Center_Location": "Youch Village",
    "Map_Accuracy": "Building",
    "Map_Accuracy_Dari": "تعمیر",
    "Status": "Open",
    "Status_Dari": null,
    "PS_Male": 3,
    "PS_Female": 1,
    "PS_Total": 4,
    "ولسوالي": "اندراب",
    "Region": "North Eastern Region"
   },
   "geometry": {
    "x": 7686160.8335736012,
    "y": 4245853.6311673447
   }
  },
  {
   "attributes": {
    "OBJECTID": 4415,
    "ولایت": "بغلان",
    "Province": "BAGHLAN",
    "PC_Code": "0908184",
    "District": "DEH SALAH",
    "د_مرکز_نوم__نام_مرکز": "کلینیک کلان شهشان",
    "Polling_Center_Name": "Shahshan Big Clinic",
    "د_مرکز_ځای__موقعیت_مرکز": " شهشان",
    "Polling_Center_Location": "Eilnag Kalan Shahshan",
    "Map_Accuracy": "Building",
    "Map_Accuracy_Dari": "تعمیر",
    "Status": "Open",
    "Status_Dari": null,
    "PS_Male": 2,
    "PS_Female": 1,
    "PS_Total": 3,
    "ولسوالي": "ده صلاح ",
    "Region": "North Eastern Region"
   },
   "geometry": {
    "x": 7717901.1429104758,
    "y": 4270430.3017614242
   }
  },
  {
   "attributes": {
    "OBJECTID": 4416,
    "ولایت": "بغلان",
    "Province": "BAGHLAN",
    "PC_Code": "0909194",
    "District": "JALGA",
    "د_مرکز_نوم__نام_مرکز": "لیسه حمید الله شهید ",
    "Polling_Center_Name": "Hamidullah Shaheed High School",
    "د_مرکز_ځای__موقعیت_مرکز": "سیاه ریگ",
    "Polling_Center_Location": "Siah Rieg",
    "Map_Accuracy": "Building",
    "Map_Accuracy_Dari": "تعمیر",
    "Status": "Open",
    "Status_Dari": null,
    "PS_Male": 2,
    "PS_Female": 1,
    "PS_Total": 3,
    "ولسوالي": "جلگه",
    "Region": "North Eastern Region"
   },
   "geometry": {
    "x": 7709237.5421262309,
    "y": 4281444.5453477111
   }
  },
  {
   "attributes": {
    "OBJECTID": 4417,
    "ولایت": "بغلان",
    "Province": "BAGHLAN",
    "PC_Code": "0910149",
    "District": "BURKA",
    "د_مرکز_نوم__نام_مرکز": "مدرسه جامع شور قدوق",
    "Polling_Center_Name": "Shor Qudoq Madrassa",
    "د_مرکز_ځای__موقعیت_مرکز": "شور قدوق",
    "Polling_Center_Location": "Shor Qudoq",
    "Map_Accuracy": "Building",
    "Map_Accuracy_Dari": "تعمیر",
    "Status": "Open",
    "Status_Dari": null,
    "PS_Male": 2,
    "PS_Female": 1,
    "PS_Total": 3,
    "ولسوالي": "برکه",
    "Region": "North Eastern Region"
   },
   "geometry": {
    "x": 7682463.3889695499,
    "y": 4355079.8851910587
   }
  },
  {
   "attributes": {
    "OBJECTID": 4418,
    "ولایت": "بغلان",
    "Province": "BAGHLAN",
    "PC_Code": "0910161",
    "District": "BURKA",
    "د_مرکز_نوم__نام_مرکز": "مکتب اناث تنگی مرچ ",
    "Polling_Center_Name": "Tangi Murch Girls School",
    "د_مرکز_ځای__موقعیت_مرکز": "تنگی مرچ",
    "Polling_Center_Location": "Tangi Murch",
    "Map_Accuracy": "Building",
    "Map_Accuracy_Dari": "تعمیر",
    "Status": "Open",
    "Status_Dari": null,
    "PS_Male": 2,
    "PS_Female": 1,
    "PS_Total": 3,
    "ولسوالي": "برکه",
    "Region": "North Eastern Region"
   },
   "geometry": {
    "x": 7701269.4120871043,
    "y": 4339854.1864604661
   }
  },
  {
   "attributes": {
    "OBJECTID": 4419,
    "ولایت": "بغلان",
    "Province": "BAGHLAN",
    "PC_Code": "0911169",
    "District": "TALA WA BARFAK",
    "د_مرکز_نوم__نام_مرکز": "مکتب لیسه وادو ",
    "Polling_Center_Name": "Vado High School",
    "د_مرکز_ځای__موقعیت_مرکز": "وادو",
    "Polling_Center_Location": "Vado",
    "Map_Accuracy": "Building",
    "Map_Accuracy_Dari": "تعمیر",
    "Status": "Open",
    "Status_Dari": null,
    "PS_Male": 2,
    "PS_Female": 1,
    "PS_Total": 3,
    "ولسوالي": "تاله و برفک",
    "Region": "North Eastern Region"
   },
   "geometry": {
    "x": 7602760.28442962,
    "y": 4229503.6340950057
   }
  },
  {
   "attributes": {
    "OBJECTID": 4420,
    "ولایت": "بغلان",
    "Province": "BAGHLAN",
    "PC_Code": "0913210",
    "District": "KHOST WA FIRING",
    "د_مرکز_نوم__نام_مرکز": "مکتب ابتدائی یخه",
    "Polling_Center_Name": "Yakha Primary School",
    "د_مرکز_ځای__موقعیت_مرکز": "یخه",
    "Polling_Center_Location": "Yakha",
    "Map_Accuracy": "Building",
    "Map_Accuracy_Dari": "تعمیر",
    "Status": "Open",
    "Status_Dari": null,
    "PS_Male": 1,
    "PS_Female": 1,
    "PS_Total": 2,
    "ولسوالي": "خوست و فرنگ",
    "Region": "North Eastern Region"
   },
   "geometry": {
    "x": 7738923.5649195919,
    "y": 4315490.3475656128
   }
  },
  {
   "attributes": {
    "OBJECTID": 4421,
    "ولایت": "بغلان",
    "Province": "BAGHLAN",
    "PC_Code": "0913255",
    "District": "KHOST WA FIRING",
    "د_مرکز_نوم__نام_مرکز": "مکتب متوسطه سچی",
    "Polling_Center_Name": "Sechi Secondary School",
    "د_مرکز_ځای__موقعیت_مرکز": "سچی",
    "Polling_Center_Location": "Sechi",
    "Map_Accuracy": "Building",
    "Map_Accuracy_Dari": "تعمیر",
    "Status": "Open",
    "Status_Dari": null,
    "PS_Male": 1,
    "PS_Female": 1,
    "PS_Total": 2,
    "ولسوالي": "خوست و فرنگ",
    "Region": "North Eastern Region"
   },
   "geometry": {
    "x": 7734683.7216626331,
    "y": 4284792.0031244857
   }
  },
  {
   "attributes": {
    "OBJECTID": 4422,
    "ولایت": "بغلان",
    "Province": "BAGHLAN",
    "PC_Code": "0915223",
    "District": "FIRING WA GHARU",
    "د_مرکز_نوم__نام_مرکز": "مسجد حاجی محمد علم خان",
    "Polling_Center_Name": "Haji Mohammad Alam Khan Mosque",
    "د_مرکز_ځای__موقعیت_مرکز": "هزاره",
    "Polling_Center_Location": "Hazara",
    "Map_Accuracy": "Building",
    "Map_Accuracy_Dari": "تعمیر",
    "Status": "Open",
    "Status_Dari": null,
    "PS_Male": 1,
    "PS_Female": 1,
    "PS_Total": 2,
    "ولسوالي": "فرنگ و غارو",
    "Region": "North Eastern Region"
   },
   "geometry": {
    "x": 7750033.7454724973,
    "y": 4315916.9539654795
   }
  },
  {
   "attributes": {
    "OBJECTID": 4423,
    "ولایت": "باميان",
    "Province": "BAMYAN",
    "PC_Code": "1001011",
    "District": "BAMYAN",
    "د_مرکز_نوم__نام_مرکز": "مکتب دکدان",
    "Polling_Center_Name": "Dakdan School",
    "د_مرکز_ځای__موقعیت_مرکز": "دکدان آهنگران",
    "Polling_Center_Location": "Dakdan-e-Ahangaran",
    "Map_Accuracy": "Building",
    "Map_Accuracy_Dari": "تعمیر",
    "Status": "Open",
    "Status_Dari": null,
    "PS_Male": 1,
    "PS_Female": 2,
    "PS_Total": 3,
    "ولسوالي": "بامیان",
    "Region": "Central Highlands Region"
   },
   "geometry": {
    "x": 7559183.5027672974,
    "y": 4124001.1437557992
   }
  },
  {
   "attributes": {
    "OBJECTID": 4424,
    "ولایت": "باميان",
    "Province": "BAMYAN",
    "PC_Code": "1002022",
    "District": "SHEBAR",
    "د_مرکز_نوم__نام_مرکز": "مکتب شینیه عراق",
    "Polling_Center_Name": "Shinia Iraq School",
    "د_مرکز_ځای__موقعیت_مرکز": "شینیه عراق",
    "Polling_Center_Location": "Shinia Iraq",
    "Map_Accuracy": "Building",
    "Map_Accuracy_Dari": "تعمیر",
    "Status": "Open",
    "Status_Dari": null,
    "PS_Male": 1,
    "PS_Female": 1,
    "PS_Total": 2,
    "ولسوالي": "شیبر",
    "Region": "Central Highlands Region"
   },
   "geometry": {
    "x": 7574904.1937648235,
    "y": 4140484.6959033571
   }
  },
  {
   "attributes": {
    "OBJECTID": 4425,
    "ولایت": "باميان",
    "Province": "BAMYAN",
    "PC_Code": "1003033",
    "District": "SAIGHAN",
    "د_مرکز_نوم__نام_مرکز": "لیسه ذکور مرکز خداداد خیل",
    "Polling_Center_Name": "Khudadad Khell Center Boys High School",
    "د_مرکز_ځای__موقعیت_مرکز": "خداداد خیل",
    "Polling_Center_Location": "Khudadad Khel",
    "Map_Accuracy": "Building",
    "Map_Accuracy_Dari": "تعمیر",
    "Status": "Open",
    "Status_Dari": null,
    "PS_Male": 2,
    "PS_Female": 2,
    "PS_Total": 4,
    "ولسوالي": "سیغان",
    "Region": "Central Highlands Region"
   },
   "geometry": {
    "x": 7533018.1458870163,
    "y": 4189259.4334702524
   }
  },
  {
   "attributes": {
    "OBJECTID": 4426,
    "ولایت": "باميان",
    "Province": "BAMYAN",
    "PC_Code": "1003044",
    "District": "SAIGHAN",
    "د_مرکز_نوم__نام_مرکز": "مسجد پشته واز",
    "Polling_Center_Name": "Pushtawaz Mosque",
    "د_مرکز_ځای__موقعیت_مرکز": "پشته واز",
    "Polling_Center_Location": "Pushtawaz",
    "Map_Accuracy": "Building",
    "Map_Accuracy_Dari": "تعمیر",
    "Status": "Open",
    "Status_Dari": null,
    "PS_Male": 2,
    "PS_Female": 1,
    "PS_Total": 3,
    "ولسوالي": "سیغان",
    "Region": "Central Highlands Region"
   },
   "geometry": {
    "x": 7545061.9385189144,
    "y": 4192755.3436742472
   }
  },
  {
   "attributes": {
    "OBJECTID": 4427,
    "ولایت": "باميان",
    "Province": "BAMYAN",
    "PC_Code": "1003045",
    "District": "SAIGHAN",
    "د_مرکز_نوم__نام_مرکز": "مسجد غراب",
    "Polling_Center_Name": "Ghurab Mosque",
    "د_مرکز_ځای__موقعیت_مرکز": "غراب",
    "Polling_Center_Location": "Ghurab",
    "Map_Accuracy": "Building",
    "Map_Accuracy_Dari": "تعمیر",
    "Status": "Open",
    "Status_Dari": null,
    "PS_Male": 1,
    "PS_Female": 1,
    "PS_Total": 2,
    "ولسوالي": "سیغان",
    "Region": "Central Highlands Region"
   },
   "geometry": {
    "x": 7538049.3093102537,
    "y": 4166078.718099345
   }
  },
  {
   "attributes": {
    "OBJECTID": 4428,
    "ولایت": "باميان",
    "Province": "BAMYAN",
    "PC_Code": "1004055",
    "District": "KAHMARD",
    "د_مرکز_نوم__نام_مرکز": "مکتب بنق",
    "Polling_Center_Name": "Beneq School",
    "د_مرکز_ځای__موقعیت_مرکز": "بنق",
    "Polling_Center_Location": "Beneq",
    "Map_Accuracy": "Building",
    "Map_Accuracy_Dari": "تعمیر",
    "Status": "Open",
    "Status_Dari": null,
    "PS_Male": 1,
    "PS_Female": 1,
    "PS_Total": 2,
    "ولسوالي": "کهمرد",
    "Region": "Central Highlands Region"
   },
   "geometry": {
    "x": 7524700.576173923,
    "y": 4207248.5472973669
   }
  },
  {
   "attributes": {
    "OBJECTID": 4429,
    "ولایت": "باميان",
    "Province": "BAMYAN",
    "PC_Code": "1004056",
    "District": "KAHMARD",
    "د_مرکز_نوم__نام_مرکز": "مکتب آجر",
    "Polling_Center_Name": "Aajar School",
    "د_مرکز_ځای__موقعیت_مرکز": "آجر",
    "Polling_Center_Location": "Aajar",
    "Map_Accuracy": "Building",
    "Map_Accuracy_Dari": "تعمیر",
    "Status": "Open",
    "Status_Dari": null,
    "PS_Male": 2,
    "PS_Female": 0,
    "PS_Total": 2,
    "ولسوالي": "کهمرد",
    "Region": "Central Highlands Region"
   },
   "geometry": {
    "x": 7514817.75423274,
    "y": 4213309.4862691779
   }
  },
  {
   "attributes": {
    "OBJECTID": 4430,
    "ولایت": "باميان",
    "Province": "BAMYAN",
    "PC_Code": "1004068",
    "District": "KAHMARD",
    "د_مرکز_نوم__نام_مرکز": "مکتب باجگا",
    "Polling_Center_Name": "Bajga School",
    "د_مرکز_ځای__موقعیت_مرکز": "باجگا",
    "Polling_Center_Location": "Bajga",
    "Map_Accuracy": "Building",
    "Map_Accuracy_Dari": "تعمیر",
    "Status": "Open",
    "Status_Dari": null,
    "PS_Male": 1,
    "PS_Female": 1,
    "PS_Total": 2,
    "ولسوالي": "کهمرد",
    "Region": "Central Highlands Region"
   },
   "geometry": {
    "x": 7551758.1309430432,
    "y": 4211495.4899071772
   }
  },
  {
   "attributes": {
    "OBJECTID": 4431,
    "ولایت": "باميان",
    "Province": "BAMYAN",
    "PC_Code": "1005069",
    "District": "YAKAWLANG",
    "د_مرکز_نوم__نام_مرکز": "مدرسه نیک",
    "Polling_Center_Name": "Naik Madrassa",
    "د_مرکز_ځای__موقعیت_مرکز": "نیک",
    "Polling_Center_Location": "Nayak",
    "Map_Accuracy": "Building",
    "Map_Accuracy_Dari": "تعمیر",
    "Status": "Open",
    "Status_Dari": null,
    "PS_Male": 3,
    "PS_Female": 3,
    "PS_Total": 6,
    "ولسوالي": "یکاولنگ",
    "Region": "Central Highlands Region"
   },
   "geometry": {
    "x": 7454548.7618676983,
    "y": 4128231.0468838979
   }
  },
  {
   "attributes": {
    "OBJECTID": 4432,
    "ولایت": "باميان",
    "Province": "BAMYAN",
    "PC_Code": "1005079",
    "District": "YAKAWLANG",
    "د_مرکز_نوم__نام_مرکز": "منبر کلته توپ",
    "Polling_Center_Name": "Munbar-e-Kalta Toop",
    "د_مرکز_ځای__موقعیت_مرکز": "کلته توپ پاس رویه",
    "Polling_Center_Location": "Kalta Toup Paas Roya",
    "Map_Accuracy": "Building",
    "Map_Accuracy_Dari": "تعمیر",
    "Status": "Open",
    "Status_Dari": null,
    "PS_Male": 1,
    "PS_Female": 1,
    "PS_Total": 2,
    "ولسوالي": "یکاولنگ",
    "Region": "Central Highlands Region"
   },
   "geometry": {
    "x": 7493042.8235978084,
    "y": 4126999.8963898108
   }
  },
  {
   "attributes": {
    "OBJECTID": 4433,
    "ولایت": "باميان",
    "Province": "BAMYAN",
    "PC_Code": "1005080",
    "District": "YAKAWLANG",
    "د_مرکز_نوم__نام_مرکز": "مدرسه شیردوش",
    "Polling_Center_Name": "Sheerdosh Madrassa",
    "د_مرکز_ځای__موقعیت_مرکز": "شیردوش",
    "Polling_Center_Location": "Sheerdosh",
    "Map_Accuracy": "Building",
    "Map_Accuracy_Dari": "تعمیر",
    "Status": "Open",
    "Status_Dari": null,
    "PS_Male": 1,
    "PS_Female": 1,
    "PS_Total": 2,
    "ولسوالي": "یکاولنگ",
    "Region": "Central Highlands Region"
   },
   "geometry": {
    "x": 7483159.2413445013,
    "y": 4119438.1424492812
   }
  },
  {
   "attributes": {
    "OBJECTID": 4434,
    "ولایت": "باميان",
    "Province": "BAMYAN",
    "PC_Code": "1005089",
    "District": "YAKAWLANG",
    "د_مرکز_نوم__نام_مرکز": "خمیه دشت سوخته",
    "Polling_Center_Name": "Khamya Dasht-e-Sokhta",
    "د_مرکز_ځای__موقعیت_مرکز": "جنگل زری دخمه، گهواره سنگ",
    "Polling_Center_Location": "Zeri Dakhma Jungle, Gahwara Sang",
    "Map_Accuracy": "Building",
    "Map_Accuracy_Dari": "تعمیر",
    "Status": "Open",
    "Status_Dari": null,
    "PS_Male": 2,
    "PS_Female": 1,
    "PS_Total": 3,
    "ولسوالي": "یکاولنگ",
    "Region": "Central Highlands Region"
   },
   "geometry": {
    "x": 7396432.1441022865,
    "y": 4170305.4630855848
   }
  },
  {
   "attributes": {
    "OBJECTID": 4435,
    "ولایت": "باميان",
    "Province": "BAMYAN",
    "PC_Code": "1006096",
    "District": "PANJAB",
    "د_مرکز_نوم__نام_مرکز": "مکتب دخترانه پشت تیلگراف",
    "Polling_Center_Name": "Pusht-e-Telegraph Girls School",
    "د_مرکز_ځای__موقعیت_مرکز": "دشت غجور",
    "Polling_Center_Location": "Dasht-e-Ghujoor",
    "Map_Accuracy": "Building",
    "Map_Accuracy_Dari": "تعمیر",
    "Status": "Open",
    "Status_Dari": null,
    "PS_Male": 2,
    "PS_Female": 2,
    "PS_Total": 4,
    "ولسوالي": "پنجاب",
    "Region": "Central Highlands Region"
   },
   "geometry": {
    "x": 7460846.4115904719,
    "y": 4081557.2100370754
   }
  },
  {
   "attributes": {
    "OBJECTID": 4436,
    "ولایت": "باميان",
    "Province": "BAMYAN",
    "PC_Code": "1006107",
    "District": "PANJAB",
    "د_مرکز_نوم__نام_مرکز": "مسجد نو دراز کرمان",
    "Polling_Center_Name": "Naw Daraz-e-Kerman Mosque",
    "د_مرکز_ځای__موقعیت_مرکز": "نو دراز",
    "Polling_Center_Location": "Naw Daraz",
    "Map_Accuracy": "Building",
    "Map_Accuracy_Dari": "تعمیر",
    "Status": "Open",
    "Status_Dari": null,
    "PS_Male": 1,
    "PS_Female": 2,
    "PS_Total": 3,
    "ولسوالي": "پنجاب",
    "Region": "Central Highlands Region"
   },
   "geometry": {
    "x": 7419312.1856237268,
    "y": 4092530.2572747455
   }
  },
  {
   "attributes": {
    "OBJECTID": 4437,
    "ولایت": "باميان",
    "Province": "BAMYAN",
    "PC_Code": "1006118",
    "District": "PANJAB",
    "د_مرکز_نوم__نام_مرکز": "ممبر پام الترغان کرمان",
    "Polling_Center_Name": "Munbar-e-Altarghaan Kerman",
    "د_مرکز_ځای__موقعیت_مرکز": "قلعه قاسم بیگ",
    "Polling_Center_Location": "Qala-e-Qasim Beg",
    "Map_Accuracy": "Building",
    "Map_Accuracy_Dari": "تعمیر",
    "Status": "Open",
    "Status_Dari": null,
    "PS_Male": 1,
    "PS_Female": 1,
    "PS_Total": 2,
    "ولسوالي": "پنجاب",
    "Region": "Western Region"
   },
   "geometry": {
    "x": 7415155.835324442,
    "y": 4095596.7512483038
   }
  },
  {
   "attributes": {
    "OBJECTID": 4438,
    "ولایت": "باميان",
    "Province": "BAMYAN",
    "PC_Code": "1007129",
    "District": "WARAS",
    "د_مرکز_نوم__نام_مرکز": "مسجد سبزک",
    "Polling_Center_Name": "Sabzak Mosque",
    "د_مرکز_ځای__موقعیت_مرکز": "دهن سبزک",
    "Polling_Center_Location": "Dahan-e-Sabzak",
    "Map_Accuracy": "Building",
    "Map_Accuracy_Dari": "تعمیر",
    "Status": "Open",
    "Status_Dari": null,
    "PS_Male": 1,
    "PS_Female": 1,
    "PS_Total": 2,
    "ولسوالي": "ورس",
    "Region": "Central Highlands Region"
   },
   "geometry": {
    "x": 7409508.7756676869,
    "y": 4052876.4393608314
   }
  },
  {
   "attributes": {
    "OBJECTID": 4439,
    "ولایت": "باميان",
    "Province": "BAMYAN",
    "PC_Code": "1007140",
    "District": "WARAS",
    "د_مرکز_نوم__نام_مرکز": "مسجد چوب تمان",
    "Polling_Center_Name": "Chob-e-Taman Mosque",
    "د_مرکز_ځای__موقعیت_مرکز": "چوب تمان",
    "Polling_Center_Location": "Chob Taamaan",
    "Map_Accuracy": "Building",
    "Map_Accuracy_Dari": "تعمیر",
    "Status": "Open",
    "Status_Dari": null,
    "PS_Male": 1,
    "PS_Female": 1,
    "PS_Total": 2,
    "ولسوالي": "ورس",
    "Region": "Central Highlands Region"
   },
   "geometry": {
    "x": 7489611.8299873397,
    "y": 4057631.4123094957
   }
  },
  {
   "attributes": {
    "OBJECTID": 4440,
    "ولایت": "باميان",
    "Province": "BAMYAN",
    "PC_Code": "1007152",
    "District": "WARAS",
    "د_مرکز_نوم__نام_مرکز": "مکتب اوچه سنگنگ لیگان",
    "Polling_Center_Name": "Awcha Sanginag Legan Mosque",
    "د_مرکز_ځای__موقعیت_مرکز": "اوچه",
    "Polling_Center_Location": "Awcha",
    "Map_Accuracy": "Building",
    "Map_Accuracy_Dari": "تعمیر",
    "Status": "Open",
    "Status_Dari": null,
    "PS_Male": 1,
    "PS_Female": 1,
    "PS_Total": 2,
    "ولسوالي": "ورس",
    "Region": "Central Highlands Region"
   },
   "geometry": {
    "x": 7459392.3813372925,
    "y": 4010194.6167851784
   }
  },
  {
   "attributes": {
    "OBJECTID": 4441,
    "ولایت": "غزنى",
    "Province": "GHAZNI",
    "PC_Code": "1101001",
    "District": "GHAZNI",
    "د_مرکز_نوم__نام_مرکز": "مستوفیت",
    "Polling_Center_Name": "Mastofiat ",
    "د_مرکز_ځای__موقعیت_مرکز": "مرکز شهر",
    "Polling_Center_Location": "Markaz Shahar",
    "Map_Accuracy": "Building",
    "Map_Accuracy_Dari": "تعمیر",
    "Status": "Open",
    "Status_Dari": null,
    "PS_Male": 5,
    "PS_Female": 0,
    "PS_Total": 5,
    "ولسوالي": "غزنی",
    "Region": "South Eastern Region"
   },
   "geometry": {
    "x": 7616584.8427105928,
    "y": 3967947.2212661598
   }
  },
  {
   "attributes": {
    "OBJECTID": 4442,
    "ولایت": "غزنى",
    "Province": "GHAZNI",
    "PC_Code": "1101011",
    "District": "GHAZNI",
    "د_مرکز_نوم__نام_مرکز": "مکتب ولی عصر",
    "Polling_Center_Name": "Wali Asar School",
    "د_مرکز_ځای__موقعیت_مرکز": "قریه خاک غریبان",
    "Polling_Center_Location": "Khak-e-Ghariban Village",
    "Map_Accuracy": "Village",
    "Map_Accuracy_Dari": "قریه",
    "Status": "Open",
    "Status_Dari": null,
    "PS_Male": 3,
    "PS_Female": 2,
    "PS_Total": 5,
    "ولسوالي": "غزنی",
    "Region": "South Eastern Region"
   },
   "geometry": {
    "x": 7614465.4320385717,
    "y": 3969879.1841007201
   }
  },
  {
   "attributes": {
    "OBJECTID": 4443,
    "ولایت": "غزنى",
    "Province": "GHAZNI",
    "PC_Code": "1101022",
    "District": "GHAZNI",
    "د_مرکز_نوم__نام_مرکز": "کلینیک عمومی",
    "Polling_Center_Name": "General Clinic",
    "د_مرکز_ځای__موقعیت_مرکز": "قریه روضه",
    "Polling_Center_Location": "Rawza Village",
    "Map_Accuracy": "Building",
    "Map_Accuracy_Dari": "تعمیر",
    "Status": "Open",
    "Status_Dari": null,
    "PS_Male": 4,
    "PS_Female": 2,
    "PS_Total": 6,
    "ولسوالي": "غزنی",
    "Region": "South Eastern Region"
   },
   "geometry": {
    "x": 7620793.0823641159,
    "y": 3973403.0932548
   }
  },
  {
   "attributes": {
    "OBJECTID": 4444,
    "ولایت": "غزنى",
    "Province": "GHAZNI",
    "PC_Code": "1101032",
    "District": "GHAZNI",
    "د_مرکز_نوم__نام_مرکز": "مسجد سید جعفر",
    "Polling_Center_Name": "Sayed Jafar Mosque",
    "د_مرکز_ځای__موقعیت_مرکز": "قریه قلعه ریس ",
    "Polling_Center_Location": "Qala-e-Rais",
    "Map_Accuracy": "Village",
    "Map_Accuracy_Dari": "قریه",
    "Status": "Open",
    "Status_Dari": null,
    "PS_Male": 6,
    "PS_Female": 0,
    "PS_Total": 6,
    "ولسوالي": "غزنی",
    "Region": "South Eastern Region"
   },
   "geometry": {
    "x": 7615919.4226620067,
    "y": 3970495.2585840118
   }
  },
  {
   "attributes": {
    "OBJECTID": 4445,
    "ولایت": "غزنى",
    "Province": "GHAZNI",
    "PC_Code": "1101044",
    "District": "GHAZNI",
    "د_مرکز_نوم__نام_مرکز": "مسجد ارزو",
    "Polling_Center_Name": "Urzo Mosque",
    "د_مرکز_ځای__موقعیت_مرکز": "قریه ارزو",
    "Polling_Center_Location": "Urzo Village",
    "Map_Accuracy": "Village",
    "Map_Accuracy_Dari": "قریه",
    "Status": "Open",
    "Status_Dari": null,
    "PS_Male": 4,
    "PS_Female": 0,
    "PS_Total": 4,
    "ولسوالي": "غزنی",
    "Region": "South Eastern Region"
   },
   "geometry": {
    "x": 7623579.2088435879,
    "y": 3957793.5133395651
   }
  },
  {
   "attributes": {
    "OBJECTID": 4446,
    "ولایت": "غزنى",
    "Province": "GHAZNI",
    "PC_Code": "1102096",
    "District": "WALI MOHAMMAD SHAHID",
    "د_مرکز_نوم__نام_مرکز": "مسجد قریه سید عالم ",
    "Polling_Center_Name": "Sayed Alam Village Mosque",
    "د_مرکز_ځای__موقعیت_مرکز": "قریه سید عالم ",
    "Polling_Center_Location": "Sayed Alam Village",
    "Map_Accuracy": "Building",
    "Map_Accuracy_Dari": "تعمیر",
    "Status": "Open",
    "Status_Dari": null,
    "PS_Male": 4,
    "PS_Female": 1,
    "PS_Total": 5,
    "ولسوالي": "ولی محمد شهید",
    "Region": "South Eastern Region"
   },
   "geometry": {
    "x": 7607560.3630615044,
    "y": 3972737.0936128404
   }
  },
  {
   "attributes": {
    "OBJECTID": 4447,
    "ولایت": "غزنى",
    "Province": "GHAZNI",
    "PC_Code": "1105070",
    "District": "DEH YAK",
    "د_مرکز_نوم__نام_مرکز": "مکتب ابتدائیه",
    "Polling_Center_Name": "Primary School ",
    "د_مرکز_ځای__موقعیت_مرکز": "سلیمان بیک",
    "Polling_Center_Location": "Sulaiman Beik",
    "Map_Accuracy": "District",
    "Map_Accuracy_Dari": "ولسوالی",
    "Status": "Open",
    "Status_Dari": null,
    "PS_Male": 2,
    "PS_Female": 1,
    "PS_Total": 3,
    "ولسوالي": "ده یک",
    "Region": "South Eastern Region"
   },
   "geometry": {
    "x": 7639149.5806799186,
    "y": 3961040.9243095615
   }
  },
  {
   "attributes": {
    "OBJECTID": 4448,
    "ولایت": "غزنى",
    "Province": "GHAZNI",
    "PC_Code": "1106112",
    "District": "JAGHATU",
    "د_مرکز_نوم__نام_مرکز": "مسجد فقیر شاه",
    "Polling_Center_Name": "Faqeer Shah Mosque",
    "د_مرکز_ځای__موقعیت_مرکز": "قریه گیرو فقیر شاه ",
    "Polling_Center_Location": "Gero-e-Faqeer Shah Village",
    "Map_Accuracy": "Building",
    "Map_Accuracy_Dari": "تعمیر",
    "Status": "Open",
    "Status_Dari": null,
    "PS_Male": 3,
    "PS_Female": 0,
    "PS_Total": 3,
    "ولسوالي": "جغتو",
    "Region": "South Eastern Region"
   },
   "geometry": {
    "x": 7572078.7247509202,
    "y": 3972426.3080125395
   }
  },
  {
   "attributes": {
    "OBJECTID": 4449,
    "ولایت": "غزنى",
    "Province": "GHAZNI",
    "PC_Code": "1106122",
    "District": "JAGHATU",
    "د_مرکز_نوم__نام_مرکز": "لیسه شاکي",
    "Polling_Center_Name": "Shaki High School",
    "د_مرکز_ځای__موقعیت_مرکز": "قریه جانه منطقه شاکی",
    "Polling_Center_Location": "Janan Village, Shaki Region",
    "Map_Accuracy": "Building",
    "Map_Accuracy_Dari": "تعمیر",
    "Status": "Open",
    "Status_Dari": null,
    "PS_Male": 1,
    "PS_Female": 2,
    "PS_Total": 3,
    "ولسوالي": "جغتو",
    "Region": "South Eastern Region"
   },
   "geometry": {
    "x": 7572723.1345814485,
    "y": 3955536.3914816743
   }
  },
  {
   "attributes": {
    "OBJECTID": 4450,
    "ولایت": "غزنى",
    "Province": "GHAZNI",
    "PC_Code": "1107223",
    "District": "ANDAR",
    "د_مرکز_نوم__نام_مرکز": "مسجد قریه مزو سفلی",
    "Polling_Center_Name": "Mazo Sufla Village Mosque",
    "د_مرکز_ځای__موقعیت_مرکز": "قریه مزو سفلی ",
    "Polling_Center_Location": "Mazo Sufla Village",
    "Map_Accuracy": "Building",
    "Map_Accuracy_Dari": "تعمیر",
    "Status": "Open",
    "Status_Dari": null,
    "PS_Male": 0,
    "PS_Female": 3,
    "PS_Total": 3,
    "ولسوالي": "اندر",
    "Region": "South Eastern Region"
   },
   "geometry": {
    "x": 7601603.1060776813,
    "y": 3934276.0698480872
   }
  },
  {
   "attributes": {
    "OBJECTID": 4451,
    "ولایت": "غزنى",
    "Province": "GHAZNI",
    "PC_Code": "1107234",
    "District": "ANDAR",
    "د_مرکز_نوم__نام_مرکز": "کلینیک قریه یعقوب",
    "Polling_Center_Name": "Yaqoob Village Clinic",
    "د_مرکز_ځای__موقعیت_مرکز": "قریه یعقوب ",
    "Polling_Center_Location": "Yaqoob Village",
    "Map_Accuracy": "Building",
    "Map_Accuracy_Dari": "تعمیر",
    "Status": "Open",
    "Status_Dari": null,
    "PS_Male": 0,
    "PS_Female": 3,
    "PS_Total": 3,
    "ولسوالي": "اندر",
    "Region": "South Eastern Region"
   },
   "geometry": {
    "x": 7613236.5594817828,
    "y": 3946162.9755048985
   }
  },
  {
   "attributes": {
    "OBJECTID": 4452,
    "ولایت": "غزنى",
    "Province": "GHAZNI",
    "PC_Code": "1107244",
    "District": "ANDAR",
    "د_مرکز_نوم__نام_مرکز": "مسجد قریه چنګاه سفلی",
    "Polling_Center_Name": "Changah Sufla Village Mosque",
    "د_مرکز_ځای__موقعیت_مرکز": "قریه چنګاه سفلی ",
    "Polling_Center_Location": "Changah Sufla Village",
    "Map_Accuracy": "Building",
    "Map_Accuracy_Dari": "تعمیر",
    "Status": "Open",
    "Status_Dari": null,
    "PS_Male": 0,
    "PS_Female": 2,
    "PS_Total": 2,
    "ولسوالي": "اندر",
    "Region": "South Eastern Region"
   },
   "geometry": {
    "x": 7631253.2672970844,
    "y": 3940825.5881715021
   }
  },
  {
   "attributes": {
    "OBJECTID": 4453,
    "ولایت": "غزنى",
    "Province": "GHAZNI",
    "PC_Code": "1108072",
    "District": "ZANAKHAN",
    "د_مرکز_نوم__نام_مرکز": "مسجد السوالی",
    "Polling_Center_Name": "District Mosque",
    "د_مرکز_ځای__موقعیت_مرکز": " مر کز ولسوالی",
    "Polling_Center_Location": "District Compound",
    "Map_Accuracy": "Village",
    "Map_Accuracy_Dari": "قریه",
    "Status": "Open",
    "Status_Dari": null,
    "PS_Male": 2,
    "PS_Female": 1,
    "PS_Total": 3,
    "ولسوالي": "زنخان",
    "Region": "South Eastern Region"
   },
   "geometry": {
    "x": 7637569.8925402574,
    "y": 3986058.2695435155
   }
  },
  {
   "attributes": {
    "OBJECTID": 4454,
    "ولایت": "غزنى",
    "Province": "GHAZNI",
    "PC_Code": "1110257",
    "District": "NAWUR",
    "د_مرکز_نوم__نام_مرکز": "مسجد کاکا دانا",
    "Polling_Center_Name": "Kaka Dana Mosque",
    "د_مرکز_ځای__موقعیت_مرکز": "قریه شینیه",
    "Polling_Center_Location": "Shenia Village",
    "Map_Accuracy": "Village",
    "Map_Accuracy_Dari": "قریه",
    "Status": "Open",
    "Status_Dari": null,
    "PS_Male": 1,
    "PS_Female": 1,
    "PS_Total": 2,
    "ولسوالي": "ناور",
    "Region": "South Eastern Region"
   },
   "geometry": {
    "x": 7591557.394778396,
    "y": 4022725.5091099748
   }
  },
  {
   "attributes": {
    "OBJECTID": 4455,
    "ولایت": "غزنى",
    "Province": "GHAZNI",
    "PC_Code": "1110268",
    "District": "NAWUR",
    "د_مرکز_نوم__نام_مرکز": "مسجد جامع پیتاب محمدیار",
    "Polling_Center_Name": "Petab Mohammad Yar Mosque",
    "د_مرکز_ځای__موقعیت_مرکز": "قریه سنګ الماس",
    "Polling_Center_Location": "Sang-e-Almas Village",
    "Map_Accuracy": "Village",
    "Map_Accuracy_Dari": "قریه",
    "Status": "Open",
    "Status_Dari": null,
    "PS_Male": 1,
    "PS_Female": 1,
    "PS_Total": 2,
    "ولسوالي": "ناور",
    "Region": "South Eastern Region"
   },
   "geometry": {
    "x": 7505026.8510214901,
    "y": 3987940.6485877871
   }
  },
  {
   "attributes": {
    "OBJECTID": 4456,
    "ولایت": "غزنى",
    "Province": "GHAZNI",
    "PC_Code": "1110277",
    "District": "NAWUR",
    "د_مرکز_نوم__نام_مرکز": "مسجد قریه دهن نو",
    "Polling_Center_Name": "Danhan-e-Naw Village Mosque",
    "د_مرکز_ځای__موقعیت_مرکز": "قریه دهن نو تلخک ",
    "Polling_Center_Location": "Danhan-e-Naw Talkhak Village",
    "Map_Accuracy": "Village",
    "Map_Accuracy_Dari": "قریه",
    "Status": "Open",
    "Status_Dari": null,
    "PS_Male": 1,
    "PS_Female": 1,
    "PS_Total": 2,
    "ولسوالي": "ناور",
    "Region": "South Eastern Region"
   },
   "geometry": {
    "x": 7506310.6196719706,
    "y": 4025000.8763436619
   }
  },
  {
   "attributes": {
    "OBJECTID": 4457,
    "ولایت": "غزنى",
    "Province": "GHAZNI",
    "PC_Code": "1110278",
    "District": "NAWUR",
    "د_مرکز_نوم__نام_مرکز": "مسجد قریه شیبار",
    "Polling_Center_Name": "Shaibar Village Mosque",
    "د_مرکز_ځای__موقعیت_مرکز": "قریه شیبار",
    "Polling_Center_Location": "Shaibar Village",
    "Map_Accuracy": "Building",
    "Map_Accuracy_Dari": "تعمیر",
    "Status": "Open",
    "Status_Dari": null,
    "PS_Male": 3,
    "PS_Female": 1,
    "PS_Total": 4,
    "ولسوالي": "ناور",
    "Region": "South Eastern Region"
   },
   "geometry": {
    "x": 7505548.7401714204,
    "y": 4037427.7136987452
   }
  },
  {
   "attributes": {
    "OBJECTID": 4458,
    "ولایت": "غزنى",
    "Province": "GHAZNI",
    "PC_Code": "1111133",
    "District": "QARA BAGH",
    "د_مرکز_نوم__نام_مرکز": "مسجد عبد الخالق ",
    "Polling_Center_Name": "Abdullah Khaliq Mosque",
    "د_مرکز_ځای__موقعیت_مرکز": "قریه ګوډول ",
    "Polling_Center_Location": "Godol Village",
    "Map_Accuracy": "Building",
    "Map_Accuracy_Dari": "تعمیر",
    "Status": "Open",
    "Status_Dari": null,
    "PS_Male": 0,
    "PS_Female": 2,
    "PS_Total": 2,
    "ولسوالي": "قره باغ",
    "Region": "South Eastern Region"
   },
   "geometry": {
    "x": 7581294.5314352233,
    "y": 3920804.2906631511
   }
  },
  {
   "attributes": {
    "OBJECTID": 4459,
    "ولایت": "غزنى",
    "Province": "GHAZNI",
    "PC_Code": "1111144",
    "District": "QARA BAGH",
    "د_مرکز_نوم__نام_مرکز": "مسجد قریه نوروز خیل",
    "Polling_Center_Name": "Nawrooz Khel Village Mosque",
    "د_مرکز_ځای__موقعیت_مرکز": "قریه نوروز خیل ",
    "Polling_Center_Location": "Nawrooz Khel Village",
    "Map_Accuracy": "Building",
    "Map_Accuracy_Dari": "تعمیر",
    "Status": "Open",
    "Status_Dari": null,
    "PS_Male": 2,
    "PS_Female": 0,
    "PS_Total": 2,
    "ولسوالي": "قره باغ",
    "Region": "South Eastern Region"
   },
   "geometry": {
    "x": 7582170.2930012429,
    "y": 3911304.7706464464
   }
  },
  {
   "attributes": {
    "OBJECTID": 4460,
    "ولایت": "غزنى",
    "Province": "GHAZNI",
    "PC_Code": "1111155",
    "District": "QARA BAGH",
    "د_مرکز_نوم__نام_مرکز": "مسجد پایین قریه خونیان",
    "Polling_Center_Name": "Khonyan Village Lower Mosque",
    "د_مرکز_ځای__موقعیت_مرکز": "قریه خونیان ",
    "Polling_Center_Location": "Khonyan Village",
    "Map_Accuracy": "Building",
    "Map_Accuracy_Dari": "تعمیر",
    "Status": "Open",
    "Status_Dari": null,
    "PS_Male": 0,
    "PS_Female": 2,
    "PS_Total": 2,
    "ولسوالي": "قره باغ",
    "Region": "South Eastern Region"
   },
   "geometry": {
    "x": 7574077.9738249918,
    "y": 3915342.157533187
   }
  },
  {
   "attributes": {
    "OBJECTID": 4461,
    "ولایت": "غزنى",
    "Province": "GHAZNI",
    "PC_Code": "1111161",
    "District": "QARA BAGH",
    "د_مرکز_نوم__نام_مرکز": "مسجد کهنه بهادرګی",
    "Polling_Center_Name": "Bahadoorgi Old Mosque",
    "د_مرکز_ځای__موقعیت_مرکز": "قریه بهادورګی",
    "Polling_Center_Location": "Bahadoorgi Village",
    "Map_Accuracy": "Building",
    "Map_Accuracy_Dari": "تعمیر",
    "Status": "Open",
    "Status_Dari": null,
    "PS_Male": 0,
    "PS_Female": 2,
    "PS_Total": 2,
    "ولسوالي": "قره باغ",
    "Region": "South Eastern Region"
   },
   "geometry": {
    "x": 7575705.3890831377,
    "y": 3920205.5758637018
   }
  },
  {
   "attributes": {
    "OBJECTID": 4462,
    "ولایت": "غزنى",
    "Province": "GHAZNI",
    "PC_Code": "1111172",
    "District": "QARA BAGH",
    "د_مرکز_نوم__نام_مرکز": "مکتب قلوچ",
    "Polling_Center_Name": "Qolooch Mosque",
    "د_مرکز_ځای__موقعیت_مرکز": "قریه سه ده قلوچ",
    "Polling_Center_Location": "3 Deh Qolooch Village",
    "Map_Accuracy": "Building",
    "Map_Accuracy_Dari": "تعمیر",
    "Status": "Open",
    "Status_Dari": null,
    "PS_Male": 2,
    "PS_Female": 0,
    "PS_Total": 2,
    "ولسوالي": "قره باغ",
    "Region": "South Eastern Region"
   },
   "geometry": {
    "x": 7564270.7188937413,
    "y": 3936657.1422391534
   }
  },
  {
   "attributes": {
    "OBJECTID": 4463,
    "ولایت": "غزنى",
    "Province": "GHAZNI",
    "PC_Code": "1113383",
    "District": "AB BAND",
    "د_مرکز_نوم__نام_مرکز": "حویلی  بچه",
    "Polling_Center_Name": "Bacha House",
    "د_مرکز_ځای__موقعیت_مرکز": "بزگی",
    "Polling_Center_Location": "Bazgi",
    "Map_Accuracy": "Village",
    "Map_Accuracy_Dari": "قریه",
    "Status": "Open",
    "Status_Dari": null,
    "PS_Male": 0,
    "PS_Female": 2,
    "PS_Total": 2,
    "ولسوالي": "آب بند",
    "Region": "South Eastern Region"
   },
   "geometry": {
    "x": 7562874.2192213219,
    "y": 3890735.7276207828
   }
  },
  {
   "attributes": {
    "OBJECTID": 4464,
    "ولایت": "غزنى",
    "Province": "GHAZNI",
    "PC_Code": "1114329",
    "District": "JAGHURI",
    "د_مرکز_نوم__نام_مرکز": "لیسه داود",
    "Polling_Center_Name": "Dawood High School",
    "د_مرکز_ځای__موقعیت_مرکز": "قریه داوود ",
    "Polling_Center_Location": "Dawood Village",
    "Map_Accuracy": "Building",
    "Map_Accuracy_Dari": "تعمیر",
    "Status": "Open",
    "Status_Dari": null,
    "PS_Male": 4,
    "PS_Female": 2,
    "PS_Total": 6,
    "ولسوالي": "جاغوری",
    "Region": "South Eastern Region"
   },
   "geometry": {
    "x": 7522065.5837143203,
    "y": 3895280.0050623422
   }
  },
  {
   "attributes": {
    "OBJECTID": 4465,
    "ولایت": "غزنى",
    "Province": "GHAZNI",
    "PC_Code": "1114340",
    "District": "JAGHURI",
    "د_مرکز_نوم__نام_مرکز": "مسجد عمومی قریه هیچه",
    "Polling_Center_Name": "Hecha Village Mosque",
    "د_مرکز_ځای__موقعیت_مرکز": "قریه پشت هیچه ",
    "Polling_Center_Location": "Pusht-e-Hecha Village",
    "Map_Accuracy": "Building",
    "Map_Accuracy_Dari": "تعمیر",
    "Status": "Open",
    "Status_Dari": null,
    "PS_Male": 1,
    "PS_Female": 2,
    "PS_Total": 3,
    "ولسوالي": "جاغوری",
    "Region": "South Eastern Region"
   },
   "geometry": {
    "x": 7482172.819299073,
    "y": 3899901.6742466772
   }
  },
  {
   "attributes": {
    "OBJECTID": 4466,
    "ولایت": "غزنى",
    "Province": "GHAZNI",
    "PC_Code": "1114349",
    "District": "JAGHURI",
    "د_مرکز_نوم__نام_مرکز": "مکتب متوسطه تبرغنک",
    "Polling_Center_Name": "Tabar Ghanak Secondary School",
    "د_مرکز_ځای__موقعیت_مرکز": "قریه تبرغنک",
    "Polling_Center_Location": "Tabar Ghanak Village",
    "Map_Accuracy": "Building",
    "Map_Accuracy_Dari": "تعمیر",
    "Status": "Open",
    "Status_Dari": null,
    "PS_Male": 1,
    "PS_Female": 1,
    "PS_Total": 2,
    "ولسوالي": "جاغوری",
    "Region": "South Eastern Region"
   },
   "geometry": {
    "x": 7510862.4402546566,
    "y": 3921687.6538332468
   }
  },
  {
   "attributes": {
    "OBJECTID": 4467,
    "ولایت": "غزنى",
    "Province": "GHAZNI",
    "PC_Code": "1115361",
    "District": "MUQUR",
    "د_مرکز_نوم__نام_مرکز": "مکتب قریه عالم خیل",
    "Polling_Center_Name": "Alam Khel Village ",
    "د_مرکز_ځای__موقعیت_مرکز": "قریه عالم خیل",
    "Polling_Center_Location": "Alam Khel Village",
    "Map_Accuracy": "Building",
    "Map_Accuracy_Dari": "تعمیر",
    "Status": "Open",
    "Status_Dari": null,
    "PS_Male": 2,
    "PS_Female": 1,
    "PS_Total": 3,
    "ولسوالي": "مقر",
    "Region": "South Eastern Region"
   },
   "geometry": {
    "x": 7553623.4493113505,
    "y": 3873999.5130275325
   }
  },
  {
   "attributes": {
    "OBJECTID": 4468,
    "ولایت": "غزنى",
    "Province": "GHAZNI",
    "PC_Code": "1116305",
    "District": "MALISTAN",
    "د_مرکز_نوم__نام_مرکز": "لیسه ذکور کمرک",
    "Polling_Center_Name": "Kamarak Boys High School",
    "د_مرکز_ځای__موقعیت_مرکز": "قریه کمرک ",
    "Polling_Center_Location": "Kamarak Village",
    "Map_Accuracy": "Building",
    "Map_Accuracy_Dari": "تعمیر",
    "Status": "Open",
    "Status_Dari": null,
    "PS_Male": 3,
    "PS_Female": 2,
    "PS_Total": 5,
    "ولسوالي": "مالستان",
    "Region": "South Eastern Region"
   },
   "geometry": {
    "x": 7514666.724853185,
    "y": 3943671.0709709832
   }
  },
  {
   "attributes": {
    "OBJECTID": 4469,
    "ولایت": "غزنى",
    "Province": "GHAZNI",
    "PC_Code": "1116314",
    "District": "MALISTAN",
    "د_مرکز_نوم__نام_مرکز": "مکتب ابتدائیه قریه قبجای",
    "Polling_Center_Name": "Qabjay Village Primary School",
    "د_مرکز_ځای__موقعیت_مرکز": "قریه قبجای ",
    "Polling_Center_Location": "Qabjay Village ",
    "Map_Accuracy": "Building",
    "Map_Accuracy_Dari": "تعمیر",
    "Status": "Open",
    "Status_Dari": null,
    "PS_Male": 1,
    "PS_Female": 1,
    "PS_Total": 2,
    "ولسوالي": "مالستان",
    "Region": "South Eastern Region"
   },
   "geometry": {
    "x": 7477009.1155505069,
    "y": 3914448.5485877879
   }
  },
  {
   "attributes": {
    "OBJECTID": 4470,
    "ولایت": "پکتيکا",
    "Province": "PAKTIKA",
    "PC_Code": "1201026",
    "District": "SHARAN",
    "د_مرکز_نوم__نام_مرکز": "د عبدالله کور",
    "Polling_Center_Name": "Abdullah House",
    "د_مرکز_ځای__موقعیت_مرکز": "تاوه کچه کلی ",
    "Polling_Center_Location": "Tawa Kacha Village",
    "Map_Accuracy": "Village",
    "Map_Accuracy_Dari": "قریه",
    "Status": "Open",
    "Status_Dari": null,
    "PS_Male": 2,
    "PS_Female": 2,
    "PS_Total": 4,
    "ولسوالي": "شرن",
    "Region": "South Eastern Region"
   },
   "geometry": {
    "x": 7665863.7804984422,
    "y": 3906853.6069532707
   }
  },
  {
   "attributes": {
    "OBJECTID": 4471,
    "ولایت": "پکتيکا",
    "Province": "PAKTIKA",
    "PC_Code": "1201281",
    "District": "SHARAN",
    "د_مرکز_نوم__نام_مرکز": "علي بابا ابتداييه ښوونځی",
    "Polling_Center_Name": "Ali Baba Primary School",
    "د_مرکز_ځای__موقعیت_مرکز": "شرنه بازار",
    "Polling_Center_Location": "Sharana Bazaar",
    "Map_Accuracy": "Village",
    "Map_Accuracy_Dari": "قریه",
    "Status": "Open",
    "Status_Dari": null,
    "PS_Male": 3,
    "PS_Female": 0,
    "PS_Total": 3,
    "ولسوالي": "شرن",
    "Region": "South Eastern Region"
   },
   "geometry": {
    "x": 7663189.1716584582,
    "y": 3913263.8423836678
   }
  },
  {
   "attributes": {
    "OBJECTID": 4472,
    "ولایت": "پکتيکا",
    "Province": "PAKTIKA",
    "PC_Code": "1203040",
    "District": "YOSUF KHEL",
    "د_مرکز_نوم__نام_مرکز": "حاجی پتی میلمستون ",
    "Polling_Center_Name": "Haji Pati Guest House",
    "د_مرکز_ځای__موقعیت_مرکز": "یوسف خیل ",
    "Polling_Center_Location": "Yousuf Khel",
    "Map_Accuracy": "Village",
    "Map_Accuracy_Dari": "قریه",
    "Status": "Open",
    "Status_Dari": null,
    "PS_Male": 0,
    "PS_Female": 3,
    "PS_Total": 3,
    "ولسوالي": "یوسف خیل",
    "Region": "South Eastern Region"
   },
   "geometry": {
    "x": 7642372.9500817191,
    "y": 3901744.7867971589
   }
  },
  {
   "attributes": {
    "OBJECTID": 4473,
    "ولایت": "پکتيکا",
    "Province": "PAKTIKA",
    "PC_Code": "1206072",
    "District": "OMNA",
    "د_مرکز_نوم__نام_مرکز": "د وکیل غمی کلی متوسطه",
    "Polling_Center_Name": "Wakil Ghami Village Secondary School",
    "د_مرکز_ځای__موقعیت_مرکز": " د وکیل غمی کلی",
    "Polling_Center_Location": "Wakil Ghami Village",
    "Map_Accuracy": "District",
    "Map_Accuracy_Dari": "ولسوالی",
    "Status": "Open",
    "Status_Dari": null,
    "PS_Male": 1,
    "PS_Female": 1,
    "PS_Total": 2,
    "ولسوالي": "اومنه",
    "Region": "South Eastern Region"
   },
   "geometry": {
    "x": 7659402.5946513247,
    "y": 3885444.193135716
   }
  },
  {
   "attributes": {
    "OBJECTID": 4474,
    "ولایت": "پکتيکا",
    "Province": "PAKTIKA",
    "PC_Code": "1207090",
    "District": "ZARGHUN SHAHR",
    "د_مرکز_نوم__نام_مرکز": "صاحب جان کور",
    "Polling_Center_Name": "Sahib Jan House",
    "د_مرکز_ځای__موقعیت_مرکز": "پاینده خیل کلی ",
    "Polling_Center_Location": "Payanda Khil Village",
    "Map_Accuracy": "Village",
    "Map_Accuracy_Dari": "قریه",
    "Status": "Open",
    "Status_Dari": null,
    "PS_Male": 0,
    "PS_Female": 2,
    "PS_Total": 2,
    "ولسوالي": "زرغون شهر ",
    "Region": "South Eastern Region"
   },
   "geometry": {
    "x": 7628993.3959179716,
    "y": 3877313.6596015524
   }
  },
  {
   "attributes": {
    "OBJECTID": 4475,
    "ولایت": "پکتيکا",
    "Province": "PAKTIKA",
    "PC_Code": "1208138",
    "District": "GOMAL",
    "د_مرکز_نوم__نام_مرکز": "گل میر جومات",
    "Polling_Center_Name": "Gul Mir Mosque",
    "د_مرکز_ځای__موقعیت_مرکز": "اﺳﭙینه",
    "Polling_Center_Location": "Apsena",
    "Map_Accuracy": "District",
    "Map_Accuracy_Dari": "ولسوالی",
    "Status": "Open",
    "Status_Dari": null,
    "PS_Male": 4,
    "PS_Female": 0,
    "PS_Total": 4,
    "ولسوالي": "گومل",
    "Region": "South Eastern Region"
   },
   "geometry": {
    "x": 7712846.7382039521,
    "y": 3759831.03774752
   }
  },
  {
   "attributes": {
    "OBJECTID": 4476,
    "ولایت": "پکتيکا",
    "Province": "PAKTIKA",
    "PC_Code": "1208292",
    "District": "GOMAL",
    "د_مرکز_نوم__نام_مرکز": "منځني ښوونځي شكين",
    "Polling_Center_Name": "Shekin Secondary School",
    "د_مرکز_ځای__موقعیت_مرکز": "شكين",
    "Polling_Center_Location": "Shekin",
    "Map_Accuracy": "Village",
    "Map_Accuracy_Dari": "قریه",
    "Status": "Open",
    "Status_Dari": null,
    "PS_Male": 0,
    "PS_Female": 3,
    "PS_Total": 3,
    "ولسوالي": "گومل",
    "Region": "South Eastern Region"
   },
   "geometry": {
    "x": 7703115.9992812928,
    "y": 3827456.3940793681
   }
  },
  {
   "attributes": {
    "OBJECTID": 4477,
    "ولایت": "پکتيکا",
    "Province": "PAKTIKA",
    "PC_Code": "1209120",
    "District": "JANI KHEL",
    "د_مرکز_نوم__نام_مرکز": "جانی خیل ښوونځی",
    "Polling_Center_Name": "Jani Khel School",
    "د_مرکز_ځای__موقعیت_مرکز": "جانی خیل",
    "Polling_Center_Location": "Jani Khel",
    "Map_Accuracy": "Building",
    "Map_Accuracy_Dari": "تعمیر",
    "Status": "Open",
    "Status_Dari": null,
    "PS_Male": 1,
    "PS_Female": 1,
    "PS_Total": 2,
    "ولسوالي": "جانی خیل",
    "Region": "South Eastern Region"
   },
   "geometry": {
    "x": 7614032.8389313752,
    "y": 3864084.1476808903
   }
  },
  {
   "attributes": {
    "OBJECTID": 4478,
    "ولایت": "پکتيکا",
    "Province": "PAKTIKA",
    "PC_Code": "1210151",
    "District": "SURUBI",
    "د_مرکز_نوم__نام_مرکز": "مادو دوکان",
    "Polling_Center_Name": "Mado Shop",
    "د_مرکز_ځای__موقعیت_مرکز": "ربات",
    "Polling_Center_Location": "Robat",
    "Map_Accuracy": "Building",
    "Map_Accuracy_Dari": "تعمیر",
    "Status": "Open",
    "Status_Dari": null,
    "PS_Male": 2,
    "PS_Female": 0,
    "PS_Total": 2,
    "ولسوالي": "سروبی",
    "Region": "South Eastern Region"
   },
   "geometry": {
    "x": 7694581.2547038225,
    "y": 3865681.6247740537
   }
  },
  {
   "attributes": {
    "OBJECTID": 4479,
    "ولایت": "پکتيکا",
    "Province": "PAKTIKA",
    "PC_Code": "1211165",
    "District": "URGOON",
    "د_مرکز_نوم__نام_مرکز": "میرا گل جومات",
    "Polling_Center_Name": "Mera Gul Mosque",
    "د_مرکز_ځای__موقعیت_مرکز": "میرا گل کلی",
    "Polling_Center_Location": "Mera Gul Village",
    "Map_Accuracy": "Village",
    "Map_Accuracy_Dari": "قریه",
    "Status": "Open",
    "Status_Dari": null,
    "PS_Male": 2,
    "PS_Female": 0,
    "PS_Total": 2,
    "ولسوالي": "اورگون",
    "Region": "South Eastern Region"
   },
   "geometry": {
    "x": 7701799.7069717832,
    "y": 3894776.2317666495
   }
  },
  {
   "attributes": {
    "OBJECTID": 4480,
    "ولایت": "پکتيکا",
    "Province": "PAKTIKA",
    "PC_Code": "1211182",
    "District": "URGOON",
    "د_مرکز_نوم__نام_مرکز": "علیم خان میلمستون",
    "Polling_Center_Name": "Alim Khan Guest House",
    "د_مرکز_ځای__موقعیت_مرکز": "گربوزی کلی",
    "Polling_Center_Location": "Garbozi Village",
    "Map_Accuracy": "Village",
    "Map_Accuracy_Dari": "قریه",
    "Status": "Open",
    "Status_Dari": null,
    "PS_Male": 0,
    "PS_Female": 3,
    "PS_Total": 3,
    "ولسوالي": "اورگون",
    "Region": "South Eastern Region"
   },
   "geometry": {
    "x": 7711759.3293428672,
    "y": 3895283.2610033648
   }
  },
  {
   "attributes": {
    "OBJECTID": 4481,
    "ولایت": "پکتيکا",
    "Province": "PAKTIKA",
    "PC_Code": "1213203",
    "District": "NIKA",
    "د_مرکز_نوم__نام_مرکز": "والسوالی مرکز",
    "Polling_Center_Name": "District Center",
    "د_مرکز_ځای__موقعیت_مرکز": "صادق خیل",
    "Polling_Center_Location": "Sadiq Khel",
    "Map_Accuracy": "Village",
    "Map_Accuracy_Dari": "قریه",
    "Status": "Open",
    "Status_Dari": null,
    "PS_Male": 3,
    "PS_Female": 0,
    "PS_Total": 3,
    "ولسوالي": "نیکه",
    "Region": "South Eastern Region"
   },
   "geometry": {
    "x": 7709399.5286832554,
    "y": 3920278.3042082381
   }
  },
  {
   "attributes": {
    "OBJECTID": 4482,
    "ولایت": "پکتيکا",
    "Province": "PAKTIKA",
    "PC_Code": "1214258",
    "District": "BARMAL",
    "د_مرکز_نوم__نام_مرکز": "مرغه خیمه",
    "Polling_Center_Name": "Margha Tent",
    "د_مرکز_ځای__موقعیت_مرکز": "مرغه کلی ",
    "Polling_Center_Location": "Margha Village",
    "Map_Accuracy": "Village",
    "Map_Accuracy_Dari": "قریه",
    "Status": "Open",
    "Status_Dari": null,
    "PS_Male": 2,
    "PS_Female": 3,
    "PS_Total": 5,
    "ولسوالي": "برمل",
    "Region": "South Eastern Region"
   },
   "geometry": {
    "x": 7717855.2625823477,
    "y": 3866230.5676081716
   }
  },
  {
   "attributes": {
    "OBJECTID": 4483,
    "ولایت": "پکتيکا",
    "Province": "PAKTIKA",
    "PC_Code": "1215272",
    "District": "GIYAN",
    "د_مرکز_نوم__نام_مرکز": "مرکز ولسوالی خیمه ",
    "Polling_Center_Name": "District Compound Tent",
    "د_مرکز_ځای__موقعیت_مرکز": "مرکز ولسوالی",
    "Polling_Center_Location": "District Center",
    "Map_Accuracy": "Village",
    "Map_Accuracy_Dari": "قریه",
    "Status": "Open",
    "Status_Dari": null,
    "PS_Male": 4,
    "PS_Female": 1,
    "PS_Total": 5,
    "ولسوالي": "گیان",
    "Region": "South Eastern Region"
   },
   "geometry": {
    "x": 7722604.1498331977,
    "y": 3892410.6663594735
   }
  },
  {
   "attributes": {
    "OBJECTID": 4484,
    "ولایت": "پکتيکا",
    "Province": "PAKTIKA",
    "PC_Code": "1215280",
    "District": "GIYAN",
    "د_مرکز_نوم__نام_مرکز": "ملاح فضل میلمستون",
    "Polling_Center_Name": "Molla Fazel Guest House",
    "د_مرکز_ځای__موقعیت_مرکز": "گیان ولسوالی مرکز",
    "Polling_Center_Location": "Geyan District Center",
    "Map_Accuracy": "Village",
    "Map_Accuracy_Dari": "قریه",
    "Status": "Open",
    "Status_Dari": null,
    "PS_Male": 0,
    "PS_Female": 3,
    "PS_Total": 3,
    "ولسوالي": "گیان",
    "Region": "South Eastern Region"
   },
   "geometry": {
    "x": 7722540.5429893527,
    "y": 3892232.5119915595
   }
  },
  {
   "attributes": {
    "OBJECTID": 4485,
    "ولایت": "پکتيکا",
    "Province": "PAKTIKA",
    "PC_Code": "1216215",
    "District": "DILA WA KHUSHAMAND",
    "د_مرکز_نوم__نام_مرکز": "اکبرجان دکان",
    "Polling_Center_Name": "Akbar Khan Shop",
    "د_مرکز_ځای__موقعیت_مرکز": "مرکز ولسوالی",
    "Polling_Center_Location": "District Center",
    "Map_Accuracy": "Village",
    "Map_Accuracy_Dari": "قریه",
    "Status": "Open",
    "Status_Dari": null,
    "PS_Male": 3,
    "PS_Female": 2,
    "PS_Total": 5,
    "ولسوالي": "دیله و خوش امند",
    "Region": "South Eastern Region"
   },
   "geometry": {
    "x": 7574243.0773277571,
    "y": 3842384.6342257312
   }
  },
  {
   "attributes": {
    "OBJECTID": 4486,
    "ولایت": "پکتيا",
    "Province": "PAKTYA",
    "PC_Code": "1301016",
    "District": "GARDEZ",
    "د_مرکز_نوم__نام_مرکز": "د محمد اجان خیمه",
    "Polling_Center_Name": "Mohammad Ajan Tent",
    "د_مرکز_ځای__موقعیت_مرکز": "کواښ ورسک",
    "Polling_Center_Location": "Kwash Warsak",
    "Map_Accuracy": "Village",
    "Map_Accuracy_Dari": "قریه",
    "Status": "Open",
    "Status_Dari": null,
    "PS_Male": 3,
    "PS_Female": 1,
    "PS_Total": 4,
    "ولسوالي": "گردیز",
    "Region": "South Eastern Region"
   },
   "geometry": {
    "x": 7703525.2169652125,
    "y": 3969909.7957455833
   }
  },
  {
   "attributes": {
    "OBJECTID": 4487,
    "ولایت": "پکتيا",
    "Province": "PAKTYA",
    "PC_Code": "1301204",
    "District": "GARDEZ",
    "د_مرکز_نوم__نام_مرکز": "دڅپړي مكتب",
    "Polling_Center_Name": "Serraie School",
    "د_مرکز_ځای__موقعیت_مرکز": "څپړي",
    "Polling_Center_Location": "Serraie",
    "Map_Accuracy": "Building",
    "Map_Accuracy_Dari": "تعمیر",
    "Status": "Open",
    "Status_Dari": null,
    "PS_Male": 3,
    "PS_Female": 1,
    "PS_Total": 4,
    "ولسوالي": "گردیز",
    "Region": "South Eastern Region"
   },
   "geometry": {
    "x": 7705117.1895446433,
    "y": 3984108.9284831723
   }
  },
  {
   "attributes": {
    "OBJECTID": 4488,
    "ولایت": "پکتيا",
    "Province": "PAKTYA",
    "PC_Code": "1302218",
    "District": "AHMADABA",
    "د_مرکز_نوم__نام_مرکز": "بورګي مكتب",
    "Polling_Center_Name": "Boragay School",
    "د_مرکز_ځای__موقعیت_مرکز": "د بورګيو كلي",
    "Polling_Center_Location": "Boragieo Village",
    "Map_Accuracy": "District",
    "Map_Accuracy_Dari": "ولسوالی",
    "Status": "Open",
    "Status_Dari": null,
    "PS_Male": 1,
    "PS_Female": 1,
    "PS_Total": 2,
    "ولسوالي": "احمد آبا",
    "Region": "South Eastern Region"
   },
   "geometry": {
    "x": 7723760.6201931769,
    "y": 3997836.1793474881
   }
  },
  {
   "attributes": {
    "OBJECTID": 4489,
    "ولایت": "پکتيا",
    "Province": "PAKTYA",
    "PC_Code": "1303096",
    "District": "ZURMAT",
    "د_مرکز_نوم__نام_مرکز": "الوزو مکتب",
    "Polling_Center_Name": "Alozo School",
    "د_مرکز_ځای__موقعیت_مرکز": "الوزو کلا، سورکی",
    "Polling_Center_Location": "Alozo Kala, Sorkai",
    "Map_Accuracy": "Building",
    "Map_Accuracy_Dari": "تعمیر",
    "Status": "Open",
    "Status_Dari": null,
    "PS_Male": 4,
    "PS_Female": 0,
    "PS_Total": 4,
    "ولسوالي": "زرمت",
    "Region": "South Eastern Region"
   },
   "geometry": {
    "x": 7682468.3638375979,
    "y": 3946215.2466901587
   }
  },
  {
   "attributes": {
    "OBJECTID": 4490,
    "ولایت": "پکتيا",
    "Province": "PAKTYA",
    "PC_Code": "1303104",
    "District": "ZURMAT",
    "د_مرکز_نوم__نام_مرکز": "د نیک نام مسجد",
    "Polling_Center_Name": "Nek Naam Mosque",
    "د_مرکز_ځای__موقعیت_مرکز": "ارمه نیک نام",
    "Polling_Center_Location": "Arma Nek Naam",
    "Map_Accuracy": "Village",
    "Map_Accuracy_Dari": "قریه",
    "Status": "Open",
    "Status_Dari": null,
    "PS_Male": 6,
    "PS_Female": 0,
    "PS_Total": 6,
    "ولسوالي": "زرمت",
    "Region": "South Eastern Region"
   },
   "geometry": {
    "x": 7694242.8713929998,
    "y": 3955924.8467798345
   }
  },
  {
   "attributes": {
    "OBJECTID": 4491,
    "ولایت": "پکتيا",
    "Province": "PAKTYA",
    "PC_Code": "1306034",
    "District": "SAYYID KARAM",
    "د_مرکز_نوم__نام_مرکز": "د شیخانو مسجد",
    "Polling_Center_Name": "Shekhano Mosque",
    "د_مرکز_ځای__موقعیت_مرکز": "شیخان",
    "Polling_Center_Location": "Shekhan",
    "Map_Accuracy": "Building",
    "Map_Accuracy_Dari": "تعمیر",
    "Status": "Open",
    "Status_Dari": null,
    "PS_Male": 3,
    "PS_Female": 1,
    "PS_Total": 4,
    "ولسوالي": "سید کرم",
    "Region": "South Eastern Region"
   },
   "geometry": {
    "x": 7726193.1135934647,
    "y": 3988414.9148843735
   }
  },
  {
   "attributes": {
    "OBJECTID": 4492,
    "ولایت": "پکتيا",
    "Province": "PAKTYA",
    "PC_Code": "1307056",
    "District": "JAJI ARYOB",
    "د_مرکز_نوم__نام_مرکز": "د شاه محمد مسجد",
    "Polling_Center_Name": "Shah Mohammad Mosque ",
    "د_مرکز_ځای__موقعیت_مرکز": "مری خیل",
    "Polling_Center_Location": "Mari Khel",
    "Map_Accuracy": "Building",
    "Map_Accuracy_Dari": "تعمیر",
    "Status": "Open",
    "Status_Dari": null,
    "PS_Male": 0,
    "PS_Female": 4,
    "PS_Total": 4,
    "ولسوالي": "ځاځی اریوب",
    "Region": "South Eastern Region"
   },
   "geometry": {
    "x": 7757216.5220700521,
    "y": 4022358.0320054283
   }
  },
  {
   "attributes": {
    "OBJECTID": 4493,
    "ولایت": "پکتيا",
    "Province": "PAKTYA",
    "PC_Code": "1307068",
    "District": "JAJI ARYOB",
    "د_مرکز_نوم__نام_مرکز": "د کڼه خیلو مکتب",
    "Polling_Center_Name": "Kana Khel School",
    "د_مرکز_ځای__موقعیت_مرکز": "کڼه خیل",
    "Polling_Center_Location": "Kana Khel",
    "Map_Accuracy": "Village",
    "Map_Accuracy_Dari": "قریه",
    "Status": "Open",
    "Status_Dari": null,
    "PS_Male": 0,
    "PS_Female": 4,
    "PS_Total": 4,
    "ولسوالي": "ځاځی اریوب",
    "Region": "South Eastern Region"
   },
   "geometry": {
    "x": 7761261.0853366815,
    "y": 4020751.9185676132
   }
  },
  {
   "attributes": {
    "OBJECTID": 4494,
    "ولایت": "پکتيا",
    "Province": "PAKTYA",
    "PC_Code": "1308133",
    "District": "LAJA AHMAD KHEL",
    "د_مرکز_نوم__نام_مرکز": "شوات کلینیک",
    "Polling_Center_Name": "Showat Clinic",
    "د_مرکز_ځای__موقعیت_مرکز": "شوات، احمدخیل",
    "Polling_Center_Location": "Showat, Ahmad Khel ",
    "Map_Accuracy": "Village",
    "Map_Accuracy_Dari": "قریه",
    "Status": "Open",
    "Status_Dari": null,
    "PS_Male": 0,
    "PS_Female": 2,
    "PS_Total": 2,
    "ولسوالي": " لجه احمد خیل",
    "Region": "South Eastern Region"
   },
   "geometry": {
    "x": 7746850.1371664219,
    "y": 4006687.1169108534
   }
  },
  {
   "attributes": {
    "OBJECTID": 4495,
    "ولایت": "پکتيا",
    "Province": "PAKTYA",
    "PC_Code": "1309175",
    "District": "JANI KHEL",
    "د_مرکز_نوم__نام_مرکز": "خیمه",
    "Polling_Center_Name": "Tent",
    "د_مرکز_ځای__موقعیت_مرکز": "اورگوړ",
    "Polling_Center_Location": "Orgur",
    "Map_Accuracy": "Village",
    "Map_Accuracy_Dari": "قریه",
    "Status": "Open",
    "Status_Dari": null,
    "PS_Male": 0,
    "PS_Female": 2,
    "PS_Total": 2,
    "ولسوالي": "جانی خیل",
    "Region": "South Eastern Region"
   },
   "geometry": {
    "x": 7771478.2720663901,
    "y": 3967727.0997994109
   }
  },
  {
   "attributes": {
    "OBJECTID": 4496,
    "ولایت": "پکتيا",
    "Province": "PAKTYA",
    "PC_Code": "1309176",
    "District": "JANI KHEL",
    "د_مرکز_نوم__نام_مرکز": "د منز الګاډی مسجد",
    "Polling_Center_Name": "Manz Algadi Mosque",
    "د_مرکز_ځای__موقعیت_مرکز": "بل خیل",
    "Polling_Center_Location": "Bal Khel",
    "Map_Accuracy": "Village",
    "Map_Accuracy_Dari": "قریه",
    "Status": "Open",
    "Status_Dari": null,
    "PS_Male": 0,
    "PS_Female": 2,
    "PS_Total": 2,
    "ولسوالي": "جانی خیل",
    "Region": "South Eastern Region"
   },
   "geometry": {
    "x": 7771073.1481567379,
    "y": 3968124.3421835043
   }
  },
  {
   "attributes": {
    "OBJECTID": 4497,
    "ولایت": "پکتيا",
    "Province": "PAKTYA",
    "PC_Code": "1310161",
    "District": "SAMKANI",
    "د_مرکز_نوم__نام_مرکز": "احمد جان دکانونه ",
    "Polling_Center_Name": "Ahmad Jan Shops",
    "د_مرکز_ځای__موقعیت_مرکز": "منګیاړ کلی",
    "Polling_Center_Location": "Mangyaar Village",
    "Map_Accuracy": "Village",
    "Map_Accuracy_Dari": "قریه",
    "Status": "Open",
    "Status_Dari": null,
    "PS_Male": 0,
    "PS_Female": 4,
    "PS_Total": 4,
    "ولسوالي": "څمکنی",
    "Region": "South Eastern Region"
   },
   "geometry": {
    "x": 7768690.1418360807,
    "y": 4002249.4298148104
   }
  },
  {
   "attributes": {
    "OBJECTID": 4498,
    "ولایت": "پکتيا",
    "Province": "PAKTYA",
    "PC_Code": "1311181",
    "District": "DAND PATAN",
    "د_مرکز_نوم__نام_مرکز": "د درنګ متوسط مکتب ",
    "Polling_Center_Name": "Darang Secondary School",
    "د_مرکز_ځای__موقعیت_مرکز": "غونډی ځنګل",
    "Polling_Center_Location": "Ghundai Jangal",
    "Map_Accuracy": "Village",
    "Map_Accuracy_Dari": "قریه",
    "Status": "Open",
    "Status_Dari": null,
    "PS_Male": 3,
    "PS_Female": 1,
    "PS_Total": 4,
    "ولسوالي": "ډنډ پټان",
    "Region": "South Eastern Region"
   },
   "geometry": {
    "x": 7781715.6900003506,
    "y": 4012031.3711552718
   }
  },
  {
   "attributes": {
    "OBJECTID": 4499,
    "ولایت": "پکتيا",
    "Province": "PAKTYA",
    "PC_Code": "1312151",
    "District": "LAJA MANGAL",
    "د_مرکز_نوم__نام_مرکز": "خیرانی مسجد",
    "Polling_Center_Name": "Khairani Mosque",
    "د_مرکز_ځای__موقعیت_مرکز": "خیرانی، لجه منګل",
    "Polling_Center_Location": "Khairani, Laja Mangal",
    "Map_Accuracy": "Village",
    "Map_Accuracy_Dari": "قریه",
    "Status": "Open",
    "Status_Dari": null,
    "PS_Male": 0,
    "PS_Female": 2,
    "PS_Total": 2,
    "ولسوالي": "لجه منګل",
    "Region": "South Eastern Region"
   },
   "geometry": {
    "x": 7759592.2625675453,
    "y": 3995926.5181597322
   }
  },
  {
   "attributes": {
    "OBJECTID": 4500,
    "ولایت": "پکتيا",
    "Province": "PAKTYA",
    "PC_Code": "1313048",
    "District": "MEERZAKA",
    "د_مرکز_نوم__نام_مرکز": "د انډوام مدرسه",
    "Polling_Center_Name": "Andwam Madrassa",
    "د_مرکز_ځای__موقعیت_مرکز": "مینځ انډوام، میرزکه",
    "Polling_Center_Location": "Maenz Andwam, Merzaka",
    "Map_Accuracy": "Village",
    "Map_Accuracy_Dari": "قریه",
    "Status": "Open",
    "Status_Dari": null,
    "PS_Male": 0,
    "PS_Female": 2,
    "PS_Total": 2,
    "ولسوالي": "میرزکه",
    "Region": "South Eastern Region"
   },
   "geometry": {
    "x": 7741655.1036603684,
    "y": 4002329.4361593593
   }
  },
  {
   "attributes": {
    "OBJECTID": 4501,
    "ولایت": "خوست",
    "Province": "KHOST",
    "PC_Code": "1401005",
    "District": "KHOST",
    "د_مرکز_نوم__نام_مرکز": "د ملزيو جومات",
    "Polling_Center_Name": "Malzayo Mosque",
    "د_مرکز_ځای__موقعیت_مرکز": "شمل مليزى",
    "Polling_Center_Location": "Shamal Malyzi",
    "Map_Accuracy": "Building",
    "Map_Accuracy_Dari": "تعمیر",
    "Status": "Open",
    "Status_Dari": null,
    "PS_Male": 2,
    "PS_Female": 1,
    "PS_Total": 3,
    "ولسوالي": "خوست",
    "Region": "South Eastern Region"
   },
   "geometry": {
    "x": 7795298.0604839651,
    "y": 3938983.463667376
   }
  },
  {
   "attributes": {
    "OBJECTID": 4502,
    "ولایت": "خوست",
    "Province": "KHOST",
    "PC_Code": "1401006",
    "District": "KHOST",
    "د_مرکز_نوم__نام_مرکز": "د سيدالله هجره ",
    "Polling_Center_Name": "Sayedullah Hojra",
    "د_مرکز_ځای__موقعیت_مرکز": "شمل مليزى",
    "Polling_Center_Location": "Shamal Malyzi",
    "Map_Accuracy": "Building",
    "Map_Accuracy_Dari": "تعمیر",
    "Status": "Open",
    "Status_Dari": null,
    "PS_Male": 2,
    "PS_Female": 1,
    "PS_Total": 3,
    "ولسوالي": "خوست",
    "Region": "South Eastern Region"
   },
   "geometry": {
    "x": 7795204.1135129007,
    "y": 3938952.1556470133
   }
  },
  {
   "attributes": {
    "OBJECTID": 4503,
    "ولایت": "خوست",
    "Province": "KHOST",
    "PC_Code": "1401015",
    "District": "KHOST",
    "د_مرکز_نوم__نام_مرکز": "د يعقوبيو اډې جومات",
    "Polling_Center_Name": "Yaqoobi Adi Mosque",
    "د_مرکز_ځای__موقعیت_مرکز": "خوست ښار متون يعقوبيو جومات",
    "Polling_Center_Location": "Khost City, Maton",
    "Map_Accuracy": "Building",
    "Map_Accuracy_Dari": "تعمیر",
    "Status": "Open",
    "Status_Dari": null,
    "PS_Male": 3,
    "PS_Female": 2,
    "PS_Total": 5,
    "ولسوالي": "خوست",
    "Region": "South Eastern Region"
   },
   "geometry": {
    "x": 7783801.9252377236,
    "y": 3940576.411121008
   }
  },
  {
   "attributes": {
    "OBJECTID": 4504,
    "ولایت": "خوست",
    "Province": "KHOST",
    "PC_Code": "1401026",
    "District": "KHOST",
    "د_مرکز_نوم__نام_مرکز": "د تورغونډى مکتب\r\n",
    "Polling_Center_Name": "Mosque and Senator Hojra",
    "د_مرکز_ځای__موقعیت_مرکز": "متون ورده خيل",
    "Polling_Center_Location": "Maton, Warda Khel  ",
    "Map_Accuracy": "Building",
    "Map_Accuracy_Dari": "تعمیر",
    "Status": "Open",
    "Status_Dari": null,
    "PS_Male": 2,
    "PS_Female": 1,
    "PS_Total": 3,
    "ولسوالي": "خوست",
    "Region": "South Eastern Region"
   },
   "geometry": {
    "x": 7780514.8414574545,
    "y": 3935214.7175815711
   }
  },
  {
   "attributes": {
    "OBJECTID": 4505,
    "ولایت": "خوست",
    "Province": "KHOST",
    "PC_Code": "1401037",
    "District": "KHOST",
    "د_مرکز_نوم__نام_مرکز": "جومات مزغوره کلى",
    "Polling_Center_Name": "Mosque",
    "د_مرکز_ځای__موقعیت_مرکز": "مزغوره کلى",
    "Polling_Center_Location": "Mazghora Village",
    "Map_Accuracy": "Village",
    "Map_Accuracy_Dari": "قریه",
    "Status": "Open",
    "Status_Dari": null,
    "PS_Male": 3,
    "PS_Female": 1,
    "PS_Total": 4,
    "ولسوالي": "خوست",
    "Region": "South Eastern Region"
   },
   "geometry": {
    "x": 7779787.9147185395,
    "y": 3953909.2440135335
   }
  },
  {
   "attributes": {
    "OBJECTID": 4506,
    "ولایت": "خوست",
    "Province": "KHOST",
    "PC_Code": "1401162",
    "District": "KHOST",
    "د_مرکز_نوم__نام_مرکز": "خانې خوړ جومات",
    "Polling_Center_Name": "Khani Khwar Mosque",
    "د_مرکز_ځای__موقعیت_مرکز": "ډيري ",
    "Polling_Center_Location": "Deri",
    "Map_Accuracy": "Village",
    "Map_Accuracy_Dari": "قریه",
    "Status": "Open",
    "Status_Dari": null,
    "PS_Male": 6,
    "PS_Female": 5,
    "PS_Total": 11,
    "ولسوالي": "خوست",
    "Region": "South Eastern Region"
   },
   "geometry": {
    "x": 7782445.4593937835,
    "y": 3946655.5356955822
   }
  },
  {
   "attributes": {
    "OBJECTID": 4507,
    "ولایت": "خوست",
    "Province": "KHOST",
    "PC_Code": "1403149",
    "District": "GURBUZ",
    "د_مرکز_نوم__نام_مرکز": "د زکيم شاه جومات",
    "Polling_Center_Name": "Zakim Shah Mosque",
    "د_مرکز_ځای__موقعیت_مرکز": "شيخ امير",
    "Polling_Center_Location": "Sheikh Amir",
    "Map_Accuracy": "Building",
    "Map_Accuracy_Dari": "تعمیر",
    "Status": "Open",
    "Status_Dari": null,
    "PS_Male": 3,
    "PS_Female": 1,
    "PS_Total": 4,
    "ولسوالي": "گربز",
    "Region": "South Eastern Region"
   },
   "geometry": {
    "x": 7782516.8619415648,
    "y": 3933451.6199781001
   }
  },
  {
   "attributes": {
    "OBJECTID": 4508,
    "ولایت": "خوست",
    "Province": "KHOST",
    "PC_Code": "1404136",
    "District": "TANAY",
    "د_مرکز_نوم__نام_مرکز": "سلام خان کور او هجره ",
    "Polling_Center_Name": "Salam Khan House",
    "د_مرکز_ځای__موقعیت_مرکز": " پيران کلى",
    "Polling_Center_Location": "Peeran Village",
    "Map_Accuracy": "Village",
    "Map_Accuracy_Dari": "قریه",
    "Status": "Open",
    "Status_Dari": null,
    "PS_Male": 2,
    "PS_Female": 2,
    "PS_Total": 4,
    "ولسوالي": "تڼي",
    "Region": "South Eastern Region"
   },
   "geometry": {
    "x": 7777654.3007926913,
    "y": 3932862.7152740997
   }
  },
  {
   "attributes": {
    "OBJECTID": 4509,
    "ولایت": "خوست",
    "Province": "KHOST",
    "PC_Code": "1405068",
    "District": "MUSA KHEL",
    "د_مرکز_نوم__نام_مرکز": "د حاجي قاسم هجره",
    "Polling_Center_Name": "Haji Qaseem Hojra",
    "د_مرکز_ځای__موقعیت_مرکز": " پوړيخيل",
    "Polling_Center_Location": "Pori Khel",
    "Map_Accuracy": "Village",
    "Map_Accuracy_Dari": "قریه",
    "Status": "Open",
    "Status_Dari": null,
    "PS_Male": 1,
    "PS_Female": 1,
    "PS_Total": 2,
    "ولسوالي": "موسی خیل",
    "Region": "South Eastern Region"
   },
   "geometry": {
    "x": 7758553.2131196531,
    "y": 3968594.6449416433
   }
  },
  {
   "attributes": {
    "OBJECTID": 4510,
    "ولایت": "خوست",
    "Province": "KHOST",
    "PC_Code": "1405078",
    "District": "MUSA KHEL",
    "د_مرکز_نوم__نام_مرکز": "سردارخان ترکې جومات ",
    "Polling_Center_Name": "Sardar Khan Turky Mosque",
    "د_مرکز_ځای__موقعیت_مرکز": "ترکې کلي",
    "Polling_Center_Location": "Turky Village",
    "Map_Accuracy": "Village",
    "Map_Accuracy_Dari": "قریه",
    "Status": "Open",
    "Status_Dari": null,
    "PS_Male": 4,
    "PS_Female": 1,
    "PS_Total": 5,
    "ولسوالي": "موسی خیل",
    "Region": "South Eastern Region"
   },
   "geometry": {
    "x": 7761408.3142688172,
    "y": 3968813.1920736623
   }
  },
  {
   "attributes": {
    "OBJECTID": 4511,
    "ولایت": "خوست",
    "Province": "KHOST",
    "PC_Code": "1406124",
    "District": "NADIRSHAH KOT",
    "د_مرکز_نوم__نام_مرکز": "د حراسپان کلی ښوونځى",
    "Polling_Center_Name": "Haraspan Village School",
    "د_مرکز_ځای__موقعیت_مرکز": "حراسپان کلي",
    "Polling_Center_Location": "Haraspan Village",
    "Map_Accuracy": "Building",
    "Map_Accuracy_Dari": "تعمیر",
    "Status": "Open",
    "Status_Dari": null,
    "PS_Male": 2,
    "PS_Female": 1,
    "PS_Total": 3,
    "ولسوالي": "نادرشاه کوت",
    "Region": "South Eastern Region"
   },
   "geometry": {
    "x": 7752431.8222258203,
    "y": 3949535.4519254067
   }
  },
  {
   "attributes": {
    "OBJECTID": 4512,
    "ولایت": "خوست",
    "Province": "KHOST",
    "PC_Code": "1408052",
    "District": "ALI SHER",
    "د_مرکز_نوم__نام_مرکز": "د کابل کلي ستر جومات",
    "Polling_Center_Name": "Kabul Village Big Mosque",
    "د_مرکز_ځای__موقعیت_مرکز": " کابل کلى",
    "Polling_Center_Location": "Kabul Village",
    "Map_Accuracy": "Building",
    "Map_Accuracy_Dari": "تعمیر",
    "Status": "Open",
    "Status_Dari": null,
    "PS_Male": 3,
    "PS_Female": 2,
    "PS_Total": 5,
    "ولسوالي": "علی شیر",
    "Region": "South Eastern Region"
   },
   "geometry": {
    "x": 7801183.8748449916,
    "y": 3957168.3333483711
   }
  },
  {
   "attributes": {
    "OBJECTID": 4513,
    "ولایت": "خوست",
    "Province": "KHOST",
    "PC_Code": "1408165",
    "District": "ALI SHER",
    "د_مرکز_نوم__نام_مرکز": "چرګوتى جومات",
    "Polling_Center_Name": "Chargoti Mosque",
    "د_مرکز_ځای__موقعیت_مرکز": "چرګوټى",
    "Polling_Center_Location": "Chargoti",
    "Map_Accuracy": "District",
    "Map_Accuracy_Dari": "ولسوالی",
    "Status": "Open",
    "Status_Dari": null,
    "PS_Male": 4,
    "PS_Female": 3,
    "PS_Total": 7,
    "ولسوالي": "علی شیر",
    "Region": "South Eastern Region"
   },
   "geometry": {
    "x": 7804488.8113772785,
    "y": 3954189.5354026305
   }
  },
  {
   "attributes": {
    "OBJECTID": 4514,
    "ولایت": "خوست",
    "Province": "KHOST",
    "PC_Code": "1411169",
    "District": "SPERA",
    "د_مرکز_نوم__نام_مرکز": "ضربي دوکانونه",
    "Polling_Center_Name": "Zarbi Shops",
    "د_مرکز_ځای__موقعیت_مرکز": "ضربي کلی",
    "Polling_Center_Location": "Zarbi Village",
    "Map_Accuracy": "District",
    "Map_Accuracy_Dari": "ولسوالی",
    "Status": "Open",
    "Status_Dari": null,
    "PS_Male": 2,
    "PS_Female": 0,
    "PS_Total": 2,
    "ولسوالي": "سپیره",
    "Region": "South Eastern Region"
   },
   "geometry": {
    "x": 7736826.267864421,
    "y": 3918524.7632127008
   }
  },
  {
   "attributes": {
    "OBJECTID": 4515,
    "ولایت": "خوست",
    "Province": "KHOST",
    "PC_Code": "1413097",
    "District": "JAJI MAIDAN",
    "د_مرکز_نوم__نام_مرکز": "ښوونځی اکاکهول",
    "Polling_Center_Name": "Aka Kahol School",
    "د_مرکز_ځای__موقعیت_مرکز": "اکاکهول",
    "Polling_Center_Location": "Aka Kahol  ",
    "Map_Accuracy": "Building",
    "Map_Accuracy_Dari": "تعمیر",
    "Status": "Open",
    "Status_Dari": null,
    "PS_Male": 3,
    "PS_Female": 2,
    "PS_Total": 5,
    "ولسوالي": "ځاځي میدان",
    "Region": "South Eastern Region"
   },
   "geometry": {
    "x": 7801338.746973359,
    "y": 3978575.5583434966
   }
  },
  {
   "attributes": {
    "OBJECTID": 4516,
    "ولایت": "کنړ ",
    "Province": "KUNAR",
    "PC_Code": "1501004",
    "District": "ASAD ABAD",
    "د_مرکز_نوم__نام_مرکز": "متوسطه قریه کرهاله",
    "Polling_Center_Name": "Kirhala Secondary School",
    "د_مرکز_ځای__موقعیت_مرکز": " کرهاله",
    "Polling_Center_Location": "Kirhala",
    "Map_Accuracy": "Building",
    "Map_Accuracy_Dari": "تعمیر",
    "Status": "Open",
    "Status_Dari": null,
    "PS_Male": 6,
    "PS_Female": 3,
    "PS_Total": 9,
    "ولسوالي": "اسعد آباد",
    "Region": "Eastern Region"
   },
   "geometry": {
    "x": 7920992.0289559234,
    "y": 4146938.8373775575
   }
  },
  {
   "attributes": {
    "OBJECTID": 4517,
    "ولایت": "کنړ ",
    "Province": "KUNAR",
    "PC_Code": "1502048",
    "District": "MARA WARA",
    "د_مرکز_نوم__نام_مرکز": "مسجدقریه",
    "Polling_Center_Name": "Village Mosque",
    "د_مرکز_ځای__موقعیت_مرکز": "بچی",
    "Polling_Center_Location": "Baacha",
    "Map_Accuracy": "Village",
    "Map_Accuracy_Dari": "قریه",
    "Status": "Open",
    "Status_Dari": null,
    "PS_Male": 3,
    "PS_Female": 1,
    "PS_Total": 4,
    "ولسوالي": "مره وره",
    "Region": "Eastern Region"
   },
   "geometry": {
    "x": 7927645.7529943138,
    "y": 4153176.1650979691
   }
  },
  {
   "attributes": {
    "OBJECTID": 4518,
    "ولایت": "کنړ ",
    "Province": "KUNAR",
    "PC_Code": "1502049",
    "District": "MARA WARA",
    "د_مرکز_نوم__نام_مرکز": "مکتب ابتدائیه",
    "Polling_Center_Name": "Daag Primary School",
    "د_مرکز_ځای__موقعیت_مرکز": "داگ",
    "Polling_Center_Location": "Daag",
    "Map_Accuracy": "Village",
    "Map_Accuracy_Dari": "قریه",
    "Status": "Open",
    "Status_Dari": null,
    "PS_Male": 3,
    "PS_Female": 1,
    "PS_Total": 4,
    "ولسوالي": "مره وره",
    "Region": "Eastern Region"
   },
   "geometry": {
    "x": 7929028.9555535587,
    "y": 4153852.7750901794
   }
  },
  {
   "attributes": {
    "OBJECTID": 4519,
    "ولایت": "کنړ ",
    "Province": "KUNAR",
    "PC_Code": "1504033",
    "District": "NARANG",
    "د_مرکز_نوم__نام_مرکز": "مکتب ابتدائیه",
    "Polling_Center_Name": "Primary School",
    "د_مرکز_ځای__موقعیت_مرکز": "کوتکی",
    "Polling_Center_Location": "Kotakai",
    "Map_Accuracy": "Building",
    "Map_Accuracy_Dari": "تعمیر",
    "Status": "Open",
    "Status_Dari": null,
    "PS_Male": 2,
    "PS_Female": 1,
    "PS_Total": 3,
    "ولسوالي": "نرنګ",
    "Region": "Eastern Region"
   },
   "geometry": {
    "x": 7903646.3249748647,
    "y": 4128420.595675075
   }
  },
  {
   "attributes": {
    "OBJECTID": 4520,
    "ولایت": "کنړ ",
    "Province": "KUNAR",
    "PC_Code": "1504034",
    "District": "NARANG",
    "د_مرکز_نوم__نام_مرکز": "مکتب دخترانه",
    "Polling_Center_Name": "Girls School",
    "د_مرکز_ځای__موقعیت_مرکز": "بر نرنګ",
    "Polling_Center_Location": "Bar Narang",
    "Map_Accuracy": "Building",
    "Map_Accuracy_Dari": "تعمیر",
    "Status": "Open",
    "Status_Dari": null,
    "PS_Male": 2,
    "PS_Female": 1,
    "PS_Total": 3,
    "ولسوالي": "نرنګ",
    "Region": "Eastern Region"
   },
   "geometry": {
    "x": 7911209.9723046077,
    "y": 4131417.9079220938
   }
  },
  {
   "attributes": {
    "OBJECTID": 4521,
    "ولایت": "کنړ ",
    "Province": "KUNAR",
    "PC_Code": "1506065",
    "District": "SHIGAL WA SHILTAN",
    "د_مرکز_نوم__نام_مرکز": "مکتب ابتدائیه",
    "Polling_Center_Name": "Mony Primary School",
    "د_مرکز_ځای__موقعیت_مرکز": "مونی",
    "Polling_Center_Location": "Mony",
    "Map_Accuracy": "Building",
    "Map_Accuracy_Dari": "تعمیر",
    "Status": "Open",
    "Status_Dari": null,
    "PS_Male": 3,
    "PS_Female": 3,
    "PS_Total": 6,
    "ولسوالي": "شیګل و شیلتن",
    "Region": "Eastern Region"
   },
   "geometry": {
    "x": 7932404.0589872804,
    "y": 4160828.6048771264
   }
  },
  {
   "attributes": {
    "OBJECTID": 4522,
    "ولایت": "کنړ ",
    "Province": "KUNAR",
    "PC_Code": "1507024",
    "District": "DARA-E-PECH",
    "د_مرکز_نوم__نام_مرکز": "لیسه لیچلام",
    "Polling_Center_Name": "Lacha lam High School",
    "د_مرکز_ځای__موقعیت_مرکز": "لیچلام  ",
    "Polling_Center_Location": "Lacha Lam",
    "Map_Accuracy": "Village",
    "Map_Accuracy_Dari": "قریه",
    "Status": "Open",
    "Status_Dari": null,
    "PS_Male": 1,
    "PS_Female": 2,
    "PS_Total": 3,
    "ولسوالي": "دره پیچ",
    "Region": "Eastern Region"
   },
   "geometry": {
    "x": 7886671.0866931863,
    "y": 4158744.8060897039
   }
  },
  {
   "attributes": {
    "OBJECTID": 4523,
    "ولایت": "کنړ ",
    "Province": "KUNAR",
    "PC_Code": "1508061",
    "District": "BAR KUNAR",
    "د_مرکز_نوم__نام_مرکز": "مسجد ولسوالی",
    "Polling_Center_Name": "District Mosque",
    "د_مرکز_ځای__موقعیت_مرکز": "اسمار بازار",
    "Polling_Center_Location": "Asmar Bazar",
    "Map_Accuracy": "Building",
    "Map_Accuracy_Dari": "تعمیر",
    "Status": "Open",
    "Status_Dari": null,
    "PS_Male": 2,
    "PS_Female": 1,
    "PS_Total": 3,
    "ولسوالي": "بر کنړ ",
    "Region": "Eastern Region"
   },
   "geometry": {
    "x": 7942513.2468866091,
    "y": 4168376.171662516
   }
  },
  {
   "attributes": {
    "OBJECTID": 4524,
    "ولایت": "کنړ ",
    "Province": "KUNAR",
    "PC_Code": "1510098",
    "District": "KHAS KUNAR",
    "د_مرکز_نوم__نام_مرکز": "لیسه حکیم آباد",
    "Polling_Center_Name": "Hakim Abad High School",
    "د_مرکز_ځای__موقعیت_مرکز": "حکیم آباد ډاګ",
    "Polling_Center_Location": "Hakim Abad Daag",
    "Map_Accuracy": "Building",
    "Map_Accuracy_Dari": "تعمیر",
    "Status": "Open",
    "Status_Dari": null,
    "PS_Male": 2,
    "PS_Female": 1,
    "PS_Total": 3,
    "ولسوالي": "خاص کنړ",
    "Region": "Eastern Region"
   },
   "geometry": {
    "x": 7895715.6283409065,
    "y": 4119208.0474501369
   }
  },
  {
   "attributes": {
    "OBJECTID": 4525,
    "ولایت": "کنړ ",
    "Province": "KUNAR",
    "PC_Code": "1511119",
    "District": "GHAZI ABAD",
    "د_مرکز_نوم__نام_مرکز": "مسجد قریه",
    "Polling_Center_Name": "Kachagul Village Mosque",
    "د_مرکز_ځای__موقعیت_مرکز": "کڅه ګل",
    "Polling_Center_Location": "Kachagul",
    "Map_Accuracy": "Village",
    "Map_Accuracy_Dari": "قریه",
    "Status": "Open",
    "Status_Dari": null,
    "PS_Male": 3,
    "PS_Female": 2,
    "PS_Total": 5,
    "ولسوالي": "غازی آباد",
    "Region": "Eastern Region"
   },
   "geometry": {
    "x": 7948637.2604676448,
    "y": 4184857.0015912117
   }
  },
  {
   "attributes": {
    "OBJECTID": 4526,
    "ولایت": "کنړ ",
    "Province": "KUNAR",
    "PC_Code": "1513070",
    "District": "CHAPA DARA",
    "د_مرکز_نوم__نام_مرکز": "مکتب ابتدائیه",
    "Polling_Center_Name": "Senzi Primary School",
    "د_مرکز_ځای__موقعیت_مرکز": "سینزی",
    "Polling_Center_Location": "Senzi",
    "Map_Accuracy": "Village",
    "Map_Accuracy_Dari": "قریه",
    "Status": "Open",
    "Status_Dari": null,
    "PS_Male": 4,
    "PS_Female": 1,
    "PS_Total": 5,
    "ولسوالي": "چپه دره",
    "Region": "Eastern Region"
   },
   "geometry": {
    "x": 7879868.8301714268,
    "y": 4156538.5733986674
   }
  },
  {
   "attributes": {
    "OBJECTID": 4527,
    "ولایت": "کنړ ",
    "Province": "KUNAR",
    "PC_Code": "1513071",
    "District": "CHAPA DARA",
    "د_مرکز_نوم__نام_مرکز": "لیسه کندی",
    "Polling_Center_Name": "Kandai High School",
    "د_مرکز_ځای__موقعیت_مرکز": "کندی",
    "Polling_Center_Location": "Kandai",
    "Map_Accuracy": "Village",
    "Map_Accuracy_Dari": "قریه",
    "Status": "Open",
    "Status_Dari": null,
    "PS_Male": 4,
    "PS_Female": 1,
    "PS_Total": 5,
    "ولسوالي": "چپه دره",
    "Region": "Eastern Region"
   },
   "geometry": {
    "x": 7879063.5694653187,
    "y": 4157236.3248938438
   }
  },
  {
   "attributes": {
    "OBJECTID": 4528,
    "ولایت": "کنړ ",
    "Province": "KUNAR",
    "PC_Code": "1514087",
    "District": "NOOR GAL",
    "د_مرکز_نوم__نام_مرکز": "دارالعلوم میاقلعه",
    "Polling_Center_Name": "Mia Qala Dar-ul-Ulom",
    "د_مرکز_ځای__موقعیت_مرکز": "میاقلعه",
    "Polling_Center_Location": "Mia Qala",
    "Map_Accuracy": "Village",
    "Map_Accuracy_Dari": "قریه",
    "Status": "Open",
    "Status_Dari": null,
    "PS_Male": 3,
    "PS_Female": 1,
    "PS_Total": 4,
    "ولسوالي": "نور ګل",
    "Region": "Eastern Region"
   },
   "geometry": {
    "x": 7878167.8416354293,
    "y": 4112119.8814381636
   }
  },
  {
   "attributes": {
    "OBJECTID": 4529,
    "ولایت": "نورستان",
    "Province": "NOORISTAN",
    "PC_Code": "1602031",
    "District": "WAYGAL",
    "د_مرکز_نوم__نام_مرکز": "مکتب متوسطه وانت",
    "Polling_Center_Name": "Want Secondary School",
    "د_مرکز_ځای__موقعیت_مرکز": "وانت",
    "Polling_Center_Location": "Want",
    "Map_Accuracy": "Building",
    "Map_Accuracy_Dari": "تعمیر",
    "Status": "Open",
    "Status_Dari": null,
    "PS_Male": 5,
    "PS_Female": 2,
    "PS_Total": 7,
    "ولسوالي": "وایګل",
    "Region": "Eastern Region"
   },
   "geometry": {
    "x": 7893436.5621419949,
    "y": 4171210.998278351
   }
  },
  {
   "attributes": {
    "OBJECTID": 4530,
    "ولایت": "نورستان",
    "Province": "NOORISTAN",
    "PC_Code": "1608068",
    "District": "BARG-E-MATAL",
    "د_مرکز_نوم__نام_مرکز": "مسجد قریه اناتی",
    "Polling_Center_Name": "Anati Village Mosque",
    "د_مرکز_ځای__موقعیت_مرکز": "قریه اناتی",
    "Polling_Center_Location": "Anati Village",
    "Map_Accuracy": "Village",
    "Map_Accuracy_Dari": "قریه",
    "Status": "Open",
    "Status_Dari": null,
    "PS_Male": 3,
    "PS_Female": 2,
    "PS_Total": 5,
    "ولسوالي": "برګ مټال",
    "Region": "Eastern Region"
   },
   "geometry": {
    "x": 7940415.047030367,
    "y": 4283295.0721102729
   }
  },
  {
   "attributes": {
    "OBJECTID": 4531,
    "ولایت": "بدخشان",
    "Province": "BADAKHSHAN",
    "PC_Code": "1701006",
    "District": "FAIZ ABAD",
    "د_مرکز_نوم__نام_مرکز": "مکتب کول گهی ",
    "Polling_Center_Name": "Kol Gahi School",
    "د_مرکز_ځای__موقعیت_مرکز": "کول گاهی یفتل علیا",
    "Polling_Center_Location": "Kol Gahi Yaftal Ulya",
    "Map_Accuracy": "Building",
    "Map_Accuracy_Dari": "تعمیر",
    "Status": "Open",
    "Status_Dari": null,
    "PS_Male": 2,
    "PS_Female": 1,
    "PS_Total": 3,
    "ولسوالي": "فیض آباد",
    "Region": "North Eastern Region"
   },
   "geometry": {
    "x": 7867955.2880229261,
    "y": 4466768.7532171682
   }
  },
  {
   "attributes": {
    "OBJECTID": 4532,
    "ولایت": "بدخشان",
    "Province": "BADAKHSHAN",
    "PC_Code": "1701016",
    "District": "FAIZ ABAD",
    "د_مرکز_نوم__نام_مرکز": "لیسه نسوان نمبر ۲",
    "Polling_Center_Name": "Girls Number 2 High School",
    "د_مرکز_ځای__موقعیت_مرکز": "ناحیه ۲ شهر کهنه",
    "Polling_Center_Location": "Nahia 2 Shahr Kuhna",
    "Map_Accuracy": "Building",
    "Map_Accuracy_Dari": "تعمیر",
    "Status": "Open",
    "Status_Dari": null,
    "PS_Male": 3,
    "PS_Female": 2,
    "PS_Total": 5,
    "ولسوالي": "فیض آباد",
    "Region": "North Eastern Region"
   },
   "geometry": {
    "x": 7856636.4491032865,
    "y": 4456354.5349727022
   }
  },
  {
   "attributes": {
    "OBJECTID": 4533,
    "ولایت": "بدخشان",
    "Province": "BADAKHSHAN",
    "PC_Code": "1701017",
    "District": "FAIZ ABAD",
    "د_مرکز_نوم__نام_مرکز": "مکتب نغز دره ",
    "Polling_Center_Name": "Naghz Dara School",
    "د_مرکز_ځای__موقعیت_مرکز": "نغز دره",
    "Polling_Center_Location": "Naghz Dara",
    "Map_Accuracy": "Building",
    "Map_Accuracy_Dari": "تعمیر",
    "Status": "Open",
    "Status_Dari": null,
    "PS_Male": 2,
    "PS_Female": 1,
    "PS_Total": 3,
    "ولسوالي": "فیض آباد",
    "Region": "North Eastern Region"
   },
   "geometry": {
    "x": 7864307.9383029295,
    "y": 4475354.9324506298
   }
  },
  {
   "attributes": {
    "OBJECTID": 4534,
    "ولایت": "بدخشان",
    "Province": "BADAKHSHAN",
    "PC_Code": "1702041",
    "District": "ARGO",
    "د_مرکز_نوم__نام_مرکز": "لیسه نسوان سید عبدالکریم حسینی ",
    "Polling_Center_Name": "Sayed Abdul Kareem Husaini Girls High School",
    "د_مرکز_ځای__موقعیت_مرکز": "کری",
    "Polling_Center_Location": "Karee",
    "Map_Accuracy": "Building",
    "Map_Accuracy_Dari": "تعمیر",
    "Status": "Open",
    "Status_Dari": null,
    "PS_Male": 3,
    "PS_Female": 2,
    "PS_Total": 5,
    "ولسوالي": "ارگو",
    "Region": "North Eastern Region"
   },
   "geometry": {
    "x": 7849841.7723256489,
    "y": 4454242.7226960929
   }
  },
  {
   "attributes": {
    "OBJECTID": 4535,
    "ولایت": "بدخشان",
    "Province": "BADAKHSHAN",
    "PC_Code": "1703224",
    "District": "ARGHANJ KHWAH",
    "د_مرکز_نوم__نام_مرکز": "مکتب تگابک ",
    "Polling_Center_Name": "Tagabak School",
    "د_مرکز_ځای__موقعیت_مرکز": "تگابک ",
    "Polling_Center_Location": "Tagabak",
    "Map_Accuracy": "Building",
    "Map_Accuracy_Dari": "تعمیر",
    "Status": "Open",
    "Status_Dari": null,
    "PS_Male": 4,
    "PS_Female": 1,
    "PS_Total": 5,
    "ولسوالي": "ارغنجخواه",
    "Region": "North Eastern Region"
   },
   "geometry": {
    "x": 7878204.8030459564,
    "y": 4462535.9762816485
   }
  },
  {
   "attributes": {
    "OBJECTID": 4536,
    "ولایت": "بدخشان",
    "Province": "BADAKHSHAN",
    "PC_Code": "1704029",
    "District": "YAFTAL-E-SUFLA",
    "د_مرکز_نوم__نام_مرکز": "مکتب کشین دره ",
    "Polling_Center_Name": "Kasheen Dara School",
    "د_مرکز_ځای__موقعیت_مرکز": "کشین دره",
    "Polling_Center_Location": "Kasheen Dara",
    "Map_Accuracy": "Building",
    "Map_Accuracy_Dari": "تعمیر",
    "Status": "Open",
    "Status_Dari": null,
    "PS_Male": 1,
    "PS_Female": 2,
    "PS_Total": 3,
    "ولسوالي": "یفتل سفلا",
    "Region": "North Eastern Region"
   },
   "geometry": {
    "x": 7828409.5854973169,
    "y": 4480726.0478577726
   }
  },
  {
   "attributes": {
    "OBJECTID": 4537,
    "ولایت": "بدخشان",
    "Province": "BADAKHSHAN",
    "PC_Code": "1705075",
    "District": "KHASH",
    "د_مرکز_نوم__نام_مرکز": "لیسه نسوان عصمتی ",
    "Polling_Center_Name": "Esmati Girls High School",
    "د_مرکز_ځای__موقعیت_مرکز": "ده نو",
    "Polling_Center_Location": "Deh Naw",
    "Map_Accuracy": "Building",
    "Map_Accuracy_Dari": "تعمیر",
    "Status": "Open",
    "Status_Dari": null,
    "PS_Male": 2,
    "PS_Female": 2,
    "PS_Total": 4,
    "ولسوالي": "خاش",
    "Region": "North Eastern Region"
   },
   "geometry": {
    "x": 7877417.5538334576,
    "y": 4428880.7576680817
   }
  },
  {
   "attributes": {
    "OBJECTID": 4538,
    "ولایت": "بدخشان",
    "Province": "BADAKHSHAN",
    "PC_Code": "1706109",
    "District": "BAHARAK",
    "د_مرکز_نوم__نام_مرکز": "مکتب فرمراغ",
    "Polling_Center_Name": "Farmoragh School",
    "د_مرکز_ځای__موقعیت_مرکز": "فرمراغ",
    "Polling_Center_Location": "Farmoragh",
    "Map_Accuracy": "Building",
    "Map_Accuracy_Dari": "تعمیر",
    "Status": "Open",
    "Status_Dari": null,
    "PS_Male": 1,
    "PS_Female": 1,
    "PS_Total": 2,
    "ولسوالي": "بهارک",
    "Region": "North Eastern Region"
   },
   "geometry": {
    "x": 7886841.2763834903,
    "y": 4443802.8621509038
   }
  },
  {
   "attributes": {
    "OBJECTID": 4539,
    "ولایت": "بدخشان",
    "Province": "BADAKHSHAN",
    "PC_Code": "1707069",
    "District": "DARAYIM",
    "د_مرکز_نوم__نام_مرکز": "لیسه دوآبه مغل تای ",
    "Polling_Center_Name": "Do-Aab Mughal Tai High School",
    "د_مرکز_ځای__موقعیت_مرکز": "خم میرهرزر",
    "Polling_Center_Location": "Khum Mir Harzar",
    "Map_Accuracy": "Building",
    "Map_Accuracy_Dari": "تعمیر",
    "Status": "Open",
    "Status_Dari": null,
    "PS_Male": 2,
    "PS_Female": 2,
    "PS_Total": 4,
    "ولسوالي": "درایم",
    "Region": "North Eastern Region"
   },
   "geometry": {
    "x": 7837939.2819761997,
    "y": 4418673.2080753744
   }
  },
  {
   "attributes": {
    "OBJECTID": 4540,
    "ولایت": "بدخشان",
    "Province": "BADAKHSHAN",
    "PC_Code": "1709127",
    "District": "YAWAN",
    "د_مرکز_نوم__نام_مرکز": "مکتب یاوان ",
    "Polling_Center_Name": "Yawan School",
    "د_مرکز_ځای__موقعیت_مرکز": "یاوان",
    "Polling_Center_Location": "Yawan",
    "Map_Accuracy": "Building",
    "Map_Accuracy_Dari": "تعمیر",
    "Status": "Open",
    "Status_Dari": null,
    "PS_Male": 2,
    "PS_Female": 1,
    "PS_Total": 3,
    "ولسوالي": "یاوان",
    "Region": "North Eastern Region"
   },
   "geometry": {
    "x": 7841967.7261805572,
    "y": 4514732.1890926231
   }
  },
  {
   "attributes": {
    "OBJECTID": 4541,
    "ولایت": "بدخشان",
    "Province": "BADAKHSHAN",
    "PC_Code": "1709128",
    "District": "YAWAN",
    "د_مرکز_نوم__نام_مرکز": "مکتب ساری ",
    "Polling_Center_Name": "Saari School",
    "د_مرکز_ځای__موقعیت_مرکز": "ساری ",
    "Polling_Center_Location": "Saari",
    "Map_Accuracy": "Building",
    "Map_Accuracy_Dari": "تعمیر",
    "Status": "Open",
    "Status_Dari": null,
    "PS_Male": 1,
    "PS_Female": 1,
    "PS_Total": 2,
    "ولسوالي": "یاوان",
    "Region": "North Eastern Region"
   },
   "geometry": {
    "x": 7835735.0558709493,
    "y": 4510863.8376319306
   }
  },
  {
   "attributes": {
    "OBJECTID": 4542,
    "ولایت": "بدخشان",
    "Province": "BADAKHSHAN",
    "PC_Code": "1710081",
    "District": "JURM",
    "د_مرکز_نوم__نام_مرکز": "لیسه فرغامنج ",
    "Polling_Center_Name": "Ferghamenj High School",
    "د_مرکز_ځای__موقعیت_مرکز": "فرغامنج ",
    "Polling_Center_Location": "Ferghamenj",
    "Map_Accuracy": "Building",
    "Map_Accuracy_Dari": "تعمیر",
    "Status": "Open",
    "Status_Dari": null,
    "PS_Male": 2,
    "PS_Female": 1,
    "PS_Total": 3,
    "ولسوالي": "جرم",
    "Region": "North Eastern Region"
   },
   "geometry": {
    "x": 7891220.622999927,
    "y": 4426283.1377932588
   }
  },
  {
   "attributes": {
    "OBJECTID": 4543,
    "ولایت": "بدخشان",
    "Province": "BADAKHSHAN",
    "PC_Code": "1711178",
    "District": "TASHKAN",
    "د_مرکز_نوم__نام_مرکز": "مکتب غوری سنگ",
    "Polling_Center_Name": "Ghori Sang School",
    "د_مرکز_ځای__موقعیت_مرکز": "غوری سنگ",
    "Polling_Center_Location": "Ghori Sang",
    "Map_Accuracy": "Building",
    "Map_Accuracy_Dari": "تعمیر",
    "Status": "Open",
    "Status_Dari": null,
    "PS_Male": 2,
    "PS_Female": 1,
    "PS_Total": 3,
    "ولسوالي": "تشکان ",
    "Region": "North Eastern Region"
   },
   "geometry": {
    "x": 7844051.4578425828,
    "y": 4398459.7736759083
   }
  },
  {
   "attributes": {
    "OBJECTID": 4544,
    "ولایت": "بدخشان",
    "Province": "BADAKHSHAN",
    "PC_Code": "1712114",
    "District": "SHUHADA",
    "د_مرکز_نوم__نام_مرکز": "مکتب ابو طلحه",
    "Polling_Center_Name": "Abu Talha School",
    "د_مرکز_ځای__موقعیت_مرکز": "قریه جویبار",
    "Polling_Center_Location": "Joybar Village",
    "Map_Accuracy": "Building",
    "Map_Accuracy_Dari": "تعمیر",
    "Status": "Open",
    "Status_Dari": null,
    "PS_Male": 2,
    "PS_Female": 1,
    "PS_Total": 3,
    "ولسوالي": "شهدا",
    "Region": "North Eastern Region"
   },
   "geometry": {
    "x": 7907085.6653207485,
    "y": 4443395.4741959972
   }
  },
  {
   "attributes": {
    "OBJECTID": 4545,
    "ولایت": "بدخشان",
    "Province": "BADAKHSHAN",
    "PC_Code": "1713141",
    "District": "SHAHR-E-BUZURG",
    "د_مرکز_نوم__نام_مرکز": "مکتب شیخان ",
    "Polling_Center_Name": "Shekhan School",
    "د_مرکز_ځای__موقعیت_مرکز": "شیخان",
    "Polling_Center_Location": "Shekhan",
    "Map_Accuracy": "Building",
    "Map_Accuracy_Dari": "تعمیر",
    "Status": "Open",
    "Status_Dari": null,
    "PS_Male": 1,
    "PS_Female": 1,
    "PS_Total": 2,
    "ولسوالي": "شهر بزرگ",
    "Region": "North Eastern Region"
   },
   "geometry": {
    "x": 7802066.882196662,
    "y": 4480916.5170473447
   }
  },
  {
   "attributes": {
    "OBJECTID": 4546,
    "ولایت": "بدخشان",
    "Province": "BADAKHSHAN",
    "PC_Code": "1718256",
    "District": "YAMGAN",
    "د_مرکز_نوم__نام_مرکز": "مکتب اشنام ",
    "Polling_Center_Name": "Ashnaam School",
    "د_مرکز_ځای__موقعیت_مرکز": "مزار",
    "Polling_Center_Location": "Mazar",
    "Map_Accuracy": "Building",
    "Map_Accuracy_Dari": "تعمیر",
    "Status": "Open",
    "Status_Dari": null,
    "PS_Male": 2,
    "PS_Female": 1,
    "PS_Total": 3,
    "ولسوالي": "یمگان",
    "Region": "North Eastern Region"
   },
   "geometry": {
    "x": 7880909.7419944033,
    "y": 4383665.5122270323
   }
  },
  {
   "attributes": {
    "OBJECTID": 4547,
    "ولایت": "بدخشان",
    "Province": "BADAKHSHAN",
    "PC_Code": "1719219",
    "District": "SHIGHNAN",
    "د_مرکز_نوم__نام_مرکز": "مکتب درمارخت ",
    "Polling_Center_Name": "Darmarakht School",
    "د_مرکز_ځای__موقعیت_مرکز": "درمارخت",
    "Polling_Center_Location": "Darmarakht",
    "Map_Accuracy": "Building",
    "Map_Accuracy_Dari": "تعمیر",
    "Status": "Open",
    "Status_Dari": null,
    "PS_Male": 2,
    "PS_Female": 1,
    "PS_Total": 3,
    "ولسوالي": "شغنان",
    "Region": "North Eastern Region"
   },
   "geometry": {
    "x": 7955533.1255492149,
    "y": 4486337.5327466466
   }
  },
  {
   "attributes": {
    "OBJECTID": 4548,
    "ولایت": "بدخشان",
    "Province": "BADAKHSHAN",
    "PC_Code": "1721247",
    "District": "KUFAB",
    "د_مرکز_نوم__نام_مرکز": "مکتب نشهر ",
    "Polling_Center_Name": "Nashahr School",
    "د_مرکز_ځای__موقعیت_مرکز": "قریه نشهر",
    "Polling_Center_Location": "Nashahr Village",
    "Map_Accuracy": "Building",
    "Map_Accuracy_Dari": "تعمیر",
    "Status": "Open",
    "Status_Dari": null,
    "PS_Male": 2,
    "PS_Female": 2,
    "PS_Total": 4,
    "ولسوالي": "کوف آب",
    "Region": "North Eastern Region"
   },
   "geometry": {
    "x": 7847894.6875649663,
    "y": 4579435.5164678879
   }
  },
  {
   "attributes": {
    "OBJECTID": 4549,
    "ولایت": "بدخشان",
    "Province": "BADAKHSHAN",
    "PC_Code": "1722264",
    "District": "DARWAZ-E-PAYIN",
    "د_مرکز_نوم__نام_مرکز": "مکتب جامرچ",
    "Polling_Center_Name": "Jamarch School",
    "د_مرکز_ځای__موقعیت_مرکز": "قریه جامرچ",
    "Polling_Center_Location": "Jamarch Village",
    "Map_Accuracy": "Village",
    "Map_Accuracy_Dari": "قریه",
    "Status": "Open",
    "Status_Dari": null,
    "PS_Male": 1,
    "PS_Female": 1,
    "PS_Total": 2,
    "ولسوالي": "درواز پائین (مایمی)",
    "Region": "North Eastern Region"
   },
   "geometry": {
    "x": 7939509.3338421546,
    "y": 4618923.8719760831
   }
  },
  {
   "attributes": {
    "OBJECTID": 4550,
    "ولایت": "بدخشان",
    "Province": "BADAKHSHAN",
    "PC_Code": "1722265",
    "District": "DARWAZ-E-PAYIN",
    "د_مرکز_نوم__نام_مرکز": "مکتب غمی",
    "Polling_Center_Name": "Ghamai School",
    "د_مرکز_ځای__موقعیت_مرکز": "قریه غمی",
    "Polling_Center_Location": "Ghamai Village",
    "Map_Accuracy": "Village",
    "Map_Accuracy_Dari": "قریه",
    "Status": "Open",
    "Status_Dari": null,
    "PS_Male": 1,
    "PS_Female": 1,
    "PS_Total": 2,
    "ولسوالي": "درواز پائین (مایمی)",
    "Region": "North Eastern Region"
   },
   "geometry": {
    "x": 7934916.9606821612,
    "y": 4600030.1894493895
   }
  },
  {
   "attributes": {
    "OBJECTID": 4551,
    "ولایت": "بدخشان",
    "Province": "BADAKHSHAN",
    "PC_Code": "1724278",
    "District": "SHIKI",
    "د_مرکز_نوم__نام_مرکز": "مکتب عالی شهر سبز",
    "Polling_Center_Name": "Shahr Sabz High School",
    "د_مرکز_ځای__موقعیت_مرکز": " شهر سبز",
    "Polling_Center_Location": "Shahr Sabz",
    "Map_Accuracy": "Village",
    "Map_Accuracy_Dari": "قریه",
    "Status": "Open",
    "Status_Dari": null,
    "PS_Male": 2,
    "PS_Female": 1,
    "PS_Total": 3,
    "ولسوالي": "شکی",
    "Region": "North Eastern Region"
   },
   "geometry": {
    "x": 7848863.020193141,
    "y": 4597661.3172143428
   }
  },
  {
   "attributes": {
    "OBJECTID": 4552,
    "ولایت": "بدخشان",
    "Province": "BADAKHSHAN",
    "PC_Code": "1726189",
    "District": "KIRAN WA MENJAN",
    "د_مرکز_نوم__نام_مرکز": "کلینیک اسکازر",
    "Polling_Center_Name": "Askazar Clinic",
    "د_مرکز_ځای__موقعیت_مرکز": "اسکازر",
    "Polling_Center_Location": "Askazar",
    "Map_Accuracy": "Building",
    "Map_Accuracy_Dari": "تعمیر",
    "Status": "Open",
    "Status_Dari": null,
    "PS_Male": 1,
    "PS_Female": 1,
    "PS_Total": 2,
    "ولسوالي": "کران و منجان ",
    "Region": "North Eastern Region"
   },
   "geometry": {
    "x": 7868183.4517908404,
    "y": 4303644.2051648488
   }
  },
  {
   "attributes": {
    "OBJECTID": 4553,
    "ولایت": "بدخشان",
    "Province": "BADAKHSHAN",
    "PC_Code": "1728204",
    "District": "WAKHAN",
    "د_مرکز_نوم__نام_مرکز": "مکتب شخور",
    "Polling_Center_Name": "Shakhor School",
    "د_مرکز_ځای__موقعیت_مرکز": "شخور",
    "Polling_Center_Location": "Shakhor",
    "Map_Accuracy": "Building",
    "Map_Accuracy_Dari": "تعمیر",
    "Status": "Open",
    "Status_Dari": null,
    "PS_Male": 1,
    "PS_Female": 1,
    "PS_Total": 2,
    "ولسوالي": "واخان",
    "Region": "North Eastern Region"
   },
   "geometry": {
    "x": 8005788.3096678341,
    "y": 4401354.0642834473
   }
  },
  {
   "attributes": {
    "OBJECTID": 4554,
    "ولایت": "تخار",
    "Province": "TAKHAR",
    "PC_Code": "1801004",
    "District": "TALUQAN",
    "د_مرکز_نوم__نام_مرکز": "مکتب انجنر نیک محمد",
    "Polling_Center_Name": "Engineer Nek Mohammad School",
    "د_مرکز_ځای__موقعیت_مرکز": "قرملا",
    "Polling_Center_Location": "Qarmala",
    "Map_Accuracy": "Building",
    "Map_Accuracy_Dari": "تعمیر",
    "Status": "Open",
    "Status_Dari": null,
    "PS_Male": 3,
    "PS_Female": 1,
    "PS_Total": 4,
    "ولسوالي": "تالقان",
    "Region": "North Eastern Region"
   },
   "geometry": {
    "x": 7745580.490506541,
    "y": 4394352.0915683033
   }
  },
  {
   "attributes": {
    "OBJECTID": 4555,
    "ولایت": "تخار",
    "Province": "TAKHAR",
    "PC_Code": "1801014",
    "District": "TALUQAN",
    "د_مرکز_نوم__نام_مرکز": "ریاست زراعت",
    "Polling_Center_Name": "Agriculture Department ",
    "د_مرکز_ځای__موقعیت_مرکز": "ناحیه دوم",
    "Polling_Center_Location": "D02 - Nahia 2",
    "Map_Accuracy": "Building",
    "Map_Accuracy_Dari": "تعمیر",
    "Status": "Open",
    "Status_Dari": null,
    "PS_Male": 5,
    "PS_Female": 2,
    "PS_Total": 7,
    "ولسوالي": "تالقان",
    "Region": "North Eastern Region"
   },
   "geometry": {
    "x": 7741591.3443088206,
    "y": 4402229.3776188781
   }
  },
  {
   "attributes": {
    "OBJECTID": 4556,
    "ولایت": "تخار",
    "Province": "TAKHAR",
    "PC_Code": "1801025",
    "District": "TALUQAN",
    "د_مرکز_نوم__نام_مرکز": "لیسه تودان",
    "Polling_Center_Name": "Todan High School",
    "د_مرکز_ځای__موقعیت_مرکز": "قریه تودان",
    "Polling_Center_Location": "Todan Village",
    "Map_Accuracy": "Building",
    "Map_Accuracy_Dari": "تعمیر",
    "Status": "Open",
    "Status_Dari": null,
    "PS_Male": 2,
    "PS_Female": 1,
    "PS_Total": 3,
    "ولسوالي": "تالقان",
    "Region": "North Eastern Region"
   },
   "geometry": {
    "x": 7759317.2644634629,
    "y": 4397824.5724408254
   }
  },
  {
   "attributes": {
    "OBJECTID": 4557,
    "ولایت": "تخار",
    "Province": "TAKHAR",
    "PC_Code": "1801184",
    "District": "TALUQAN",
    "د_مرکز_نوم__نام_مرکز": "ليسه آهن دره ",
    "Polling_Center_Name": "Ahan Dara High School",
    "د_مرکز_ځای__موقعیت_مرکز": "کولابی",
    "Polling_Center_Location": "Kolabi",
    "Map_Accuracy": "Building",
    "Map_Accuracy_Dari": "تعمیر",
    "Status": "Open",
    "Status_Dari": null,
    "PS_Male": 2,
    "PS_Female": 1,
    "PS_Total": 3,
    "ولسوالي": "تالقان",
    "Region": "North Eastern Region"
   },
   "geometry": {
    "x": 7747496.9557280885,
    "y": 4400459.9251744114
   }
  },
  {
   "attributes": {
    "OBJECTID": 4558,
    "ولایت": "تخار",
    "Province": "TAKHAR",
    "PC_Code": "1803041",
    "District": "BAHARAK",
    "د_مرکز_نوم__نام_مرکز": "مکتب ابتدائیه حضرت عمر",
    "Polling_Center_Name": "Hazrat Omar Primary School",
    "د_مرکز_ځای__موقعیت_مرکز": "دوراهی",
    "Polling_Center_Location": "Do Rahi",
    "Map_Accuracy": "Building",
    "Map_Accuracy_Dari": "تعمیر",
    "Status": "Open",
    "Status_Dari": null,
    "PS_Male": 4,
    "PS_Female": 3,
    "PS_Total": 7,
    "ولسوالي": "بهارک",
    "Region": "North Eastern Region"
   },
   "geometry": {
    "x": 7724704.3055728963,
    "y": 4408171.0959434556
   }
  },
  {
   "attributes": {
    "OBJECTID": 4559,
    "ولایت": "تخار",
    "Province": "TAKHAR",
    "PC_Code": "1805076",
    "District": "CHAL",
    "د_مرکز_نوم__نام_مرکز": "لیسه عبدالواحد شهید",
    "Polling_Center_Name": "Abdul Wahid Shaheed High School",
    "د_مرکز_ځای__موقعیت_مرکز": "ماندره",
    "Polling_Center_Location": "Mandara",
    "Map_Accuracy": "Building",
    "Map_Accuracy_Dari": "تعمیر",
    "Status": "Open",
    "Status_Dari": null,
    "PS_Male": 3,
    "PS_Female": 2,
    "PS_Total": 5,
    "ولسوالي": "چال",
    "Region": "North Eastern Region"
   },
   "geometry": {
    "x": 7740969.4880297659,
    "y": 4362390.0319912853
   }
  },
  {
   "attributes": {
    "OBJECTID": 4560,
    "ولایت": "تخار",
    "Province": "TAKHAR",
    "PC_Code": "1807096",
    "District": "KALAFGAN",
    "د_مرکز_نوم__نام_مرکز": "لیسه ابوالحسن خرقاني",
    "Polling_Center_Name": "Abul Hassan Kherqani High School",
    "د_مرکز_ځای__موقعیت_مرکز": "حوزه شهر",
    "Polling_Center_Location": "Hawza Shahr",
    "Map_Accuracy": "Building",
    "Map_Accuracy_Dari": "تعمیر",
    "Status": "Open",
    "Status_Dari": null,
    "PS_Male": 3,
    "PS_Female": 2,
    "PS_Total": 5,
    "ولسوالي": "کلفگان",
    "Region": "North Eastern Region"
   },
   "geometry": {
    "x": 7786053.0713951495,
    "y": 4407914.0103719356
   }
  },
  {
   "attributes": {
    "OBJECTID": 4561,
    "ولایت": "تخار",
    "Province": "TAKHAR",
    "PC_Code": "1808089",
    "District": "FARKHAR",
    "د_مرکز_نوم__نام_مرکز": "لیسه سید عبدالرحمن شهید ",
    "Polling_Center_Name": "Sayed Abdul Rahman Shaheed High School",
    "د_مرکز_ځای__موقعیت_مرکز": "خانقا",
    "Polling_Center_Location": "Khanqah",
    "Map_Accuracy": "Building",
    "Map_Accuracy_Dari": "تعمیر",
    "Status": "Open",
    "Status_Dari": null,
    "PS_Male": 2,
    "PS_Female": 1,
    "PS_Total": 3,
    "ولسوالي": "فرخار",
    "Region": "North Eastern Region"
   },
   "geometry": {
    "x": 7783219.2289291425,
    "y": 4382612.5862331884
   }
  },
  {
   "attributes": {
    "OBJECTID": 4562,
    "ولایت": "تخار",
    "Province": "TAKHAR",
    "PC_Code": "1809050",
    "District": "KHWAJA GHAR",
    "د_مرکز_نوم__نام_مرکز": "لیسه عاقله مامه یی",
    "Polling_Center_Name": "Aaqela Mama ye High School",
    "د_مرکز_ځای__موقعیت_مرکز": "عا قله  مامه یی",
    "Polling_Center_Location": "Aaqela Mama ye",
    "Map_Accuracy": "Building",
    "Map_Accuracy_Dari": "تعمیر",
    "Status": "Open",
    "Status_Dari": null,
    "PS_Male": 2,
    "PS_Female": 2,
    "PS_Total": 4,
    "ولسوالي": "خواجه غار",
    "Region": "North Eastern Region"
   },
   "geometry": {
    "x": 7739396.7662638351,
    "y": 4445065.3167393673
   }
  },
  {
   "attributes": {
    "OBJECTID": 4563,
    "ولایت": "تخار",
    "Province": "TAKHAR",
    "PC_Code": "1810102",
    "District": "RUSTAQ",
    "د_مرکز_نوم__نام_مرکز": "لیسه نسوان شهر کهنه",
    "Polling_Center_Name": "Shahr Kuhna Girls High School",
    "د_مرکز_ځای__موقعیت_مرکز": "شهرکهنه رستاق",
    "Polling_Center_Location": "Shahr Kuhna Rostaq",
    "Map_Accuracy": "Building",
    "Map_Accuracy_Dari": "تعمیر",
    "Status": "Open",
    "Status_Dari": null,
    "PS_Male": 2,
    "PS_Female": 2,
    "PS_Total": 4,
    "ولسوالي": "رستاق",
    "Region": "North Eastern Region"
   },
   "geometry": {
    "x": 7772882.2724460941,
    "y": 4457181.5149234505
   }
  },
  {
   "attributes": {
    "OBJECTID": 4564,
    "ولایت": "تخار",
    "Province": "TAKHAR",
    "PC_Code": "1810113",
    "District": "RUSTAQ",
    "د_مرکز_نوم__نام_مرکز": "لیسه مولانا جلال الدین ",
    "Polling_Center_Name": "Mawlana Jalaluddin High School",
    "د_مرکز_ځای__موقعیت_مرکز": "آب آسیابا",
    "Polling_Center_Location": "Aab Asyaba",
    "Map_Accuracy": "Building",
    "Map_Accuracy_Dari": "تعمیر",
    "Status": "Open",
    "Status_Dari": null,
    "PS_Male": 2,
    "PS_Female": 2,
    "PS_Total": 4,
    "ولسوالي": "رستاق",
    "Region": "North Eastern Region"
   },
   "geometry": {
    "x": 7793886.9957693703,
    "y": 4439917.8993022898
   }
  },
  {
   "attributes": {
    "OBJECTID": 4565,
    "ولایت": "تخار",
    "Province": "TAKHAR",
    "PC_Code": "1810124",
    "District": "RUSTAQ",
    "د_مرکز_نوم__نام_مرکز": "لیسه خواجه علاوالدین",
    "Polling_Center_Name": "Khwaja Alauddin High School",
    "د_مرکز_ځای__موقعیت_مرکز": "لاله میدان",
    "Polling_Center_Location": "Lala Maidan",
    "Map_Accuracy": "Building",
    "Map_Accuracy_Dari": "تعمیر",
    "Status": "Open",
    "Status_Dari": null,
    "PS_Male": 2,
    "PS_Female": 2,
    "PS_Total": 4,
    "ولسوالي": "رستاق",
    "Region": "North Eastern Region"
   },
   "geometry": {
    "x": 7740585.0049801013,
    "y": 4445070.2524256669
   }
  },
  {
   "attributes": {
    "OBJECTID": 4566,
    "ولایت": "تخار",
    "Province": "TAKHAR",
    "PC_Code": "1810125",
    "District": "RUSTAQ",
    "د_مرکز_نوم__نام_مرکز": "مکتب متوسطه حضرت بلال",
    "Polling_Center_Name": "Hazrat Bilal Secondary School",
    "د_مرکز_ځای__موقعیت_مرکز": "ایلکاشان",
    "Polling_Center_Location": "Elkashan",
    "Map_Accuracy": "Building",
    "Map_Accuracy_Dari": "تعمیر",
    "Status": "Open",
    "Status_Dari": null,
    "PS_Male": 2,
    "PS_Female": 1,
    "PS_Total": 3,
    "ولسوالي": "رستاق",
    "Region": "North Eastern Region"
   },
   "geometry": {
    "x": 7795948.3032331709,
    "y": 4448683.1687145326
   }
  },
  {
   "attributes": {
    "OBJECTID": 4567,
    "ولایت": "تخار",
    "Province": "TAKHAR",
    "PC_Code": "1811064",
    "District": "ESHKAMESH",
    "د_مرکز_نوم__نام_مرکز": "لیسه طارق شهید",
    "Polling_Center_Name": "Tariq Shaheed High School",
    "د_مرکز_ځای__موقعیت_مرکز": "شهر کهنه اشکمش",
    "Polling_Center_Location": "Shahr Kuhna Ashkmash",
    "Map_Accuracy": "Building",
    "Map_Accuracy_Dari": "تعمیر",
    "Status": "Open",
    "Status_Dari": null,
    "PS_Male": 6,
    "PS_Female": 3,
    "PS_Total": 9,
    "ولسوالي": "اشکمش",
    "Region": "North Eastern Region"
   },
   "geometry": {
    "x": 7717500.3270651251,
    "y": 4353384.2559414385
   }
  },
  {
   "attributes": {
    "OBJECTID": 4568,
    "ولایت": "تخار",
    "Province": "TAKHAR",
    "PC_Code": "1811191",
    "District": "ESHKAMESH",
    "د_مرکز_نوم__نام_مرکز": "مسجد سياه دره ",
    "Polling_Center_Name": "Siyah Dara Mosque",
    "د_مرکز_ځای__موقعیت_مرکز": "سياه دره ",
    "Polling_Center_Location": "Siyah Dara",
    "Map_Accuracy": "Building",
    "Map_Accuracy_Dari": "تعمیر",
    "Status": "Open",
    "Status_Dari": null,
    "PS_Male": 1,
    "PS_Female": 1,
    "PS_Total": 2,
    "ولسوالي": "اشکمش",
    "Region": "North Eastern Region"
   },
   "geometry": {
    "x": 7737793.7867471175,
    "y": 4361654.9446591623
   }
  },
  {
   "attributes": {
    "OBJECTID": 4569,
    "ولایت": "تخار",
    "Province": "TAKHAR",
    "PC_Code": "1813176",
    "District": "WARSAJ",
    "د_مرکز_نوم__نام_مرکز": "لیسه سید اکرام الدین شهید",
    "Polling_Center_Name": "Sayed Ikramuddin Shaheed High School",
    "د_مرکز_ځای__موقعیت_مرکز": "ترشت",
    "Polling_Center_Location": "Tarasht",
    "Map_Accuracy": "Building",
    "Map_Accuracy_Dari": "تعمیر",
    "Status": "Open",
    "Status_Dari": null,
    "PS_Male": 5,
    "PS_Female": 2,
    "PS_Total": 7,
    "ولسوالي": "ورسج",
    "Region": "North Eastern Region"
   },
   "geometry": {
    "x": 7782682.7034925641,
    "y": 4332300.8723311918
   }
  },
  {
   "attributes": {
    "OBJECTID": 4570,
    "ولایت": "تخار",
    "Province": "TAKHAR",
    "PC_Code": "1814157",
    "District": "KHWAJA BAHAWUDIN",
    "د_مرکز_نوم__نام_مرکز": "لیسه ذکورکتک جر",
    "Polling_Center_Name": "Katak Jar Boys High School",
    "د_مرکز_ځای__موقعیت_مرکز": "کتک جر",
    "Polling_Center_Location": "Katak Jar",
    "Map_Accuracy": "Building",
    "Map_Accuracy_Dari": "تعمیر",
    "Status": "Open",
    "Status_Dari": null,
    "PS_Male": 2,
    "PS_Female": 1,
    "PS_Total": 3,
    "ولسوالي": "خواجه بهاوالدین",
    "Region": "North Eastern Region"
   },
   "geometry": {
    "x": 7735806.2618418196,
    "y": 4482287.7621273445
   }
  },
  {
   "attributes": {
    "OBJECTID": 4571,
    "ولایت": "تخار",
    "Province": "TAKHAR",
    "PC_Code": "1815166",
    "District": "DARQAD",
    "د_مرکز_نوم__نام_مرکز": "لیسه ذکورقول آباد",
    "Polling_Center_Name": "Qol Abad Boys High School",
    "د_مرکز_ځای__موقعیت_مرکز": "قول آباد",
    "Polling_Center_Location": "Qol Abad",
    "Map_Accuracy": "Building",
    "Map_Accuracy_Dari": "تعمیر",
    "Status": "Open",
    "Status_Dari": null,
    "PS_Male": 2,
    "PS_Female": 1,
    "PS_Total": 3,
    "ولسوالي": "درقد",
    "Region": "North Eastern Region"
   },
   "geometry": {
    "x": 7740714.6799417296,
    "y": 4500572.791827078
   }
  },
  {
   "attributes": {
    "OBJECTID": 4572,
    "ولایت": "تخار",
    "Province": "TAKHAR",
    "PC_Code": "1816141",
    "District": "CHAH AB",
    "د_مرکز_نوم__نام_مرکز": "مکتب متوسطۀ شاه دره",
    "Polling_Center_Name": "Shah Dara Secondary School",
    "د_مرکز_ځای__موقعیت_مرکز": "شاه دره",
    "Polling_Center_Location": "Shah Dara",
    "Map_Accuracy": "Building",
    "Map_Accuracy_Dari": "تعمیر",
    "Status": "Open",
    "Status_Dari": null,
    "PS_Male": 2,
    "PS_Female": 2,
    "PS_Total": 4,
    "ولسوالي": "چا آب",
    "Region": "North Eastern Region"
   },
   "geometry": {
    "x": 7786703.1616366506,
    "y": 4486317.924068924
   }
  },
  {
   "attributes": {
    "OBJECTID": 4573,
    "ولایت": "تخار",
    "Province": "TAKHAR",
    "PC_Code": "1817150",
    "District": "YANGI QALA",
    "د_مرکز_نوم__نام_مرکز": "مکتب عمرخیل ",
    "Polling_Center_Name": "Umar Khel School",
    "د_مرکز_ځای__موقعیت_مرکز": "عمر خیل",
    "Polling_Center_Location": "Umar Khel",
    "Map_Accuracy": "Building",
    "Map_Accuracy_Dari": "تعمیر",
    "Status": "Open",
    "Status_Dari": null,
    "PS_Male": 2,
    "PS_Female": 2,
    "PS_Total": 4,
    "ولسوالي": "ینگی قلعه",
    "Region": "North Eastern Region"
   },
   "geometry": {
    "x": 7743633.7441571066,
    "y": 4499233.7253543055
   }
  },
  {
   "attributes": {
    "OBJECTID": 4574,
    "ولایت": "کندز",
    "Province": "KUNDUZ",
    "PC_Code": "1901008",
    "District": "KUNDUZ",
    "د_مرکز_نوم__نام_مرکز": "لیسه نسوان مرکزی",
    "Polling_Center_Name": "Girls Central High School",
    "د_مرکز_ځای__موقعیت_مرکز": "ناحیه دوم",
    "Polling_Center_Location": "D02 - Nahia 2",
    "Map_Accuracy": "Building",
    "Map_Accuracy_Dari": "تعمیر",
    "Status": "Open",
    "Status_Dari": null,
    "PS_Male": 2,
    "PS_Female": 6,
    "PS_Total": 8,
    "ولسوالي": "کندز",
    "Region": "North Eastern Region"
   },
   "geometry": {
    "x": 7665650.8073882386,
    "y": 4401189.0453753211
   }
  },
  {
   "attributes": {
    "OBJECTID": 4575,
    "ولایت": "کندز",
    "Province": "KUNDUZ",
    "PC_Code": "1901018",
    "District": "KUNDUZ",
    "د_مرکز_نوم__نام_مرکز": "لیسه ذاخیل",
    "Polling_Center_Name": "Zakhil High School",
    "د_مرکز_ځای__موقعیت_مرکز": "ناحیه سوم",
    "Polling_Center_Location": "D03 - Nahia 3",
    "Map_Accuracy": "Building",
    "Map_Accuracy_Dari": "تعمیر",
    "Status": "Open",
    "Status_Dari": null,
    "PS_Male": 5,
    "PS_Female": 3,
    "PS_Total": 8,
    "ولسوالي": "کندز",
    "Region": "North Eastern Region"
   },
   "geometry": {
    "x": 7664462.281467692,
    "y": 4401850.2169660572
   }
  },
  {
   "attributes": {
    "OBJECTID": 4576,
    "ولایت": "کندز",
    "Province": "KUNDUZ",
    "PC_Code": "1901030",
    "District": "KUNDUZ",
    "د_مرکز_نوم__نام_مرکز": "مکتب چله مزار",
    "Polling_Center_Name": "Chala Mazar School",
    "د_مرکز_ځای__موقعیت_مرکز": "ناحیه اول",
    "Polling_Center_Location": "D01 - Nahia 1",
    "Map_Accuracy": "Building",
    "Map_Accuracy_Dari": "تعمیر",
    "Status": "Open",
    "Status_Dari": null,
    "PS_Male": 3,
    "PS_Female": 2,
    "PS_Total": 5,
    "ولسوالي": "کندز",
    "Region": "North Eastern Region"
   },
   "geometry": {
    "x": 7669664.4794961754,
    "y": 4398963.3597283969
   }
  },
  {
   "attributes": {
    "OBJECTID": 4577,
    "ولایت": "کندز",
    "Province": "KUNDUZ",
    "PC_Code": "1901041",
    "District": "KUNDUZ",
    "د_مرکز_نوم__نام_مرکز": "مکتب متوطه گل تیپه",
    "Polling_Center_Name": "Gul Tipa Secondary School",
    "د_مرکز_ځای__موقعیت_مرکز": "قریه عرب ها",
    "Polling_Center_Location": "Arabha Village",
    "Map_Accuracy": "Building",
    "Map_Accuracy_Dari": "تعمیر",
    "Status": "Open",
    "Status_Dari": null,
    "PS_Male": 2,
    "PS_Female": 1,
    "PS_Total": 3,
    "ولسوالي": "کندز",
    "Region": "North Eastern Region"
   },
   "geometry": {
    "x": 7647732.5304930918,
    "y": 4412766.0105954763
   }
  },
  {
   "attributes": {
    "OBJECTID": 4578,
    "ولایت": "کندز",
    "Province": "KUNDUZ",
    "PC_Code": "1901052",
    "District": "KUNDUZ",
    "د_مرکز_نوم__نام_مرکز": "مکتب متوسطه ارباب چاری",
    "Polling_Center_Name": "Arbab Chari Secondary School",
    "د_مرکز_ځای__موقعیت_مرکز": "قوی گذر",
    "Polling_Center_Location": "Qoy Guzar",
    "Map_Accuracy": "Building",
    "Map_Accuracy_Dari": "تعمیر",
    "Status": "Open",
    "Status_Dari": null,
    "PS_Male": 2,
    "PS_Female": 2,
    "PS_Total": 4,
    "ولسوالي": "کندز",
    "Region": "North Eastern Region"
   },
   "geometry": {
    "x": 7659708.6286294376,
    "y": 4415398.7628459111
   }
  },
  {
   "attributes": {
    "OBJECTID": 4579,
    "ولایت": "کندز",
    "Province": "KUNDUZ",
    "PC_Code": "1902116",
    "District": "CHAR DARA",
    "د_مرکز_نوم__نام_مرکز": "لیسه محمد فتاح شهید",
    "Polling_Center_Name": "Mohammad Fataah Shaheed High School",
    "د_مرکز_ځای__موقعیت_مرکز": "قریه قصاب",
    "Polling_Center_Location": "Qasab Village",
    "Map_Accuracy": "Building",
    "Map_Accuracy_Dari": "تعمیر",
    "Status": "Open",
    "Status_Dari": null,
    "PS_Male": 2,
    "PS_Female": 1,
    "PS_Total": 3,
    "ولسوالي": "چاردره",
    "Region": "North Eastern Region"
   },
   "geometry": {
    "x": 7665156.3787529366,
    "y": 4382793.8419686062
   }
  },
  {
   "attributes": {
    "OBJECTID": 4580,
    "ولایت": "کندز",
    "Province": "KUNDUZ",
    "PC_Code": "1903135",
    "District": "ALI ABAD",
    "د_مرکز_نوم__نام_مرکز": "لیسه ذکور سید احمد",
    "Polling_Center_Name": "Sayed Ahmad Boys School",
    "د_مرکز_ځای__موقعیت_مرکز": "قریه سید احمد",
    "Polling_Center_Location": "Sayed Ahmad Village",
    "Map_Accuracy": "Building",
    "Map_Accuracy_Dari": "تعمیر",
    "Status": "Open",
    "Status_Dari": null,
    "PS_Male": 1,
    "PS_Female": 1,
    "PS_Total": 2,
    "ولسوالي": "علی آباد",
    "Region": "North Eastern Region"
   },
   "geometry": {
    "x": 7667182.7617302509,
    "y": 4375533.3244414739
   }
  },
  {
   "attributes": {
    "OBJECTID": 4581,
    "ولایت": "کندز",
    "Province": "KUNDUZ",
    "PC_Code": "1904143",
    "District": "KHAN ABAD",
    "د_مرکز_نوم__نام_مرکز": "لیسه آقتاش",
    "Polling_Center_Name": "Aaqtash High School",
    "د_مرکز_ځای__موقعیت_مرکز": "قریه آقتاش",
    "Polling_Center_Location": "Aaqtash Village",
    "Map_Accuracy": "Building",
    "Map_Accuracy_Dari": "تعمیر",
    "Status": "Open",
    "Status_Dari": null,
    "PS_Male": 2,
    "PS_Female": 1,
    "PS_Total": 3,
    "ولسوالي": "خان آباد",
    "Region": "North Eastern Region"
   },
   "geometry": {
    "x": 7690168.1014712257,
    "y": 4402149.2259030063
   }
  },
  {
   "attributes": {
    "OBJECTID": 4582,
    "ولایت": "کندز",
    "Province": "KUNDUZ",
    "PC_Code": "1904154",
    "District": "KHAN ABAD",
    "د_مرکز_نوم__نام_مرکز": "لیسه نسوان خان آباد",
    "Polling_Center_Name": "Khan Abad Girls High School",
    "د_مرکز_ځای__موقعیت_مرکز": "ناحیه چهارم مرکز شهر خان آباد",
    "Polling_Center_Location": "D04 - Nahia 4 Khan Abad City",
    "Map_Accuracy": "Building",
    "Map_Accuracy_Dari": "تعمیر",
    "Status": "Open",
    "Status_Dari": null,
    "PS_Male": 0,
    "PS_Female": 3,
    "PS_Total": 3,
    "ولسوالي": "خان آباد",
    "Region": "North Eastern Region"
   },
   "geometry": {
    "x": 7693661.3482805332,
    "y": 4394591.791288876
   }
  },
  {
   "attributes": {
    "OBJECTID": 4583,
    "ولایت": "کندز",
    "Province": "KUNDUZ",
    "PC_Code": "1905058",
    "District": "HAZRAT-E-IMAM SAHIB",
    "د_مرکز_نوم__نام_مرکز": "مکتب کول دامن",
    "Polling_Center_Name": "Kol Daman School",
    "د_مرکز_ځای__موقعیت_مرکز": "قریه کول دامن",
    "Polling_Center_Location": "Kol Daman Village",
    "Map_Accuracy": "Building",
    "Map_Accuracy_Dari": "تعمیر",
    "Status": "Open",
    "Status_Dari": null,
    "PS_Male": 3,
    "PS_Female": 3,
    "PS_Total": 6,
    "ولسوالي": "حضرت امام صاحب",
    "Region": "North Eastern Region"
   },
   "geometry": {
    "x": 7690636.0062340964,
    "y": 4454036.3892460931
   }
  },
  {
   "attributes": {
    "OBJECTID": 4584,
    "ولایت": "کندز",
    "Province": "KUNDUZ",
    "PC_Code": "1905079",
    "District": "HAZRAT-E-IMAM SAHIB",
    "د_مرکز_نوم__نام_مرکز": "مکتب آلچین",
    "Polling_Center_Name": "Aalchin School",
    "د_مرکز_ځای__موقعیت_مرکز": "قریه آلچین",
    "Polling_Center_Location": "Aalcheen Village",
    "Map_Accuracy": "Village",
    "Map_Accuracy_Dari": "قریه",
    "Status": "Open",
    "Status_Dari": null,
    "PS_Male": 3,
    "PS_Female": 1,
    "PS_Total": 4,
    "ولسوالي": "حضرت امام صاحب",
    "Region": "North Eastern Region"
   },
   "geometry": {
    "x": 7685501.126441285,
    "y": 4458265.1416493934
   }
  },
  {
   "attributes": {
    "OBJECTID": 4585,
    "ولایت": "کندز",
    "Province": "KUNDUZ",
    "PC_Code": "1905087",
    "District": "HAZRAT-E-IMAM SAHIB",
    "د_مرکز_نوم__نام_مرکز": "مکتب زردکمر",
    "Polling_Center_Name": "Zard Kamar School",
    "د_مرکز_ځای__موقعیت_مرکز": "زردکمر",
    "Polling_Center_Location": "Zard Kamar",
    "Map_Accuracy": "Building",
    "Map_Accuracy_Dari": "تعمیر",
    "Status": "Open",
    "Status_Dari": null,
    "PS_Male": 3,
    "PS_Female": 1,
    "PS_Total": 4,
    "ولسوالي": "حضرت امام صاحب",
    "Region": "North Eastern Region"
   },
   "geometry": {
    "x": 7654187.0082276883,
    "y": 4460279.718853334
   }
  },
  {
   "attributes": {
    "OBJECTID": 4586,
    "ولایت": "کندز",
    "Province": "KUNDUZ",
    "PC_Code": "1905097",
    "District": "HAZRAT-E-IMAM SAHIB",
    "د_مرکز_نوم__نام_مرکز": "لیسه میرزا عبدالقادربیدل",
    "Polling_Center_Name": "Mirza Abdul Qadir Bedal High School",
    "د_مرکز_ځای__موقعیت_مرکز": "قریه بتاش",
    "Polling_Center_Location": "Bataash Village",
    "Map_Accuracy": "Building",
    "Map_Accuracy_Dari": "تعمیر",
    "Status": "Open",
    "Status_Dari": null,
    "PS_Male": 2,
    "PS_Female": 2,
    "PS_Total": 4,
    "ولسوالي": "حضرت امام صاحب",
    "Region": "North Eastern Region"
   },
   "geometry": {
    "x": 7661069.8010614561,
    "y": 4461221.871787142
   }
  },
  {
   "attributes": {
    "OBJECTID": 4587,
    "ولایت": "کندز",
    "Province": "KUNDUZ",
    "PC_Code": "1906182",
    "District": "DASHT-E-ARCHI",
    "د_مرکز_نوم__نام_مرکز": "مسجد کوبیچی",
    "Polling_Center_Name": "Kobichi Mosque",
    "د_مرکز_ځای__موقعیت_مرکز": "قریه کوبیچی",
    "Polling_Center_Location": "Kobichi Village",
    "Map_Accuracy": "Building",
    "Map_Accuracy_Dari": "تعمیر",
    "Status": "Open",
    "Status_Dari": null,
    "PS_Male": 4,
    "PS_Female": 2,
    "PS_Total": 6,
    "ولسوالي": "دشت ارچی",
    "Region": "North Eastern Region"
   },
   "geometry": {
    "x": 7713652.8905791808,
    "y": 4447887.1362827169
   }
  },
  {
   "attributes": {
    "OBJECTID": 4588,
    "ولایت": "کندز",
    "Province": "KUNDUZ",
    "PC_Code": "1906193",
    "District": "DASHT-E-ARCHI",
    "د_مرکز_نوم__نام_مرکز": "مکتب مسباح",
    "Polling_Center_Name": "Mesbaah School",
    "د_مرکز_ځای__موقعیت_مرکز": "قریه جمع رجب",
    "Polling_Center_Location": "Jama Rajab Village",
    "Map_Accuracy": "Building",
    "Map_Accuracy_Dari": "تعمیر",
    "Status": "Open",
    "Status_Dari": null,
    "PS_Male": 3,
    "PS_Female": 2,
    "PS_Total": 5,
    "ولسوالي": "دشت ارچی",
    "Region": "North Eastern Region"
   },
   "geometry": {
    "x": 7692635.4356457423,
    "y": 4450912.5177342407
   }
  },
  {
   "attributes": {
    "OBJECTID": 4589,
    "ولایت": "کندز",
    "Province": "KUNDUZ",
    "PC_Code": "1907102",
    "District": "QALA-E-ZAL",
    "د_مرکز_نوم__نام_مرکز": "لیسه صالح",
    "Polling_Center_Name": "Saaleh High School",
    "د_مرکز_ځای__موقعیت_مرکز": "صالح آباد",
    "Polling_Center_Location": "Saaleh Abad",
    "Map_Accuracy": "Building",
    "Map_Accuracy_Dari": "تعمیر",
    "Status": "Open",
    "Status_Dari": null,
    "PS_Male": 2,
    "PS_Female": 1,
    "PS_Total": 3,
    "ولسوالي": "قلعه ذال",
    "Region": "North Eastern Region"
   },
   "geometry": {
    "x": 7618175.2208609534,
    "y": 4438146.6111065233
   }
  },
  {
   "attributes": {
    "OBJECTID": 4590,
    "ولایت": "کندز",
    "Province": "KUNDUZ",
    "PC_Code": "1907204",
    "District": "QALA-E-ZAL",
    "د_مرکز_نوم__نام_مرکز": "مسجد حاجی ملاابراهیم",
    "Polling_Center_Name": "Haji Mula Ibrahim Mosque",
    "د_مرکز_ځای__موقعیت_مرکز": "حاجی ابراهیم",
    "Polling_Center_Location": "Haji Ibrahim",
    "Map_Accuracy": "Building",
    "Map_Accuracy_Dari": "تعمیر",
    "Status": "Open",
    "Status_Dari": null,
    "PS_Male": 2,
    "PS_Female": 1,
    "PS_Total": 3,
    "ولسوالي": "قلعه ذال",
    "Region": "North Eastern Region"
   },
   "geometry": {
    "x": 7629787.4823735952,
    "y": 4439945.7510138797
   }
  },
  {
   "attributes": {
    "OBJECTID": 4591,
    "ولایت": "سمنگان",
    "Province": "SAMANGAN",
    "PC_Code": "2001008",
    "District": "AYBAK",
    "د_مرکز_نوم__نام_مرکز": "لیسه ذکور ایبک ",
    "Polling_Center_Name": "Aibak Girls High School",
    "د_مرکز_ځای__موقعیت_مرکز": "شهر ایبک",
    "Polling_Center_Location": "Aibak City",
    "Map_Accuracy": "Building",
    "Map_Accuracy_Dari": "تعمیر",
    "Status": "Open",
    "Status_Dari": null,
    "PS_Male": 9,
    "PS_Female": 0,
    "PS_Total": 9,
    "ولسوالي": "ایبک",
    "Region": "Northern Region"
   },
   "geometry": {
    "x": 7571334.7732543601,
    "y": 4337243.7797082067
   }
  },
  {
   "attributes": {
    "OBJECTID": 4592,
    "ولایت": "سمنگان",
    "Province": "SAMANGAN",
    "PC_Code": "2001087",
    "District": "AYBAK",
    "د_مرکز_نوم__نام_مرکز": "لیسه نسوان شهر قدیم ",
    "Polling_Center_Name": "Shahr Qadeem Girls School",
    "د_مرکز_ځای__موقعیت_مرکز": "قریه شهر قدیم",
    "Polling_Center_Location": "Shahr Qadeem Village",
    "Map_Accuracy": "Building",
    "Map_Accuracy_Dari": "تعمیر",
    "Status": "Open",
    "Status_Dari": null,
    "PS_Male": 3,
    "PS_Female": 1,
    "PS_Total": 4,
    "ولسوالي": "ایبک",
    "Region": "Northern Region"
   },
   "geometry": {
    "x": 7574696.5606505973,
    "y": 4334896.3758929335
   }
  },
  {
   "attributes": {
    "OBJECTID": 4593,
    "ولایت": "سمنگان",
    "Province": "SAMANGAN",
    "PC_Code": "2001088",
    "District": "AYBAK",
    "د_مرکز_نوم__نام_مرکز": "مسجد  چهل کپه ",
    "Polling_Center_Name": "Chehl Kapa Mosque",
    "د_مرکز_ځای__موقعیت_مرکز": "قریه چهل کپه",
    "Polling_Center_Location": "Chehl Kapa Village",
    "Map_Accuracy": "Village",
    "Map_Accuracy_Dari": "قریه",
    "Status": "Open",
    "Status_Dari": null,
    "PS_Male": 1,
    "PS_Female": 1,
    "PS_Total": 2,
    "ولسوالي": "ایبک",
    "Region": "North Eastern Region"
   },
   "geometry": {
    "x": 7615759.7393052457,
    "y": 4337251.3097825497
   }
  },
  {
   "attributes": {
    "OBJECTID": 4594,
    "ولایت": "سمنگان",
    "Province": "SAMANGAN",
    "PC_Code": "2003082",
    "District": "KHURAM WA SARBAGH",
    "د_مرکز_نوم__نام_مرکز": "مکتب ابتدائیه شورابک ",
    "Polling_Center_Name": "Shorabak Primary School",
    "د_مرکز_ځای__موقعیت_مرکز": "قریه شورابک",
    "Polling_Center_Location": "Shorabak Village",
    "Map_Accuracy": "Building",
    "Map_Accuracy_Dari": "تعمیر",
    "Status": "Open",
    "Status_Dari": null,
    "PS_Male": 1,
    "PS_Female": 1,
    "PS_Total": 2,
    "ولسوالي": "خرم و سارباغ",
    "Region": "Northern Region"
   },
   "geometry": {
    "x": 7594176.8637349997,
    "y": 4316957.9860026045
   }
  },
  {
   "attributes": {
    "OBJECTID": 4595,
    "ولایت": "سمنگان",
    "Province": "SAMANGAN",
    "PC_Code": "2005076",
    "District": "ROI-DO-AB",
    "د_مرکز_نوم__نام_مرکز": "مدرسه زی صاحب الدین",
    "Polling_Center_Name": "Ze Sahibuddin Madrassa",
    "د_مرکز_ځای__موقعیت_مرکز": "قریه زی صاحب الدین",
    "Polling_Center_Location": "Ze Sahibuddin Village",
    "Map_Accuracy": "Building",
    "Map_Accuracy_Dari": "تعمیر",
    "Status": "Open",
    "Status_Dari": null,
    "PS_Male": 1,
    "PS_Female": 1,
    "PS_Total": 2,
    "ولسوالي": "روی دوآب",
    "Region": "Northern Region"
   },
   "geometry": {
    "x": 7576360.4441739246,
    "y": 4235495.3116132356
   }
  },
  {
   "attributes": {
    "OBJECTID": 4596,
    "ولایت": "سمنگان",
    "Province": "SAMANGAN",
    "PC_Code": "2006064",
    "District": "DARA-E-SOOF-E-PAYIN",
    "د_مرکز_نوم__نام_مرکز": "مسجد پالیز پایه",
    "Polling_Center_Name": "Palez Paya Mosque",
    "د_مرکز_ځای__موقعیت_مرکز": "قریه پالیز پایه",
    "Polling_Center_Location": "Palez Paya Village",
    "Map_Accuracy": "Building",
    "Map_Accuracy_Dari": "تعمیر",
    "Status": "Open",
    "Status_Dari": null,
    "PS_Male": 1,
    "PS_Female": 1,
    "PS_Total": 2,
    "ولسوالي": "دره صوف پائین",
    "Region": "Northern Region"
   },
   "geometry": {
    "x": 7511103.9412107635,
    "y": 4296524.3037344581
   }
  },
  {
   "attributes": {
    "OBJECTID": 4597,
    "ولایت": "سمنگان",
    "Province": "SAMANGAN",
    "PC_Code": "2007040",
    "District": "DARA-E-SOOF-E-BALA",
    "د_مرکز_نوم__نام_مرکز": "مکتب شیخه ",
    "Polling_Center_Name": "Shekha School",
    "د_مرکز_ځای__موقعیت_مرکز": "قریه شیخه",
    "Polling_Center_Location": "Shekha Village",
    "Map_Accuracy": "Building",
    "Map_Accuracy_Dari": "تعمیر",
    "Status": "Open",
    "Status_Dari": null,
    "PS_Male": 3,
    "PS_Female": 2,
    "PS_Total": 5,
    "ولسوالي": "دره صوف بالا",
    "Region": "Northern Region"
   },
   "geometry": {
    "x": 7504572.194391218,
    "y": 4261524.6084590433
   }
  },
  {
   "attributes": {
    "OBJECTID": 4598,
    "ولایت": "سمنگان",
    "Province": "SAMANGAN",
    "PC_Code": "2007041",
    "District": "DARA-E-SOOF-E-BALA",
    "د_مرکز_نوم__نام_مرکز": "منبر زیر سنگ",
    "Polling_Center_Name": "Zer Sang Menbar ",
    "د_مرکز_ځای__موقعیت_مرکز": "قریه زیر سنگ",
    "Polling_Center_Location": "Zer Sang Village",
    "Map_Accuracy": "Building",
    "Map_Accuracy_Dari": "تعمیر",
    "Status": "Open",
    "Status_Dari": null,
    "PS_Male": 2,
    "PS_Female": 2,
    "PS_Total": 4,
    "ولسوالي": "دره صوف بالا",
    "Region": "Northern Region"
   },
   "geometry": {
    "x": 7495344.0768844262,
    "y": 4255762.6551875286
   }
  },
  {
   "attributes": {
    "OBJECTID": 4599,
    "ولایت": "بلخ",
    "Province": "BALKH",
    "PC_Code": "2101002",
    "District": "MAZAR-E-SHARIF",
    "د_مرکز_نوم__نام_مرکز": "مکتب وزیر اکبر خان",
    "Polling_Center_Name": "Wazir Akbar Khan School",
    "د_مرکز_ځای__موقعیت_مرکز": "ناحیه اول گذر چتگری ",
    "Polling_Center_Location": "D01 - Nahia 1 Guzar Chatgari",
    "Map_Accuracy": "Building",
    "Map_Accuracy_Dari": "تعمیر",
    "Status": "Open",
    "Status_Dari": null,
    "PS_Male": 5,
    "PS_Female": 3,
    "PS_Total": 8,
    "ولسوالي": "مزار شریف",
    "Region": "Northern Region"
   },
   "geometry": {
    "x": 7471939.7417120533,
    "y": 4397529.8347147685
   }
  },
  {
   "attributes": {
    "OBJECTID": 4600,
    "ولایت": "بلخ",
    "Province": "BALKH",
    "PC_Code": "2101011",
    "District": "MAZAR-E-SHARIF",
    "د_مرکز_نوم__نام_مرکز": "لیسه باختر",
    "Polling_Center_Name": "Bakhtar High School",
    "د_مرکز_ځای__موقعیت_مرکز": "ناحیه سوم مزار شاروالی ",
    "Polling_Center_Location": "D03 - Nahia 3",
    "Map_Accuracy": "Building",
    "Map_Accuracy_Dari": "تعمیر",
    "Status": "Open",
    "Status_Dari": null,
    "PS_Male": 2,
    "PS_Female": 3,
    "PS_Total": 5,
    "ولسوالي": "مزار شریف",
    "Region": "Northern Region"
   },
   "geometry": {
    "x": 7470764.1644746708,
    "y": 4399905.3043182483
   }
  }
 ]
}