{
 "displayFieldName": "Polling_Center_Name",
 "fieldAliases": {
  "OBJECTID": "OBJECTID",
  "ولایت": "ولایت",
  "Province": "Province",
  "PC_Code": "PC_Code",
  "District": "District",
  "د_مرکز_نوم__نام_مرکز": "د_مرکز_نوم__نام_مرکز",
  "Polling_Center_Name": "Polling_Center_Name",
  "د_مرکز_ځای__موقعیت_مرکز": "د_مرکز_ځای__موقعیت_مرکز",
  "Polling_Center_Location": "Polling_Center_Location",
  "Map_Accuracy": "Map_Accuracy",
  "Map_Accuracy_Dari": "Map_Accuracy_Dari",
  "Status": "Status",
  "Status_Dari": "Status_Dari",
  "PS_Male": "PS_Male",
  "PS_Female": "PS_Female",
  "PS_Total": "PS_Total",
  "ولسوالي": "ولسوالي",
  "Region": "Region"
 },
 "geometryType": "esriGeometryPoint",
 "spatialReference": {
  "wkid": 102100,
  "latestWkid": 3857
 },
 "fields": [
  {
   "name": "OBJECTID",
   "type": "esriFieldTypeOID",
   "alias": "OBJECTID"
  },
  {
   "name": "ولایت",
   "type": "esriFieldTypeString",
   "alias": "ولایت",
   "length": 255
  },
  {
   "name": "Province",
   "type": "esriFieldTypeString",
   "alias": "Province",
   "length": 255
  },
  {
   "name": "PC_Code",
   "type": "esriFieldTypeString",
   "alias": "PC_Code",
   "length": 255
  },
  {
   "name": "District",
   "type": "esriFieldTypeString",
   "alias": "District",
   "length": 255
  },
  {
   "name": "د_مرکز_نوم__نام_مرکز",
   "type": "esriFieldTypeString",
   "alias": "د_مرکز_نوم__نام_مرکز",
   "length": 255
  },
  {
   "name": "Polling_Center_Name",
   "type": "esriFieldTypeString",
   "alias": "Polling_Center_Name",
   "length": 255
  },
  {
   "name": "د_مرکز_ځای__موقعیت_مرکز",
   "type": "esriFieldTypeString",
   "alias": "د_مرکز_ځای__موقعیت_مرکز",
   "length": 255
  },
  {
   "name": "Polling_Center_Location",
   "type": "esriFieldTypeString",
   "alias": "Polling_Center_Location",
   "length": 255
  },
  {
   "name": "Map_Accuracy",
   "type": "esriFieldTypeString",
   "alias": "Map_Accuracy",
   "length": 10
  },
  {
   "name": "Map_Accuracy_Dari",
   "type": "esriFieldTypeString",
   "alias": "Map_Accuracy_Dari",
   "length": 50
  },
  {
   "name": "Status",
   "type": "esriFieldTypeString",
   "alias": "Status",
   "length": 6
  },
  {
   "name": "Status_Dari",
   "type": "esriFieldTypeString",
   "alias": "Status_Dari",
   "length": 8
  },
  {
   "name": "PS_Male",
   "type": "esriFieldTypeSmallInteger",
   "alias": "PS_Male"
  },
  {
   "name": "PS_Female",
   "type": "esriFieldTypeSmallInteger",
   "alias": "PS_Female"
  },
  {
   "name": "PS_Total",
   "type": "esriFieldTypeSmallInteger",
   "alias": "PS_Total"
  },
  {
   "name": "ولسوالي",
   "type": "esriFieldTypeString",
   "alias": "ولسوالي",
   "length": 255
  },
  {
   "name": "Region",
   "type": "esriFieldTypeString",
   "alias": "Region",
   "length": 50
  }
 ],
 "features": [
  {
   "attributes": {
    "OBJECTID": 5001,
    "ولایت": "بغلان",
    "Province": "BAGHLAN",
    "PC_Code": "0905044",
    "District": "BAGLAN-E-JADEED",
    "د_مرکز_نوم__نام_مرکز": "کلینیک بشرها",
    "Polling_Center_Name": "Basharha Clinic",
    "د_مرکز_ځای__موقعیت_مرکز": "بشرها حسن تال ",
    "Polling_Center_Location": "Bashar Ha Hassan Tal",
    "Map_Accuracy": "Building",
    "Map_Accuracy_Dari": "تعمیر",
    "Status": "Open",
    "Status_Dari": null,
    "PS_Male": 2,
    "PS_Female": 1,
    "PS_Total": 3,
    "ولسوالي": "بغلان جدید",
    "Region": "North Eastern Region"
   },
   "geometry": {
    "x": 7665022.2574682012,
    "y": 4334308.9242810858
   }
  },
  {
   "attributes": {
    "OBJECTID": 5002,
    "ولایت": "بغلان",
    "Province": "BAGHLAN",
    "PC_Code": "0905063",
    "District": "BAGLAN-E-JADEED",
    "د_مرکز_نوم__نام_مرکز": "صحت عامه بغلان جدید",
    "Polling_Center_Name": "Baghlan JadeedHealth Department",
    "د_مرکز_ځای__موقعیت_مرکز": "شهربغلان جدید",
    "Polling_Center_Location": "Shahr-e-Baghlan Jadeed ",
    "Map_Accuracy": "Building",
    "Map_Accuracy_Dari": "تعمیر",
    "Status": "Open",
    "Status_Dari": null,
    "PS_Male": 2,
    "PS_Female": 1,
    "PS_Total": 3,
    "ولسوالي": "بغلان جدید",
    "Region": "North Eastern Region"
   },
   "geometry": {
    "x": 7653378.4090500483,
    "y": 4325954.998158901
   }
  },
  {
   "attributes": {
    "OBJECTID": 5003,
    "ولایت": "بغلان",
    "Province": "BAGHLAN",
    "PC_Code": "0906115",
    "District": "KHINJAN",
    "د_مرکز_نوم__نام_مرکز": "مکتب متوسطه  للمه ی ",
    "Polling_Center_Name": "Lalmaie Primary School",
    "د_مرکز_ځای__موقعیت_مرکز": "قریه للمه ئی",
    "Polling_Center_Location": "Lalmaie Village",
    "Map_Accuracy": "Building",
    "Map_Accuracy_Dari": "تعمیر",
    "Status": "Open",
    "Status_Dari": null,
    "PS_Male": 2,
    "PS_Female": 1,
    "PS_Total": 3,
    "ولسوالي": "خنجان",
    "Region": "North Eastern Region"
   },
   "geometry": {
    "x": 7673298.6946294503,
    "y": 4232878.9564180886
   }
  },
  {
   "attributes": {
    "OBJECTID": 5004,
    "ولایت": "بغلان",
    "Province": "BAGHLAN",
    "PC_Code": "0908189",
    "District": "DEH SALAH",
    "د_مرکز_نوم__نام_مرکز": "مسجد شریف گدالی ",
    "Polling_Center_Name": "Gudali Sharif Mosque",
    "د_مرکز_ځای__موقعیت_مرکز": "گدالی",
    "Polling_Center_Location": "Gadali",
    "Map_Accuracy": "Building",
    "Map_Accuracy_Dari": "تعمیر",
    "Status": "Open",
    "Status_Dari": null,
    "PS_Male": 2,
    "PS_Female": 1,
    "PS_Total": 3,
    "ولسوالي": "ده صلاح ",
    "Region": "North Eastern Region"
   },
   "geometry": {
    "x": 7724463.497024022,
    "y": 4263110.4364988524
   }
  },
  {
   "attributes": {
    "OBJECTID": 5005,
    "ولایت": "بغلان",
    "Province": "BAGHLAN",
    "PC_Code": "0910155",
    "District": "BURKA",
    "د_مرکز_نوم__نام_مرکز": " مکتب عبدالمومن شهید ",
    "Polling_Center_Name": "Abdulmomin Shaheed School",
    "د_مرکز_ځای__موقعیت_مرکز": "یکه توت",
    "Polling_Center_Location": "Yaka Toot",
    "Map_Accuracy": "Building",
    "Map_Accuracy_Dari": "تعمیر",
    "Status": "Open",
    "Status_Dari": null,
    "PS_Male": 2,
    "PS_Female": 1,
    "PS_Total": 3,
    "ولسوالي": "برکه",
    "Region": "North Eastern Region"
   },
   "geometry": {
    "x": 7695103.9787499309,
    "y": 4342287.677706751
   }
  },
  {
   "attributes": {
    "OBJECTID": 5006,
    "ولایت": "بغلان",
    "Province": "BAGHLAN",
    "PC_Code": "0912174",
    "District": "PUL-E-HISAR",
    "د_مرکز_نوم__نام_مرکز": "مسجد جامع ده یک",
    "Polling_Center_Name": "Deh Yak  Mosque",
    "د_مرکز_ځای__موقعیت_مرکز": "ده یک",
    "Polling_Center_Location": "Dehyak",
    "Map_Accuracy": "Building",
    "Map_Accuracy_Dari": "تعمیر",
    "Status": "Open",
    "Status_Dari": null,
    "PS_Male": 1,
    "PS_Female": 1,
    "PS_Total": 2,
    "ولسوالي": "پل حصار",
    "Region": "North Eastern Region"
   },
   "geometry": {
    "x": 7731191.6481607594,
    "y": 4249524.8391733775
   }
  },
  {
   "attributes": {
    "OBJECTID": 5007,
    "ولایت": "بغلان",
    "Province": "BAGHLAN",
    "PC_Code": "0913215",
    "District": "KHOST WA FIRING",
    "د_مرکز_نوم__نام_مرکز": "مکتب ابتدائی وچ",
    "Polling_Center_Name": "Wach Primary School",
    "د_مرکز_ځای__موقعیت_مرکز": "وچ",
    "Polling_Center_Location": "Wach",
    "Map_Accuracy": "Building",
    "Map_Accuracy_Dari": "تعمیر",
    "Status": "Open",
    "Status_Dari": null,
    "PS_Male": 1,
    "PS_Female": 1,
    "PS_Total": 2,
    "ولسوالي": "خوست و فرنگ",
    "Region": "North Eastern Region"
   },
   "geometry": {
    "x": 7732859.824163653,
    "y": 4298905.8310062988
   }
  },
  {
   "attributes": {
    "OBJECTID": 5008,
    "ولایت": "باميان",
    "Province": "BAMYAN",
    "PC_Code": "1001006",
    "District": "BAMYAN",
    "د_مرکز_نوم__نام_مرکز": "مکتب قازان ",
    "Polling_Center_Name": "Qazan School",
    "د_مرکز_ځای__موقعیت_مرکز": "قازان نوروزی",
    "Polling_Center_Location": "Qazan-e-Nawrozi",
    "Map_Accuracy": "Building",
    "Map_Accuracy_Dari": "تعمیر",
    "Status": "Open",
    "Status_Dari": null,
    "PS_Male": 2,
    "PS_Female": 2,
    "PS_Total": 4,
    "ولسوالي": "بامیان",
    "Region": "Central Highlands Region"
   },
   "geometry": {
    "x": 7540330.7911421154,
    "y": 4128173.560832079
   }
  },
  {
   "attributes": {
    "OBJECTID": 5009,
    "ولایت": "باميان",
    "Province": "BAMYAN",
    "PC_Code": "1002028",
    "District": "SHEBAR",
    "د_مرکز_نوم__نام_مرکز": "مسجد جلمش",
    "Polling_Center_Name": "Jalmash School",
    "د_مرکز_ځای__موقعیت_مرکز": "جلمش",
    "Polling_Center_Location": "Jalmash",
    "Map_Accuracy": "Building",
    "Map_Accuracy_Dari": "تعمیر",
    "Status": "Open",
    "Status_Dari": null,
    "PS_Male": 1,
    "PS_Female": 1,
    "PS_Total": 2,
    "ولسوالي": "شیبر",
    "Region": "Central Highlands Region"
   },
   "geometry": {
    "x": 7576331.5968410838,
    "y": 4165186.1946573728
   }
  },
  {
   "attributes": {
    "OBJECTID": 5010,
    "ولایت": "باميان",
    "Province": "BAMYAN",
    "PC_Code": "1003163",
    "District": "SAIGHAN",
    "د_مرکز_نوم__نام_مرکز": "منبر عمومی قلعه بیگل",
    "Polling_Center_Name": "Munbar Umomi Qala-e-Begal",
    "د_مرکز_ځای__موقعیت_مرکز": "قلعه بیگل",
    "Polling_Center_Location": "Qala-e-Begal",
    "Map_Accuracy": "Building",
    "Map_Accuracy_Dari": "تعمیر",
    "Status": "Open",
    "Status_Dari": null,
    "PS_Male": 1,
    "PS_Female": 1,
    "PS_Total": 2,
    "ولسوالي": "سیغان",
    "Region": "Central Highlands Region"
   },
   "geometry": {
    "x": 7508439.5403680829,
    "y": 4191114.3499772134
   }
  },
  {
   "attributes": {
    "OBJECTID": 5011,
    "ولایت": "باميان",
    "Province": "BAMYAN",
    "PC_Code": "1005074",
    "District": "YAKAWLANG",
    "د_مرکز_نوم__نام_مرکز": "مکتب ده سرخ",
    "Polling_Center_Name": "Deh Surkh School",
    "د_مرکز_ځای__موقعیت_مرکز": "دهن چارده",
    "Polling_Center_Location": "Dahane Chardeh",
    "Map_Accuracy": "Building",
    "Map_Accuracy_Dari": "تعمیر",
    "Status": "Open",
    "Status_Dari": null,
    "PS_Male": 2,
    "PS_Female": 2,
    "PS_Total": 4,
    "ولسوالي": "یکاولنگ",
    "Region": "Central Highlands Region"
   },
   "geometry": {
    "x": 7438799.9771702746,
    "y": 4126341.3724670438
   }
  },
  {
   "attributes": {
    "OBJECTID": 5012,
    "ولایت": "باميان",
    "Province": "BAMYAN",
    "PC_Code": "1005094",
    "District": "YAKAWLANG",
    "د_مرکز_نوم__نام_مرکز": "منبر دم دشت سبز دره",
    "Polling_Center_Name": "Munbar-e-Dam Dasht Sabz Dara",
    "د_مرکز_ځای__موقعیت_مرکز": "دم دشت سبز دره",
    "Polling_Center_Location": "Dam Dasht-e-Sabz Dara",
    "Map_Accuracy": "Building",
    "Map_Accuracy_Dari": "تعمیر",
    "Status": "Open",
    "Status_Dari": null,
    "PS_Male": 2,
    "PS_Female": 1,
    "PS_Total": 3,
    "ولسوالي": "یکاولنگ",
    "Region": "Central Highlands Region"
   },
   "geometry": {
    "x": 7421659.4773121504,
    "y": 4139633.8113753353
   }
  },
  {
   "attributes": {
    "OBJECTID": 5013,
    "ولایت": "باميان",
    "Province": "BAMYAN",
    "PC_Code": "1006113",
    "District": "PANJAB",
    "د_مرکز_نوم__نام_مرکز": "مسجد شینیه میان کاوک",
    "Polling_Center_Name": "Shenia Miyan Kawak Mosque",
    "د_مرکز_ځای__موقعیت_مرکز": "شینیه",
    "Polling_Center_Location": "Shenia",
    "Map_Accuracy": "Building",
    "Map_Accuracy_Dari": "تعمیر",
    "Status": "Open",
    "Status_Dari": null,
    "PS_Male": 1,
    "PS_Female": 1,
    "PS_Total": 2,
    "ولسوالي": "پنجاب",
    "Region": "Central Highlands Region"
   },
   "geometry": {
    "x": 7416487.3800739823,
    "y": 4062170.0593031421
   }
  },
  {
   "attributes": {
    "OBJECTID": 5014,
    "ولایت": "باميان",
    "Province": "BAMYAN",
    "PC_Code": "1007157",
    "District": "WARAS",
    "د_مرکز_نوم__نام_مرکز": "مسجد شینیه تنگی سپی",
    "Polling_Center_Name": "Shenia Tangi Spi Mosque",
    "د_مرکز_ځای__موقعیت_مرکز": "شینیه تنگی سپی",
    "Polling_Center_Location": "Shenia Tangi Spi",
    "Map_Accuracy": "Building",
    "Map_Accuracy_Dari": "تعمیر",
    "Status": "Open",
    "Status_Dari": null,
    "PS_Male": 2,
    "PS_Female": 1,
    "PS_Total": 3,
    "ولسوالي": "ورس",
    "Region": "Central Highlands Region"
   },
   "geometry": {
    "x": 7431974.5005159294,
    "y": 4035292.5292477733
   }
  },
  {
   "attributes": {
    "OBJECTID": 5015,
    "ولایت": "غزنى",
    "Province": "GHAZNI",
    "PC_Code": "1101017",
    "District": "GHAZNI",
    "د_مرکز_نوم__نام_مرکز": "مسجد کلای سبز",
    "Polling_Center_Name": "Kala-e-Sabz Mosque",
    "د_مرکز_ځای__موقعیت_مرکز": "کلا سبز ",
    "Polling_Center_Location": "Kala-e-Sabz",
    "Map_Accuracy": "Village",
    "Map_Accuracy_Dari": "قریه",
    "Status": "Open",
    "Status_Dari": null,
    "PS_Male": 0,
    "PS_Female": 6,
    "PS_Total": 6,
    "ولسوالي": "غزنی",
    "Region": "South Eastern Region"
   },
   "geometry": {
    "x": 7617059.3197761988,
    "y": 3969310.2965224222
   }
  },
  {
   "attributes": {
    "OBJECTID": 5016,
    "ولایت": "غزنى",
    "Province": "GHAZNI",
    "PC_Code": "1107229",
    "District": "ANDAR",
    "د_مرکز_نوم__نام_مرکز": "د میری د بازار مکتب",
    "Polling_Center_Name": "Meeri Bazar School",
    "د_مرکز_ځای__موقعیت_مرکز": "میری بازار ",
    "Polling_Center_Location": "Meeri Bazar",
    "Map_Accuracy": "Building",
    "Map_Accuracy_Dari": "تعمیر",
    "Status": "Open",
    "Status_Dari": null,
    "PS_Male": 3,
    "PS_Female": 1,
    "PS_Total": 4,
    "ولسوالي": "اندر",
    "Region": "South Eastern Region"
   },
   "geometry": {
    "x": 7618819.4401125116,
    "y": 3939112.6282968884
   }
  },
  {
   "attributes": {
    "OBJECTID": 5017,
    "ولایت": "غزنى",
    "Province": "GHAZNI",
    "PC_Code": "1107250",
    "District": "ANDAR",
    "د_مرکز_نوم__نام_مرکز": "مکتب قریه قلعه سردادر",
    "Polling_Center_Name": "Qala-e-Sardar School",
    "د_مرکز_ځای__موقعیت_مرکز": "بازار قریه سردار",
    "Polling_Center_Location": "Qala-e-Sardar Bazar",
    "Map_Accuracy": "Building",
    "Map_Accuracy_Dari": "تعمیر",
    "Status": "Open",
    "Status_Dari": null,
    "PS_Male": 4,
    "PS_Female": 1,
    "PS_Total": 5,
    "ولسوالي": "اندر",
    "Region": "South Eastern Region"
   },
   "geometry": {
    "x": 7630066.6716565089,
    "y": 3940733.3777280096
   }
  },
  {
   "attributes": {
    "OBJECTID": 5018,
    "ولایت": "غزنى",
    "Province": "GHAZNI",
    "PC_Code": "1111167",
    "District": "QARA BAGH",
    "د_مرکز_نوم__نام_مرکز": "مکتب بی بی زهرا آهین",
    "Polling_Center_Name": "Bi Bi Zahra Aaheen School",
    "د_مرکز_ځای__موقعیت_مرکز": "قریه آهین",
    "Polling_Center_Location": "Aaheen Village",
    "Map_Accuracy": "Building",
    "Map_Accuracy_Dari": "تعمیر",
    "Status": "Open",
    "Status_Dari": null,
    "PS_Male": 0,
    "PS_Female": 2,
    "PS_Total": 2,
    "ولسوالي": "قره باغ",
    "Region": "South Eastern Region"
   },
   "geometry": {
    "x": 7582496.7318420187,
    "y": 3930721.4008126501
   }
  },
  {
   "attributes": {
    "OBJECTID": 5019,
    "ولایت": "غزنى",
    "Province": "GHAZNI",
    "PC_Code": "1114335",
    "District": "JAGHURI",
    "د_مرکز_نوم__نام_مرکز": "مسجد عمومی قریه جودری",
    "Polling_Center_Name": "Jodari Village Mosque",
    "د_مرکز_ځای__موقعیت_مرکز": "قریه جودری ",
    "Polling_Center_Location": "Jodari Village",
    "Map_Accuracy": "Village",
    "Map_Accuracy_Dari": "قریه",
    "Status": "Open",
    "Status_Dari": null,
    "PS_Male": 1,
    "PS_Female": 1,
    "PS_Total": 2,
    "ولسوالي": "جاغوری",
    "Region": "South Eastern Region"
   },
   "geometry": {
    "x": 7501119.1984833926,
    "y": 3912073.7121987068
   }
  },
  {
   "attributes": {
    "OBJECTID": 5020,
    "ولایت": "غزنى",
    "Province": "GHAZNI",
    "PC_Code": "1114355",
    "District": "JAGHURI",
    "د_مرکز_نوم__نام_مرکز": "مسجد عمومی قریه دهن دوره",
    "Polling_Center_Name": "Dahan-e-Dawra Village Mosque",
    "د_مرکز_ځای__موقعیت_مرکز": "قریه دهن دوره",
    "Polling_Center_Location": "Dahan-e-Dawra Village",
    "Map_Accuracy": "Building",
    "Map_Accuracy_Dari": "تعمیر",
    "Status": "Open",
    "Status_Dari": null,
    "PS_Male": 1,
    "PS_Female": 1,
    "PS_Total": 2,
    "ولسوالي": "جاغوری",
    "Region": "South Eastern Region"
   },
   "geometry": {
    "x": 7489947.2934992369,
    "y": 3924052.8762136074
   }
  },
  {
   "attributes": {
    "OBJECTID": 5021,
    "ولایت": "غزنى",
    "Province": "GHAZNI",
    "PC_Code": "1116300",
    "District": "MALISTAN",
    "د_مرکز_نوم__نام_مرکز": "مسجد قوجنگی",
    "Polling_Center_Name": "Qojangi Mosque",
    "د_مرکز_ځای__موقعیت_مرکز": "قریه قوچنګی",
    "Polling_Center_Location": "Quchangi Village",
    "Map_Accuracy": "Building",
    "Map_Accuracy_Dari": "تعمیر",
    "Status": "Open",
    "Status_Dari": null,
    "PS_Male": 1,
    "PS_Female": 1,
    "PS_Total": 2,
    "ولسوالي": "مالستان",
    "Region": "Southern Region"
   },
   "geometry": {
    "x": 7467249.7113023717,
    "y": 3897321.9883433683
   }
  },
  {
   "attributes": {
    "OBJECTID": 5022,
    "ولایت": "پکتيکا",
    "Province": "PAKTIKA",
    "PC_Code": "1207101",
    "District": "ZARGHUN SHAHR",
    "د_مرکز_نوم__نام_مرکز": "ولسوالی مرکز",
    "Polling_Center_Name": "District Center",
    "د_مرکز_ځای__موقعیت_مرکز": "بک خیل",
    "Polling_Center_Location": "Bak Khel",
    "Map_Accuracy": "Village",
    "Map_Accuracy_Dari": "قریه",
    "Status": "Open",
    "Status_Dari": null,
    "PS_Male": 3,
    "PS_Female": 0,
    "PS_Total": 3,
    "ولسوالي": "زرغون شهر ",
    "Region": "South Eastern Region"
   },
   "geometry": {
    "x": 7632218.900427605,
    "y": 3871289.0941023412
   }
  },
  {
   "attributes": {
    "OBJECTID": 5023,
    "ولایت": "پکتيا",
    "Province": "PAKTYA",
    "PC_Code": "1302195",
    "District": "AHMADABA",
    "د_مرکز_نوم__نام_مرکز": "د مچلغو لیسه",
    "Polling_Center_Name": "Machalgho High School",
    "د_مرکز_ځای__موقعیت_مرکز": "نوره خیل، مچلغو",
    "Polling_Center_Location": "Noora Khel, Machalgho",
    "Map_Accuracy": "Village",
    "Map_Accuracy_Dari": "قریه",
    "Status": "Open",
    "Status_Dari": null,
    "PS_Male": 4,
    "PS_Female": 2,
    "PS_Total": 6,
    "ولسوالي": "احمد آبا",
    "Region": "South Eastern Region"
   },
   "geometry": {
    "x": 7722430.3622969519,
    "y": 3996279.7235970097
   }
  },
  {
   "attributes": {
    "OBJECTID": 5024,
    "ولایت": "پکتيا",
    "Province": "PAKTYA",
    "PC_Code": "1310167",
    "District": "SAMKANI",
    "د_مرکز_نوم__نام_مرکز": "چنار مسجد",
    "Polling_Center_Name": "Chinar Mosque",
    "د_مرکز_ځای__موقعیت_مرکز": "لواړی، پیران",
    "Polling_Center_Location": "Lowarry, Peeran",
    "Map_Accuracy": "Village",
    "Map_Accuracy_Dari": "قریه",
    "Status": "Open",
    "Status_Dari": null,
    "PS_Male": 0,
    "PS_Female": 4,
    "PS_Total": 4,
    "ولسوالي": "څمکنی",
    "Region": "South Eastern Region"
   },
   "geometry": {
    "x": 7768159.3905414892,
    "y": 3991369.9322455791
   }
  },
  {
   "attributes": {
    "OBJECTID": 5025,
    "ولایت": "خوست",
    "Province": "KHOST",
    "PC_Code": "1401043",
    "District": "KHOST",
    "د_مرکز_نوم__نام_مرکز": "د ګل مرجان هجره لټک  ",
    "Polling_Center_Name": "Gul Mar Jan Hojra",
    "د_مرکز_ځای__موقعیت_مرکز": "لټک حاجي عمرخان کلى",
    "Polling_Center_Location": "Latak Haji Omer Khan Village",
    "Map_Accuracy": "Building",
    "Map_Accuracy_Dari": "تعمیر",
    "Status": "Open",
    "Status_Dari": null,
    "PS_Male": 3,
    "PS_Female": 1,
    "PS_Total": 4,
    "ولسوالي": "خوست",
    "Region": "South Eastern Region"
   },
   "geometry": {
    "x": 7789148.459004771,
    "y": 3940224.617114679
   }
  },
  {
   "attributes": {
    "OBJECTID": 5026,
    "ولایت": "خوست",
    "Province": "KHOST",
    "PC_Code": "1402094",
    "District": "MANDUZAY",
    "د_مرکز_نوم__نام_مرکز": "د ورزې کلي جومات",
    "Polling_Center_Name": "Warza Village Mosque",
    "د_مرکز_ځای__موقعیت_مرکز": " ورزه کلى",
    "Polling_Center_Location": "Warza Village",
    "Map_Accuracy": "Village",
    "Map_Accuracy_Dari": "قریه",
    "Status": "Open",
    "Status_Dari": null,
    "PS_Male": 1,
    "PS_Female": 1,
    "PS_Total": 2,
    "ولسوالي": "مندوزی",
    "Region": "South Eastern Region"
   },
   "geometry": {
    "x": 7769667.5481159529,
    "y": 3943556.2382532344
   }
  },
  {
   "attributes": {
    "OBJECTID": 5027,
    "ولایت": "خوست",
    "Province": "KHOST",
    "PC_Code": "1404142",
    "District": "TANAY",
    "د_مرکز_نوم__نام_مرکز": "عيسې خيل جومات ",
    "Polling_Center_Name": "Esa Khel Mosque",
    "د_مرکز_ځای__موقعیت_مرکز": "سيناکي",
    "Polling_Center_Location": "Sinaki",
    "Map_Accuracy": "Village",
    "Map_Accuracy_Dari": "قریه",
    "Status": "Open",
    "Status_Dari": null,
    "PS_Male": 4,
    "PS_Female": 1,
    "PS_Total": 5,
    "ولسوالي": "تڼي",
    "Region": "South Eastern Region"
   },
   "geometry": {
    "x": 7767642.6265409114,
    "y": 3918535.1383403149
   }
  },
  {
   "attributes": {
    "OBJECTID": 5028,
    "ولایت": "خوست",
    "Province": "KHOST",
    "PC_Code": "1406118",
    "District": "NADIRSHAH KOT",
    "د_مرکز_نوم__نام_مرکز": "د جمعه نورهجره ",
    "Polling_Center_Name": "Juma Noor Hojra",
    "د_مرکز_ځای__موقعیت_مرکز": " پکى  کلى",
    "Polling_Center_Location": "Pakai Village",
    "Map_Accuracy": "Building",
    "Map_Accuracy_Dari": "تعمیر",
    "Status": "Open",
    "Status_Dari": null,
    "PS_Male": 1,
    "PS_Female": 1,
    "PS_Total": 2,
    "ولسوالي": "نادرشاه کوت",
    "Region": "South Eastern Region"
   },
   "geometry": {
    "x": 7754824.9486013828,
    "y": 3935524.956817402
   }
  },
  {
   "attributes": {
    "OBJECTID": 5029,
    "ولایت": "کنړ ",
    "Province": "KUNAR",
    "PC_Code": "1501010",
    "District": "ASAD ABAD",
    "د_مرکز_نوم__نام_مرکز": "مکتب ابتدائیه",
    "Polling_Center_Name": "Primary School",
    "د_مرکز_ځای__موقعیت_مرکز": "څاګی",
    "Polling_Center_Location": "Sagai",
    "Map_Accuracy": "Building",
    "Map_Accuracy_Dari": "تعمیر",
    "Status": "Open",
    "Status_Dari": null,
    "PS_Male": 4,
    "PS_Female": 2,
    "PS_Total": 6,
    "ولسوالي": "اسعد آباد",
    "Region": "Eastern Region"
   },
   "geometry": {
    "x": 7924301.2156663742,
    "y": 4150547.346179761
   }
  },
  {
   "attributes": {
    "OBJECTID": 5030,
    "ولایت": "کنړ ",
    "Province": "KUNAR",
    "PC_Code": "1505039",
    "District": "SAR KANI",
    "د_مرکز_نوم__نام_مرکز": "مکتب دخترانه",
    "Polling_Center_Name": "Girls School",
    "د_مرکز_ځای__موقعیت_مرکز": "سرکاڼو",
    "Polling_Center_Location": "Sarkany",
    "Map_Accuracy": "Building",
    "Map_Accuracy_Dari": "تعمیر",
    "Status": "Open",
    "Status_Dari": null,
    "PS_Male": 3,
    "PS_Female": 1,
    "PS_Total": 4,
    "ولسوالي": "سرکاڼو",
    "Region": "Eastern Region"
   },
   "geometry": {
    "x": 7915690.6853361642,
    "y": 4135114.8935750625
   }
  },
  {
   "attributes": {
    "OBJECTID": 5031,
    "ولایت": "کنړ ",
    "Province": "KUNAR",
    "PC_Code": "1507030",
    "District": "DARA-E-PECH",
    "د_مرکز_نوم__نام_مرکز": "مدرسه قریه",
    "Polling_Center_Name": "Kandro Village Madrassa",
    "د_مرکز_ځای__موقعیت_مرکز": "کندرو",
    "Polling_Center_Location": "Kandro",
    "Map_Accuracy": "Village",
    "Map_Accuracy_Dari": "قریه",
    "Status": "Open",
    "Status_Dari": null,
    "PS_Male": 1,
    "PS_Female": 3,
    "PS_Total": 4,
    "ولسوالي": "دره پیچ",
    "Region": "Eastern Region"
   },
   "geometry": {
    "x": 7889983.7532509156,
    "y": 4159870.7755839876
   }
  },
  {
   "attributes": {
    "OBJECTID": 5032,
    "ولایت": "نورستان",
    "Province": "NOORISTAN",
    "PC_Code": "1604013",
    "District": "NOOR GRAM",
    "د_مرکز_نوم__نام_مرکز": "مکتب متوسطه ملیل و مشقه",
    "Polling_Center_Name": "Maleel wa Mashqa Secondary School",
    "د_مرکز_ځای__موقعیت_مرکز": "ملیل",
    "Polling_Center_Location": "Maleel",
    "Map_Accuracy": "Village",
    "Map_Accuracy_Dari": "قریه",
    "Status": "Open",
    "Status_Dari": null,
    "PS_Male": 3,
    "PS_Female": 2,
    "PS_Total": 5,
    "ولسوالي": "نورګرام",
    "Region": "Eastern Region"
   },
   "geometry": {
    "x": 7843312.322027198,
    "y": 4158028.7690499742
   }
  },
  {
   "attributes": {
    "OBJECTID": 5033,
    "ولایت": "بدخشان",
    "Province": "BADAKHSHAN",
    "PC_Code": "1701001",
    "District": "FAIZ ABAD",
    "د_مرکز_نوم__نام_مرکز": "مکتب فیضی شهید",
    "Polling_Center_Name": "Faizi Shaheed School",
    "د_مرکز_ځای__موقعیت_مرکز": "فیض آباد",
    "Polling_Center_Location": "Faiz Abad",
    "Map_Accuracy": "Building",
    "Map_Accuracy_Dari": "تعمیر",
    "Status": "Open",
    "Status_Dari": null,
    "PS_Male": 3,
    "PS_Female": 1,
    "PS_Total": 4,
    "ولسوالي": "فیض آباد",
    "Region": "North Eastern Region"
   },
   "geometry": {
    "x": 7859243.1285635987,
    "y": 4475569.9228159273
   }
  },
  {
   "attributes": {
    "OBJECTID": 5034,
    "ولایت": "بدخشان",
    "Province": "BADAKHSHAN",
    "PC_Code": "1701022",
    "District": "FAIZ ABAD",
    "د_مرکز_نوم__نام_مرکز": "مکتب پلنگ دره ",
    "Polling_Center_Name": "Palang Dara School",
    "د_مرکز_ځای__موقعیت_مرکز": "پلنگ دره ",
    "Polling_Center_Location": "Palang Dara",
    "Map_Accuracy": "Building",
    "Map_Accuracy_Dari": "تعمیر",
    "Status": "Open",
    "Status_Dari": null,
    "PS_Male": 1,
    "PS_Female": 1,
    "PS_Total": 2,
    "ولسوالي": "فیض آباد",
    "Region": "North Eastern Region"
   },
   "geometry": {
    "x": 7869868.3847166803,
    "y": 4475541.1951719848
   }
  },
  {
   "attributes": {
    "OBJECTID": 5035,
    "ولایت": "بدخشان",
    "Province": "BADAKHSHAN",
    "PC_Code": "1702059",
    "District": "ARGO",
    "د_مرکز_نوم__نام_مرکز": "مکتب متوسطه ارغند ",
    "Polling_Center_Name": "Arghand Secondary School",
    "د_مرکز_ځای__موقعیت_مرکز": "قریه ارغند",
    "Polling_Center_Location": "Arghand Village",
    "Map_Accuracy": "Building",
    "Map_Accuracy_Dari": "تعمیر",
    "Status": "Open",
    "Status_Dari": null,
    "PS_Male": 5,
    "PS_Female": 4,
    "PS_Total": 9,
    "ولسوالي": "ارگو",
    "Region": "North Eastern Region"
   },
   "geometry": {
    "x": 7832558.0098488554,
    "y": 4454744.8512229249
   }
  },
  {
   "attributes": {
    "OBJECTID": 5036,
    "ولایت": "بدخشان",
    "Province": "BADAKHSHAN",
    "PC_Code": "1704035",
    "District": "YAFTAL-E-SUFLA",
    "د_مرکز_نوم__نام_مرکز": "مکتب لب دریا کوکچه دهن سابات ",
    "Polling_Center_Name": "Lab Darya Kokcha School",
    "د_مرکز_ځای__موقعیت_مرکز": "دهن سابات ",
    "Polling_Center_Location": "Dahan Sabat",
    "Map_Accuracy": "Building",
    "Map_Accuracy_Dari": "تعمیر",
    "Status": "Open",
    "Status_Dari": null,
    "PS_Male": 2,
    "PS_Female": 1,
    "PS_Total": 3,
    "ولسوالي": "یفتل سفلا",
    "Region": "North Eastern Region"
   },
   "geometry": {
    "x": 7841215.7340771826,
    "y": 4471244.8961993046
   }
  },
  {
   "attributes": {
    "OBJECTID": 5037,
    "ولایت": "بدخشان",
    "Province": "BADAKHSHAN",
    "PC_Code": "1707064",
    "District": "DARAYIM",
    "د_مرکز_نوم__نام_مرکز": "لیسه نسوان شهر سعادت ",
    "Polling_Center_Name": "Shahr-e-Saadat Girls High School",
    "د_مرکز_ځای__موقعیت_مرکز": "لنگر",
    "Polling_Center_Location": "Langar",
    "Map_Accuracy": "Building",
    "Map_Accuracy_Dari": "تعمیر",
    "Status": "Open",
    "Status_Dari": null,
    "PS_Male": 3,
    "PS_Female": 2,
    "PS_Total": 5,
    "ولسوالي": "درایم",
    "Region": "North Eastern Region"
   },
   "geometry": {
    "x": 7825897.1379859587,
    "y": 4434952.4397698762
   }
  },
  {
   "attributes": {
    "OBJECTID": 5038,
    "ولایت": "بدخشان",
    "Province": "BADAKHSHAN",
    "PC_Code": "1709133",
    "District": "YAWAN",
    "د_مرکز_نوم__نام_مرکز": "مکتب قطار بید پایان ",
    "Polling_Center_Name": "Qataar Bed Payan School",
    "د_مرکز_ځای__موقعیت_مرکز": "بید پایان",
    "Polling_Center_Location": "Bed Payan",
    "Map_Accuracy": "Building",
    "Map_Accuracy_Dari": "تعمیر",
    "Status": "Open",
    "Status_Dari": null,
    "PS_Male": 1,
    "PS_Female": 1,
    "PS_Total": 2,
    "ولسوالي": "یاوان",
    "Region": "North Eastern Region"
   },
   "geometry": {
    "x": 7844048.2128794268,
    "y": 4505886.6630756455
   }
  },
  {
   "attributes": {
    "OBJECTID": 5039,
    "ولایت": "بدخشان",
    "Province": "BADAKHSHAN",
    "PC_Code": "1711183",
    "District": "TASHKAN",
    "د_مرکز_نوم__نام_مرکز": "مکتب بازار تیشکان ",
    "Polling_Center_Name": "Bazar Teshkan School",
    "د_مرکز_ځای__موقعیت_مرکز": "بازار تیشکان ",
    "Polling_Center_Location": "Bazar Teshkan",
    "Map_Accuracy": "Building",
    "Map_Accuracy_Dari": "تعمیر",
    "Status": "Open",
    "Status_Dari": null,
    "PS_Male": 1,
    "PS_Female": 1,
    "PS_Total": 2,
    "ولسوالي": "تشکان ",
    "Region": "North Eastern Region"
   },
   "geometry": {
    "x": 7822197.1909197569,
    "y": 4423804.0932845958
   }
  },
  {
   "attributes": {
    "OBJECTID": 5040,
    "ولایت": "بدخشان",
    "Province": "BADAKHSHAN",
    "PC_Code": "1713147",
    "District": "SHAHR-E-BUZURG",
    "د_مرکز_نوم__نام_مرکز": "مکتب ملوان",
    "Polling_Center_Name": "Malwan School",
    "د_مرکز_ځای__موقعیت_مرکز": "ملوان",
    "Polling_Center_Location": "Malwan",
    "Map_Accuracy": "Building",
    "Map_Accuracy_Dari": "تعمیر",
    "Status": "Open",
    "Status_Dari": null,
    "PS_Male": 1,
    "PS_Female": 1,
    "PS_Total": 2,
    "ولسوالي": "شهر بزرگ",
    "Region": "North Eastern Region"
   },
   "geometry": {
    "x": 7798748.23555589,
    "y": 4473087.8239276847
   }
  },
  {
   "attributes": {
    "OBJECTID": 5041,
    "ولایت": "بدخشان",
    "Province": "BADAKHSHAN",
    "PC_Code": "1715161",
    "District": "KISHM",
    "د_مرکز_نوم__نام_مرکز": "مکتب قره بلا",
    "Polling_Center_Name": "Qara Bala School",
    "د_مرکز_ځای__موقعیت_مرکز": "ماد انه ",
    "Polling_Center_Location": "Madana",
    "Map_Accuracy": "Building",
    "Map_Accuracy_Dari": "تعمیر",
    "Status": "Open",
    "Status_Dari": null,
    "PS_Male": 2,
    "PS_Female": 2,
    "PS_Total": 4,
    "ولسوالي": "کشم",
    "Region": "North Eastern Region"
   },
   "geometry": {
    "x": 7794917.3901268542,
    "y": 4410348.5710303355
   }
  },
  {
   "attributes": {
    "OBJECTID": 5042,
    "ولایت": "بدخشان",
    "Province": "BADAKHSHAN",
    "PC_Code": "1720241",
    "District": "KHWAHAN",
    "د_مرکز_نوم__نام_مرکز": "مکتب روین زار",
    "Polling_Center_Name": "Raween Zaar School",
    "د_مرکز_ځای__موقعیت_مرکز": "قریه روین زار ",
    "Polling_Center_Location": "Raween Zaar",
    "Map_Accuracy": "Building",
    "Map_Accuracy_Dari": "تعمیر",
    "Status": "Open",
    "Status_Dari": null,
    "PS_Male": 2,
    "PS_Female": 1,
    "PS_Total": 3,
    "ولسوالي": "خواهان",
    "Region": "North Eastern Region"
   },
   "geometry": {
    "x": 7839546.3246543333,
    "y": 4556094.2723656558
   }
  },
  {
   "attributes": {
    "OBJECTID": 5043,
    "ولایت": "بدخشان",
    "Province": "BADAKHSHAN",
    "PC_Code": "1723198",
    "District": "ESHKASHIM",
    "د_مرکز_نوم__نام_مرکز": "مسجد تربت",
    "Polling_Center_Name": "Torbat Mosque",
    "د_مرکز_ځای__موقعیت_مرکز": "تربت",
    "Polling_Center_Location": "Torbat",
    "Map_Accuracy": "Building",
    "Map_Accuracy_Dari": "تعمیر",
    "Status": "Open",
    "Status_Dari": null,
    "PS_Male": 2,
    "PS_Female": 1,
    "PS_Total": 3,
    "ولسوالي": "اشکاشم",
    "Region": "North Eastern Region"
   },
   "geometry": {
    "x": 7968215.8052290631,
    "y": 4397409.9761827877
   }
  },
  {
   "attributes": {
    "OBJECTID": 5044,
    "ولایت": "بدخشان",
    "Province": "BADAKHSHAN",
    "PC_Code": "1727271",
    "District": "DARWAZ-E-BALA",
    "د_مرکز_نوم__نام_مرکز": "تعمیر ولسوالی",
    "Polling_Center_Name": "District Building",
    "د_مرکز_ځای__موقعیت_مرکز": "مرکز ولسوالی دروازه پائین",
    "Polling_Center_Location": "Darwaza Payeen District Office",
    "Map_Accuracy": "Village",
    "Map_Accuracy_Dari": "قریه",
    "Status": "Open",
    "Status_Dari": null,
    "PS_Male": 2,
    "PS_Female": 1,
    "PS_Total": 3,
    "ولسوالي": "درواز بالا (نسی) ",
    "Region": "North Eastern Region"
   },
   "geometry": {
    "x": 7881739.724533028,
    "y": 4642238.8479346065
   }
  },
  {
   "attributes": {
    "OBJECTID": 5045,
    "ولایت": "تخار",
    "Province": "TAKHAR",
    "PC_Code": "1801009",
    "District": "TALUQAN",
    "د_مرکز_نوم__نام_مرکز": "لیسه سرای سنگ",
    "Polling_Center_Name": "Sray Sang High School",
    "د_مرکز_ځای__موقعیت_مرکز": "قریه گنبد",
    "Polling_Center_Location": "Gunbad Village",
    "Map_Accuracy": "Building",
    "Map_Accuracy_Dari": "تعمیر",
    "Status": "Open",
    "Status_Dari": null,
    "PS_Male": 3,
    "PS_Female": 3,
    "PS_Total": 6,
    "ولسوالي": "تالقان",
    "Region": "North Eastern Region"
   },
   "geometry": {
    "x": 7738268.8404476885,
    "y": 4407217.4380481523
   }
  },
  {
   "attributes": {
    "OBJECTID": 5046,
    "ولایت": "تخار",
    "Province": "TAKHAR",
    "PC_Code": "1801031",
    "District": "TALUQAN",
    "د_مرکز_نوم__نام_مرکز": "مدرسه تخته کوپرک",
    "Polling_Center_Name": "Takhta Koparak Madrassa",
    "د_مرکز_ځای__موقعیت_مرکز": "تخته کوپرک",
    "Polling_Center_Location": "Takhta Koparak",
    "Map_Accuracy": "Building",
    "Map_Accuracy_Dari": "تعمیر",
    "Status": "Open",
    "Status_Dari": null,
    "PS_Male": 2,
    "PS_Female": 1,
    "PS_Total": 3,
    "ولسوالي": "تالقان",
    "Region": "North Eastern Region"
   },
   "geometry": {
    "x": 7728707.5347993923,
    "y": 4405665.953084792
   }
  },
  {
   "attributes": {
    "OBJECTID": 5047,
    "ولایت": "تخار",
    "Province": "TAKHAR",
    "PC_Code": "1803189",
    "District": "BAHARAK",
    "د_مرکز_نوم__نام_مرکز": "مسجد حسن نورعلی",
    "Polling_Center_Name": "Raketi Mosque",
    "د_مرکز_ځای__موقعیت_مرکز": "حسن نورعلی",
    "Polling_Center_Location": "Hassan Noor Ali",
    "Map_Accuracy": "Building",
    "Map_Accuracy_Dari": "تعمیر",
    "Status": "Open",
    "Status_Dari": null,
    "PS_Male": 2,
    "PS_Female": 1,
    "PS_Total": 3,
    "ولسوالي": "بهارک",
    "Region": "North Eastern Region"
   },
   "geometry": {
    "x": 7718427.6574965725,
    "y": 4406642.1672250247
   }
  },
  {
   "attributes": {
    "OBJECTID": 5048,
    "ولایت": "تخار",
    "Province": "TAKHAR",
    "PC_Code": "1807195",
    "District": "KALAFGAN",
    "د_مرکز_نوم__نام_مرکز": "مکتب ابتدائیه قرق ساي  ",
    "Polling_Center_Name": "Qoroq Saay Primary School",
    "د_مرکز_ځای__موقعیت_مرکز": "قرق ساي",
    "Polling_Center_Location": "Qoroq Saay",
    "Map_Accuracy": "Building",
    "Map_Accuracy_Dari": "تعمیر",
    "Status": "Open",
    "Status_Dari": null,
    "PS_Male": 1,
    "PS_Female": 1,
    "PS_Total": 2,
    "ولسوالي": "کلفگان",
    "Region": "North Eastern Region"
   },
   "geometry": {
    "x": 7771506.2666919315,
    "y": 4409310.9431178607
   }
  },
  {
   "attributes": {
    "OBJECTID": 5049,
    "ولایت": "تخار",
    "Province": "TAKHAR",
    "PC_Code": "1809056",
    "District": "KHWAJA GHAR",
    "د_مرکز_نوم__نام_مرکز": "مسجد چبق",
    "Polling_Center_Name": "Chebq Mosque",
    "د_مرکز_ځای__موقعیت_مرکز": "چبق",
    "Polling_Center_Location": "Chebq",
    "Map_Accuracy": "Building",
    "Map_Accuracy_Dari": "تعمیر",
    "Status": "Open",
    "Status_Dari": null,
    "PS_Male": 2,
    "PS_Female": 2,
    "PS_Total": 4,
    "ولسوالي": "خواجه غار",
    "Region": "North Eastern Region"
   },
   "geometry": {
    "x": 7722967.3719733199,
    "y": 4439218.3811534662
   }
  },
  {
   "attributes": {
    "OBJECTID": 5050,
    "ولایت": "تخار",
    "Province": "TAKHAR",
    "PC_Code": "1810118",
    "District": "RUSTAQ",
    "د_مرکز_نوم__نام_مرکز": "مکتب ابتدائیه نارستان",
    "Polling_Center_Name": "Narastan Primary School",
    "د_مرکز_ځای__موقعیت_مرکز": "قریه نارستان",
    "Polling_Center_Location": "Narastan Village",
    "Map_Accuracy": "Building",
    "Map_Accuracy_Dari": "تعمیر",
    "Status": "Open",
    "Status_Dari": null,
    "PS_Male": 1,
    "PS_Female": 1,
    "PS_Total": 2,
    "ولسوالي": "رستاق",
    "Region": "North Eastern Region"
   },
   "geometry": {
    "x": 7761998.0140205193,
    "y": 4435977.8384298272
   }
  },
  {
   "attributes": {
    "OBJECTID": 5051,
    "ولایت": "تخار",
    "Province": "TAKHAR",
    "PC_Code": "1811070",
    "District": "ESHKAMESH",
    "د_مرکز_نوم__نام_مرکز": "مکتب ابتدائیه باد گذر",
    "Polling_Center_Name": "Baad Guzar Primary School",
    "د_مرکز_ځای__موقعیت_مرکز": "باد گذر",
    "Polling_Center_Location": "Baad Guzar",
    "Map_Accuracy": "Building",
    "Map_Accuracy_Dari": "تعمیر",
    "Status": "Open",
    "Status_Dari": null,
    "PS_Male": 3,
    "PS_Female": 1,
    "PS_Total": 4,
    "ولسوالي": "اشکمش",
    "Region": "North Eastern Region"
   },
   "geometry": {
    "x": 7718309.9715327835,
    "y": 4361630.9428988434
   }
  },
  {
   "attributes": {
    "OBJECTID": 5052,
    "ولایت": "تخار",
    "Province": "TAKHAR",
    "PC_Code": "1813182",
    "District": "WARSAJ",
    "د_مرکز_نوم__نام_مرکز": "مکتب ابتدائیه پیو",
    "Polling_Center_Name": "Pyo Primary School",
    "د_مرکز_ځای__موقعیت_مرکز": "پیو",
    "Polling_Center_Location": "Pyo",
    "Map_Accuracy": "Building",
    "Map_Accuracy_Dari": "تعمیر",
    "Status": "Open",
    "Status_Dari": null,
    "PS_Male": 2,
    "PS_Female": 1,
    "PS_Total": 3,
    "ولسوالي": "ورسج",
    "Region": "North Eastern Region"
   },
   "geometry": {
    "x": 7819456.8156378083,
    "y": 4316880.1740867542
   }
  },
  {
   "attributes": {
    "OBJECTID": 5053,
    "ولایت": "تخار",
    "Province": "TAKHAR",
    "PC_Code": "1816135",
    "District": "CHAH AB",
    "د_مرکز_نوم__نام_مرکز": "لیسه امام اعظم رح",
    "Polling_Center_Name": "Imam Azam High School",
    "د_مرکز_ځای__موقعیت_مرکز": "خلیان",
    "Polling_Center_Location": "Khulyan",
    "Map_Accuracy": "Building",
    "Map_Accuracy_Dari": "تعمیر",
    "Status": "Open",
    "Status_Dari": null,
    "PS_Male": 2,
    "PS_Female": 2,
    "PS_Total": 4,
    "ولسوالي": "چا آب",
    "Region": "North Eastern Region"
   },
   "geometry": {
    "x": 7771067.8237454966,
    "y": 4480041.6724135
   }
  },
  {
   "attributes": {
    "OBJECTID": 5054,
    "ولایت": "کندز",
    "Province": "KUNDUZ",
    "PC_Code": "1901002",
    "District": "KUNDUZ",
    "د_مرکز_نوم__نام_مرکز": "کلینیک حیوانی",
    "Polling_Center_Name": "Veterinary Clinic",
    "د_مرکز_ځای__موقعیت_مرکز": "سرک چارده",
    "Polling_Center_Location": "14th Road",
    "Map_Accuracy": "Building",
    "Map_Accuracy_Dari": "تعمیر",
    "Status": "Open",
    "Status_Dari": null,
    "PS_Male": 3,
    "PS_Female": 2,
    "PS_Total": 5,
    "ولسوالي": "کندز",
    "Region": "North Eastern Region"
   },
   "geometry": {
    "x": 7664738.5920285694,
    "y": 4399424.9063798692
   }
  },
  {
   "attributes": {
    "OBJECTID": 5055,
    "ولایت": "کندز",
    "Province": "KUNDUZ",
    "PC_Code": "1901024",
    "District": "KUNDUZ",
    "د_مرکز_نوم__نام_مرکز": "لیسه زرخرید اتمانزی",
    "Polling_Center_Name": "Zar Khareed Otmanzai High School",
    "د_مرکز_ځای__موقعیت_مرکز": "ناحیه سه",
    "Polling_Center_Location": "D03 - Nahia 3",
    "Map_Accuracy": "Building",
    "Map_Accuracy_Dari": "تعمیر",
    "Status": "Open",
    "Status_Dari": null,
    "PS_Male": 3,
    "PS_Female": 2,
    "PS_Total": 5,
    "ولسوالي": "کندز",
    "Region": "North Eastern Region"
   },
   "geometry": {
    "x": 7662757.7240288174,
    "y": 4404883.8436607616
   }
  },
  {
   "attributes": {
    "OBJECTID": 5056,
    "ولایت": "کندز",
    "Province": "KUNDUZ",
    "PC_Code": "1901047",
    "District": "KUNDUZ",
    "د_مرکز_نوم__نام_مرکز": "مکتب قشلیش ",
    "Polling_Center_Name": "Qashlesh School",
    "د_مرکز_ځای__موقعیت_مرکز": "قریه قشلش وکیل قره",
    "Polling_Center_Location": "Qashlesh Wakil Qara Village",
    "Map_Accuracy": "Village",
    "Map_Accuracy_Dari": "قریه",
    "Status": "Open",
    "Status_Dari": null,
    "PS_Male": 2,
    "PS_Female": 1,
    "PS_Total": 3,
    "ولسوالي": "کندز",
    "Region": "North Eastern Region"
   },
   "geometry": {
    "x": 7645581.9859858863,
    "y": 4415267.8789843405
   }
  },
  {
   "attributes": {
    "OBJECTID": 5057,
    "ولایت": "کندز",
    "Province": "KUNDUZ",
    "PC_Code": "1903208",
    "District": "ALI ABAD",
    "د_مرکز_نوم__نام_مرکز": "متوسطه نسوان عرضه بیگی",
    "Polling_Center_Name": "Arza Begi Girls Secondary School",
    "د_مرکز_ځای__موقعیت_مرکز": "قریخ عرض بیگی",
    "Polling_Center_Location": "Arz Begi Village",
    "Map_Accuracy": "Building",
    "Map_Accuracy_Dari": "تعمیر",
    "Status": "Open",
    "Status_Dari": null,
    "PS_Male": 2,
    "PS_Female": 2,
    "PS_Total": 4,
    "ولسوالي": "علی آباد",
    "Region": "North Eastern Region"
   },
   "geometry": {
    "x": 7668816.1648638044,
    "y": 4378171.845792531
   }
  },
  {
   "attributes": {
    "OBJECTID": 5058,
    "ولایت": "کندز",
    "Province": "KUNDUZ",
    "PC_Code": "1904159",
    "District": "KHAN ABAD",
    "د_مرکز_نوم__نام_مرکز": "مکتب متوسط خواجه پسته",
    "Polling_Center_Name": "Khwaja Pasta Secondary School",
    "د_مرکز_ځای__موقعیت_مرکز": "قریه خواجه پسته",
    "Polling_Center_Location": "Khwaja Pasta Village",
    "Map_Accuracy": "Building",
    "Map_Accuracy_Dari": "تعمیر",
    "Status": "Open",
    "Status_Dari": null,
    "PS_Male": 1,
    "PS_Female": 1,
    "PS_Total": 2,
    "ولسوالي": "خان آباد",
    "Region": "North Eastern Region"
   },
   "geometry": {
    "x": 7682966.325976179,
    "y": 4394016.4682559008
   }
  },
  {
   "attributes": {
    "OBJECTID": 5059,
    "ولایت": "کندز",
    "Province": "KUNDUZ",
    "PC_Code": "1905092",
    "District": "HAZRAT-E-IMAM SAHIB",
    "د_مرکز_نوم__نام_مرکز": "لیسه نمبر دوم امام صاحب",
    "Polling_Center_Name": "Imam Sahib Number 2 High School",
    "د_مرکز_ځای__موقعیت_مرکز": "آقبای",
    "Polling_Center_Location": "Aqbaay",
    "Map_Accuracy": "Building",
    "Map_Accuracy_Dari": "تعمیر",
    "Status": "Open",
    "Status_Dari": null,
    "PS_Male": 3,
    "PS_Female": 1,
    "PS_Total": 4,
    "ولسوالي": "حضرت امام صاحب",
    "Region": "North Eastern Region"
   },
   "geometry": {
    "x": 7671493.8260842236,
    "y": 4466586.6464581443
   }
  },
  {
   "attributes": {
    "OBJECTID": 5060,
    "ولایت": "کندز",
    "Province": "KUNDUZ",
    "PC_Code": "1906188",
    "District": "DASHT-E-ARCHI",
    "د_مرکز_نوم__نام_مرکز": "مکتب شا ه روان",
    "Polling_Center_Name": "Shah Rawan School",
    "د_مرکز_ځای__موقعیت_مرکز": "قریه شاه روان",
    "Polling_Center_Location": "Shah Rawan Village",
    "Map_Accuracy": "Building",
    "Map_Accuracy_Dari": "تعمیر",
    "Status": "Open",
    "Status_Dari": null,
    "PS_Male": 2,
    "PS_Female": 1,
    "PS_Total": 3,
    "ولسوالي": "دشت ارچی",
    "Region": "North Eastern Region"
   },
   "geometry": {
    "x": 7705922.5278404383,
    "y": 4451866.3777532736
   }
  },
  {
   "attributes": {
    "OBJECTID": 5061,
    "ولایت": "کندز",
    "Province": "KUNDUZ",
    "PC_Code": "1907108",
    "District": "QALA-E-ZAL",
    "د_مرکز_نوم__نام_مرکز": "لیسه  آق تپه",
    "Polling_Center_Name": "Aaq Tapa High School",
    "د_مرکز_ځای__موقعیت_مرکز": "آق تپه",
    "Polling_Center_Location": "Aaq Tapa",
    "Map_Accuracy": "Building",
    "Map_Accuracy_Dari": "تعمیر",
    "Status": "Open",
    "Status_Dari": null,
    "PS_Male": 3,
    "PS_Female": 1,
    "PS_Total": 4,
    "ولسوالي": "قلعه ذال",
    "Region": "North Eastern Region"
   },
   "geometry": {
    "x": 7630139.1540033529,
    "y": 4436543.3112273924
   }
  },
  {
   "attributes": {
    "OBJECTID": 5062,
    "ولایت": "سمنگان",
    "Province": "SAMANGAN",
    "PC_Code": "2003077",
    "District": "KHURAM WA SARBAGH",
    "د_مرکز_نوم__نام_مرکز": "لیسه اندر شیر خرم ",
    "Polling_Center_Name": "Andar Sher Khuram High School",
    "د_مرکز_ځای__موقعیت_مرکز": "قریه خرم",
    "Polling_Center_Location": "Khuram Village",
    "Map_Accuracy": "Building",
    "Map_Accuracy_Dari": "تعمیر",
    "Status": "Open",
    "Status_Dari": null,
    "PS_Male": 3,
    "PS_Female": 2,
    "PS_Total": 5,
    "ولسوالي": "خرم و سارباغ",
    "Region": "Northern Region"
   },
   "geometry": {
    "x": 7570950.7321430761,
    "y": 4291152.6285598287
   }
  },
  {
   "attributes": {
    "OBJECTID": 5063,
    "ولایت": "سمنگان",
    "Province": "SAMANGAN",
    "PC_Code": "2005071",
    "District": "ROI-DO-AB",
    "د_مرکز_نوم__نام_مرکز": "مدرسه پیچگاه ",
    "Polling_Center_Name": "Pechgah Madrassa",
    "د_مرکز_ځای__موقعیت_مرکز": "قریه پیچگاه",
    "Polling_Center_Location": "Pechgah Village",
    "Map_Accuracy": "Building",
    "Map_Accuracy_Dari": "تعمیر",
    "Status": "Open",
    "Status_Dari": null,
    "PS_Male": 2,
    "PS_Female": 1,
    "PS_Total": 3,
    "ولسوالي": "روی دوآب",
    "Region": "Northern Region"
   },
   "geometry": {
    "x": 7527559.8952185912,
    "y": 4231600.0590195265
   }
  },
  {
   "attributes": {
    "OBJECTID": 5064,
    "ولایت": "سمنگان",
    "Province": "SAMANGAN",
    "PC_Code": "2006059",
    "District": "DARA-E-SOOF-E-PAYIN",
    "د_مرکز_نوم__نام_مرکز": "مکتب متوسطه توقسن",
    "Polling_Center_Name": "Toqsan Secondary School",
    "د_مرکز_ځای__موقعیت_مرکز": "قریه توقسن",
    "Polling_Center_Location": "Toqsan Village",
    "Map_Accuracy": "Building",
    "Map_Accuracy_Dari": "تعمیر",
    "Status": "Open",
    "Status_Dari": null,
    "PS_Male": 3,
    "PS_Female": 2,
    "PS_Total": 5,
    "ولسوالي": "دره صوف پائین",
    "Region": "Northern Region"
   },
   "geometry": {
    "x": 7491629.5491913203,
    "y": 4316064.0832387162
   }
  },
  {
   "attributes": {
    "OBJECTID": 5065,
    "ولایت": "سمنگان",
    "Province": "SAMANGAN",
    "PC_Code": "2007046",
    "District": "DARA-E-SOOF-E-BALA",
    "د_مرکز_نوم__نام_مرکز": "منبر کوته",
    "Polling_Center_Name": "Menbar Kota",
    "د_مرکز_ځای__موقعیت_مرکز": "قریه کوته",
    "Polling_Center_Location": "Kota Village",
    "Map_Accuracy": "Building",
    "Map_Accuracy_Dari": "تعمیر",
    "Status": "Open",
    "Status_Dari": null,
    "PS_Male": 2,
    "PS_Female": 1,
    "PS_Total": 3,
    "ولسوالي": "دره صوف بالا",
    "Region": "Northern Region"
   },
   "geometry": {
    "x": 7474061.9632012118,
    "y": 4222814.8148856731
   }
  },
  {
   "attributes": {
    "OBJECTID": 5066,
    "ولایت": "بلخ",
    "Province": "BALKH",
    "PC_Code": "2101015",
    "District": "MAZAR-E-SHARIF",
    "د_مرکز_نوم__نام_مرکز": "مکتب قاضی حمید الدین",
    "Polling_Center_Name": "Qazi Hamiduddin School",
    "د_مرکز_ځای__موقعیت_مرکز": "ناحیه چهارم",
    "Polling_Center_Location": "D04 - Nahia 4",
    "Map_Accuracy": "Building",
    "Map_Accuracy_Dari": "تعمیر",
    "Status": "Open",
    "Status_Dari": null,
    "PS_Male": 5,
    "PS_Female": 4,
    "PS_Total": 9,
    "ولسوالي": "مزار شریف",
    "Region": "Northern Region"
   },
   "geometry": {
    "x": 7468454.3607379654,
    "y": 4398237.0520329019
   }
  },
  {
   "attributes": {
    "OBJECTID": 5067,
    "ولایت": "بلخ",
    "Province": "BALKH",
    "PC_Code": "2101035",
    "District": "MAZAR-E-SHARIF",
    "د_مرکز_نوم__نام_مرکز": "مکتب هدایت الله نقشبندی ",
    "Polling_Center_Name": "Hidayatullah Naqshbandi School",
    "د_مرکز_ځای__موقعیت_مرکز": "کارته نو بهار ناحیه هشتم ",
    "Polling_Center_Location": "D08 - Nahia 8 Kart-e-Naw",
    "Map_Accuracy": "Building",
    "Map_Accuracy_Dari": "تعمیر",
    "Status": "Open",
    "Status_Dari": null,
    "PS_Male": 3,
    "PS_Female": 3,
    "PS_Total": 6,
    "ولسوالي": "مزار شریف",
    "Region": "Northern Region"
   },
   "geometry": {
    "x": 7470496.2618749356,
    "y": 4401718.4882901115
   }
  },
  {
   "attributes": {
    "OBJECTID": 5068,
    "ولایت": "بلخ",
    "Province": "BALKH",
    "PC_Code": "2104277",
    "District": "CHAR KENT",
    "د_مرکز_نوم__نام_مرکز": "مکتب شور بلاق",
    "Polling_Center_Name": "Shor Balaq School",
    "د_مرکز_ځای__موقعیت_مرکز": "قریه شور بلاق",
    "Polling_Center_Location": "Shor Balaq Village",
    "Map_Accuracy": "Village",
    "Map_Accuracy_Dari": "قریه",
    "Status": "Open",
    "Status_Dari": null,
    "PS_Male": 2,
    "PS_Female": 1,
    "PS_Total": 3,
    "ولسوالي": "چارکنت",
    "Region": "Northern Region"
   },
   "geometry": {
    "x": 7471331.6066734344,
    "y": 4366098.4587075934
   }
  },
  {
   "attributes": {
    "OBJECTID": 5069,
    "ولایت": "بلخ",
    "Province": "BALKH",
    "PC_Code": "2106154",
    "District": "BALKH",
    "د_مرکز_نوم__نام_مرکز": "مکتب حاجی کوت",
    "Polling_Center_Name": "Haji Kot School",
    "د_مرکز_ځای__موقعیت_مرکز": "قریه حاجی کوت",
    "Polling_Center_Location": "Haji Kot Village",
    "Map_Accuracy": "Building",
    "Map_Accuracy_Dari": "تعمیر",
    "Status": "Open",
    "Status_Dari": null,
    "PS_Male": 2,
    "PS_Female": 1,
    "PS_Total": 3,
    "ولسوالي": "بلخ",
    "Region": "Northern Region"
   },
   "geometry": {
    "x": 7449240.3427810986,
    "y": 4403449.2059887834
   }
  },
  {
   "attributes": {
    "OBJECTID": 5070,
    "ولایت": "بلخ",
    "Province": "BALKH",
    "PC_Code": "2106320",
    "District": "BALKH",
    "د_مرکز_نوم__نام_مرکز": "مکتب کته خیل",
    "Polling_Center_Name": "Kata Khel School",
    "د_مرکز_ځای__موقعیت_مرکز": "کته خیل",
    "Polling_Center_Location": "Kata Khel",
    "Map_Accuracy": "Building",
    "Map_Accuracy_Dari": "تعمیر",
    "Status": "Open",
    "Status_Dari": null,
    "PS_Male": 2,
    "PS_Female": 2,
    "PS_Total": 4,
    "ولسوالي": "بلخ",
    "Region": "Northern Region"
   },
   "geometry": {
    "x": 7441648.9891432887,
    "y": 4408261.9571219506
   }
  },
  {
   "attributes": {
    "OBJECTID": 5071,
    "ولایت": "بلخ",
    "Province": "BALKH",
    "PC_Code": "2109121",
    "District": "DAWLAT ABAD",
    "د_مرکز_نوم__نام_مرکز": "لیسه ابو نصر فارابی",
    "Polling_Center_Name": "Abu Nasr Farabi High School",
    "د_مرکز_ځای__موقعیت_مرکز": "مرکز دولت آباد",
    "Polling_Center_Location": "Dawlat Abad Center",
    "Map_Accuracy": "Building",
    "Map_Accuracy_Dari": "تعمیر",
    "Status": "Open",
    "Status_Dari": null,
    "PS_Male": 1,
    "PS_Female": 1,
    "PS_Total": 2,
    "ولسوالي": "دولت آباد",
    "Region": "Northern Region"
   },
   "geometry": {
    "x": 7437307.0781584177,
    "y": 4437937.3479696009
   }
  },
  {
   "attributes": {
    "OBJECTID": 5072,
    "ولایت": "بلخ",
    "Province": "BALKH",
    "PC_Code": "2109143",
    "District": "DAWLAT ABAD",
    "د_مرکز_نوم__نام_مرکز": "مسجد باغشور",
    "Polling_Center_Name": "Baghshor Mosque",
    "د_مرکز_ځای__موقعیت_مرکز": "قریه باغشور",
    "Polling_Center_Location": "Baghshor Village",
    "Map_Accuracy": "Building",
    "Map_Accuracy_Dari": "تعمیر",
    "Status": "Open",
    "Status_Dari": null,
    "PS_Male": 1,
    "PS_Female": 1,
    "PS_Total": 2,
    "ولسوالي": "دولت آباد",
    "Region": "Northern Region"
   },
   "geometry": {
    "x": 7439618.434802019,
    "y": 4428883.8685758719
   }
  },
  {
   "attributes": {
    "OBJECTID": 5073,
    "ولایت": "بلخ",
    "Province": "BALKH",
    "PC_Code": "2110093",
    "District": "KHULM",
    "د_مرکز_نوم__نام_مرکز": "کلینیک حاجی علی",
    "Polling_Center_Name": "Haji Ali Clinic",
    "د_مرکز_ځای__موقعیت_مرکز": "قریه حاجی علی",
    "Polling_Center_Location": "Haji Ali Village",
    "Map_Accuracy": "Building",
    "Map_Accuracy_Dari": "تعمیر",
    "Status": "Open",
    "Status_Dari": null,
    "PS_Male": 1,
    "PS_Female": 1,
    "PS_Total": 2,
    "ولسوالي": "خلم",
    "Region": "Northern Region"
   },
   "geometry": {
    "x": 7546131.6197510893,
    "y": 4398548.6692356784
   }
  },
  {
   "attributes": {
    "OBJECTID": 5074,
    "ولایت": "بلخ",
    "Province": "BALKH",
    "PC_Code": "2111194",
    "District": "CHAR BOLAK",
    "د_مرکز_نوم__نام_مرکز": "مکتب یلمان",
    "Polling_Center_Name": "Yalman School",
    "د_مرکز_ځای__موقعیت_مرکز": "قریه یلمان",
    "Polling_Center_Location": "Yalman Village",
    "Map_Accuracy": "Building",
    "Map_Accuracy_Dari": "تعمیر",
    "Status": "Open",
    "Status_Dari": null,
    "PS_Male": 2,
    "PS_Female": 1,
    "PS_Total": 3,
    "ولسوالي": "چار بولک",
    "Region": "Northern Region"
   },
   "geometry": {
    "x": 7434642.30439544,
    "y": 4401500.9863308575
   }
  },
  {
   "attributes": {
    "OBJECTID": 5075,
    "ولایت": "بلخ",
    "Province": "BALKH",
    "PC_Code": "2112113",
    "District": "SHORTEPA",
    "د_مرکز_نوم__نام_مرکز": "مکتب دالی",
    "Polling_Center_Name": "Dali School",
    "د_مرکز_ځای__موقعیت_مرکز": "قریه دالی",
    "Polling_Center_Location": "Dali Village",
    "Map_Accuracy": "Building",
    "Map_Accuracy_Dari": "تعمیر",
    "Status": "Open",
    "Status_Dari": null,
    "PS_Male": 3,
    "PS_Female": 1,
    "PS_Total": 4,
    "ولسوالي": "شور تیپه",
    "Region": "Northern Region"
   },
   "geometry": {
    "x": 7416134.1599901132,
    "y": 4482701.8562594149
   }
  },
  {
   "attributes": {
    "OBJECTID": 5076,
    "ولایت": "بلخ",
    "Province": "BALKH",
    "PC_Code": "2114294",
    "District": "KISHINDEH",
    "د_مرکز_نوم__نام_مرکز": "مکتب یرغان",
    "Polling_Center_Name": "Yarghan School",
    "د_مرکز_ځای__موقعیت_مرکز": "قریه یرغان",
    "Polling_Center_Location": "Yarghan Village",
    "Map_Accuracy": "Building",
    "Map_Accuracy_Dari": "تعمیر",
    "Status": "Open",
    "Status_Dari": null,
    "PS_Male": 2,
    "PS_Female": 1,
    "PS_Total": 3,
    "ولسوالي": "کشنده",
    "Region": "Northern Region"
   },
   "geometry": {
    "x": 7445938.535439699,
    "y": 4269138.705083888
   }
  },
  {
   "attributes": {
    "OBJECTID": 5077,
    "ولایت": "بلخ",
    "Province": "BALKH",
    "PC_Code": "2115316",
    "District": "ZARI",
    "د_مرکز_نوم__نام_مرکز": "مسجد کلان بلوچ",
    "Polling_Center_Name": "Baloch Mosque",
    "د_مرکز_ځای__موقعیت_مرکز": "قشلاق کلان بلوچ",
    "Polling_Center_Location": "Qashlaq Kalan Baloch",
    "Map_Accuracy": "Building",
    "Map_Accuracy_Dari": "تعمیر",
    "Status": "Open",
    "Status_Dari": null,
    "PS_Male": 1,
    "PS_Female": 1,
    "PS_Total": 2,
    "ولسوالي": "زاری",
    "Region": "Northern Region"
   },
   "geometry": {
    "x": 7434791.6461715102,
    "y": 4305743.4521933841
   }
  },
  {
   "attributes": {
    "OBJECTID": 5078,
    "ولایت": "سرپل",
    "Province": "SAR-E-PUL",
    "PC_Code": "2202050",
    "District": "SAYAD",
    "د_مرکز_نوم__نام_مرکز": "مسجد قریه قفلاتون",
    "Polling_Center_Name": "Quflatoon Village Mosque",
    "د_مرکز_ځای__موقعیت_مرکز": "قریه قفلاتون",
    "Polling_Center_Location": "Quflatoon Village",
    "Map_Accuracy": "Building",
    "Map_Accuracy_Dari": "تعمیر",
    "Status": "Open",
    "Status_Dari": null,
    "PS_Male": 2,
    "PS_Female": 1,
    "PS_Total": 3,
    "ولسوالي": "صیاد",
    "Region": "Northern Region"
   },
   "geometry": {
    "x": 7328492.8592221234,
    "y": 4309446.1810775725
   }
  },
  {
   "attributes": {
    "OBJECTID": 5079,
    "ولایت": "سرپل",
    "Province": "SAR-E-PUL",
    "PC_Code": "2205112",
    "District": "SANG CHARAK",
    "د_مرکز_نوم__نام_مرکز": "مدرسه قریه آق پی",
    "Polling_Center_Name": "Aaq Pai Village Madrassa",
    "د_مرکز_ځای__موقعیت_مرکز": "قریه آق پی",
    "Polling_Center_Location": "Aaq Pai Village",
    "Map_Accuracy": "Building",
    "Map_Accuracy_Dari": "تعمیر",
    "Status": "Open",
    "Status_Dari": null,
    "PS_Male": 1,
    "PS_Female": 1,
    "PS_Total": 2,
    "ولسوالي": "سنگ چارک",
    "Region": "Northern Region"
   },
   "geometry": {
    "x": 7398551.3788895104,
    "y": 4284740.6822862308
   }
  },
  {
   "attributes": {
    "OBJECTID": 5080,
    "ولایت": "سرپل",
    "Province": "SAR-E-PUL",
    "PC_Code": "2206133",
    "District": "GOSFANDI",
    "د_مرکز_نوم__نام_مرکز": "مسجد حاجی سرور",
    "Polling_Center_Name": "Haji Sarwar Mosque",
    "د_مرکز_ځای__موقعیت_مرکز": "قریه صیاد علیا",
    "Polling_Center_Location": "Sayad Ulya Village",
    "Map_Accuracy": "Building",
    "Map_Accuracy_Dari": "تعمیر",
    "Status": "Open",
    "Status_Dari": null,
    "PS_Male": 2,
    "PS_Female": 1,
    "PS_Total": 3,
    "ولسوالي": "گوسفندی ",
    "Region": "Northern Region"
   },
   "geometry": {
    "x": 7413315.782027767,
    "y": 4287733.0880235406
   }
  },
  {
   "attributes": {
    "OBJECTID": 5081,
    "ولایت": "غور",
    "Province": "GHOR",
    "PC_Code": "2301004",
    "District": "CHIGHCHERAN",
    "د_مرکز_نوم__نام_مرکز": "مسجد جامع شیخ المند",
    "Polling_Center_Name": "Shekh-ul-Mond Mosque",
    "د_مرکز_ځای__موقعیت_مرکز": "شیخ المند",
    "Polling_Center_Location": "Shekh-ul-Mond",
    "Map_Accuracy": "Building",
    "Map_Accuracy_Dari": "تعمیر",
    "Status": "Open",
    "Status_Dari": null,
    "PS_Male": 3,
    "PS_Female": 2,
    "PS_Total": 5,
    "ولسوالي": "چغچران",
    "Region": "Western Region"
   },
   "geometry": {
    "x": 7268954.9242170192,
    "y": 4092227.7182814805
   }
  },
  {
   "attributes": {
    "OBJECTID": 5082,
    "ولایت": "غور",
    "Province": "GHOR",
    "PC_Code": "2301027",
    "District": "CHIGHCHERAN",
    "د_مرکز_نوم__نام_مرکز": "مسجد بهاری سفلی",
    "Polling_Center_Name": "Bahari Sufla Mosque",
    "د_مرکز_ځای__موقعیت_مرکز": " بهاری سفلی",
    "Polling_Center_Location": "Bahari Sufla",
    "Map_Accuracy": "Building",
    "Map_Accuracy_Dari": "تعمیر",
    "Status": "Open",
    "Status_Dari": null,
    "PS_Male": 2,
    "PS_Female": 2,
    "PS_Total": 4,
    "ولسوالي": "چغچران",
    "Region": "Western Region"
   },
   "geometry": {
    "x": 7256169.9664154202,
    "y": 4090622.0312838294
   }
  },
  {
   "attributes": {
    "OBJECTID": 5083,
    "ولایت": "غور",
    "Province": "GHOR",
    "PC_Code": "2302099",
    "District": "DULEENA",
    "د_مرکز_نوم__نام_مرکز": "مسجد جامع شهیدان",
    "Polling_Center_Name": "Shaheedan Mosque",
    "د_مرکز_ځای__موقعیت_مرکز": " شهیدان",
    "Polling_Center_Location": "Shaheedan",
    "Map_Accuracy": "Village",
    "Map_Accuracy_Dari": "قریه",
    "Status": "Open",
    "Status_Dari": null,
    "PS_Male": 1,
    "PS_Female": 1,
    "PS_Total": 2,
    "ولسوالي": "دولینه",
    "Region": "Western Region"
   },
   "geometry": {
    "x": 7201426.9247803194,
    "y": 4035488.8206218327
   }
  },
  {
   "attributes": {
    "OBJECTID": 5084,
    "ولایت": "غور",
    "Province": "GHOR",
    "PC_Code": "2303056",
    "District": "DAWLATYAR",
    "د_مرکز_نوم__نام_مرکز": "بازار ده مرده",
    "Polling_Center_Name": "Deh Morda Bazar",
    "د_مرکز_ځای__موقعیت_مرکز": " ده مرده",
    "Polling_Center_Location": "Deh Morda",
    "Map_Accuracy": "Building",
    "Map_Accuracy_Dari": "تعمیر",
    "Status": "Open",
    "Status_Dari": null,
    "PS_Male": 1,
    "PS_Female": 1,
    "PS_Total": 2,
    "ولسوالي": "دولت یار ",
    "Region": "Western Region"
   },
   "geometry": {
    "x": 7323055.5377311669,
    "y": 4104076.6103598312
   }
  },
  {
   "attributes": {
    "OBJECTID": 5085,
    "ولایت": "غور",
    "Province": "GHOR",
    "PC_Code": "2305117",
    "District": "PASABAND",
    "د_مرکز_نوم__نام_مرکز": "مکتب اسپی بز",
    "Polling_Center_Name": "Aspi Boz School",
    "د_مرکز_ځای__موقعیت_مرکز": " اسپی بز",
    "Polling_Center_Location": "Aspi Boz",
    "Map_Accuracy": "Village",
    "Map_Accuracy_Dari": "قریه",
    "Status": "Open",
    "Status_Dari": null,
    "PS_Male": 2,
    "PS_Female": 1,
    "PS_Total": 3,
    "ولسوالي": "پسابند ",
    "Region": "Western Region"
   },
   "geometry": {
    "x": 7280863.7386267474,
    "y": 3980939.0261020064
   }
  },
  {
   "attributes": {
    "OBJECTID": 5086,
    "ولایت": "غور",
    "Province": "GHOR",
    "PC_Code": "2306072",
    "District": "SHAHRAK",
    "د_مرکز_نوم__نام_مرکز": "لیسه مر کز شهرک",
    "Polling_Center_Name": "Markaz Shahrak High School",
    "د_مرکز_ځای__موقعیت_مرکز": " مرکز شهرک",
    "Polling_Center_Location": "Markaz Shahrak",
    "Map_Accuracy": "Building",
    "Map_Accuracy_Dari": "تعمیر",
    "Status": "Open",
    "Status_Dari": null,
    "PS_Male": 3,
    "PS_Female": 1,
    "PS_Total": 4,
    "ولسوالي": "شهرک ",
    "Region": "Western Region"
   },
   "geometry": {
    "x": 7158995.5249435054,
    "y": 4043331.3156243581
   }
  },
  {
   "attributes": {
    "OBJECTID": 5087,
    "ولایت": "غور",
    "Province": "GHOR",
    "PC_Code": "2306073",
    "District": "SHAHRAK",
    "د_مرکز_نوم__نام_مرکز": "مکتب اوشان",
    "Polling_Center_Name": "Oshan School",
    "د_مرکز_ځای__موقعیت_مرکز": "دهنه دوتایی",
    "Polling_Center_Location": "Dotaye Dahna",
    "Map_Accuracy": "Building",
    "Map_Accuracy_Dari": "تعمیر",
    "Status": "Open",
    "Status_Dari": null,
    "PS_Male": 2,
    "PS_Female": 1,
    "PS_Total": 3,
    "ولسوالي": "شهرک ",
    "Region": "Western Region"
   },
   "geometry": {
    "x": 7180450.6925675161,
    "y": 4043187.0146166007
   }
  },
  {
   "attributes": {
    "OBJECTID": 5088,
    "ولایت": "غور",
    "Province": "GHOR",
    "PC_Code": "2306097",
    "District": "SHAHRAK",
    "د_مرکز_نوم__نام_مرکز": "مکتب ابتدای دهنه مناره ",
    "Polling_Center_Name": "Dahn Manara Primary School",
    "د_مرکز_ځای__موقعیت_مرکز": " سیا خاک ",
    "Polling_Center_Location": "Siya Khak",
    "Map_Accuracy": "Village",
    "Map_Accuracy_Dari": "قریه",
    "Status": "Open",
    "Status_Dari": null,
    "PS_Male": 1,
    "PS_Female": 1,
    "PS_Total": 2,
    "ولسوالي": "شهرک ",
    "Region": "Western Region"
   },
   "geometry": {
    "x": 7181304.0722367177,
    "y": 4043433.3801481766
   }
  },
  {
   "attributes": {
    "OBJECTID": 5089,
    "ولایت": "غور",
    "Province": "GHOR",
    "PC_Code": "2307157",
    "District": "LAL WA SARJANGAL",
    "د_مرکز_نوم__نام_مرکز": "مسجد قلعه شهر",
    "Polling_Center_Name": "Qala Shahr Mosque",
    "د_مرکز_ځای__موقعیت_مرکز": "قلعه شهر علیا",
    "Polling_Center_Location": "Shah-e-Ulya Qala",
    "Map_Accuracy": "Village",
    "Map_Accuracy_Dari": "قریه",
    "Status": "Open",
    "Status_Dari": null,
    "PS_Male": 1,
    "PS_Female": 1,
    "PS_Total": 2,
    "ولسوالي": "لعل و سرجنگل ",
    "Region": "Western Region"
   },
   "geometry": {
    "x": 7389483.9176718304,
    "y": 4115689.1705634436
   }
  },
  {
   "attributes": {
    "OBJECTID": 5090,
    "ولایت": "غور",
    "Province": "GHOR",
    "PC_Code": "2307176",
    "District": "LAL WA SARJANGAL",
    "د_مرکز_نوم__نام_مرکز": "مکتب آب باریک",
    "Polling_Center_Name": "Aab Bareek School",
    "د_مرکز_ځای__موقعیت_مرکز": " قریه آب باریک",
    "Polling_Center_Location": "Aab Bareek Village",
    "Map_Accuracy": "Building",
    "Map_Accuracy_Dari": "تعمیر",
    "Status": "Open",
    "Status_Dari": null,
    "PS_Male": 1,
    "PS_Female": 1,
    "PS_Total": 2,
    "ولسوالي": "لعل و سرجنگل ",
    "Region": "Western Region"
   },
   "geometry": {
    "x": 7375215.5742220562,
    "y": 4116341.3408354884
   }
  },
  {
   "attributes": {
    "OBJECTID": 5091,
    "ولایت": "کابل",
    "Province": "KABUL",
    "PC_Code": "0101007",
    "District": "KABUL-D01",
    "د_مرکز_نوم__نام_مرکز": " مکتب متوسطه مستوری غوری",
    "Polling_Center_Name": "Mastori Ghori Secondary School",
    "د_مرکز_ځای__موقعیت_مرکز": "باباي خودي",
    "Polling_Center_Location": "Babaie Khudi",
    "Map_Accuracy": "Building",
    "Map_Accuracy_Dari": "تعمیر",
    "Status": "Open",
    "Status_Dari": null,
    "PS_Male": 3,
    "PS_Female": 3,
    "PS_Total": 6,
    "ولسوالي": "کابل - ناحیه 01",
    "Region": "Central Region"
   },
   "geometry": {
    "x": 7700896.0899295816,
    "y": 4097833.750417579
   }
  },
  {
   "attributes": {
    "OBJECTID": 5092,
    "ولایت": "کابل",
    "Province": "KABUL",
    "PC_Code": "0101046",
    "District": "KABUL-D03",
    "د_مرکز_نوم__نام_مرکز": " وزارت تحصيلات عالي",
    "Polling_Center_Name": "Ministry of Higher Education",
    "د_مرکز_ځای__موقعیت_مرکز": "کارته چهار",
    "Polling_Center_Location": "Kart-e-Chahar",
    "Map_Accuracy": "Building",
    "Map_Accuracy_Dari": "تعمیر",
    "Status": "Open",
    "Status_Dari": null,
    "PS_Male": 3,
    "PS_Female": 3,
    "PS_Total": 6,
    "ولسوالي": "کابل - ناحیه 03",
    "Region": "Central Region"
   },
   "geometry": {
    "x": 7696370.212354226,
    "y": 4097789.5011223704
   }
  },
  {
   "attributes": {
    "OBJECTID": 5093,
    "ولایت": "کابل",
    "Province": "KABUL",
    "PC_Code": "0101065",
    "District": "KABUL-D04",
    "د_مرکز_نوم__نام_مرکز": " ليسه محمد علم فيض زاد",
    "Polling_Center_Name": "Mohammad Alam Faizzad High School",
    "د_مرکز_ځای__موقعیت_مرکز": "شهرارا",
    "Polling_Center_Location": "Shahrara",
    "Map_Accuracy": "Building",
    "Map_Accuracy_Dari": "تعمیر",
    "Status": "Open",
    "Status_Dari": null,
    "PS_Male": 4,
    "PS_Female": 3,
    "PS_Total": 7,
    "ولسوالي": "کابل - ناحیه 04",
    "Region": "Central Region"
   },
   "geometry": {
    "x": 7698678.6591063375,
    "y": 4100758.5317351618
   }
  },
  {
   "attributes": {
    "OBJECTID": 5094,
    "ولایت": "کابل",
    "Province": "KABUL",
    "PC_Code": "0101144",
    "District": "KABUL-D07",
    "د_مرکز_نوم__نام_مرکز": " مسجد جامع ابراهیم خلیل",
    "Polling_Center_Name": "Ibrahim Khalil Mosque",
    "د_مرکز_ځای__موقعیت_مرکز": "دوغ آباد شش درک",
    "Polling_Center_Location": "Dugh Abad Shashdarak",
    "Map_Accuracy": "Village",
    "Map_Accuracy_Dari": "قریه",
    "Status": "Open",
    "Status_Dari": null,
    "PS_Male": 3,
    "PS_Female": 1,
    "PS_Total": 4,
    "ولسوالي": "کابل - ناحیه 07",
    "Region": "Central Region"
   },
   "geometry": {
    "x": 7698946.8533631433,
    "y": 4091009.6736230389
   }
  },
  {
   "attributes": {
    "OBJECTID": 5095,
    "ولایت": "کابل",
    "Province": "KABUL",
    "PC_Code": "0101266",
    "District": "KABUL-D13",
    "د_مرکز_نوم__نام_مرکز": " مسجد امام زمان",
    "Polling_Center_Name": "Imam Zaman Mosque",
    "د_مرکز_ځای__موقعیت_مرکز": "حصه اول دوغ آباد",
    "Polling_Center_Location": "Hesa-e-Awal Dogh Abad",
    "Map_Accuracy": "Building",
    "Map_Accuracy_Dari": "تعمیر",
    "Status": "Open",
    "Status_Dari": null,
    "PS_Male": 3,
    "PS_Female": 2,
    "PS_Total": 5,
    "ولسوالي": "کابل - ناحیه 13",
    "Region": "Central Region"
   },
   "geometry": {
    "x": 7689197.0192516306,
    "y": 4095259.0750084082
   }
  },
  {
   "attributes": {
    "OBJECTID": 5096,
    "ولایت": "کاپيسا",
    "Province": "KAPISA",
    "PC_Code": "0203074",
    "District": "KOH BAND",
    "د_مرکز_نوم__نام_مرکز": "لیسه عبدالباقی شهید ",
    "Polling_Center_Name": "Abdul Baqi shaheed High School ",
    "د_مرکز_ځای__موقعیت_مرکز": "شاورق بولغین",
    "Polling_Center_Location": "Shawrq Bolghen",
    "Map_Accuracy": "Building",
    "Map_Accuracy_Dari": "تعمیر",
    "Status": "Open",
    "Status_Dari": null,
    "PS_Male": 2,
    "PS_Female": 1,
    "PS_Total": 3,
    "ولسوالي": "کوه بند",
    "Region": "Central Region"
   },
   "geometry": {
    "x": 7731278.5575136151,
    "y": 4179998.6488405406
   }
  },
  {
   "attributes": {
    "OBJECTID": 5097,
    "ولایت": "پروان",
    "Province": "PARWAN",
    "PC_Code": "0301034",
    "District": "CHARIKAR",
    "د_مرکز_نوم__نام_مرکز": "مکتب برک ",
    "Polling_Center_Name": "Barak School",
    "د_مرکز_ځای__موقعیت_مرکز": "پارچه 13 شهر چهاریکار",
    "Polling_Center_Location": "Parcha 13, Charikar City ",
    "Map_Accuracy": "Building",
    "Map_Accuracy_Dari": "تعمیر",
    "Status": "Open",
    "Status_Dari": null,
    "PS_Male": 3,
    "PS_Female": 1,
    "PS_Total": 4,
    "ولسوالي": "چاریکار",
    "Region": "Central Region"
   },
   "geometry": {
    "x": 7700873.2260193722,
    "y": 4169300.0553937573
   }
  },
  {
   "attributes": {
    "OBJECTID": 5098,
    "ولایت": "پروان",
    "Province": "PARWAN",
    "PC_Code": "0304044",
    "District": "SAYID KHIAL",
    "د_مرکز_نوم__نام_مرکز": "لیسه نسوان هیبت خیل",
    "Polling_Center_Name": "Haibat Khel Girls High School",
    "د_مرکز_ځای__موقعیت_مرکز": "هیبت خیل",
    "Polling_Center_Location": "Haibat Khel",
    "Map_Accuracy": "Building",
    "Map_Accuracy_Dari": "تعمیر",
    "Status": "Open",
    "Status_Dari": null,
    "PS_Male": 2,
    "PS_Female": 1,
    "PS_Total": 3,
    "ولسوالي": "سیدخیل ",
    "Region": "Central Region"
   },
   "geometry": {
    "x": 7709781.9500959534,
    "y": 4173276.0538685941
   }
  },
  {
   "attributes": {
    "OBJECTID": 5099,
    "ولایت": "پروان",
    "Province": "PARWAN",
    "PC_Code": "0305054",
    "District": "JABULUSSARAJ",
    "د_مرکز_نوم__نام_مرکز": "مکتب خالد بن ولید ",
    "Polling_Center_Name": "Khalid Ibne Wlid School ",
    "د_مرکز_ځای__موقعیت_مرکز": "قریه ده میر خان",
    "Polling_Center_Location": "Deh Mir Khan Village ",
    "Map_Accuracy": "Building",
    "Map_Accuracy_Dari": "تعمیر",
    "Status": "Open",
    "Status_Dari": null,
    "PS_Male": 3,
    "PS_Female": 1,
    "PS_Total": 4,
    "ولسوالي": "جبل السراج",
    "Region": "Central Region"
   },
   "geometry": {
    "x": 7707168.5970321717,
    "y": 4180437.542445391
   }
  },
  {
   "attributes": {
    "OBJECTID": 5100,
    "ولایت": "ننگرهار",
    "Province": "NANGARHAR",
    "PC_Code": "0615381",
    "District": "ACHIN",
    "د_مرکز_نوم__نام_مرکز": "بر اکبر خيل میاجی جومات",
    "Polling_Center_Name": "Bar Akbar Khel Miyaji Mosque",
    "د_مرکز_ځای__موقعیت_مرکز": "برعبدلخيل",
    "Polling_Center_Location": "Bar Abdul Khel",
    "Map_Accuracy": "Village",
    "Map_Accuracy_Dari": "قریه",
    "Status": "Open",
    "Status_Dari": null,
    "PS_Male": 0,
    "PS_Female": 2,
    "PS_Total": 2,
    "ولسوالي": "اچین",
    "Region": "Eastern Region"
   },
   "geometry": {
    "x": 7870437.66813982,
    "y": 4035517.6074236366
   }
  },
  {
   "attributes": {
    "OBJECTID": 5101,
    "ولایت": "ننگرهار",
    "Province": "NANGARHAR",
    "PC_Code": "0615382",
    "District": "ACHIN",
    "د_مرکز_نوم__نام_مرکز": "کړوکو خالی میدان",
    "Polling_Center_Name": "Open Space",
    "د_مرکز_ځای__موقعیت_مرکز": "ګړوکو",
    "Polling_Center_Location": "Garoko",
    "Map_Accuracy": "District",
    "Map_Accuracy_Dari": "ولسوالی",
    "Status": "Open",
    "Status_Dari": null,
    "PS_Male": 3,
    "PS_Female": 0,
    "PS_Total": 3,
    "ولسوالي": "اچین",
    "Region": "Eastern Region"
   },
   "geometry": {
    "x": 7872148.5262618726,
    "y": 4041136.7815141273
   }
  },
  {
   "attributes": {
    "OBJECTID": 5102,
    "ولایت": "پنجشیر",
    "Province": "PANJSHIR",
    "PC_Code": "0802022",
    "District": "RUKHA",
    "د_مرکز_نوم__نام_مرکز": "شفاخانه رخه ",
    "Polling_Center_Name": "Rukha Hospital",
    "د_مرکز_ځای__موقعیت_مرکز": "شصت",
    "Polling_Center_Location": "Shast",
    "Map_Accuracy": "Building",
    "Map_Accuracy_Dari": "تعمیر",
    "Status": "Open",
    "Status_Dari": null,
    "PS_Male": 4,
    "PS_Female": 2,
    "PS_Total": 6,
    "ولسوالي": "رخه",
    "Region": "Central Region"
   },
   "geometry": {
    "x": 7733242.5060639586,
    "y": 4199951.3856882192
   }
  },
  {
   "attributes": {
    "OBJECTID": 5103,
    "ولایت": "پنجشیر",
    "Province": "PANJSHIR",
    "PC_Code": "0802023",
    "District": "RUKHA",
    "د_مرکز_نوم__نام_مرکز": "لیسه نسوان قابضان",
    "Polling_Center_Name": "Qabidan Girls High School",
    "د_مرکز_ځای__موقعیت_مرکز": "قابضان",
    "Polling_Center_Location": "Qabidan",
    "Map_Accuracy": "Building",
    "Map_Accuracy_Dari": "تعمیر",
    "Status": "Open",
    "Status_Dari": null,
    "PS_Male": 2,
    "PS_Female": 1,
    "PS_Total": 3,
    "ولسوالي": "رخه",
    "Region": "Central Region"
   },
   "geometry": {
    "x": 7732835.3717243085,
    "y": 4198711.4330456061
   }
  },
  {
   "attributes": {
    "OBJECTID": 5104,
    "ولایت": "بغلان",
    "Province": "BAGHLAN",
    "PC_Code": "0902083",
    "District": "DAHANA-E-GHURI",
    "د_مرکز_نوم__نام_مرکز": "مسجد لرخوابی ",
    "Polling_Center_Name": "Larkhwabi Mosque",
    "د_مرکز_ځای__موقعیت_مرکز": "قریه حاجی نعیم",
    "Polling_Center_Location": "Haji Naiem Village",
    "Map_Accuracy": "Building",
    "Map_Accuracy_Dari": "تعمیر",
    "Status": "Open",
    "Status_Dari": null,
    "PS_Male": 1,
    "PS_Female": 1,
    "PS_Total": 2,
    "ولسوالي": "دهنه غوری",
    "Region": "North Eastern Region"
   },
   "geometry": {
    "x": 7636984.5735444743,
    "y": 4289560.7161377268
   }
  },
  {
   "attributes": {
    "OBJECTID": 5105,
    "ولایت": "غزنى",
    "Province": "GHAZNI",
    "PC_Code": "1104124",
    "District": "WAGHAZ",
    "د_مرکز_نوم__نام_مرکز": "مکتب شیراحمد ",
    "Polling_Center_Name": "Sher Ahmad School",
    "د_مرکز_ځای__موقعیت_مرکز": "مرکز ولسوالی",
    "Polling_Center_Location": "Distric Compound",
    "Map_Accuracy": "Building",
    "Map_Accuracy_Dari": "تعمیر",
    "Status": "Open",
    "Status_Dari": null,
    "PS_Male": 4,
    "PS_Female": 2,
    "PS_Total": 6,
    "ولسوالي": "واغظ",
    "Region": "South Eastern Region"
   },
   "geometry": {
    "x": 7599484.8297512736,
    "y": 3955539.4811329334
   }
  },
  {
   "attributes": {
    "OBJECTID": 5106,
    "ولایت": "غزنى",
    "Province": "GHAZNI",
    "PC_Code": "1116295",
    "District": "MALISTAN",
    "د_مرکز_نوم__نام_مرکز": "مکتب موسطه  قریه بیلوغو",
    "Polling_Center_Name": "Beelagho Village Secondary School",
    "د_مرکز_ځای__موقعیت_مرکز": "قریه بیلوغو ",
    "Polling_Center_Location": "Beelagho Village ",
    "Map_Accuracy": "Building",
    "Map_Accuracy_Dari": "تعمیر",
    "Status": "Open",
    "Status_Dari": null,
    "PS_Male": 3,
    "PS_Female": 1,
    "PS_Total": 4,
    "ولسوالي": "مالستان",
    "Region": "South Eastern Region"
   },
   "geometry": {
    "x": 7507791.9581547119,
    "y": 3953441.6421129424
   }
  },
  {
   "attributes": {
    "OBJECTID": 5107,
    "ولایت": "غزنى",
    "Province": "GHAZNI",
    "PC_Code": "1118291",
    "District": "AJRISTAN",
    "د_مرکز_نوم__نام_مرکز": "کلینیک قریه سنګر",
    "Polling_Center_Name": "Sangar Village Clinic",
    "د_مرکز_ځای__موقعیت_مرکز": "قریه سنګر خواجه خیل ",
    "Polling_Center_Location": "Sangar Village, Khwaja Khel",
    "Map_Accuracy": "Building",
    "Map_Accuracy_Dari": "تعمیر",
    "Status": "Open",
    "Status_Dari": null,
    "PS_Male": 4,
    "PS_Female": 5,
    "PS_Total": 9,
    "ولسوالي": "اجرستان",
    "Region": "South Eastern Region"
   },
   "geometry": {
    "x": 7480367.91067883,
    "y": 3964153.8885302814
   }
  },
  {
   "attributes": {
    "OBJECTID": 5108,
    "ولایت": "پکتيکا",
    "Province": "PAKTIKA",
    "PC_Code": "1201008",
    "District": "SHARAN",
    "د_مرکز_نوم__نام_مرکز": "لومړنی ښوونځی مسواس",
    "Polling_Center_Name": "Maswas Primary School",
    "د_مرکز_ځای__موقعیت_مرکز": "عثمان",
    "Polling_Center_Location": "Osman",
    "Map_Accuracy": "Village",
    "Map_Accuracy_Dari": "قریه",
    "Status": "Open",
    "Status_Dari": null,
    "PS_Male": 0,
    "PS_Female": 3,
    "PS_Total": 3,
    "ولسوالي": "شرن",
    "Region": "South Eastern Region"
   },
   "geometry": {
    "x": 7652031.7704907553,
    "y": 3924135.125174223
   }
  },
  {
   "attributes": {
    "OBJECTID": 5109,
    "ولایت": "پکتيکا",
    "Province": "PAKTIKA",
    "PC_Code": "1201016",
    "District": "SHARAN",
    "د_مرکز_نوم__نام_مرکز": "مارکیت جومات",
    "Polling_Center_Name": "Market Mosque",
    "د_مرکز_ځای__موقعیت_مرکز": "کریخیل ",
    "Polling_Center_Location": "Kari Khel",
    "Map_Accuracy": "District",
    "Map_Accuracy_Dari": "ولسوالی",
    "Status": "Open",
    "Status_Dari": null,
    "PS_Male": 0,
    "PS_Female": 3,
    "PS_Total": 3,
    "ولسوالي": "شرن",
    "Region": "South Eastern Region"
   },
   "geometry": {
    "x": 7663088.4119345574,
    "y": 3913814.9857935649
   }
  },
  {
   "attributes": {
    "OBJECTID": 5110,
    "ولایت": "پکتيکا",
    "Province": "PAKTIKA",
    "PC_Code": "1204048",
    "District": "YAHYA KHEL",
    "د_مرکز_نوم__نام_مرکز": "میلمستون عبدالرحمن",
    "Polling_Center_Name": "Abdul Rahman Guest Hlosue",
    "د_مرکز_ځای__موقعیت_مرکز": "یحیا خیل",
    "Polling_Center_Location": "Yahya Khel ",
    "Map_Accuracy": "Village",
    "Map_Accuracy_Dari": "قریه",
    "Status": "Open",
    "Status_Dari": null,
    "PS_Male": 0,
    "PS_Female": 2,
    "PS_Total": 2,
    "ولسوالي": "یحی خیل",
    "Region": "South Eastern Region"
   },
   "geometry": {
    "x": 7641601.5316140046,
    "y": 3886711.0001450684
   }
  },
  {
   "attributes": {
    "OBJECTID": 5111,
    "ولایت": "پکتيکا",
    "Province": "PAKTIKA",
    "PC_Code": "1204051",
    "District": "YAHYA KHEL",
    "د_مرکز_نوم__نام_مرکز": "جومات و میلمستون مردانه و زنانه نیک محمد",
    "Polling_Center_Name": "Nik Mohammad Male & Female Guest House & Mosque",
    "د_مرکز_ځای__موقعیت_مرکز": "غائب خیل",
    "Polling_Center_Location": "Ghayeb Khel ",
    "Map_Accuracy": "Village",
    "Map_Accuracy_Dari": "قریه",
    "Status": "Open",
    "Status_Dari": null,
    "PS_Male": 4,
    "PS_Female": 0,
    "PS_Total": 4,
    "ولسوالي": "یحی خیل",
    "Region": "South Eastern Region"
   },
   "geometry": {
    "x": 7640472.3567931671,
    "y": 3887996.1595239798
   }
  },
  {
   "attributes": {
    "OBJECTID": 5112,
    "ولایت": "پکتيکا",
    "Province": "PAKTIKA",
    "PC_Code": "1208125",
    "District": "GOMAL",
    "د_مرکز_نوم__نام_مرکز": "لومړنی ښوونځی   ",
    "Polling_Center_Name": "Primary School",
    "د_مرکز_ځای__موقعیت_مرکز": "فتح الدین",
    "Polling_Center_Location": "Fatehuddin",
    "Map_Accuracy": "District",
    "Map_Accuracy_Dari": "ولسوالی",
    "Status": "Open",
    "Status_Dari": null,
    "PS_Male": 4,
    "PS_Female": 1,
    "PS_Total": 5,
    "ولسوالي": "گومل",
    "Region": "South Eastern Region"
   },
   "geometry": {
    "x": 7681003.15109629,
    "y": 3803780.2531368183
   }
  },
  {
   "attributes": {
    "OBJECTID": 5113,
    "ولایت": "پکتيکا",
    "Province": "PAKTIKA",
    "PC_Code": "1208133",
    "District": "GOMAL",
    "د_مرکز_نوم__نام_مرکز": "ملاح دولت مدرسه",
    "Polling_Center_Name": "Molla Dawlat Madrassa",
    "د_مرکز_ځای__موقعیت_مرکز": "زاولو خیل",
    "Polling_Center_Location": "Zavlo Khel",
    "Map_Accuracy": "Village",
    "Map_Accuracy_Dari": "قریه",
    "Status": "Open",
    "Status_Dari": null,
    "PS_Male": 4,
    "PS_Female": 0,
    "PS_Total": 4,
    "ولسوالي": "گومل",
    "Region": "South Eastern Region"
   },
   "geometry": {
    "x": 7668804.3282623496,
    "y": 3839349.9961899016
   }
  },
  {
   "attributes": {
    "OBJECTID": 5114,
    "ولایت": "غور",
    "Province": "GHOR",
    "PC_Code": "2310196",
    "District": "SAGHAR",
    "د_مرکز_نوم__نام_مرکز": "مکتب شیخ محمد ساغر",
    "Polling_Center_Name": "Shekh Mohammad Saghar School",
    "د_مرکز_ځای__موقعیت_مرکز": " تیطان",
    "Polling_Center_Location": "Taitan",
    "Map_Accuracy": "Building",
    "Map_Accuracy_Dari": "تعمیر",
    "Status": "Open",
    "Status_Dari": null,
    "PS_Male": 3,
    "PS_Female": 1,
    "PS_Total": 4,
    "ولسوالي": "ساغر ",
    "Region": "Western Region"
   },
   "geometry": {
    "x": 7109151.9813775225,
    "y": 3987346.7739083571
   }
  },
  {
   "attributes": {
    "OBJECTID": 5115,
    "ولایت": "غور",
    "Province": "GHOR",
    "PC_Code": "2310197",
    "District": "SAGHAR",
    "د_مرکز_نوم__نام_مرکز": "لیسه اناث ساغر",
    "Polling_Center_Name": "Saghar Girls High School",
    "د_مرکز_ځای__موقعیت_مرکز": " تیطان",
    "Polling_Center_Location": "Taitan",
    "Map_Accuracy": "Building",
    "Map_Accuracy_Dari": "تعمیر",
    "Status": "Open",
    "Status_Dari": null,
    "PS_Male": 2,
    "PS_Female": 2,
    "PS_Total": 4,
    "ولسوالي": "ساغر ",
    "Region": "Western Region"
   },
   "geometry": {
    "x": 7108522.7679933179,
    "y": 3987761.1863537035
   }
  },
  {
   "attributes": {
    "OBJECTID": 5116,
    "ولایت": "دایکندی",
    "Province": "DAYKUNDI",
    "PC_Code": "2401011",
    "District": "NILI",
    "د_مرکز_نوم__نام_مرکز": "مسجد هجدی",
    "Polling_Center_Name": "Hajdi Mosque",
    "د_مرکز_ځای__موقعیت_مرکز": "هجدی",
    "Polling_Center_Location": "Hajdi",
    "Map_Accuracy": "Building",
    "Map_Accuracy_Dari": "تعمیر",
    "Status": "Open",
    "Status_Dari": null,
    "PS_Male": 2,
    "PS_Female": 2,
    "PS_Total": 4,
    "ولسوالي": "نیلی",
    "Region": "Central Highlands Region"
   },
   "geometry": {
    "x": 7362892.7693052366,
    "y": 4001682.2061744747
   }
  },
  {
   "attributes": {
    "OBJECTID": 5117,
    "ولایت": "دایکندی",
    "Province": "DAYKUNDI",
    "PC_Code": "2402034",
    "District": "SHAHRISTAN",
    "د_مرکز_نوم__نام_مرکز": "مسجد ازموک",
    "Polling_Center_Name": "Azmok Mosque",
    "د_مرکز_ځای__موقعیت_مرکز": "ازموک",
    "Polling_Center_Location": "Azmok",
    "Map_Accuracy": "Building",
    "Map_Accuracy_Dari": "تعمیر",
    "Status": "Open",
    "Status_Dari": null,
    "PS_Male": 1,
    "PS_Female": 1,
    "PS_Total": 2,
    "ولسوالي": "شهرستان",
    "Region": "Central Highlands Region"
   },
   "geometry": {
    "x": 7370417.8989779735,
    "y": 3985862.9992746986
   }
  },
  {
   "attributes": {
    "OBJECTID": 5118,
    "ولایت": "دایکندی",
    "Province": "DAYKUNDI",
    "PC_Code": "2405087",
    "District": "KHEDIR",
    "د_مرکز_نوم__نام_مرکز": "مکتب دهن سرخ قولک",
    "Polling_Center_Name": "Dahn Surkh Qolak School",
    "د_مرکز_ځای__موقعیت_مرکز": "وطمه",
    "Polling_Center_Location": "Watma",
    "Map_Accuracy": "Building",
    "Map_Accuracy_Dari": "تعمیر",
    "Status": "Open",
    "Status_Dari": null,
    "PS_Male": 1,
    "PS_Female": 2,
    "PS_Total": 3,
    "ولسوالي": "خدیر",
    "Region": "Central Highlands Region"
   },
   "geometry": {
    "x": 7324610.3693417273,
    "y": 4011619.2584987106
   }
  },
  {
   "attributes": {
    "OBJECTID": 5119,
    "ولایت": "دایکندی",
    "Province": "DAYKUNDI",
    "PC_Code": "2406130",
    "District": "KITI",
    "د_مرکز_نوم__نام_مرکز": "مسجد سنگینک",
    "Polling_Center_Name": "Sanginak Mosque",
    "د_مرکز_ځای__موقعیت_مرکز": "سنگینک",
    "Polling_Center_Location": "Sanginak",
    "Map_Accuracy": "Building",
    "Map_Accuracy_Dari": "تعمیر",
    "Status": "Open",
    "Status_Dari": null,
    "PS_Male": 2,
    "PS_Female": 1,
    "PS_Total": 3,
    "ولسوالي": "کیتی",
    "Region": "Central Highlands Region"
   },
   "geometry": {
    "x": 7326747.4664544398,
    "y": 3990113.1946039074
   }
  },
  {
   "attributes": {
    "OBJECTID": 5120,
    "ولایت": "دایکندی",
    "Province": "DAYKUNDI",
    "PC_Code": "2406131",
    "District": "KITI",
    "د_مرکز_نوم__نام_مرکز": "مسجد رویان",
    "Polling_Center_Name": "Royan Mosque",
    "د_مرکز_ځای__موقعیت_مرکز": "رویان",
    "Polling_Center_Location": "Royan",
    "Map_Accuracy": "Building",
    "Map_Accuracy_Dari": "تعمیر",
    "Status": "Open",
    "Status_Dari": null,
    "PS_Male": 2,
    "PS_Female": 1,
    "PS_Total": 3,
    "ولسوالي": "کیتی",
    "Region": "Central Highlands Region"
   },
   "geometry": {
    "x": 7322905.7384319883,
    "y": 3954886.8328058873
   }
  },
  {
   "attributes": {
    "OBJECTID": 5121,
    "ولایت": "دایکندی",
    "Province": "DAYKUNDI",
    "PC_Code": "2407153",
    "District": "MIRAMOR",
    "د_مرکز_نوم__نام_مرکز": "لیسه زکور چهار صد خانه",
    "Polling_Center_Name": "Chahar Sad Khana Boys High School",
    "د_مرکز_ځای__موقعیت_مرکز": "پلاس",
    "Polling_Center_Location": "Palaas",
    "Map_Accuracy": "Building",
    "Map_Accuracy_Dari": "تعمیر",
    "Status": "Open",
    "Status_Dari": null,
    "PS_Male": 1,
    "PS_Female": 2,
    "PS_Total": 3,
    "ولسوالي": "میرامور",
    "Region": "Central Highlands Region"
   },
   "geometry": {
    "x": 7482877.065359652,
    "y": 4014934.6551776668
   }
  },
  {
   "attributes": {
    "OBJECTID": 5122,
    "ولایت": "دایکندی",
    "Province": "DAYKUNDI",
    "PC_Code": "2408078",
    "District": "SANG-E-TAKHT",
    "د_مرکز_نوم__نام_مرکز": "مسجد دهن سیرک میراسی",
    "Polling_Center_Name": "Dahan Sirak Mirasi Mosque",
    "د_مرکز_ځای__موقعیت_مرکز": "سیرک ",
    "Polling_Center_Location": "Sirak",
    "Map_Accuracy": "Building",
    "Map_Accuracy_Dari": "تعمیر",
    "Status": "Open",
    "Status_Dari": null,
    "PS_Male": 2,
    "PS_Female": 1,
    "PS_Total": 3,
    "ولسوالي": "سنگ تخت",
    "Region": "Central Highlands Region"
   },
   "geometry": {
    "x": 7339830.4142877525,
    "y": 4052793.1712850467
   }
  },
  {
   "attributes": {
    "OBJECTID": 5123,
    "ولایت": "دایکندی",
    "Province": "DAYKUNDI",
    "PC_Code": "2409069",
    "District": "KEJRAN",
    "د_مرکز_نوم__نام_مرکز": "مسجد دهن خوجو",
    "Polling_Center_Name": "Dahan Khojo Mosque",
    "د_مرکز_ځای__موقعیت_مرکز": "خوجو",
    "Polling_Center_Location": "Khojo",
    "Map_Accuracy": "Building",
    "Map_Accuracy_Dari": "تعمیر",
    "Status": "Open",
    "Status_Dari": null,
    "PS_Male": 1,
    "PS_Female": 1,
    "PS_Total": 2,
    "ولسوالي": "کجران",
    "Region": "Central Highlands Region"
   },
   "geometry": {
    "x": 7316178.0359127987,
    "y": 3926872.1329671568
   }
  },
  {
   "attributes": {
    "OBJECTID": 5124,
    "ولایت": "ارزگان",
    "Province": "UROZGAN",
    "PC_Code": "2502039",
    "District": "DEHRAOUD",
    "د_مرکز_نوم__نام_مرکز": "د ملک خدای دوست د کلی مکتب",
    "Polling_Center_Name": "Malk Khudai Dost Village School",
    "د_مرکز_ځای__موقعیت_مرکز": "انار جوی کلی",
    "Polling_Center_Location": "Anar Joy Village",
    "Map_Accuracy": "Building",
    "Map_Accuracy_Dari": "تعمیر",
    "Status": "Open",
    "Status_Dari": null,
    "PS_Male": 3,
    "PS_Female": 1,
    "PS_Total": 4,
    "ولسوالي": "دهراود",
    "Region": "Southern Region"
   },
   "geometry": {
    "x": 7298623.1013828125,
    "y": 3849179.8316694163
   }
  },
  {
   "attributes": {
    "OBJECTID": 5125,
    "ولایت": "زابل",
    "Province": "ZABUL",
    "PC_Code": "2602028",
    "District": "TARANK WA JALDAK",
    "د_مرکز_نوم__نام_مرکز": "د جلدک روغتون",
    "Polling_Center_Name": "Jaldak Hospital",
    "د_مرکز_ځای__موقعیت_مرکز": "جلدک",
    "Polling_Center_Location": "Jaldak",
    "Map_Accuracy": "Building",
    "Map_Accuracy_Dari": "تعمیر",
    "Status": "Open",
    "Status_Dari": null,
    "PS_Male": 4,
    "PS_Female": 0,
    "PS_Total": 4,
    "ولسوالي": "ترنک و جلدک",
    "Region": "Southern Region"
   },
   "geometry": {
    "x": 7427563.4790515816,
    "y": 3759922.9774745721
   }
  },
  {
   "attributes": {
    "OBJECTID": 5126,
    "ولایت": "کندهار",
    "Province": "کندهار",
    "PC_Code": "2701038",
    "District": "KANDAHAR",
    "د_مرکز_نوم__نام_مرکز": "ظاهر شاهي مكتب",
    "Polling_Center_Name": "Zahir Shahi School",
    "د_مرکز_ځای__موقعیت_مرکز": "شپږمه ناحيه",
    "Polling_Center_Location": "D06 - Nahia 6",
    "Map_Accuracy": "Building",
    "Map_Accuracy_Dari": "تعمیر",
    "Status": "Open",
    "Status_Dari": null,
    "PS_Male": 6,
    "PS_Female": 4,
    "PS_Total": 10,
    "ولسوالي": "کندهار",
    "Region": "Southern Region"
   },
   "geometry": {
    "x": 7313905.554261771,
    "y": 3713222.6656198157
   }
  },
  {
   "attributes": {
    "OBJECTID": 5127,
    "ولایت": "کندهار",
    "Province": "کندهار",
    "PC_Code": "2702106",
    "District": "ARGHANDAB",
    "د_مرکز_نوم__نام_مرکز": "د شاه اشرف مكتب",
    "Polling_Center_Name": "Shah Ashraf School",
    "د_مرکز_ځای__موقعیت_مرکز": "تابين",
    "Polling_Center_Location": "Tabeen",
    "Map_Accuracy": "Building",
    "Map_Accuracy_Dari": "تعمیر",
    "Status": "Open",
    "Status_Dari": null,
    "PS_Male": 2,
    "PS_Female": 1,
    "PS_Total": 3,
    "ولسوالي": "ارغنداب",
    "Region": "Southern Region"
   },
   "geometry": {
    "x": 7307412.566662523,
    "y": 3720798.3001924939
   }
  },
  {
   "attributes": {
    "OBJECTID": 5128,
    "ولایت": "کندهار",
    "Province": "کندهار",
    "PC_Code": "2707116",
    "District": "KHAKREZ",
    "د_مرکز_نوم__نام_مرکز": "د رحمت الله كور",
    "Polling_Center_Name": "Rahmatullah Private House",
    "د_مرکز_ځای__موقعیت_مرکز": "لالك",
    "Polling_Center_Location": "Lalak",
    "Map_Accuracy": "Village",
    "Map_Accuracy_Dari": "قریه",
    "Status": "Open",
    "Status_Dari": null,
    "PS_Male": 2,
    "PS_Female": 2,
    "PS_Total": 4,
    "ولسوالي": "خاک ریز",
    "Region": "Southern Region"
   },
   "geometry": {
    "x": 7271082.2363464935,
    "y": 3733051.4376388518
   }
  },
  {
   "attributes": {
    "OBJECTID": 5129,
    "ولایت": "کندهار",
    "Province": "کندهار",
    "PC_Code": "2709129",
    "District": "GHORAK",
    "د_مرکز_نوم__نام_مرکز": "مسجد واشتان",
    "Polling_Center_Name": "Washtan Mosque",
    "د_مرکز_ځای__موقعیت_مرکز": "واشتان",
    "Polling_Center_Location": "Washtan",
    "Map_Accuracy": "Building",
    "Map_Accuracy_Dari": "تعمیر",
    "Status": "Open",
    "Status_Dari": null,
    "PS_Male": 2,
    "PS_Female": 0,
    "PS_Total": 2,
    "ولسوالي": "غورك",
    "Region": "Southern Region"
   },
   "geometry": {
    "x": 7235733.7762219142,
    "y": 3769832.4576374935
   }
  },
  {
   "attributes": {
    "OBJECTID": 5130,
    "ولایت": "کندهار",
    "Province": "کندهار",
    "PC_Code": "2714269",
    "District": "SHORABAK",
    "د_مرکز_نوم__نام_مرکز": "د حاجي روزي خان كور",
    "Polling_Center_Name": "Haji Rozi Khan Private House",
    "د_مرکز_ځای__موقعیت_مرکز": "د كاريز كلي",
    "Polling_Center_Location": "Karez Village",
    "Map_Accuracy": "Village",
    "Map_Accuracy_Dari": "قریه",
    "Status": "Open",
    "Status_Dari": null,
    "PS_Male": 3,
    "PS_Female": 2,
    "PS_Total": 5,
    "ولسوالي": "شورابك",
    "Region": "Southern Region"
   },
   "geometry": {
    "x": 7366514.311827681,
    "y": 3525605.1626699669
   }
  },
  {
   "attributes": {
    "OBJECTID": 5131,
    "ولایت": "کندهار",
    "Province": "کندهار",
    "PC_Code": "2717065",
    "District": "DAND",
    "د_مرکز_نوم__نام_مرکز": "د رمباسي مكتب",
    "Polling_Center_Name": "Rambasi School",
    "د_مرکز_ځای__موقعیت_مرکز": "رمباسي",
    "Polling_Center_Location": "Rambasi",
    "Map_Accuracy": "District",
    "Map_Accuracy_Dari": "ولسوالی",
    "Status": "Open",
    "Status_Dari": null,
    "PS_Male": 2,
    "PS_Female": 1,
    "PS_Total": 3,
    "ولسوالي": "ډند",
    "Region": "Southern Region"
   },
   "geometry": {
    "x": 7308757.8571427828,
    "y": 3704830.8586840318
   }
  },
  {
   "attributes": {
    "OBJECTID": 5132,
    "ولایت": "جوزجان",
    "Province": "JAWZJAN",
    "PC_Code": "2801024",
    "District": "SHEBERGHAN",
    "د_مرکز_نوم__نام_مرکز": "مکتب متوسطه قوچین",
    "Polling_Center_Name": "Qochin Secondary School",
    "د_مرکز_ځای__موقعیت_مرکز": "ناحیه اول",
    "Polling_Center_Location": "D01 - Nahia 1",
    "Map_Accuracy": "Building",
    "Map_Accuracy_Dari": "تعمیر",
    "Status": "Open",
    "Status_Dari": null,
    "PS_Male": 2,
    "PS_Female": 2,
    "PS_Total": 4,
    "ولسوالي": "شبرغان",
    "Region": "Northern Region"
   },
   "geometry": {
    "x": 7328194.651004212,
    "y": 4380596.6161943506
   }
  },
  {
   "attributes": {
    "OBJECTID": 5133,
    "ولایت": "جوزجان",
    "Province": "JAWZJAN",
    "PC_Code": "2803122",
    "District": "KHANAQA",
    "د_مرکز_نوم__نام_مرکز": "مکتب ابتدائیه چوباش ",
    "Polling_Center_Name": "Chobash Primary School",
    "د_مرکز_ځای__موقعیت_مرکز": "چوباش",
    "Polling_Center_Location": "Chobash",
    "Map_Accuracy": "Building",
    "Map_Accuracy_Dari": "تعمیر",
    "Status": "Open",
    "Status_Dari": null,
    "PS_Male": 1,
    "PS_Female": 1,
    "PS_Total": 2,
    "ولسوالي": "خانقاه",
    "Region": "Northern Region"
   },
   "geometry": {
    "x": 7351420.2849980164,
    "y": 4421404.3814217085
   }
  },
  {
   "attributes": {
    "OBJECTID": 5134,
    "ولایت": "جوزجان",
    "Province": "JAWZJAN",
    "PC_Code": "2806085",
    "District": "KHAMYAB",
    "د_مرکز_نوم__نام_مرکز": "مکتب بوز اریغ",
    "Polling_Center_Name": "Boz Areegh School",
    "د_مرکز_ځای__موقعیت_مرکز": "بوز اریغ",
    "Polling_Center_Location": "Boz Areegh",
    "Map_Accuracy": "Building",
    "Map_Accuracy_Dari": "تعمیر",
    "Status": "Open",
    "Status_Dari": null,
    "PS_Male": 2,
    "PS_Female": 1,
    "PS_Total": 3,
    "ولسوالي": "خم آب",
    "Region": "Northern Region"
   },
   "geometry": {
    "x": 7321801.7252669754,
    "y": 4509847.8995118989
   }
  },
  {
   "attributes": {
    "OBJECTID": 5135,
    "ولایت": "جوزجان",
    "Province": "JAWZJAN",
    "PC_Code": "2808051",
    "District": "FAIZABAD",
    "د_مرکز_نوم__نام_مرکز": "مکتب کوکلداش",
    "Polling_Center_Name": "Kokaldash School",
    "د_مرکز_ځای__موقعیت_مرکز": "قریه کوکلداش",
    "Polling_Center_Location": "Kokaldash Village",
    "Map_Accuracy": "Building",
    "Map_Accuracy_Dari": "تعمیر",
    "Status": "Open",
    "Status_Dari": null,
    "PS_Male": 2,
    "PS_Female": 1,
    "PS_Total": 3,
    "ولسوالي": "فیض آباد",
    "Region": "Northern Region"
   },
   "geometry": {
    "x": 7385014.8609041553,
    "y": 4412293.4664742528
   }
  },
  {
   "attributes": {
    "OBJECTID": 5136,
    "ولایت": "جوزجان",
    "Province": "JAWZJAN",
    "PC_Code": "2810083",
    "District": "QARQIN",
    "د_مرکز_نوم__نام_مرکز": "لیسه دینار",
    "Polling_Center_Name": "Dinar High School",
    "د_مرکز_ځای__موقعیت_مرکز": "دینار",
    "Polling_Center_Location": "Dinar",
    "Map_Accuracy": "Building",
    "Map_Accuracy_Dari": "تعمیر",
    "Status": "Open",
    "Status_Dari": null,
    "PS_Male": 3,
    "PS_Female": 1,
    "PS_Total": 4,
    "ولسوالي": "قرقین",
    "Region": "Northern Region"
   },
   "geometry": {
    "x": 7342723.8805862209,
    "y": 4499339.1709612636
   }
  },
  {
   "attributes": {
    "OBJECTID": 5137,
    "ولایت": "فارياب",
    "Province": "FARYAB",
    "PC_Code": "2901007",
    "District": "MAIMANA",
    "د_مرکز_نوم__نام_مرکز": "لیسه ابوعبید جوزجانی",
    "Polling_Center_Name": "Abu Ubaid Jozjani High School",
    "د_مرکز_ځای__موقعیت_مرکز": "ناحیه دوم",
    "Polling_Center_Location": "D02 - Nahia 2",
    "Map_Accuracy": "Building",
    "Map_Accuracy_Dari": "تعمیر",
    "Status": "Open",
    "Status_Dari": null,
    "PS_Male": 6,
    "PS_Female": 0,
    "PS_Total": 6,
    "ولسوالي": "میمنه ",
    "Region": "Northern Region"
   },
   "geometry": {
    "x": 7212261.9881172879,
    "y": 4288926.7640649332
   }
  },
  {
   "attributes": {
    "OBJECTID": 5138,
    "ولایت": "فارياب",
    "Province": "FARYAB",
    "PC_Code": "2902027",
    "District": "PASHTUN KOT",
    "د_مرکز_نوم__نام_مرکز": "مکتب قریه یکه توت",
    "Polling_Center_Name": "Yaka Toot Village School",
    "د_مرکز_ځای__موقعیت_مرکز": "قریه یکه توت",
    "Polling_Center_Location": "Yaka Toot Village",
    "Map_Accuracy": "Village",
    "Map_Accuracy_Dari": "قریه",
    "Status": "Open",
    "Status_Dari": null,
    "PS_Male": 1,
    "PS_Female": 1,
    "PS_Total": 2,
    "ولسوالي": "پشتون کوت",
    "Region": "Northern Region"
   },
   "geometry": {
    "x": 7217381.6494225143,
    "y": 4249324.0719287945
   }
  },
  {
   "attributes": {
    "OBJECTID": 5139,
    "ولایت": "فارياب",
    "Province": "FARYAB",
    "PC_Code": "2905142",
    "District": "BIL CHIRAGH",
    "د_مرکز_نوم__نام_مرکز": "مکتب ذکورتغلمس",
    "Polling_Center_Name": "Taghalmas Boys School",
    "د_مرکز_ځای__موقعیت_مرکز": "تغلمس",
    "Polling_Center_Location": "Taghlamas",
    "Map_Accuracy": "Village",
    "Map_Accuracy_Dari": "قریه",
    "Status": "Open",
    "Status_Dari": null,
    "PS_Male": 3,
    "PS_Female": 1,
    "PS_Total": 4,
    "ولسوالي": "بل چراغ",
    "Region": "Northern Region"
   },
   "geometry": {
    "x": 7268168.9073112821,
    "y": 4280949.4599859016
   }
  },
  {
   "attributes": {
    "OBJECTID": 5140,
    "ولایت": "فارياب",
    "Province": "FARYAB",
    "PC_Code": "2907082",
    "District": "QAISAR",
    "د_مرکز_نوم__نام_مرکز": "مکتب ابتدای چیچکتو",
    "Polling_Center_Name": "Chechakto Primary School",
    "د_مرکز_ځای__موقعیت_مرکز": "چیچکتو",
    "Polling_Center_Location": "Chechakto",
    "Map_Accuracy": "Building",
    "Map_Accuracy_Dari": "تعمیر",
    "Status": "Open",
    "Status_Dari": null,
    "PS_Male": 2,
    "PS_Female": 2,
    "PS_Total": 4,
    "ولسوالي": "قیصار ",
    "Region": "Northern Region"
   },
   "geometry": {
    "x": 7135541.4366379138,
    "y": 4263189.8925993051
   }
  },
  {
   "attributes": {
    "OBJECTID": 5141,
    "ولایت": "فارياب",
    "Province": "FARYAB",
    "PC_Code": "2907083",
    "District": "QAISAR",
    "د_مرکز_نوم__نام_مرکز": "مسجد بلند غور ",
    "Polling_Center_Name": "Boland Ghor Mosque",
    "د_مرکز_ځای__موقعیت_مرکز": "بلند غور ",
    "Polling_Center_Location": "Boland Ghor",
    "Map_Accuracy": "Building",
    "Map_Accuracy_Dari": "تعمیر",
    "Status": "Open",
    "Status_Dari": null,
    "PS_Male": 2,
    "PS_Female": 1,
    "PS_Total": 3,
    "ولسوالي": "قیصار ",
    "Region": "Northern Region"
   },
   "geometry": {
    "x": 7129429.6481633559,
    "y": 4256238.0961126136
   }
  },
  {
   "attributes": {
    "OBJECTID": 5142,
    "ولایت": "فارياب",
    "Province": "FARYAB",
    "PC_Code": "2907105",
    "District": "QAISAR",
    "د_مرکز_نوم__نام_مرکز": "مکتب زعفران ",
    "Polling_Center_Name": "Zaafran School",
    "د_مرکز_ځای__موقعیت_مرکز": "زعفران ",
    "Polling_Center_Location": "Zaafran",
    "Map_Accuracy": "Building",
    "Map_Accuracy_Dari": "تعمیر",
    "Status": "Open",
    "Status_Dari": null,
    "PS_Male": 2,
    "PS_Female": 1,
    "PS_Total": 3,
    "ولسوالي": "قیصار ",
    "Region": "Northern Region"
   },
   "geometry": {
    "x": 7152008.9600804178,
    "y": 4247857.2056729514
   }
  },
  {
   "attributes": {
    "OBJECTID": 5143,
    "ولایت": "فارياب",
    "Province": "FARYAB",
    "PC_Code": "2910120",
    "District": "KOHISTAN",
    "د_مرکز_نوم__نام_مرکز": "مکتب متوسطه لولاش",
    "Polling_Center_Name": "Lolash Secondary School",
    "د_مرکز_ځای__موقعیت_مرکز": "دور قلعه ",
    "Polling_Center_Location": "Dor Qala",
    "Map_Accuracy": "Building",
    "Map_Accuracy_Dari": "تعمیر",
    "Status": "Open",
    "Status_Dari": null,
    "PS_Male": 2,
    "PS_Female": 2,
    "PS_Total": 4,
    "ولسوالي": "کوهستان",
    "Region": "Northern Region"
   },
   "geometry": {
    "x": 7208334.0264512887,
    "y": 4216169.7518846411
   }
  },
  {
   "attributes": {
    "OBJECTID": 5144,
    "ولایت": "فارياب",
    "Province": "FARYAB",
    "PC_Code": "2913184",
    "District": "ANDKHOY",
    "د_مرکز_نوم__نام_مرکز": "مکتب نسوان الهندی خانه",
    "Polling_Center_Name": "Alhendi Khana Girls School",
    "د_مرکز_ځای__موقعیت_مرکز": "الهندی خانه",
    "Polling_Center_Location": "Alhendi Khana",
    "Map_Accuracy": "Village",
    "Map_Accuracy_Dari": "قریه",
    "Status": "Open",
    "Status_Dari": null,
    "PS_Male": 3,
    "PS_Female": 2,
    "PS_Total": 5,
    "ولسوالي": "اندخوی",
    "Region": "Northern Region"
   },
   "geometry": {
    "x": 7249102.6782235838,
    "y": 4433968.4928565724
   }
  },
  {
   "attributes": {
    "OBJECTID": 5145,
    "ولایت": "هلمند",
    "Province": "HELMAND",
    "PC_Code": "3001011",
    "District": "LASHKARGAH",
    "د_مرکز_نوم__نام_مرکز": "د هندوانو مکتب",
    "Polling_Center_Name": "Hindwano School",
    "د_مرکز_ځای__موقعیت_مرکز": " کارته لگن ناحیه 2",
    "Polling_Center_Location": "Karta-e-Lagan Nahia 2",
    "Map_Accuracy": "Building",
    "Map_Accuracy_Dari": "تعمیر",
    "Status": "Open",
    "Status_Dari": null,
    "PS_Male": 2,
    "PS_Female": 6,
    "PS_Total": 8,
    "ولسوالي": "لشکرگاه",
    "Region": "Southern Region"
   },
   "geometry": {
    "x": 7167141.8006769437,
    "y": 3710297.2751083188
   }
  },
  {
   "attributes": {
    "OBJECTID": 5146,
    "ولایت": "هلمند",
    "Province": "HELMAND",
    "PC_Code": "3001033",
    "District": "LASHKARGAH",
    "د_مرکز_نوم__نام_مرکز": "مسجد مرکز کوچی",
    "Polling_Center_Name": "Kochi Center Mosque",
    "د_مرکز_ځای__موقعیت_مرکز": "پنجاب کلی",
    "Polling_Center_Location": "Punjab Village",
    "Map_Accuracy": "Building",
    "Map_Accuracy_Dari": "تعمیر",
    "Status": "Open",
    "Status_Dari": null,
    "PS_Male": 2,
    "PS_Female": 2,
    "PS_Total": 4,
    "ولسوالي": "لشکرگاه",
    "Region": "Southern Region"
   },
   "geometry": {
    "x": 7169638.1614086842,
    "y": 3722152.4500828465
   }
  },
  {
   "attributes": {
    "OBJECTID": 5147,
    "ولایت": "هلمند",
    "Province": "HELMAND",
    "PC_Code": "3003096",
    "District": "NAWA-E-BARAKZAYI",
    "د_مرکز_نوم__نام_مرکز": "د وكيل منان كور",
    "Polling_Center_Name": "Wakil Manan Private House",
    "د_مرکز_ځای__موقعیت_مرکز": "سره کلا",
    "Polling_Center_Location": "Sra Kala",
    "Map_Accuracy": "District",
    "Map_Accuracy_Dari": "ولسوالی",
    "Status": "Open",
    "Status_Dari": null,
    "PS_Male": 3,
    "PS_Female": 1,
    "PS_Total": 4,
    "ولسوالي": "ناوه بارکزایی",
    "Region": "Southern Region"
   },
   "geometry": {
    "x": 7155473.2003700053,
    "y": 3679620.9529662915
   }
  },
  {
   "attributes": {
    "OBJECTID": 5148,
    "ولایت": "هلمند",
    "Province": "HELMAND",
    "PC_Code": "3004036",
    "District": "NAHR-E-SARAJ",
    "د_مرکز_نوم__نام_مرکز": "مكتب ابازان ",
    "Polling_Center_Name": "Abazan School",
    "د_مرکز_ځای__موقعیت_مرکز": "مکتب ابازان  ",
    "Polling_Center_Location": "Maktab Abazan",
    "Map_Accuracy": "Building",
    "Map_Accuracy_Dari": "تعمیر",
    "Status": "Open",
    "Status_Dari": null,
    "PS_Male": 4,
    "PS_Female": 2,
    "PS_Total": 6,
    "ولسوالي": "نهرسراج",
    "Region": "Southern Region"
   },
   "geometry": {
    "x": 7187624.0838188045,
    "y": 3736302.7754263477
   }
  },
  {
   "attributes": {
    "OBJECTID": 5149,
    "ولایت": "بادغيس",
    "Province": "BADGHIS",
    "PC_Code": "3101016",
    "District": "QALA-E-NOW",
    "د_مرکز_نوم__نام_مرکز": "مکتب لامان",
    "Polling_Center_Name": "Laman School",
    "د_مرکز_ځای__موقعیت_مرکز": " لامان",
    "Polling_Center_Location": "Laman",
    "Map_Accuracy": "Building",
    "Map_Accuracy_Dari": "تعمیر",
    "Status": "Open",
    "Status_Dari": null,
    "PS_Male": 3,
    "PS_Female": 2,
    "PS_Total": 5,
    "ولسوالي": "قلعه نو",
    "Region": "Western Region"
   },
   "geometry": {
    "x": 7024542.8443143582,
    "y": 4131744.7682898305
   }
  },
  {
   "attributes": {
    "OBJECTID": 5150,
    "ولایت": "بادغيس",
    "Province": "BADGHIS",
    "PC_Code": "3102047",
    "District": "AB KAMARI",
    "د_مرکز_نوم__نام_مرکز": "مکتب لیسه پده دایزنگی",
    "Polling_Center_Name": "Padeh Dehzangi High School",
    "د_مرکز_ځای__موقعیت_مرکز": "پده دهزنگی",
    "Polling_Center_Location": "Padeh Dehzangi  ",
    "Map_Accuracy": "Building",
    "Map_Accuracy_Dari": "تعمیر",
    "Status": "Open",
    "Status_Dari": null,
    "PS_Male": 2,
    "PS_Female": 1,
    "PS_Total": 3,
    "ولسوالي": "آبکمری",
    "Region": "Western Region"
   },
   "geometry": {
    "x": 7000145.1496658921,
    "y": 4148284.3973257407
   }
  },
  {
   "attributes": {
    "OBJECTID": 5151,
    "ولایت": "بادغيس",
    "Province": "BADGHIS",
    "PC_Code": "3104057",
    "District": "QADIS",
    "د_مرکز_نوم__نام_مرکز": "مکتب ده برنج",
    "Polling_Center_Name": "Deh Berenj School",
    "د_مرکز_ځای__موقعیت_مرکز": "ده برنج",
    "Polling_Center_Location": "Deh Berenj ",
    "Map_Accuracy": "Building",
    "Map_Accuracy_Dari": "تعمیر",
    "Status": "Open",
    "Status_Dari": null,
    "PS_Male": 3,
    "PS_Female": 1,
    "PS_Total": 4,
    "ولسوالي": "قادس",
    "Region": "Western Region"
   },
   "geometry": {
    "x": 7042404.0588385332,
    "y": 4130943.0586938863
   }
  },
  {
   "attributes": {
    "OBJECTID": 5152,
    "ولایت": "بادغيس",
    "Province": "BADGHIS",
    "PC_Code": "3104078",
    "District": "QADIS",
    "د_مرکز_نوم__نام_مرکز": "مسجد برج",
    "Polling_Center_Name": "Burj Mosque",
    "د_مرکز_ځای__موقعیت_مرکز": "قریه برج",
    "Polling_Center_Location": "Burj Village",
    "Map_Accuracy": "Building",
    "Map_Accuracy_Dari": "تعمیر",
    "Status": "Open",
    "Status_Dari": null,
    "PS_Male": 2,
    "PS_Female": 1,
    "PS_Total": 3,
    "ولسوالي": "قادس",
    "Region": "Western Region"
   },
   "geometry": {
    "x": 7098948.552623678,
    "y": 4129477.8368451865
   }
  },
  {
   "attributes": {
    "OBJECTID": 5153,
    "ولایت": "بادغيس",
    "Province": "BADGHIS",
    "PC_Code": "3106108",
    "District": "JAWAND",
    "د_مرکز_نوم__نام_مرکز": "مسجد قریه اورگو",
    "Polling_Center_Name": "Orgo Village Mosque",
    "د_مرکز_ځای__موقعیت_مرکز": "اورگو",
    "Polling_Center_Location": "Orgo ",
    "Map_Accuracy": "Village",
    "Map_Accuracy_Dari": "قریه",
    "Status": "Open",
    "Status_Dari": null,
    "PS_Male": 1,
    "PS_Female": 1,
    "PS_Total": 2,
    "ولسوالي": "جوند",
    "Region": "Western Region"
   },
   "geometry": {
    "x": 7182798.1334240614,
    "y": 4174508.4591739592
   }
  },
  {
   "attributes": {
    "OBJECTID": 5154,
    "ولایت": "هرات",
    "Province": "HERAT",
    "PC_Code": "3201004",
    "District": "HERAT",
    "د_مرکز_نوم__نام_مرکز": "مسجد جامع بزرگ هرات",
    "Polling_Center_Name": "Hirat city big Mosque",
    "د_مرکز_ځای__موقعیت_مرکز": " ناحیه دوم",
    "Polling_Center_Location": "D02 - Nahia 2",
    "Map_Accuracy": "Building",
    "Map_Accuracy_Dari": "تعمیر",
    "Status": "Open",
    "Status_Dari": null,
    "PS_Male": 14,
    "PS_Female": 0,
    "PS_Total": 14,
    "ولسوالي": "هرات",
    "Region": "Western Region"
   },
   "geometry": {
    "x": 6923588.6953610927,
    "y": 4074966.8999035666
   }
  },
  {
   "attributes": {
    "OBJECTID": 5155,
    "ولایت": "هرات",
    "Province": "HERAT",
    "PC_Code": "3201025",
    "District": "HERAT",
    "د_مرکز_نوم__نام_مرکز": "فخرالمدارس",
    "Polling_Center_Name": "Fakhrul Madares ",
    "د_مرکز_ځای__موقعیت_مرکز": " ناحیه نهم",
    "Polling_Center_Location": "D09 - Nahia 9",
    "Map_Accuracy": "Building",
    "Map_Accuracy_Dari": "تعمیر",
    "Status": "Open",
    "Status_Dari": null,
    "PS_Male": 4,
    "PS_Female": 5,
    "PS_Total": 9,
    "ولسوالي": "هرات",
    "Region": "Western Region"
   },
   "geometry": {
    "x": 6922399.9557071188,
    "y": 4076684.7170288055
   }
  },
  {
   "attributes": {
    "OBJECTID": 5156,
    "ولایت": "هرات",
    "Province": "HERAT",
    "PC_Code": "3202037",
    "District": "ENJIL",
    "د_مرکز_نوم__نام_مرکز": "لیسه جغرتان",
    "Polling_Center_Name": "Jaghratan High School",
    "د_مرکز_ځای__موقعیت_مرکز": "جغرتان",
    "Polling_Center_Location": "Jaghratan",
    "Map_Accuracy": "Village",
    "Map_Accuracy_Dari": "قریه",
    "Status": "Open",
    "Status_Dari": null,
    "PS_Male": 2,
    "PS_Female": 1,
    "PS_Total": 3,
    "ولسوالي": "انجیل",
    "Region": "Western Region"
   },
   "geometry": {
    "x": 6919280.2648262689,
    "y": 4069458.9088498731
   }
  },
  {
   "attributes": {
    "OBJECTID": 5157,
    "ولایت": "هرات",
    "Province": "HERAT",
    "PC_Code": "3202060",
    "District": "ENJIL",
    "د_مرکز_نوم__نام_مرکز": "مکتب متوسطه پوران",
    "Polling_Center_Name": "Poran Secondary School ",
    "د_مرکز_ځای__موقعیت_مرکز": "قریه پوران",
    "Polling_Center_Location": "Poran Village ",
    "Map_Accuracy": "Building",
    "Map_Accuracy_Dari": "تعمیر",
    "Status": "Open",
    "Status_Dari": null,
    "PS_Male": 2,
    "PS_Female": 1,
    "PS_Total": 3,
    "ولسوالي": "انجیل",
    "Region": "Western Region"
   },
   "geometry": {
    "x": 6917562.4792923005,
    "y": 4073653.5321006449
   }
  },
  {
   "attributes": {
    "OBJECTID": 5158,
    "ولایت": "هرات",
    "Province": "HERAT",
    "PC_Code": "3202081",
    "District": "ENJIL",
    "د_مرکز_نوم__نام_مرکز": "مکتب مسلخ دوم",
    "Polling_Center_Name": "Maslakh Duowm School",
    "د_مرکز_ځای__موقعیت_مرکز": " مسلخ دوم",
    "Polling_Center_Location": "Maslakh Duwom",
    "Map_Accuracy": "Building",
    "Map_Accuracy_Dari": "تعمیر",
    "Status": "Open",
    "Status_Dari": null,
    "PS_Male": 3,
    "PS_Female": 3,
    "PS_Total": 6,
    "ولسوالي": "انجیل",
    "Region": "Western Region"
   },
   "geometry": {
    "x": 6906138.8798262635,
    "y": 4085386.6408176301
   }
  },
  {
   "attributes": {
    "OBJECTID": 5159,
    "ولایت": "هرات",
    "Province": "HERAT",
    "PC_Code": "3203098",
    "District": "GUZARA",
    "د_مرکز_نوم__نام_مرکز": "لیسه دادشان",
    "Polling_Center_Name": "Dadshan High School ",
    "د_مرکز_ځای__موقعیت_مرکز": "قریه دادشان ",
    "Polling_Center_Location": "Dadshan Village ",
    "Map_Accuracy": "Building",
    "Map_Accuracy_Dari": "تعمیر",
    "Status": "Open",
    "Status_Dari": null,
    "PS_Male": 2,
    "PS_Female": 1,
    "PS_Total": 3,
    "ولسوالي": "گذره",
    "Region": "Western Region"
   },
   "geometry": {
    "x": 6950278.21230892,
    "y": 4061125.5216462794
   }
  },
  {
   "attributes": {
    "OBJECTID": 5160,
    "ولایت": "هرات",
    "Province": "HERAT",
    "PC_Code": "3203438",
    "District": "GUZARA",
    "د_مرکز_نوم__نام_مرکز": "مكتب نهستان",
    "Polling_Center_Name": "Nahistan School ",
    "د_مرکز_ځای__موقعیت_مرکز": "نهستان ",
    "Polling_Center_Location": "Nahistan ",
    "Map_Accuracy": "Village",
    "Map_Accuracy_Dari": "قریه",
    "Status": "Open",
    "Status_Dari": null,
    "PS_Male": 1,
    "PS_Female": 1,
    "PS_Total": 2,
    "ولسوالي": "گذره",
    "Region": "Western Region"
   },
   "geometry": {
    "x": 6915568.2674251897,
    "y": 4021658.4377978351
   }
  },
  {
   "attributes": {
    "OBJECTID": 5161,
    "ولایت": "هرات",
    "Province": "HERAT",
    "PC_Code": "3205262",
    "District": "ZENDAJAN",
    "د_مرکز_نوم__نام_مرکز": "مکتب چار دره",
    "Polling_Center_Name": "Chardarah School",
    "د_مرکز_ځای__موقعیت_مرکز": "شکیبان تاجیکی",
    "Polling_Center_Location": "Shikeban Tajeki",
    "Map_Accuracy": "Building",
    "Map_Accuracy_Dari": "تعمیر",
    "Status": "Open",
    "Status_Dari": null,
    "PS_Male": 2,
    "PS_Female": 1,
    "PS_Total": 3,
    "ولسوالي": "زنده جان ",
    "Region": "Western Region"
   },
   "geometry": {
    "x": 6876760.7856687466,
    "y": 4079064.0627796059
   }
  },
  {
   "attributes": {
    "OBJECTID": 5162,
    "ولایت": "هرات",
    "Province": "HERAT",
    "PC_Code": "3207178",
    "District": "KUSHK (RUBAT-E-SANGI)",
    "د_مرکز_نوم__نام_مرکز": "مکتب کاریز نو",
    "Polling_Center_Name": "Kariz Now School ",
    "د_مرکز_ځای__موقعیت_مرکز": " کاریز نو",
    "Polling_Center_Location": "Kariz Now ",
    "Map_Accuracy": "Building",
    "Map_Accuracy_Dari": "تعمیر",
    "Status": "Open",
    "Status_Dari": null,
    "PS_Male": 2,
    "PS_Female": 1,
    "PS_Total": 3,
    "ولسوالي": "کشک (رباط سنگی)",
    "Region": "Western Region"
   },
   "geometry": {
    "x": 6914415.8613398159,
    "y": 4163679.4993225848
   }
  },
  {
   "attributes": {
    "OBJECTID": 5163,
    "ولایت": "هرات",
    "Province": "HERAT",
    "PC_Code": "3207445",
    "District": "KUSHK (RUBAT-E-SANGI)",
    "د_مرکز_نوم__نام_مرکز": "مكتب حقابه اسدی",
    "Polling_Center_Name": "Haqaba Asadi School ",
    "د_مرکز_ځای__موقعیت_مرکز": "حقابه اسدی ",
    "Polling_Center_Location": "Huqaba Asadi ",
    "Map_Accuracy": "Village",
    "Map_Accuracy_Dari": "قریه",
    "Status": "Open",
    "Status_Dari": null,
    "PS_Male": 2,
    "PS_Female": 1,
    "PS_Total": 3,
    "ولسوالي": "کشک (رباط سنگی)",
    "Region": "Western Region"
   },
   "geometry": {
    "x": 6946184.810955287,
    "y": 4138795.7154650381
   }
  },
  {
   "attributes": {
    "OBJECTID": 5164,
    "ولایت": "هرات",
    "Province": "HERAT",
    "PC_Code": "3210406",
    "District": "KUSHK-E-KUHNA",
    "د_مرکز_نوم__نام_مرکز": "مکتب متوسطه پسران ککلم اول",
    "Polling_Center_Name": "Kaklam Awal Scondary School ",
    "د_مرکز_ځای__موقعیت_مرکز": "مرکز ولسوالی",
    "Polling_Center_Location": "District Center",
    "Map_Accuracy": "Building",
    "Map_Accuracy_Dari": "تعمیر",
    "Status": "Open",
    "Status_Dari": null,
    "PS_Male": 3,
    "PS_Female": 0,
    "PS_Total": 3,
    "ولسوالي": "کشک کهنه ",
    "Region": "Western Region"
   },
   "geometry": {
    "x": 6964186.8780311625,
    "y": 4143566.6871005166
   }
  },
  {
   "attributes": {
    "OBJECTID": 5165,
    "ولایت": "هرات",
    "Province": "HERAT",
    "PC_Code": "3211247",
    "District": "GHORYAN",
    "د_مرکز_نوم__نام_مرکز": "مکتب ابتدایی استونان",
    "Polling_Center_Name": "Astanan Primary School ",
    "د_مرکز_ځای__موقعیت_مرکز": "قریه استانان جوارسرک عمومی",
    "Polling_Center_Location": "Astanan Village near main road",
    "Map_Accuracy": "Building",
    "Map_Accuracy_Dari": "تعمیر",
    "Status": "Open",
    "Status_Dari": null,
    "PS_Male": 2,
    "PS_Female": 2,
    "PS_Total": 4,
    "ولسوالي": "غوریان ",
    "Region": "Western Region"
   },
   "geometry": {
    "x": 6842877.428079173,
    "y": 4079694.4870502586
   }
  },
  {
   "attributes": {
    "OBJECTID": 5166,
    "ولایت": "هرات",
    "Province": "HERAT",
    "PC_Code": "3212385",
    "District": "OBE",
    "د_مرکز_نوم__نام_مرکز": "مسجد تگاب ماهی",
    "Polling_Center_Name": "Tagab Mahi Mosque ",
    "د_مرکز_ځای__موقعیت_مرکز": "تکاب ماهی ",
    "Polling_Center_Location": "Takab Mahi ",
    "Map_Accuracy": "Village",
    "Map_Accuracy_Dari": "قریه",
    "Status": "Open",
    "Status_Dari": null,
    "PS_Male": 2,
    "PS_Female": 1,
    "PS_Total": 3,
    "ولسوالي": "اوبه ",
    "Region": "Western Region"
   },
   "geometry": {
    "x": 7044156.1619451176,
    "y": 4091441.3469056156
   }
  },
  {
   "attributes": {
    "OBJECTID": 5167,
    "ولایت": "هرات",
    "Province": "HERAT",
    "PC_Code": "3215359",
    "District": "FERSI",
    "د_مرکز_نوم__نام_مرکز": "مسجد حاجی آغا",
    "Polling_Center_Name": "Haji Aagha Mosque ",
    "د_مرکز_ځای__موقعیت_مرکز": "چپ رود",
    "Polling_Center_Location": "Chap Rod ",
    "Map_Accuracy": "Village",
    "Map_Accuracy_Dari": "قریه",
    "Status": "Open",
    "Status_Dari": null,
    "PS_Male": 2,
    "PS_Female": 1,
    "PS_Total": 3,
    "ولسوالي": "فرسی ",
    "Region": "Western Region"
   },
   "geometry": {
    "x": 7072640.38508185,
    "y": 4012468.605804198
   }
  },
  {
   "attributes": {
    "OBJECTID": 5168,
    "ولایت": "هرات",
    "Province": "HERAT",
    "PC_Code": "3216404",
    "District": "CHISHT-E-SHARIF",
    "د_مرکز_نوم__نام_مرکز": "فضای باز چشوی ",
    "Polling_Center_Name": "Cheshwi open Space",
    "د_مرکز_ځای__موقعیت_مرکز": "چشوی ",
    "Polling_Center_Location": "Cheshwi",
    "Map_Accuracy": "Village",
    "Map_Accuracy_Dari": "قریه",
    "Status": "Open",
    "Status_Dari": null,
    "PS_Male": 1,
    "PS_Female": 1,
    "PS_Total": 2,
    "ولسوالي": "چشت شریف",
    "Region": "Western Region"
   },
   "geometry": {
    "x": 7113690.5371296871,
    "y": 4085986.1479832688
   }
  },
  {
   "attributes": {
    "OBJECTID": 5169,
    "ولایت": " فراه",
    "Province": "FARAH",
    "PC_Code": "3301022",
    "District": "FARAH",
    "د_مرکز_نوم__نام_مرکز": "مکتب ابتدائیه اناث",
    "Polling_Center_Name": "Girls Primary School",
    "د_مرکز_ځای__موقعیت_مرکز": "کوک علیا",
    "Polling_Center_Location": "Kok Ulya",
    "Map_Accuracy": "Building",
    "Map_Accuracy_Dari": "تعمیر",
    "Status": "Open",
    "Status_Dari": null,
    "PS_Male": 3,
    "PS_Female": 1,
    "PS_Total": 4,
    "ولسوالي": "فراه",
    "Region": "Western Region"
   },
   "geometry": {
    "x": 6902721.3881568369,
    "y": 3800168.490094671
   }
  },
  {
   "attributes": {
    "OBJECTID": 5170,
    "ولایت": " فراه",
    "Province": "FARAH",
    "PC_Code": "3302045",
    "District": "PUSHTRUD",
    "د_مرکز_نوم__نام_مرکز": "مسجد نوبهار ",
    "Polling_Center_Name": "Naw Bahar Mosque ",
    "د_مرکز_ځای__موقعیت_مرکز": "نو بهار",
    "Polling_Center_Location": "Naw Bahar ",
    "Map_Accuracy": "Building",
    "Map_Accuracy_Dari": "تعمیر",
    "Status": "Open",
    "Status_Dari": null,
    "PS_Male": 1,
    "PS_Female": 1,
    "PS_Total": 2,
    "ولسوالي": "پشت رود",
    "Region": "Western Region"
   },
   "geometry": {
    "x": 6905391.428444921,
    "y": 3818162.7675642138
   }
  },
  {
   "attributes": {
    "OBJECTID": 5171,
    "ولایت": " فراه",
    "Province": "FARAH",
    "PC_Code": "3305092",
    "District": "SHIB KOH",
    "د_مرکز_نوم__نام_مرکز": "مکتب ابتدائیه محمد آباد ",
    "Polling_Center_Name": "Mohammad Abad Primary School ",
    "د_مرکز_ځای__موقعیت_مرکز": " محمد آباد",
    "Polling_Center_Location": "Mohammad Abad ",
    "Map_Accuracy": "Building",
    "Map_Accuracy_Dari": "تعمیر",
    "Status": "Open",
    "Status_Dari": null,
    "PS_Male": 1,
    "PS_Female": 1,
    "PS_Total": 2,
    "ولسوالي": "شیب کوه ",
    "Region": "Western Region"
   },
   "geometry": {
    "x": 6877026.3060313808,
    "y": 3805076.8315332849
   }
  },
  {
   "attributes": {
    "OBJECTID": 5172,
    "ولایت": " فراه",
    "Province": "FARAH",
    "PC_Code": "3307071",
    "District": "ANAR DARA",
    "د_مرکز_نوم__نام_مرکز": "مسجد کلان بوجوک ",
    "Polling_Center_Name": "Bujok Mosque ",
    "د_مرکز_ځای__موقعیت_مرکز": "قریه بوجوک",
    "Polling_Center_Location": "Bujok Village ",
    "Map_Accuracy": "Building",
    "Map_Accuracy_Dari": "تعمیر",
    "Status": "Open",
    "Status_Dari": null,
    "PS_Male": 1,
    "PS_Female": 1,
    "PS_Total": 2,
    "ولسوالي": "انار دره ",
    "Region": "Western Region"
   },
   "geometry": {
    "x": 6854861.8707245579,
    "y": 3846414.8762930478
   }
  },
  {
   "attributes": {
    "OBJECTID": 5173,
    "ولایت": " فراه",
    "Province": "FARAH",
    "PC_Code": "3309096",
    "District": "LASH-E-JUWAYN",
    "د_مرکز_نوم__نام_مرکز": "مکتب نسوان لفتان",
    "Polling_Center_Name": "Laftan Girls School",
    "د_مرکز_ځای__موقعیت_مرکز": " لفتان",
    "Polling_Center_Location": "Laftan ",
    "Map_Accuracy": "Building",
    "Map_Accuracy_Dari": "تعمیر",
    "Status": "Open",
    "Status_Dari": null,
    "PS_Male": 1,
    "PS_Female": 1,
    "PS_Total": 2,
    "ولسوالي": "لاش جوین ",
    "Region": "Western Region"
   },
   "geometry": {
    "x": 6857367.0780162318,
    "y": 3724024.9784937915
   }
  },
  {
   "attributes": {
    "OBJECTID": 5174,
    "ولایت": " فراه",
    "Province": "FARAH",
    "PC_Code": "3311199",
    "District": "PUR CHAMAN",
    "د_مرکز_نوم__نام_مرکز": "مسجد شهریاری",
    "Polling_Center_Name": "Shahr yari Mosque  ",
    "د_مرکز_ځای__موقعیت_مرکز": "شهریاری",
    "Polling_Center_Location": "Shahr yari ",
    "Map_Accuracy": "Village",
    "Map_Accuracy_Dari": "قریه",
    "Status": "Open",
    "Status_Dari": null,
    "PS_Male": 1,
    "PS_Female": 1,
    "PS_Total": 2,
    "ولسوالي": "پرچمن",
    "Region": "Western Region"
   },
   "geometry": {
    "x": 7070936.7716322597,
    "y": 3930199.5364144184
   }
  },
  {
   "attributes": {
    "OBJECTID": 5175,
    "ولایت": "نيمروز",
    "Province": "NIMROZ",
    "PC_Code": "3401002",
    "District": "ZARANJ",
    "د_مرکز_نوم__نام_مرکز": "ریاست زراعت",
    "Polling_Center_Name": "Agriculture Department ",
    "د_مرکز_ځای__موقعیت_مرکز": "زرنج ",
    "Polling_Center_Location": "Zaranj ",
    "Map_Accuracy": "Building",
    "Map_Accuracy_Dari": "تعمیر",
    "Status": "Open",
    "Status_Dari": null,
    "PS_Male": 4,
    "PS_Female": 3,
    "PS_Total": 7,
    "ولسوالي": " زرنج",
    "Region": "Southern Region"
   },
   "geometry": {
    "x": 6885726.3472509403,
    "y": 3628239.2855127309
   }
  },
  {
   "attributes": {
    "OBJECTID": 5176,
    "ولایت": "نيمروز",
    "Province": "NIMROZ",
    "PC_Code": "3404028",
    "District": "CHAR BURJAK",
    "د_مرکز_نوم__نام_مرکز": "مکتب قریه جهانبگ",
    "Polling_Center_Name": "Jahan Big Village School",
    "د_مرکز_ځای__موقعیت_مرکز": "قریه جهانبگ",
    "Polling_Center_Location": "Jahan Big Village",
    "Map_Accuracy": "District",
    "Map_Accuracy_Dari": "ولسوالی",
    "Status": "Open",
    "Status_Dari": null,
    "PS_Male": 2,
    "PS_Female": 1,
    "PS_Total": 3,
    "ولسوالي": "چهار برجک",
    "Region": "Southern Region"
   },
   "geometry": {
    "x": 6925278.2881208202,
    "y": 3530393.139527583
   }
  },
  {
   "attributes": {
    "OBJECTID": 5177,
    "ولایت": "کابل",
    "Province": "KABUL",
    "PC_Code": "0101037",
    "District": "KABUL-D03",
    "د_مرکز_نوم__نام_مرکز": "مسجد حنظله ",
    "Polling_Center_Name": "Hanzala Mosque",
    "د_مرکز_ځای__موقعیت_مرکز": "دهمزنگ",
    "Polling_Center_Location": "Dehmazang",
    "Map_Accuracy": "Village",
    "Map_Accuracy_Dari": "قریه",
    "Status": "Open",
    "Status_Dari": null,
    "PS_Male": 3,
    "PS_Female": 3,
    "PS_Total": 6,
    "ولسوالي": "کابل - ناحیه 03",
    "Region": "Central Region"
   },
   "geometry": {
    "x": 7698152.5264574196,
    "y": 4098026.0208533555
   }
  },
  {
   "attributes": {
    "OBJECTID": 5178,
    "ولایت": "کابل",
    "Province": "KABUL",
    "PC_Code": "0101152",
    "District": "KABUL-D08",
    "د_مرکز_نوم__نام_مرکز": "  لیسه عبدالرحمن پژواک ",
    "Polling_Center_Name": "Abdul Rahman Pazhwak High School",
    "د_مرکز_ځای__موقعیت_مرکز": "پروژه رحمن مينه",
    "Polling_Center_Location": "Proja-e-Rahman Mina",
    "Map_Accuracy": "Building",
    "Map_Accuracy_Dari": "تعمیر",
    "Status": "Open",
    "Status_Dari": null,
    "PS_Male": 4,
    "PS_Female": 1,
    "PS_Total": 5,
    "ولسوالي": "کابل - ناحیه 08",
    "Region": "Central Region"
   },
   "geometry": {
    "x": 7705995.2606561398,
    "y": 4094236.5601290348
   }
  },
  {
   "attributes": {
    "OBJECTID": 5179,
    "ولایت": "کابل",
    "Province": "KABUL",
    "PC_Code": "0101188",
    "District": "KABUL-D09",
    "د_مرکز_نوم__نام_مرکز": " بلاک اول رياست هوا شناسي",
    "Polling_Center_Name": "1st Block of Reyasat Hawa Shanasi",
    "د_مرکز_ځای__موقعیت_مرکز": "سرک ميدان هوايي",
    "Polling_Center_Location": "Airport Road",
    "Map_Accuracy": "Building",
    "Map_Accuracy_Dari": "تعمیر",
    "Status": "Open",
    "Status_Dari": null,
    "PS_Male": 3,
    "PS_Female": 3,
    "PS_Total": 6,
    "ولسوالي": "کابل - ناحیه 09",
    "Region": "Central Region"
   },
   "geometry": {
    "x": 7704804.7788521396,
    "y": 4103555.2931870446
   }
  },
  {
   "attributes": {
    "OBJECTID": 5180,
    "ولایت": "کابل",
    "Province": "KABUL",
    "PC_Code": "0101189",
    "District": "KABUL-D09",
    "د_مرکز_نوم__نام_مرکز": " مکتب متوسطه پکتيا کوت",
    "Polling_Center_Name": "Paktia Kot Secondary School",
    "د_مرکز_ځای__موقعیت_مرکز": "سرک پلچرخي",
    "Polling_Center_Location": "Pul-e-Charkhi Road",
    "Map_Accuracy": "Building",
    "Map_Accuracy_Dari": "تعمیر",
    "Status": "Open",
    "Status_Dari": null,
    "PS_Male": 4,
    "PS_Female": 2,
    "PS_Total": 6,
    "ولسوالي": "کابل - ناحیه 09",
    "Region": "Central Region"
   },
   "geometry": {
    "x": 7713777.9424423594,
    "y": 4101900.7864544736
   }
  },
  {
   "attributes": {
    "OBJECTID": 5181,
    "ولایت": "کابل",
    "Province": "KABUL",
    "PC_Code": "0101256",
    "District": "KABUL-D13",
    "د_مرکز_نوم__نام_مرکز": "مسجد اتحاد",
    "Polling_Center_Name": "Itehad Mosque",
    "د_مرکز_ځای__موقعیت_مرکز": "عقب تانک تيل برچي",
    "Polling_Center_Location": "Behind Barchi Pump Station",
    "Map_Accuracy": "Building",
    "Map_Accuracy_Dari": "تعمیر",
    "Status": "Open",
    "Status_Dari": null,
    "PS_Male": 4,
    "PS_Female": 2,
    "PS_Total": 6,
    "ولسوالي": "کابل - ناحیه 13",
    "Region": "Central Region"
   },
   "geometry": {
    "x": 7689425.5403551077,
    "y": 4096685.4609143264
   }
  },
  {
   "attributes": {
    "OBJECTID": 5182,
    "ولایت": "کابل",
    "Province": "KABUL",
    "PC_Code": "0101328",
    "District": "KABUL-D17",
    "د_مرکز_نوم__نام_مرکز": " ليسه قاری نيک محمد",
    "Polling_Center_Name": "Qari Naik Mohammad High School",
    "د_مرکز_ځای__موقعیت_مرکز": "تهيه مسکن",
    "Polling_Center_Location": "Tahya-e-Maskan",
    "Map_Accuracy": "Building",
    "Map_Accuracy_Dari": "تعمیر",
    "Status": "Open",
    "Status_Dari": null,
    "PS_Male": 4,
    "PS_Female": 4,
    "PS_Total": 8,
    "ولسوالي": "کابل - ناحیه 17",
    "Region": "Central Region"
   },
   "geometry": {
    "x": 7695345.4451969992,
    "y": 4103320.1047780877
   }
  },
  {
   "attributes": {
    "OBJECTID": 5183,
    "ولایت": "کاپيسا",
    "Province": "KAPISA",
    "PC_Code": "0202024",
    "District": "HISSA-E-DUWUMI KOHISTAN",
    "د_مرکز_نوم__نام_مرکز": "مسجد خم روباه  ",
    "Polling_Center_Name": "Kham Roba Mosque",
    "د_مرکز_ځای__موقعیت_مرکز": "خم روباه ",
    "Polling_Center_Location": "kham Roba",
    "Map_Accuracy": "Village",
    "Map_Accuracy_Dari": "قریه",
    "Status": "Open",
    "Status_Dari": null,
    "PS_Male": 3,
    "PS_Female": 1,
    "PS_Total": 4,
    "ولسوالي": "حصه دوم کوهستان",
    "Region": "Central Region"
   },
   "geometry": {
    "x": 7718736.8806667784,
    "y": 4173372.9049808821
   }
  },
  {
   "attributes": {
    "OBJECTID": 5184,
    "ولایت": "کاپيسا",
    "Province": "KAPISA",
    "PC_Code": "0204034",
    "District": "HISSA-E-AWALI KOHISTAN",
    "د_مرکز_نوم__نام_مرکز": "لیسه نسوان نمازجای",
    "Polling_Center_Name": "Namaz Jay Girls High School ",
    "د_مرکز_ځای__موقعیت_مرکز": "نمازجای ",
    "Polling_Center_Location": "Namaz Jay ",
    "Map_Accuracy": "Building",
    "Map_Accuracy_Dari": "تعمیر",
    "Status": "Open",
    "Status_Dari": null,
    "PS_Male": 3,
    "PS_Female": 2,
    "PS_Total": 5,
    "ولسوالي": "حصه اول کوهستان ",
    "Region": "Central Region"
   },
   "geometry": {
    "x": 7713654.0883769039,
    "y": 4183936.0799781247
   }
  },
  {
   "attributes": {
    "OBJECTID": 5185,
    "ولایت": "وردک",
    "Province": "WARDAK",
    "PC_Code": "0402159",
    "District": "NERKH",
    "د_مرکز_نوم__نام_مرکز": "خیمه سور بغل",
    "Polling_Center_Name": "Surbaghal Tent ",
    "د_مرکز_ځای__موقعیت_مرکز": "سور بغل",
    "Polling_Center_Location": "Surbaghal",
    "Map_Accuracy": "Village",
    "Map_Accuracy_Dari": "قریه",
    "Status": "Open",
    "Status_Dari": null,
    "PS_Male": 2,
    "PS_Female": 1,
    "PS_Total": 3,
    "ولسوالي": "نرخ",
    "Region": "Central Region"
   },
   "geometry": {
    "x": 7660128.6270494489,
    "y": 4078699.2953509092
   }
  },
  {
   "attributes": {
    "OBJECTID": 5186,
    "ولایت": "پکتيکا",
    "Province": "PAKTIKA",
    "PC_Code": "1210159",
    "District": "SURUBI",
    "د_مرکز_نوم__نام_مرکز": "جومات ناوی خیل",
    "Polling_Center_Name": "Navi Khel Mosque",
    "د_مرکز_ځای__موقعیت_مرکز": "ناوی خیل",
    "Polling_Center_Location": "Navi Khel",
    "Map_Accuracy": "Village",
    "Map_Accuracy_Dari": "قریه",
    "Status": "Open",
    "Status_Dari": null,
    "PS_Male": 2,
    "PS_Female": 0,
    "PS_Total": 2,
    "ولسوالي": "سروبی",
    "Region": "South Eastern Region"
   },
   "geometry": {
    "x": 7691833.5301090842,
    "y": 3867489.9347831281
   }
  },
  {
   "attributes": {
    "OBJECTID": 5187,
    "ولایت": "پکتيکا",
    "Province": "PAKTIKA",
    "PC_Code": "1210160",
    "District": "SURUBI",
    "د_مرکز_نوم__نام_مرکز": "ملاح سمندر میلمستون",
    "Polling_Center_Name": "Molla Samandar Guest House",
    "د_مرکز_ځای__موقعیت_مرکز": "ناوی خیل",
    "Polling_Center_Location": "Navi Khel",
    "Map_Accuracy": "Village",
    "Map_Accuracy_Dari": "قریه",
    "Status": "Open",
    "Status_Dari": null,
    "PS_Male": 0,
    "PS_Female": 2,
    "PS_Total": 2,
    "ولسوالي": "سروبی",
    "Region": "South Eastern Region"
   },
   "geometry": {
    "x": 7691860.8835343625,
    "y": 3867502.6669040881
   }
  },
  {
   "attributes": {
    "OBJECTID": 5188,
    "ولایت": "پکتيکا",
    "Province": "PAKTIKA",
    "PC_Code": "1211174",
    "District": "URGOON",
    "د_مرکز_نوم__نام_مرکز": "حاجی فضل میلمستون",
    "Polling_Center_Name": "Haji Fazel Guest House",
    "د_مرکز_ځای__موقعیت_مرکز": "قلعه جانی",
    "Polling_Center_Location": "Jani Qala",
    "Map_Accuracy": "Building",
    "Map_Accuracy_Dari": "تعمیر",
    "Status": "Open",
    "Status_Dari": null,
    "PS_Male": 0,
    "PS_Female": 2,
    "PS_Total": 2,
    "ولسوالي": "اورگون",
    "Region": "South Eastern Region"
   },
   "geometry": {
    "x": 7698520.6076933099,
    "y": 3878971.3557331529
   }
  },
  {
   "attributes": {
    "OBJECTID": 5189,
    "ولایت": "پکتيکا",
    "Province": "PAKTIKA",
    "PC_Code": "1212187",
    "District": "ZIRUK",
    "د_مرکز_نوم__نام_مرکز": "زیړوک ښوونځی",
    "Polling_Center_Name": "Ziruk School",
    "د_مرکز_ځای__موقعیت_مرکز": "خودکی",
    "Polling_Center_Location": "Khodeki",
    "Map_Accuracy": "Building",
    "Map_Accuracy_Dari": "تعمیر",
    "Status": "Open",
    "Status_Dari": null,
    "PS_Male": 4,
    "PS_Female": 0,
    "PS_Total": 4,
    "ولسوالي": "زیړوک",
    "Region": "South Eastern Region"
   },
   "geometry": {
    "x": 7716948.3104082011,
    "y": 3915835.1050840113
   }
  },
  {
   "attributes": {
    "OBJECTID": 5190,
    "ولایت": "پکتيکا",
    "Province": "PAKTIKA",
    "PC_Code": "1212188",
    "District": "ZIRUK",
    "د_مرکز_نوم__نام_مرکز": "عالمی کلی مدرسه",
    "Polling_Center_Name": "Alimi Village Madrassa",
    "د_مرکز_ځای__موقعیت_مرکز": "عالمی کلی",
    "Polling_Center_Location": "Alimi Village",
    "Map_Accuracy": "Building",
    "Map_Accuracy_Dari": "تعمیر",
    "Status": "Open",
    "Status_Dari": null,
    "PS_Male": 0,
    "PS_Female": 3,
    "PS_Total": 3,
    "ولسوالي": "زیړوک",
    "Region": "South Eastern Region"
   },
   "geometry": {
    "x": 7716345.163595967,
    "y": 3916122.823240805
   }
  },
  {
   "attributes": {
    "OBJECTID": 5191,
    "ولایت": "پکتيکا",
    "Province": "PAKTIKA",
    "PC_Code": "1213199",
    "District": "NIKA",
    "د_مرکز_نوم__نام_مرکز": "غازی خان جومات",
    "Polling_Center_Name": "Ghazi Khan Mosque",
    "د_مرکز_ځای__موقعیت_مرکز": "جانت خان",
    "Polling_Center_Location": "Janat Khan",
    "Map_Accuracy": "Village",
    "Map_Accuracy_Dari": "قریه",
    "Status": "Open",
    "Status_Dari": null,
    "PS_Male": 2,
    "PS_Female": 0,
    "PS_Total": 2,
    "ولسوالي": "نیکه",
    "Region": "South Eastern Region"
   },
   "geometry": {
    "x": 7711374.9598390786,
    "y": 3920337.6886295672
   }
  },
  {
   "attributes": {
    "OBJECTID": 5192,
    "ولایت": "پکتيکا",
    "Province": "PAKTIKA",
    "PC_Code": "1213200",
    "District": "NIKA",
    "د_مرکز_نوم__نام_مرکز": "حاجی سخی جان میلمستون",
    "Polling_Center_Name": "Haji Sakhi Jan Guest House",
    "د_مرکز_ځای__موقعیت_مرکز": "جانت خان",
    "Polling_Center_Location": "Janat Khan",
    "Map_Accuracy": "Village",
    "Map_Accuracy_Dari": "قریه",
    "Status": "Open",
    "Status_Dari": null,
    "PS_Male": 0,
    "PS_Female": 2,
    "PS_Total": 2,
    "ولسوالي": "نیکه",
    "Region": "South Eastern Region"
   },
   "geometry": {
    "x": 7711323.1261445787,
    "y": 3920464.373036793
   }
  },
  {
   "attributes": {
    "OBJECTID": 5193,
    "ولایت": "پکتيکا",
    "Province": "PAKTIKA",
    "PC_Code": "1214305",
    "District": "BARMAL",
    "د_مرکز_نوم__نام_مرکز": "شیرباز میلمستون ",
    "Polling_Center_Name": " Bahadr Mosque",
    "د_مرکز_ځای__موقعیت_مرکز": "ملک نورالله",
    "Polling_Center_Location": "Malik Noorullah",
    "Map_Accuracy": "District",
    "Map_Accuracy_Dari": "ولسوالی",
    "Status": "Open",
    "Status_Dari": null,
    "PS_Male": 3,
    "PS_Female": 0,
    "PS_Total": 3,
    "ولسوالي": "برمل",
    "Region": "South Eastern Region"
   },
   "geometry": {
    "x": 7709329.1068601878,
    "y": 3835643.8119963543
   }
  },
  {
   "attributes": {
    "OBJECTID": 5194,
    "ولایت": "پکتيکا",
    "Province": "PAKTIKA",
    "PC_Code": "1217229",
    "District": "WAZAKHWAH",
    "د_مرکز_نوم__نام_مرکز": "گلالبی جومات",
    "Polling_Center_Name": "Gulalabi Mosque",
    "د_مرکز_ځای__موقعیت_مرکز": "گلالبی",
    "Polling_Center_Location": "Gulalabi",
    "Map_Accuracy": "Village",
    "Map_Accuracy_Dari": "قریه",
    "Status": "Open",
    "Status_Dari": null,
    "PS_Male": 0,
    "PS_Female": 3,
    "PS_Total": 3,
    "ولسوالي": "وازه خواه",
    "Region": "South Eastern Region"
   },
   "geometry": {
    "x": 7604247.4582800651,
    "y": 3787211.865684757
   }
  },
  {
   "attributes": {
    "OBJECTID": 5195,
    "ولایت": "پکتيا",
    "Province": "PAKTYA",
    "PC_Code": "1301005",
    "District": "GARDEZ",
    "د_مرکز_نوم__نام_مرکز": "لیسه عبداله خیل",
    "Polling_Center_Name": "Abdula Khel High School ",
    "د_مرکز_ځای__موقعیت_مرکز": "تیره",
    "Polling_Center_Location": "Tera",
    "Map_Accuracy": "Building",
    "Map_Accuracy_Dari": "تعمیر",
    "Status": "Open",
    "Status_Dari": null,
    "PS_Male": 3,
    "PS_Female": 2,
    "PS_Total": 5,
    "ولسوالي": "گردیز",
    "Region": "South Eastern Region"
   },
   "geometry": {
    "x": 7706532.0992344506,
    "y": 3982618.2298568292
   }
  },
  {
   "attributes": {
    "OBJECTID": 5196,
    "ولایت": "پکتيا",
    "Province": "PAKTYA",
    "PC_Code": "1311210",
    "District": "DAND PATAN",
    "د_مرکز_نوم__نام_مرکز": "مټورخ مسجد",
    "Polling_Center_Name": "Matorokh Mosque",
    "د_مرکز_ځای__موقعیت_مرکز": "دمټورخ كلي",
    "Polling_Center_Location": "Matorokh Village",
    "Map_Accuracy": "Building",
    "Map_Accuracy_Dari": "تعمیر",
    "Status": "Open",
    "Status_Dari": null,
    "PS_Male": 1,
    "PS_Female": 1,
    "PS_Total": 2,
    "ولسوالي": "ډنډ پټان",
    "Region": "South Eastern Region"
   },
   "geometry": {
    "x": 7780350.8963453043,
    "y": 4002041.0545031591
   }
  },
  {
   "attributes": {
    "OBJECTID": 5197,
    "ولایت": "خوست",
    "Province": "KHOST",
    "PC_Code": "1402089",
    "District": "MANDUZAY",
    "د_مرکز_نوم__نام_مرکز": "عجب خان کلي جومات درنامي",
    "Polling_Center_Name": "Ajab Khan Village Mosque",
    "د_مرکز_ځای__موقعیت_مرکز": "درنامي",
    "Polling_Center_Location": "Darnami",
    "Map_Accuracy": "Building",
    "Map_Accuracy_Dari": "تعمیر",
    "Status": "Open",
    "Status_Dari": null,
    "PS_Male": 2,
    "PS_Female": 1,
    "PS_Total": 3,
    "ولسوالي": "مندوزی",
    "Region": "South Eastern Region"
   },
   "geometry": {
    "x": 7764621.9810637981,
    "y": 3937009.6913494137
   }
  },
  {
   "attributes": {
    "OBJECTID": 5198,
    "ولایت": "خوست",
    "Province": "KHOST",
    "PC_Code": "1410110",
    "District": "QALANDAR",
    "د_مرکز_نوم__نام_مرکز": "خیمه په تورشره کلی کی",
    "Polling_Center_Name": "Tor Shara Village Tent",
    "د_مرکز_ځای__موقعیت_مرکز": "تورشره کلی",
    "Polling_Center_Location": "Torshara",
    "Map_Accuracy": "Building",
    "Map_Accuracy_Dari": "تعمیر",
    "Status": "Open",
    "Status_Dari": null,
    "PS_Male": 2,
    "PS_Female": 2,
    "PS_Total": 4,
    "ولسوالي": "قلندر",
    "Region": "South Eastern Region"
   },
   "geometry": {
    "x": 7756340.4844316971,
    "y": 3963763.5159714711
   }
  },
  {
   "attributes": {
    "OBJECTID": 5199,
    "ولایت": "بدخشان",
    "Province": "BADAKHSHAN",
    "PC_Code": "1715155",
    "District": "KISHM",
    "د_مرکز_نوم__نام_مرکز": "مکتب نوچی ",
    "Polling_Center_Name": "Nochi School",
    "د_مرکز_ځای__موقعیت_مرکز": "نوچی ",
    "Polling_Center_Location": "Nochi",
    "Map_Accuracy": "Building",
    "Map_Accuracy_Dari": "تعمیر",
    "Status": "Open",
    "Status_Dari": null,
    "PS_Male": 2,
    "PS_Female": 1,
    "PS_Total": 3,
    "ولسوالي": "کشم",
    "Region": "North Eastern Region"
   },
   "geometry": {
    "x": 7804588.8330529528,
    "y": 4427898.9288596632
   }
  },
  {
   "attributes": {
    "OBJECTID": 5200,
    "ولایت": "بدخشان",
    "Province": "BADAKHSHAN",
    "PC_Code": "1715156",
    "District": "KISHM",
    "د_مرکز_نوم__نام_مرکز": "لیسه محزون بلوچ",
    "Polling_Center_Name": "Mahzoon Baloch High School",
    "د_مرکز_ځای__موقعیت_مرکز": "بلوچ",
    "Polling_Center_Location": "Baloch",
    "Map_Accuracy": "Building",
    "Map_Accuracy_Dari": "تعمیر",
    "Status": "Open",
    "Status_Dari": null,
    "PS_Male": 2,
    "PS_Female": 1,
    "PS_Total": 3,
    "ولسوالي": "کشم",
    "Region": "North Eastern Region"
   },
   "geometry": {
    "x": 7802652.5396036999,
    "y": 4417808.8588181455
   }
  }
 ]
}