{
 "displayFieldName": "Polling_Center_Name",
 "fieldAliases": {
  "OBJECTID": "OBJECTID",
  "ولایت": "ولایت",
  "Province": "Province",
  "PC_Code": "PC_Code",
  "District": "District",
  "د_مرکز_نوم__نام_مرکز": "د_مرکز_نوم__نام_مرکز",
  "Polling_Center_Name": "Polling_Center_Name",
  "د_مرکز_ځای__موقعیت_مرکز": "د_مرکز_ځای__موقعیت_مرکز",
  "Polling_Center_Location": "Polling_Center_Location",
  "Map_Accuracy": "Map_Accuracy",
  "Map_Accuracy_Dari": "Map_Accuracy_Dari",
  "Status": "Status",
  "Status_Dari": "Status_Dari",
  "PS_Male": "PS_Male",
  "PS_Female": "PS_Female",
  "PS_Total": "PS_Total",
  "ولسوالي": "ولسوالي",
  "Region": "Region"
 },
 "geometryType": "esriGeometryPoint",
 "spatialReference": {
  "wkid": 102100,
  "latestWkid": 3857
 },
 "fields": [
  {
   "name": "OBJECTID",
   "type": "esriFieldTypeOID",
   "alias": "OBJECTID"
  },
  {
   "name": "ولایت",
   "type": "esriFieldTypeString",
   "alias": "ولایت",
   "length": 255
  },
  {
   "name": "Province",
   "type": "esriFieldTypeString",
   "alias": "Province",
   "length": 255
  },
  {
   "name": "PC_Code",
   "type": "esriFieldTypeString",
   "alias": "PC_Code",
   "length": 255
  },
  {
   "name": "District",
   "type": "esriFieldTypeString",
   "alias": "District",
   "length": 255
  },
  {
   "name": "د_مرکز_نوم__نام_مرکز",
   "type": "esriFieldTypeString",
   "alias": "د_مرکز_نوم__نام_مرکز",
   "length": 255
  },
  {
   "name": "Polling_Center_Name",
   "type": "esriFieldTypeString",
   "alias": "Polling_Center_Name",
   "length": 255
  },
  {
   "name": "د_مرکز_ځای__موقعیت_مرکز",
   "type": "esriFieldTypeString",
   "alias": "د_مرکز_ځای__موقعیت_مرکز",
   "length": 255
  },
  {
   "name": "Polling_Center_Location",
   "type": "esriFieldTypeString",
   "alias": "Polling_Center_Location",
   "length": 255
  },
  {
   "name": "Map_Accuracy",
   "type": "esriFieldTypeString",
   "alias": "Map_Accuracy",
   "length": 10
  },
  {
   "name": "Map_Accuracy_Dari",
   "type": "esriFieldTypeString",
   "alias": "Map_Accuracy_Dari",
   "length": 50
  },
  {
   "name": "Status",
   "type": "esriFieldTypeString",
   "alias": "Status",
   "length": 6
  },
  {
   "name": "Status_Dari",
   "type": "esriFieldTypeString",
   "alias": "Status_Dari",
   "length": 8
  },
  {
   "name": "PS_Male",
   "type": "esriFieldTypeSmallInteger",
   "alias": "PS_Male"
  },
  {
   "name": "PS_Female",
   "type": "esriFieldTypeSmallInteger",
   "alias": "PS_Female"
  },
  {
   "name": "PS_Total",
   "type": "esriFieldTypeSmallInteger",
   "alias": "PS_Total"
  },
  {
   "name": "ولسوالي",
   "type": "esriFieldTypeString",
   "alias": "ولسوالي",
   "length": 255
  },
  {
   "name": "Region",
   "type": "esriFieldTypeString",
   "alias": "Region",
   "length": 50
  }
 ],
 "features": [
  {
   "attributes": {
    "OBJECTID": 201,
    "ولایت": "ارزگان",
    "Province": "UROZGAN",
    "PC_Code": "2506048",
    "District": "CHENARTO",
    "د_مرکز_نوم__نام_مرکز": "مکتب ابتدائیه چنار",
    "Polling_Center_Name": "Chinar Primary School",
    "د_مرکز_ځای__موقعیت_مرکز": "چنار",
    "Polling_Center_Location": "Chinar",
    "Map_Accuracy": "Village",
    "Map_Accuracy_Dari": "قریه",
    "Status": "Open",
    "Status_Dari": null,
    "PS_Male": 5,
    "PS_Female": 0,
    "PS_Total": 5,
    "ولسوالي": "چنارتو",
    "Region": "Southern Region"
   },
   "geometry": {
    "x": 7376906.323591291,
    "y": 3859970.899135327
   }
  },
  {
   "attributes": {
    "OBJECTID": 202,
    "ولایت": "سرپل",
    "Province": "SAR-E-PUL",
    "PC_Code": "2201015",
    "District": "SAR-E-PUL",
    "د_مرکز_نوم__نام_مرکز": "مکتب ابتدائیه ذاکر",
    "Polling_Center_Name": "Zakir Primary School",
    "د_مرکز_ځای__موقعیت_مرکز": "قریه ذاکر",
    "Polling_Center_Location": "Zakir Village",
    "Map_Accuracy": "Village",
    "Map_Accuracy_Dari": "قریه",
    "Status": "Open",
    "Status_Dari": null,
    "PS_Male": 3,
    "PS_Female": 1,
    "PS_Total": 4,
    "ولسوالي": "سرپل",
    "Region": "Northern Region"
   },
   "geometry": {
    "x": 7372166.6736317864,
    "y": 4333543.6314154556
   }
  },
  {
   "attributes": {
    "OBJECTID": 203,
    "ولایت": "بدخشان",
    "Province": "BADAKHSHAN",
    "PC_Code": "1722262",
    "District": "DARWAZ-E-PAYIN",
    "د_مرکز_نوم__نام_مرکز": "مکتب چاشتک ",
    "Polling_Center_Name": "Chashtak School",
    "د_مرکز_ځای__موقعیت_مرکز": "قریه چاشتک",
    "Polling_Center_Location": "Chashtak Village",
    "Map_Accuracy": "Village",
    "Map_Accuracy_Dari": "قریه",
    "Status": "Open",
    "Status_Dari": null,
    "PS_Male": 2,
    "PS_Female": 1,
    "PS_Total": 3,
    "ولسوالي": "درواز پائین (مایمی)",
    "Region": "North Eastern Region"
   },
   "geometry": {
    "x": 7926365.1925715609,
    "y": 4623963.7824473688
   }
  },
  {
   "attributes": {
    "OBJECTID": 204,
    "ولایت": "کندهار",
    "Province": "کندهار",
    "PC_Code": "2701037",
    "District": "KANDAHAR",
    "د_مرکز_نوم__نام_مرکز": "پخواني رياست معارف",
    "Polling_Center_Name": "Old Education Department",
    "د_مرکز_ځای__موقعیت_مرکز": "شپږمه ناحيه",
    "Polling_Center_Location": "D06 - Nahia 6",
    "Map_Accuracy": "Village",
    "Map_Accuracy_Dari": "قریه",
    "Status": "Open",
    "Status_Dari": null,
    "PS_Male": 1,
    "PS_Female": 5,
    "PS_Total": 6,
    "ولسوالي": "کندهار",
    "Region": "Southern Region"
   },
   "geometry": {
    "x": 7313312.3928078534,
    "y": 3713976.6514234245
   }
  },
  {
   "attributes": {
    "OBJECTID": 205,
    "ولایت": "فارياب",
    "Province": "FARYAB",
    "PC_Code": "2902034",
    "District": "PASHTUN KOT",
    "د_مرکز_نوم__نام_مرکز": "مسجد ولی جان",
    "Polling_Center_Name": "Wali Jan Mosque",
    "د_مرکز_ځای__موقعیت_مرکز": "ولی جان",
    "Polling_Center_Location": "Wali Jan",
    "Map_Accuracy": "Village",
    "Map_Accuracy_Dari": "قریه",
    "Status": "Open",
    "Status_Dari": null,
    "PS_Male": 2,
    "PS_Female": 1,
    "PS_Total": 3,
    "ولسوالي": "پشتون کوت",
    "Region": "Northern Region"
   },
   "geometry": {
    "x": 7209185.9222316779,
    "y": 4281889.4667025842
   }
  },
  {
   "attributes": {
    "OBJECTID": 206,
    "ولایت": "غور",
    "Province": "GHOR",
    "PC_Code": "2309184",
    "District": "TULAK",
    "د_مرکز_نوم__نام_مرکز": "بازار دورودی",
    "Polling_Center_Name": "Dorody Bazar",
    "د_مرکز_ځای__موقعیت_مرکز": "قریه خفته ",
    "Polling_Center_Location": "Khufta Village",
    "Map_Accuracy": "Village",
    "Map_Accuracy_Dari": "قریه",
    "Status": "Open",
    "Status_Dari": null,
    "PS_Male": 2,
    "PS_Female": 2,
    "PS_Total": 4,
    "ولسوالي": "تولک ",
    "Region": "Western Region"
   },
   "geometry": {
    "x": 7090856.4204641692,
    "y": 4002863.0020080041
   }
  },
  {
   "attributes": {
    "OBJECTID": 207,
    "ولایت": "پکتيکا",
    "Province": "PAKTIKA",
    "PC_Code": "1218245",
    "District": "WOR MAMY",
    "د_مرکز_نوم__نام_مرکز": "میلمستون حاجی نواب خان",
    "Polling_Center_Name": "Haji Nawab Khan Guest House",
    "د_مرکز_ځای__موقعیت_مرکز": "سنګرخیل",
    "Polling_Center_Location": "Sangar Khel ",
    "Map_Accuracy": "Village",
    "Map_Accuracy_Dari": "قریه",
    "Status": "Open",
    "Status_Dari": null,
    "PS_Male": 2,
    "PS_Female": 1,
    "PS_Total": 3,
    "ولسوالي": "وړممی",
    "Region": "South Eastern Region"
   },
   "geometry": {
    "x": 7648143.7213149881,
    "y": 3759992.9540229728
   }
  },
  {
   "attributes": {
    "OBJECTID": 208,
    "ولایت": "کابل",
    "Province": "KABUL",
    "PC_Code": "0101163",
    "District": "KABUL-D08",
    "د_مرکز_نوم__نام_مرکز": " مسجد قندهاری ها ",
    "Polling_Center_Name": "Kandari Ha Mosque",
    "د_مرکز_ځای__موقعیت_مرکز": "قلعه حشمت خان",
    "Polling_Center_Location": "Qala-e-Hashmat Khan",
    "Map_Accuracy": "Village",
    "Map_Accuracy_Dari": "قریه",
    "Status": "Open",
    "Status_Dari": null,
    "PS_Male": 3,
    "PS_Female": 2,
    "PS_Total": 5,
    "ولسوالي": "کابل - ناحیه 08",
    "Region": "Central Region"
   },
   "geometry": {
    "x": 7702084.4711347939,
    "y": 4096021.7952773571
   }
  },
  {
   "attributes": {
    "OBJECTID": 209,
    "ولایت": "کابل",
    "Province": "KABUL",
    "PC_Code": "0101164",
    "District": "KABUL-D08",
    "د_مرکز_نوم__نام_مرکز": " مسجد سید شهدا",
    "Polling_Center_Name": "Sayed Shahda Mosque",
    "د_مرکز_ځای__موقعیت_مرکز": "قلعچه خمدان",
    "Polling_Center_Location": "Qalacha Khumdan",
    "Map_Accuracy": "Village",
    "Map_Accuracy_Dari": "قریه",
    "Status": "Open",
    "Status_Dari": null,
    "PS_Male": 3,
    "PS_Female": 2,
    "PS_Total": 5,
    "ولسوالي": "کابل - ناحیه 08",
    "Region": "Central Region"
   },
   "geometry": {
    "x": 7704039.5753515959,
    "y": 4096475.1140121548
   }
  },
  {
   "attributes": {
    "OBJECTID": 210,
    "ولایت": "کابل",
    "Province": "KABUL",
    "PC_Code": "0101309",
    "District": "KABUL-D15",
    "د_مرکز_نوم__نام_مرکز": " مسجد محمديه",
    "Polling_Center_Name": "Mohammadia Mosque",
    "د_مرکز_ځای__موقعیت_مرکز": "سه راهي خواجه بغرا",
    "Polling_Center_Location": "Sari Pule Khaja Bughra",
    "Map_Accuracy": "Village",
    "Map_Accuracy_Dari": "قریه",
    "Status": "Open",
    "Status_Dari": null,
    "PS_Male": 2,
    "PS_Female": 2,
    "PS_Total": 4,
    "ولسوالي": "کابل - ناحیه 15",
    "Region": "Central Region"
   },
   "geometry": {
    "x": 7698834.2759621032,
    "y": 4105882.3560786694
   }
  },
  {
   "attributes": {
    "OBJECTID": 211,
    "ولایت": "کابل",
    "Province": "KABUL",
    "PC_Code": "0101311",
    "District": "KABUL-D15",
    "د_مرکز_نوم__نام_مرکز": " مسجد زيد بن ثابت",
    "Polling_Center_Name": "Zaid Bine Sabit Mosque",
    "د_مرکز_ځای__موقعیت_مرکز": "زيارت خواجه بغرا",
    "Polling_Center_Location": "Ziarat-e-Khwaja Bughra",
    "Map_Accuracy": "Building",
    "Map_Accuracy_Dari": "تعمیر",
    "Status": "Open",
    "Status_Dari": null,
    "PS_Male": 2,
    "PS_Female": 2,
    "PS_Total": 4,
    "ولسوالي": "کابل - ناحیه 15",
    "Region": "Central Region"
   },
   "geometry": {
    "x": 7699466.2367113354,
    "y": 4106366.2215802125
   }
  },
  {
   "attributes": {
    "OBJECTID": 212,
    "ولایت": "کابل",
    "Province": "KABUL",
    "PC_Code": "0101324",
    "District": "KABUL-D16",
    "د_مرکز_نوم__نام_مرکز": "مسجد نعمانيه",
    "Polling_Center_Name": "Nomania Mosque",
    "د_مرکز_ځای__موقعیت_مرکز": "قلعه شورا",
    "Polling_Center_Location": "Qala-e-Shura",
    "Map_Accuracy": "Village",
    "Map_Accuracy_Dari": "قریه",
    "Status": "Open",
    "Status_Dari": null,
    "PS_Male": 1,
    "PS_Female": 2,
    "PS_Total": 3,
    "ولسوالي": "کابل - ناحیه 16",
    "Region": "Central Region"
   },
   "geometry": {
    "x": 7706039.3186842082,
    "y": 4101066.8729989016
   }
  },
  {
   "attributes": {
    "OBJECTID": 213,
    "ولایت": "پروان",
    "Province": "PARWAN",
    "PC_Code": "0301004",
    "District": "CHARIKAR",
    "د_مرکز_نوم__نام_مرکز": "لیسه لیلا صراحت روشنی ",
    "Polling_Center_Name": "Laila Sarahat Roshani High School ",
    "د_مرکز_ځای__موقعیت_مرکز": "چاریکار",
    "Polling_Center_Location": "Charikar",
    "Map_Accuracy": "Building",
    "Map_Accuracy_Dari": "تعمیر",
    "Status": "Open",
    "Status_Dari": null,
    "PS_Male": 3,
    "PS_Female": 1,
    "PS_Total": 4,
    "ولسوالي": "چاریکار",
    "Region": "Central Region"
   },
   "geometry": {
    "x": 7699755.4447484137,
    "y": 4164658.4963878095
   }
  },
  {
   "attributes": {
    "OBJECTID": 214,
    "ولایت": "کابل",
    "Province": "KABUL",
    "PC_Code": "0101253",
    "District": "KABUL-D12",
    "د_مرکز_نوم__نام_مرکز": " لیسه غلام محمد فرهاد",
    "Polling_Center_Name": "Ghulam Mohammad Farhad High School",
    "د_مرکز_ځای__موقعیت_مرکز": "احمد شاه بابا مينه",
    "Polling_Center_Location": "Ahmad Shah Baba Mina",
    "Map_Accuracy": "Building",
    "Map_Accuracy_Dari": "تعمیر",
    "Status": "Open",
    "Status_Dari": null,
    "PS_Male": 3,
    "PS_Female": 4,
    "PS_Total": 7,
    "ولسوالي": "کابل - ناحیه 12",
    "Region": "Central Region"
   },
   "geometry": {
    "x": 7717690.2987855403,
    "y": 4099636.513474131
   }
  },
  {
   "attributes": {
    "OBJECTID": 215,
    "ولایت": "وردک",
    "Province": "WARDAK",
    "PC_Code": "0407026",
    "District": "HISSA-E-AWALI BIHSUD",
    "د_مرکز_نوم__نام_مرکز": "کلینیک تیزک",
    "Polling_Center_Name": "Tezak Clinic",
    "د_مرکز_ځای__موقعیت_مرکز": "تیزک",
    "Polling_Center_Location": "Tezak",
    "Map_Accuracy": "Village",
    "Map_Accuracy_Dari": "قریه",
    "Status": "Open",
    "Status_Dari": null,
    "PS_Male": 1,
    "PS_Female": 1,
    "PS_Total": 2,
    "ولسوالي": "حصه اول بهسود",
    "Region": "Central Region"
   },
   "geometry": {
    "x": 7596560.8296296708,
    "y": 4069475.5526902797
   }
  },
  {
   "attributes": {
    "OBJECTID": 216,
    "ولایت": "هلمند",
    "Province": "HELMAND",
    "PC_Code": "3011213",
    "District": "REG-E-KHAN NISHIN",
    "د_مرکز_نوم__نام_مرکز": "مسجد ملخان",
    "Polling_Center_Name": "Malkhan Mosque",
    "د_مرکز_ځای__موقعیت_مرکز": "دحا جی سلام کلی",
    "Polling_Center_Location": "Haji Salam Village",
    "Map_Accuracy": "Village",
    "Map_Accuracy_Dari": "قریه",
    "Status": "Open",
    "Status_Dari": null,
    "PS_Male": 3,
    "PS_Female": 0,
    "PS_Total": 3,
    "ولسوالي": "ریگ خانشین",
    "Region": "Southern Region"
   },
   "geometry": {
    "x": 7056078.6530674817,
    "y": 3566870.8647366595
   }
  },
  {
   "attributes": {
    "OBJECTID": 217,
    "ولایت": "کابل",
    "Province": "KABUL",
    "PC_Code": "0101003",
    "District": "KABUL-D01",
    "د_مرکز_نوم__نام_مرکز": " مسجد آخر جاده",
    "Polling_Center_Name": "Akhir Jadah Mosque",
    "د_مرکز_ځای__موقعیت_مرکز": "جاده ميوند",
    "Polling_Center_Location": "Maiwand Avenue",
    "Map_Accuracy": "Building",
    "Map_Accuracy_Dari": "تعمیر",
    "Status": "Open",
    "Status_Dari": null,
    "PS_Male": 2,
    "PS_Female": 2,
    "PS_Total": 4,
    "ولسوالي": "کابل - ناحیه 01",
    "Region": "Central Region"
   },
   "geometry": {
    "x": 7702527.0117516909,
    "y": 4098112.5328129251
   }
  },
  {
   "attributes": {
    "OBJECTID": 218,
    "ولایت": "کابل",
    "Province": "KABUL",
    "PC_Code": "0101004",
    "District": "KABUL-D01",
    "د_مرکز_نوم__نام_مرکز": " مکتب متوسطه عاشقان و عارفان",
    "Polling_Center_Name": "Ashuqan-o-Arifan Secondary School",
    "د_مرکز_ځای__موقعیت_مرکز": "سه دوکان چنداول",
    "Polling_Center_Location": "Say Dukan Chendawol",
    "Map_Accuracy": "Building",
    "Map_Accuracy_Dari": "تعمیر",
    "Status": "Open",
    "Status_Dari": null,
    "PS_Male": 3,
    "PS_Female": 3,
    "PS_Total": 6,
    "ولسوالي": "کابل - ناحیه 01",
    "Region": "Central Region"
   },
   "geometry": {
    "x": 7701577.3262514165,
    "y": 4097102.8366044797
   }
  },
  {
   "attributes": {
    "OBJECTID": 219,
    "ولایت": "کابل",
    "Province": "KABUL",
    "PC_Code": "0101008",
    "District": "KABUL-D01",
    "د_مرکز_نوم__نام_مرکز": " مسجد عيد گاه",
    "Polling_Center_Name": "Eidgah Mosque",
    "د_مرکز_ځای__موقعیت_مرکز": "عيد گاه",
    "Polling_Center_Location": "Eidgah",
    "Map_Accuracy": "Building",
    "Map_Accuracy_Dari": "تعمیر",
    "Status": "Open",
    "Status_Dari": null,
    "PS_Male": 3,
    "PS_Female": 3,
    "PS_Total": 6,
    "ولسوالي": "کابل - ناحیه 01",
    "Region": "Central Region"
   },
   "geometry": {
    "x": 7702262.0580052575,
    "y": 4098575.3120259419
   }
  },
  {
   "attributes": {
    "OBJECTID": 220,
    "ولایت": "کابل",
    "Province": "KABUL",
    "PC_Code": "0101009",
    "District": "KABUL-D01",
    "د_مرکز_نوم__نام_مرکز": " فاتحه خانه باغ قاضي",
    "Polling_Center_Name": "Bagh-e- Qazi Fateha Khana",
    "د_مرکز_ځای__موقعیت_مرکز": "باغ قاضي",
    "Polling_Center_Location": "Bagh-e-Qazi",
    "Map_Accuracy": "Building",
    "Map_Accuracy_Dari": "تعمیر",
    "Status": "Open",
    "Status_Dari": null,
    "PS_Male": 2,
    "PS_Female": 2,
    "PS_Total": 4,
    "ولسوالي": "کابل - ناحیه 01",
    "Region": "Central Region"
   },
   "geometry": {
    "x": 7700793.3064173451,
    "y": 4097476.568705427
   }
  },
  {
   "attributes": {
    "OBJECTID": 221,
    "ولایت": "کابل",
    "Province": "KABUL",
    "PC_Code": "0101051",
    "District": "KABUL-D04",
    "د_مرکز_نوم__نام_مرکز": " جومات خانه اسماعيليه",
    "Polling_Center_Name": "Jomat Khana-e- Ismailia",
    "د_مرکز_ځای__موقعیت_مرکز": "چهار راهي تايمني",
    "Polling_Center_Location": "Taimani Square",
    "Map_Accuracy": "Building",
    "Map_Accuracy_Dari": "تعمیر",
    "Status": "Open",
    "Status_Dari": null,
    "PS_Male": 4,
    "PS_Female": 3,
    "PS_Total": 7,
    "ولسوالي": "کابل - ناحیه 04",
    "Region": "Central Region"
   },
   "geometry": {
    "x": 7697299.9171190914,
    "y": 4103337.0203161663
   }
  },
  {
   "attributes": {
    "OBJECTID": 222,
    "ولایت": "کابل",
    "Province": "KABUL",
    "PC_Code": "0101066",
    "District": "KABUL-D04",
    "د_مرکز_نوم__نام_مرکز": " مسجد حاجي غلام دستگير",
    "Polling_Center_Name": "Haji Ghulam Dastager Mosque",
    "د_مرکز_ځای__موقعیت_مرکز": "شهرارا",
    "Polling_Center_Location": "Shahrara",
    "Map_Accuracy": "Building",
    "Map_Accuracy_Dari": "تعمیر",
    "Status": "Open",
    "Status_Dari": null,
    "PS_Male": 3,
    "PS_Female": 2,
    "PS_Total": 5,
    "ولسوالي": "کابل - ناحیه 04",
    "Region": "Central Region"
   },
   "geometry": {
    "x": 7697304.2029194878,
    "y": 4101226.1265928303
   }
  },
  {
   "attributes": {
    "OBJECTID": 223,
    "ولایت": "کابل",
    "Province": "KABUL",
    "PC_Code": "0101070",
    "District": "KABUL-D05",
    "د_مرکز_نوم__نام_مرکز": " مکتب متوسطه فاضل بيک",
    "Polling_Center_Name": "Fazel Baik Secondary School",
    "د_مرکز_ځای__موقعیت_مرکز": "آب رساني",
    "Polling_Center_Location": "Aab Rasani",
    "Map_Accuracy": "Building",
    "Map_Accuracy_Dari": "تعمیر",
    "Status": "Open",
    "Status_Dari": null,
    "PS_Male": 3,
    "PS_Female": 4,
    "PS_Total": 7,
    "ولسوالي": "کابل - ناحیه 05",
    "Region": "Central Region"
   },
   "geometry": {
    "x": 7688473.853330397,
    "y": 4098926.3797824215
   }
  },
  {
   "attributes": {
    "OBJECTID": 224,
    "ولایت": "کابل",
    "Province": "KABUL",
    "PC_Code": "0101071",
    "District": "KABUL-D05",
    "د_مرکز_نوم__نام_مرکز": " مسجد جاغوري ها",
    "Polling_Center_Name": "Jaghori ha Mosque",
    "د_مرکز_ځای__موقعیت_مرکز": "افشار سیلو",
    "Polling_Center_Location": "Afshar-e-Selo",
    "Map_Accuracy": "Building",
    "Map_Accuracy_Dari": "تعمیر",
    "Status": "Open",
    "Status_Dari": null,
    "PS_Male": 2,
    "PS_Female": 2,
    "PS_Total": 4,
    "ولسوالي": "کابل - ناحیه 05",
    "Region": "Central Region"
   },
   "geometry": {
    "x": 7692838.4378691548,
    "y": 4101310.7631190182
   }
  },
  {
   "attributes": {
    "OBJECTID": 225,
    "ولایت": "کابل",
    "Province": "KABUL",
    "PC_Code": "0101102",
    "District": "KABUL-D06",
    "د_مرکز_نوم__نام_مرکز": " مسجد سرور کائنات ",
    "Polling_Center_Name": "Sarwar-e- Kaienat Mosque",
    "د_مرکز_ځای__موقعیت_مرکز": " قلعه محمد حيات",
    "Polling_Center_Location": "Qala-e-Mohammad Hayat",
    "Map_Accuracy": "Building",
    "Map_Accuracy_Dari": "تعمیر",
    "Status": "Open",
    "Status_Dari": null,
    "PS_Male": 2,
    "PS_Female": 1,
    "PS_Total": 3,
    "ولسوالي": "کابل - ناحیه 06",
    "Region": "Central Region"
   },
   "geometry": {
    "x": 7692002.723044672,
    "y": 4094256.2643744224
   }
  },
  {
   "attributes": {
    "OBJECTID": 226,
    "ولایت": "کابل",
    "Province": "KABUL",
    "PC_Code": "0101103",
    "District": "KABUL-D06",
    "د_مرکز_نوم__نام_مرکز": " مسجد سلمان فارسي",
    "Polling_Center_Name": "Salman-e- Farsi Mosque",
    "د_مرکز_ځای__موقعیت_مرکز": " قلعه عباس قلي",
    "Polling_Center_Location": "Qala-e-Abbas Quli",
    "Map_Accuracy": "Building",
    "Map_Accuracy_Dari": "تعمیر",
    "Status": "Open",
    "Status_Dari": null,
    "PS_Male": 3,
    "PS_Female": 3,
    "PS_Total": 6,
    "ولسوالي": "کابل - ناحیه 06",
    "Region": "Central Region"
   },
   "geometry": {
    "x": 7692790.4714137651,
    "y": 4093212.278545768
   }
  },
  {
   "attributes": {
    "OBJECTID": 227,
    "ولایت": "کابل",
    "Province": "KABUL",
    "PC_Code": "0101109",
    "District": "KABUL-D06",
    "د_مرکز_نوم__نام_مرکز": " انستیتوت مالی و حسابی ",
    "Polling_Center_Name": "Financial and Economics Institute",
    "د_مرکز_ځای__موقعیت_مرکز": "دارالامان",
    "Polling_Center_Location": "Darul Aman",
    "Map_Accuracy": "Building",
    "Map_Accuracy_Dari": "تعمیر",
    "Status": "Open",
    "Status_Dari": null,
    "PS_Male": 6,
    "PS_Female": 5,
    "PS_Total": 11,
    "ولسوالي": "کابل - ناحیه 06",
    "Region": "Central Region"
   },
   "geometry": {
    "x": 7694720.5788389109,
    "y": 4093339.2890822757
   }
  },
  {
   "attributes": {
    "OBJECTID": 228,
    "ولایت": "کابل",
    "Province": "KABUL",
    "PC_Code": "0101110",
    "District": "KABUL-D06",
    "د_مرکز_نوم__نام_مرکز": " مسجد علي شير خدا",
    "Polling_Center_Name": "Ali Shir-e-Khuda Mosque",
    "د_مرکز_ځای__موقعیت_مرکز": "قلعه علي مردان",
    "Polling_Center_Location": "Qala-e-Ali Mardan",
    "Map_Accuracy": "Building",
    "Map_Accuracy_Dari": "تعمیر",
    "Status": "Open",
    "Status_Dari": null,
    "PS_Male": 2,
    "PS_Female": 2,
    "PS_Total": 4,
    "ولسوالي": "کابل - ناحیه 06",
    "Region": "Central Region"
   },
   "geometry": {
    "x": 7693864.5419734642,
    "y": 4093437.5016604494
   }
  },
  {
   "attributes": {
    "OBJECTID": 229,
    "ولایت": "کابل",
    "Province": "KABUL",
    "PC_Code": "0101120",
    "District": "KABUL-D06",
    "د_مرکز_نوم__نام_مرکز": " ليسه عبدالغني مستغني",
    "Polling_Center_Name": "Abdul Ghani Mustaghni High School",
    "د_مرکز_ځای__موقعیت_مرکز": "کارته سه",
    "Polling_Center_Location": "Kart-e-Say",
    "Map_Accuracy": "Building",
    "Map_Accuracy_Dari": "تعمیر",
    "Status": "Open",
    "Status_Dari": null,
    "PS_Male": 4,
    "PS_Female": 4,
    "PS_Total": 8,
    "ولسوالي": "کابل - ناحیه 06",
    "Region": "Central Region"
   },
   "geometry": {
    "x": 7696605.7699627168,
    "y": 4096118.9844127363
   }
  },
  {
   "attributes": {
    "OBJECTID": 230,
    "ولایت": "کابل",
    "Province": "KABUL",
    "PC_Code": "0101121",
    "District": "KABUL-D06",
    "د_مرکز_نوم__نام_مرکز": " مسجد نبی اکرم",
    "Polling_Center_Name": "Nabi Akram Mosque",
    "د_مرکز_ځای__موقعیت_مرکز": " فازسوم شهرک حاجی نبی ",
    "Polling_Center_Location": "Phase III of Haji Nabi Township",
    "Map_Accuracy": "Building",
    "Map_Accuracy_Dari": "تعمیر",
    "Status": "Open",
    "Status_Dari": null,
    "PS_Male": 3,
    "PS_Female": 4,
    "PS_Total": 7,
    "ولسوالي": "کابل - ناحیه 06",
    "Region": "Central Region"
   },
   "geometry": {
    "x": 7689997.7603864148,
    "y": 4093057.1205615522
   }
  },
  {
   "attributes": {
    "OBJECTID": 231,
    "ولایت": " فراه",
    "Province": "FARAH",
    "PC_Code": "3309097",
    "District": "LASH-E-JUWAYN",
    "د_مرکز_نوم__نام_مرکز": "مکتب متوسطه درق",
    "Polling_Center_Name": "Daraq Secondary School",
    "د_مرکز_ځای__موقعیت_مرکز": " درق",
    "Polling_Center_Location": "Daraq ",
    "Map_Accuracy": "Building",
    "Map_Accuracy_Dari": "تعمیر",
    "Status": "Open",
    "Status_Dari": null,
    "PS_Male": 2,
    "PS_Female": 2,
    "PS_Total": 4,
    "ولسوالي": "لاش جوین ",
    "Region": "Western Region"
   },
   "geometry": {
    "x": 6846729.9785825256,
    "y": 3714546.0040174518
   }
  },
  {
   "attributes": {
    "OBJECTID": 232,
    "ولایت": " فراه",
    "Province": "FARAH",
    "PC_Code": "3309098",
    "District": "LASH-E-JUWAYN",
    "د_مرکز_نوم__نام_مرکز": " مسجد ده شیخ",
    "Polling_Center_Name": "Deh Shaikh Mosque",
    "د_مرکز_ځای__موقعیت_مرکز": "ده شیخ",
    "Polling_Center_Location": "Deh Shaikh ",
    "Map_Accuracy": "Building",
    "Map_Accuracy_Dari": "تعمیر",
    "Status": "Open",
    "Status_Dari": null,
    "PS_Male": 1,
    "PS_Female": 1,
    "PS_Total": 2,
    "ولسوالي": "لاش جوین ",
    "Region": "Western Region"
   },
   "geometry": {
    "x": 6846811.1605475722,
    "y": 3697915.8496128214
   }
  },
  {
   "attributes": {
    "OBJECTID": 233,
    "ولایت": "پروان",
    "Province": "PARWAN",
    "PC_Code": "0309140",
    "District": "SURKHI PARSA",
    "د_مرکز_نوم__نام_مرکز": "مکتب قطندر",
    "Polling_Center_Name": "Qatandar School ",
    "د_مرکز_ځای__موقعیت_مرکز": "دهن باریک ",
    "Polling_Center_Location": "Dahan-e-barik ",
    "Map_Accuracy": "Building",
    "Map_Accuracy_Dari": "تعمیر",
    "Status": "Open",
    "Status_Dari": null,
    "PS_Male": 1,
    "PS_Female": 1,
    "PS_Total": 2,
    "ولسوالي": "سرخ پارسا ",
    "Region": "Central Region"
   },
   "geometry": {
    "x": 7652213.5062386403,
    "y": 4126887.0190324043
   }
  },
  {
   "attributes": {
    "OBJECTID": 234,
    "ولایت": "بدخشان",
    "Province": "BADAKHSHAN",
    "PC_Code": "1728212",
    "District": "WAKHAN",
    "د_مرکز_نوم__نام_مرکز": "سرحد پامیر_لیسه پتوخ",
    "Polling_Center_Name": "Sarhad Pamir_Patokh High School",
    "د_مرکز_ځای__موقعیت_مرکز": "پتوخ",
    "Polling_Center_Location": "Patokh",
    "Map_Accuracy": "Building",
    "Map_Accuracy_Dari": "تعمیر",
    "Status": "Open",
    "Status_Dari": null,
    "PS_Male": 1,
    "PS_Female": 1,
    "PS_Total": 2,
    "ولسوالي": "واخان",
    "Region": "North Eastern Region"
   },
   "geometry": {
    "x": 8171651.5701889349,
    "y": 4440486.7703970037
   }
  },
  {
   "attributes": {
    "OBJECTID": 235,
    "ولایت": "کابل",
    "Province": "KABUL",
    "PC_Code": "0101038",
    "District": "KABUL-D03",
    "د_مرکز_نوم__نام_مرکز": "مکتب تربيه معلم سيد جمال الدين",
    "Polling_Center_Name": "Sayed Jamalluddin Teacher Training School",
    "د_مرکز_ځای__موقعیت_مرکز": "سراي غزني",
    "Polling_Center_Location": "Sarai Ghazni",
    "Map_Accuracy": "Building",
    "Map_Accuracy_Dari": "تعمیر",
    "Status": "Open",
    "Status_Dari": null,
    "PS_Male": 3,
    "PS_Female": 2,
    "PS_Total": 5,
    "ولسوالي": "کابل - ناحیه 03",
    "Region": "Central Region"
   },
   "geometry": {
    "x": 7695743.4491120158,
    "y": 4097607.4707486196
   }
  },
  {
   "attributes": {
    "OBJECTID": 236,
    "ولایت": "کابل",
    "Province": "KABUL",
    "PC_Code": "0101039",
    "District": "KABUL-D03",
    "د_مرکز_نوم__نام_مرکز": "مکتب امير دوست محمد خان",
    "Polling_Center_Name": "Amir Dust Mohammad Khan School",
    "د_مرکز_ځای__موقعیت_مرکز": "دهمزنگ",
    "Polling_Center_Location": "Dehmazang",
    "Map_Accuracy": "Building",
    "Map_Accuracy_Dari": "تعمیر",
    "Status": "Open",
    "Status_Dari": null,
    "PS_Male": 3,
    "PS_Female": 2,
    "PS_Total": 5,
    "ولسوالي": "کابل - ناحیه 03",
    "Region": "Central Region"
   },
   "geometry": {
    "x": 7698605.630180792,
    "y": 4097557.671378151
   }
  },
  {
   "attributes": {
    "OBJECTID": 237,
    "ولایت": "کابل",
    "Province": "KABUL",
    "PC_Code": "0101093",
    "District": "KABUL-D05",
    "د_مرکز_نوم__نام_مرکز": " مسجد وردکيها",
    "Polling_Center_Name": "Mohammad Qayam Khan Primary School",
    "د_مرکز_ځای__موقعیت_مرکز": "سراي هراتي ها",
    "Polling_Center_Location": "Sarai Heratiha",
    "Map_Accuracy": "Building",
    "Map_Accuracy_Dari": "تعمیر",
    "Status": "Open",
    "Status_Dari": null,
    "PS_Male": 2,
    "PS_Female": 1,
    "PS_Total": 3,
    "ولسوالي": "کابل - ناحیه 05",
    "Region": "Central Region"
   },
   "geometry": {
    "x": 7693021.7265239414,
    "y": 4098100.8399604913
   }
  },
  {
   "attributes": {
    "OBJECTID": 238,
    "ولایت": "کابل",
    "Province": "KABUL",
    "PC_Code": "0101430",
    "District": "KABUL-D08",
    "د_مرکز_نوم__نام_مرکز": "مسجد نعمان بن ثابت",
    "Polling_Center_Name": "Noman Ibne Sabit Mosque",
    "د_مرکز_ځای__موقعیت_مرکز": "ناحیه هشتم ",
    "Polling_Center_Location": "Nahia 9",
    "Map_Accuracy": "Building",
    "Map_Accuracy_Dari": "تعمیر",
    "Status": "Open",
    "Status_Dari": null,
    "PS_Male": 4,
    "PS_Female": 5,
    "PS_Total": 9,
    "ولسوالي": "کابل - ناحیه 08",
    "Region": "Central Region"
   },
   "geometry": {
    "x": 7702483.6160745928,
    "y": 4094969.3746221587
   }
  },
  {
   "attributes": {
    "OBJECTID": 239,
    "ولایت": "کابل",
    "Province": "KABUL",
    "PC_Code": "0101491",
    "District": "KABUL-D08",
    "د_مرکز_نوم__نام_مرکز": " مسجد ابوبکر صدیق",
    "Polling_Center_Name": "Abu Baker Sediq Mosque",
    "د_مرکز_ځای__موقعیت_مرکز": "قریه جدید آباد",
    "Polling_Center_Location": "Jadid Abad Village",
    "Map_Accuracy": "Building",
    "Map_Accuracy_Dari": "تعمیر",
    "Status": "Open",
    "Status_Dari": null,
    "PS_Male": 2,
    "PS_Female": 1,
    "PS_Total": 3,
    "ولسوالي": "کابل - ناحیه 08",
    "Region": "Central Region"
   },
   "geometry": {
    "x": 7704978.5552564338,
    "y": 4096251.6037126658
   }
  },
  {
   "attributes": {
    "OBJECTID": 240,
    "ولایت": "کابل",
    "Province": "KABUL",
    "PC_Code": "0108337",
    "District": "MIR BACHA KOT",
    "د_مرکز_نوم__نام_مرکز": " مکتب مير حميدالله",
    "Polling_Center_Name": "Mir Hameedullah School",
    "د_مرکز_ځای__موقعیت_مرکز": "قریه گذر",
    "Polling_Center_Location": "Guzar Village",
    "Map_Accuracy": "Building",
    "Map_Accuracy_Dari": "تعمیر",
    "Status": "Open",
    "Status_Dari": null,
    "PS_Male": 2,
    "PS_Female": 2,
    "PS_Total": 4,
    "ولسوالي": "میر بچه کوت",
    "Region": "Central Region"
   },
   "geometry": {
    "x": 7692993.0472835265,
    "y": 4124843.0165375252
   }
  },
  {
   "attributes": {
    "OBJECTID": 241,
    "ولایت": "کابل",
    "Province": "KABUL",
    "PC_Code": "0108338",
    "District": "MIR BACHA KOT",
    "د_مرکز_نوم__نام_مرکز": " مکتب پل صوفيان",
    "Polling_Center_Name": "Pul-e-Sofian School",
    "د_مرکز_ځای__موقعیت_مرکز": " صوفيان",
    "Polling_Center_Location": "Sofian",
    "Map_Accuracy": "Building",
    "Map_Accuracy_Dari": "تعمیر",
    "Status": "Open",
    "Status_Dari": null,
    "PS_Male": 2,
    "PS_Female": 1,
    "PS_Total": 3,
    "ولسوالي": "میر بچه کوت",
    "Region": "Central Region"
   },
   "geometry": {
    "x": 7691464.2362699779,
    "y": 4122914.6599211004
   }
  },
  {
   "attributes": {
    "OBJECTID": 242,
    "ولایت": "ننگرهار",
    "Province": "NANGARHAR",
    "PC_Code": "0602050",
    "District": "BEHSUD",
    "د_مرکز_نوم__نام_مرکز": "شهید آغا جومات",
    "Polling_Center_Name": "Shahid Agha Mosque",
    "د_مرکز_ځای__موقعیت_مرکز": "جمالي",
    "Polling_Center_Location": "Jamaly",
    "Map_Accuracy": "Building",
    "Map_Accuracy_Dari": "تعمیر",
    "Status": "Open",
    "Status_Dari": null,
    "PS_Male": 4,
    "PS_Female": 0,
    "PS_Total": 4,
    "ولسوالي": "بهسود",
    "Region": "Eastern Region"
   },
   "geometry": {
    "x": 7848674.4416361507,
    "y": 4090032.2610801063
   }
  },
  {
   "attributes": {
    "OBJECTID": 243,
    "ولایت": "ننگرهار",
    "Province": "NANGARHAR",
    "PC_Code": "0602051",
    "District": "BEHSUD",
    "د_مرکز_نوم__نام_مرکز": "قلعه ملخ مکتب",
    "Polling_Center_Name": "Malakh Village School",
    "د_مرکز_ځای__موقعیت_مرکز": "جمالي",
    "Polling_Center_Location": "Jamaly",
    "Map_Accuracy": "Building",
    "Map_Accuracy_Dari": "تعمیر",
    "Status": "Open",
    "Status_Dari": null,
    "PS_Male": 0,
    "PS_Female": 3,
    "PS_Total": 3,
    "ولسوالي": "بهسود",
    "Region": "Eastern Region"
   },
   "geometry": {
    "x": 7849044.2861727765,
    "y": 4092162.0336686191
   }
  },
  {
   "attributes": {
    "OBJECTID": 244,
    "ولایت": "ننگرهار",
    "Province": "NANGARHAR",
    "PC_Code": "0616428",
    "District": "SHINWAR",
    "د_مرکز_نوم__نام_مرکز": "ډاګه مکتب",
    "Polling_Center_Name": "Daaga School",
    "د_مرکز_ځای__موقعیت_مرکز": "غني خيل",
    "Polling_Center_Location": "Ghani Khel",
    "Map_Accuracy": "Building",
    "Map_Accuracy_Dari": "تعمیر",
    "Status": "Open",
    "Status_Dari": null,
    "PS_Male": 3,
    "PS_Female": 2,
    "PS_Total": 5,
    "ولسوالي": "شینوار",
    "Region": "Eastern Region"
   },
   "geometry": {
    "x": 7882674.1452368051,
    "y": 4054647.5113048567
   }
  },
  {
   "attributes": {
    "OBJECTID": 245,
    "ولایت": "ننگرهار",
    "Province": "NANGARHAR",
    "PC_Code": "0617472",
    "District": "MUHMAND DARA",
    "د_مرکز_نوم__نام_مرکز": "ګردي غوث لیسه, ګردي غوث",
    "Polling_Center_Name": "Gardee Ghows High  School",
    "د_مرکز_ځای__موقعیت_مرکز": "ګردي غوث",
    "Polling_Center_Location": "Garde Ghows ",
    "Map_Accuracy": "Building",
    "Map_Accuracy_Dari": "تعمیر",
    "Status": "Open",
    "Status_Dari": null,
    "PS_Male": 2,
    "PS_Female": 2,
    "PS_Total": 4,
    "ولسوالي": "مهمند دره",
    "Region": "Eastern Region"
   },
   "geometry": {
    "x": 7900211.5342565654,
    "y": 4060405.7526725396
   }
  },
  {
   "attributes": {
    "OBJECTID": 246,
    "ولایت": "ننگرهار",
    "Province": "NANGARHAR",
    "PC_Code": "0617474",
    "District": "MUHMAND DARA",
    "د_مرکز_نوم__نام_مرکز": "ايمل خان ليسه",
    "Polling_Center_Name": "Aimal Khan High School",
    "د_مرکز_ځای__موقعیت_مرکز": "پاس باسوول",
    "Polling_Center_Location": "Paas Basool",
    "Map_Accuracy": "Building",
    "Map_Accuracy_Dari": "تعمیر",
    "Status": "Open",
    "Status_Dari": null,
    "PS_Male": 2,
    "PS_Female": 4,
    "PS_Total": 6,
    "ولسوالي": "مهمند دره",
    "Region": "Eastern Region"
   },
   "geometry": {
    "x": 7890546.9619694389,
    "y": 4061591.1739079873
   }
  },
  {
   "attributes": {
    "OBJECTID": 247,
    "ولایت": "پکتيکا",
    "Province": "PAKTIKA",
    "PC_Code": "1201009",
    "District": "SHARAN",
    "د_مرکز_نوم__نام_مرکز": "الجهاد لومړنی ښوونځی ",
    "Polling_Center_Name": "Aljahad Primary School",
    "د_مرکز_ځای__موقعیت_مرکز": "عمبرخیل",
    "Polling_Center_Location": "Omer Khel",
    "Map_Accuracy": "Building",
    "Map_Accuracy_Dari": "تعمیر",
    "Status": "Open",
    "Status_Dari": null,
    "PS_Male": 4,
    "PS_Female": 0,
    "PS_Total": 4,
    "ولسوالي": "شرن",
    "Region": "South Eastern Region"
   },
   "geometry": {
    "x": 7660731.3564135954,
    "y": 3921023.7453652821
   }
  },
  {
   "attributes": {
    "OBJECTID": 248,
    "ولایت": "پکتيکا",
    "Province": "PAKTIKA",
    "PC_Code": "1201010",
    "District": "SHARAN",
    "د_مرکز_نوم__نام_مرکز": "لومړنی ښوونځی",
    "Polling_Center_Name": "Primary School",
    "د_مرکز_ځای__موقعیت_مرکز": "سره قلعه",
    "Polling_Center_Location": "Sra Qala",
    "Map_Accuracy": "Village",
    "Map_Accuracy_Dari": "قریه",
    "Status": "Open",
    "Status_Dari": null,
    "PS_Male": 0,
    "PS_Female": 4,
    "PS_Total": 4,
    "ولسوالي": "شرن",
    "Region": "South Eastern Region"
   },
   "geometry": {
    "x": 7661301.6584100742,
    "y": 3920531.7901665838
   }
  },
  {
   "attributes": {
    "OBJECTID": 249,
    "ولایت": "پکتيکا",
    "Province": "PAKTIKA",
    "PC_Code": "1207096",
    "District": "ZARGHUN SHAHR",
    "د_مرکز_نوم__نام_مرکز": "ابراهیم میلمستون",
    "Polling_Center_Name": "Ibrahim Guest House",
    "د_مرکز_ځای__موقعیت_مرکز": "محمد حسن",
    "Polling_Center_Location": "Mohammad Hassan",
    "Map_Accuracy": "Village",
    "Map_Accuracy_Dari": "قریه",
    "Status": "Open",
    "Status_Dari": null,
    "PS_Male": 0,
    "PS_Female": 2,
    "PS_Total": 2,
    "ولسوالي": "زرغون شهر ",
    "Region": "South Eastern Region"
   },
   "geometry": {
    "x": 7622011.4163047159,
    "y": 3870417.7977914982
   }
  },
  {
   "attributes": {
    "OBJECTID": 250,
    "ولایت": "پکتيکا",
    "Province": "PAKTIKA",
    "PC_Code": "1207098",
    "District": "ZARGHUN SHAHR",
    "د_مرکز_نوم__نام_مرکز": "محمد دوست جومات",
    "Polling_Center_Name": "Mohammad Dost Mosque",
    "د_مرکز_ځای__موقعیت_مرکز": "محمد دوست کلی",
    "Polling_Center_Location": "Mohammad Dost Village",
    "Map_Accuracy": "Building",
    "Map_Accuracy_Dari": "تعمیر",
    "Status": "Open",
    "Status_Dari": null,
    "PS_Male": 2,
    "PS_Female": 2,
    "PS_Total": 4,
    "ولسوالي": "زرغون شهر ",
    "Region": "South Eastern Region"
   },
   "geometry": {
    "x": 7624117.6968427962,
    "y": 3872838.9779968029
   }
  },
  {
   "attributes": {
    "OBJECTID": 251,
    "ولایت": "پکتيکا",
    "Province": "PAKTIKA",
    "PC_Code": "1212189",
    "District": "ZIRUK",
    "د_مرکز_نوم__نام_مرکز": "خیمه جامع جومات",
    "Polling_Center_Name": "Khaima Mosque",
    "د_مرکز_ځای__موقعیت_مرکز": "ولسوالی بازار",
    "Polling_Center_Location": "District Bazaar",
    "Map_Accuracy": "Building",
    "Map_Accuracy_Dari": "تعمیر",
    "Status": "Open",
    "Status_Dari": null,
    "PS_Male": 3,
    "PS_Female": 0,
    "PS_Total": 3,
    "ولسوالي": "زیړوک",
    "Region": "South Eastern Region"
   },
   "geometry": {
    "x": 7715706.6416759435,
    "y": 3916339.676639522
   }
  },
  {
   "attributes": {
    "OBJECTID": 252,
    "ولایت": "ننگرهار",
    "Province": "NANGARHAR",
    "PC_Code": "0606193",
    "District": "KUZ KUNAR",
    "د_مرکز_نوم__نام_مرکز": "پاچاهی قلعه جومات",
    "Polling_Center_Name": "Pachahee Mosque",
    "د_مرکز_ځای__موقعیت_مرکز": "پاچاهي قله",
    "Polling_Center_Location": "Pachahee Qala",
    "Map_Accuracy": "Village",
    "Map_Accuracy_Dari": "قریه",
    "Status": "Open",
    "Status_Dari": null,
    "PS_Male": 2,
    "PS_Female": 1,
    "PS_Total": 3,
    "ولسوالي": "کوز کنړ",
    "Region": "Eastern Region"
   },
   "geometry": {
    "x": 7860754.7971547972,
    "y": 4107170.503778575
   }
  },
  {
   "attributes": {
    "OBJECTID": 253,
    "ولایت": "ننگرهار",
    "Province": "NANGARHAR",
    "PC_Code": "0606194",
    "District": "KUZ KUNAR",
    "د_مرکز_نوم__نام_مرکز": "کچړه جومات",
    "Polling_Center_Name": "Kachara Mosque",
    "د_مرکز_ځای__موقعیت_مرکز": "کچړه",
    "Polling_Center_Location": "Kachra",
    "Map_Accuracy": "Building",
    "Map_Accuracy_Dari": "تعمیر",
    "Status": "Open",
    "Status_Dari": null,
    "PS_Male": 1,
    "PS_Female": 1,
    "PS_Total": 2,
    "ولسوالي": "کوز کنړ",
    "Region": "Eastern Region"
   },
   "geometry": {
    "x": 7858149.6394319236,
    "y": 4102624.6042152196
   }
  },
  {
   "attributes": {
    "OBJECTID": 254,
    "ولایت": "ننگرهار",
    "Province": "NANGARHAR",
    "PC_Code": "0606205",
    "District": "KUZ KUNAR",
    "د_مرکز_نوم__نام_مرکز": "پوري کلي مدرسه",
    "Polling_Center_Name": "Poory Village Madrassa",
    "د_مرکز_ځای__موقعیت_مرکز": "بوډيالۍ پوري کلي",
    "Polling_Center_Location": "Bodyalai Poory Village",
    "Map_Accuracy": "Village",
    "Map_Accuracy_Dari": "قریه",
    "Status": "Open",
    "Status_Dari": null,
    "PS_Male": 0,
    "PS_Female": 2,
    "PS_Total": 2,
    "ولسوالي": "کوز کنړ",
    "Region": "Eastern Region"
   },
   "geometry": {
    "x": 7861186.2859726502,
    "y": 4110783.0474678823
   }
  },
  {
   "attributes": {
    "OBJECTID": 255,
    "ولایت": "ننگرهار",
    "Province": "NANGARHAR",
    "PC_Code": "0606206",
    "District": "KUZ KUNAR",
    "د_مرکز_نوم__نام_مرکز": "شامل کلی جومات",
    "Polling_Center_Name": "Shamil Village Mosque",
    "د_مرکز_ځای__موقعیت_مرکز": "شامل کلي",
    "Polling_Center_Location": "Shamil Village",
    "Map_Accuracy": "Village",
    "Map_Accuracy_Dari": "قریه",
    "Status": "Open",
    "Status_Dari": null,
    "PS_Male": 1,
    "PS_Female": 1,
    "PS_Total": 2,
    "ولسوالي": "کوز کنړ",
    "Region": "Eastern Region"
   },
   "geometry": {
    "x": 7852350.8913842319,
    "y": 4104900.9126039147
   }
  },
  {
   "attributes": {
    "OBJECTID": 256,
    "ولایت": "ننگرهار",
    "Province": "NANGARHAR",
    "PC_Code": "0612236",
    "District": "DARAH-E-NOOR",
    "د_مرکز_نوم__نام_مرکز": "اودرک ميدان",
    "Polling_Center_Name": "Odarak Maidan",
    "د_مرکز_ځای__موقعیت_مرکز": "اودرک",
    "Polling_Center_Location": "Odrak",
    "Map_Accuracy": "Village",
    "Map_Accuracy_Dari": "قریه",
    "Status": "Open",
    "Status_Dari": null,
    "PS_Male": 2,
    "PS_Female": 0,
    "PS_Total": 2,
    "ولسوالي": "دره نور",
    "Region": "Eastern Region"
   },
   "geometry": {
    "x": 7855192.0608991254,
    "y": 4124091.778960051
   }
  },
  {
   "attributes": {
    "OBJECTID": 257,
    "ولایت": "ننگرهار",
    "Province": "NANGARHAR",
    "PC_Code": "0612237",
    "District": "DARAH-E-NOOR",
    "د_مرکز_نوم__نام_مرکز": "اودرک مکتب",
    "Polling_Center_Name": "Odarak School",
    "د_مرکز_ځای__موقعیت_مرکز": "اودرک",
    "Polling_Center_Location": "Odrak",
    "Map_Accuracy": "Building",
    "Map_Accuracy_Dari": "تعمیر",
    "Status": "Open",
    "Status_Dari": null,
    "PS_Male": 0,
    "PS_Female": 2,
    "PS_Total": 2,
    "ولسوالي": "دره نور",
    "Region": "Eastern Region"
   },
   "geometry": {
    "x": 7855694.5782312658,
    "y": 4123777.1337472168
   }
  },
  {
   "attributes": {
    "OBJECTID": 258,
    "ولایت": "ننگرهار",
    "Province": "NANGARHAR",
    "PC_Code": "0613349",
    "District": "KOT",
    "د_مرکز_نوم__نام_مرکز": "حيدرخاني لوي جومات ",
    "Polling_Center_Name": "Haidar Khani Mosque",
    "د_مرکز_ځای__موقعیت_مرکز": "حيدرخاني",
    "Polling_Center_Location": "Haidar Khani",
    "Map_Accuracy": "Village",
    "Map_Accuracy_Dari": "قریه",
    "Status": "Open",
    "Status_Dari": null,
    "PS_Male": 2,
    "PS_Female": 0,
    "PS_Total": 2,
    "ولسوالي": "کوټ",
    "Region": "Eastern Region"
   },
   "geometry": {
    "x": 7865494.966976326,
    "y": 4056040.6092011859
   }
  },
  {
   "attributes": {
    "OBJECTID": 259,
    "ولایت": "ننگرهار",
    "Province": "NANGARHAR",
    "PC_Code": "0613350",
    "District": "KOT",
    "د_مرکز_نوم__نام_مرکز": "ازاد میدان",
    "Polling_Center_Name": "Open Space",
    "د_مرکز_ځای__موقعیت_مرکز": "حيدرخاني کلی",
    "Polling_Center_Location": "Haidar Khani Village",
    "Map_Accuracy": "Village",
    "Map_Accuracy_Dari": "قریه",
    "Status": "Open",
    "Status_Dari": null,
    "PS_Male": 0,
    "PS_Female": 3,
    "PS_Total": 3,
    "ولسوالي": "کوټ",
    "Region": "Eastern Region"
   },
   "geometry": {
    "x": 7865789.1331835277,
    "y": 4056225.7212472856
   }
  },
  {
   "attributes": {
    "OBJECTID": 260,
    "ولایت": "ننگرهار",
    "Province": "NANGARHAR",
    "PC_Code": "0614492",
    "District": "GOSHTA",
    "د_مرکز_نوم__نام_مرکز": "ورسک مکتب",
    "Polling_Center_Name": "Warsak School",
    "د_مرکز_ځای__موقعیت_مرکز": "ورسک",
    "Polling_Center_Location": "Warsak",
    "Map_Accuracy": "Village",
    "Map_Accuracy_Dari": "قریه",
    "Status": "Open",
    "Status_Dari": null,
    "PS_Male": 2,
    "PS_Female": 0,
    "PS_Total": 2,
    "ولسوالي": "ګوشته",
    "Region": "Eastern Region"
   },
   "geometry": {
    "x": 7882558.1287314193,
    "y": 4074534.3057248471
   }
  },
  {
   "attributes": {
    "OBJECTID": 261,
    "ولایت": "ننگرهار",
    "Province": "NANGARHAR",
    "PC_Code": "0614493",
    "District": "GOSHTA",
    "د_مرکز_نوم__نام_مرکز": "یعقوب خیل جومات",
    "Polling_Center_Name": "Yaqoob Khel Mosque",
    "د_مرکز_ځای__موقعیت_مرکز": "یعقوب خیل",
    "Polling_Center_Location": "Yaqoob Khel",
    "Map_Accuracy": "Village",
    "Map_Accuracy_Dari": "قریه",
    "Status": "Open",
    "Status_Dari": null,
    "PS_Male": 4,
    "PS_Female": 1,
    "PS_Total": 5,
    "ولسوالي": "ګوشته",
    "Region": "Eastern Region"
   },
   "geometry": {
    "x": 7881702.795405155,
    "y": 4075378.9211128927
   }
  },
  {
   "attributes": {
    "OBJECTID": 262,
    "ولایت": "بدخشان",
    "Province": "BADAKHSHAN",
    "PC_Code": "1715310",
    "District": "KHASH",
    "د_مرکز_نوم__نام_مرکز": "مسجد جامع حضرت سرور کاینات",
    "Polling_Center_Name": "Hazrat sarwar kainat Mosque",
    "د_مرکز_ځای__موقعیت_مرکز": "گنگورچی",
    "Polling_Center_Location": "Gangor chi",
    "Map_Accuracy": "District",
    "Map_Accuracy_Dari": "ولسوالی",
    "Status": "Open",
    "Status_Dari": null,
    "PS_Male": 2,
    "PS_Female": 1,
    "PS_Total": 3,
    "ولسوالي": "کشم",
    "Region": "North Eastern Region"
   },
   "geometry": {
    "x": 7808065.5484725954,
    "y": 4398625.9048319906
   }
  },
  {
   "attributes": {
    "OBJECTID": 263,
    "ولایت": "تخار",
    "Province": "TAKHAR",
    "PC_Code": "1815214",
    "District": "DARQAD",
    "د_مرکز_نوم__نام_مرکز": "مکتب نسوان دروازه",
    "Polling_Center_Name": "Darwaza Female School",
    "د_مرکز_ځای__موقعیت_مرکز": "شور عرب",
    "Polling_Center_Location": "Shor arab",
    "Map_Accuracy": "Building",
    "Map_Accuracy_Dari": "تعمیر",
    "Status": "Open",
    "Status_Dari": null,
    "PS_Male": 2,
    "PS_Female": 1,
    "PS_Total": 3,
    "ولسوالي": "درقد",
    "Region": "North Eastern Region"
   },
   "geometry": {
    "x": 7737689.6458050087,
    "y": 4496252.9315287257
   }
  },
  {
   "attributes": {
    "OBJECTID": 264,
    "ولایت": "تخار",
    "Province": "TAKHAR",
    "PC_Code": "1816215",
    "District": "CHAH AB",
    "د_مرکز_نوم__نام_مرکز": "مسجد جامع",
    "Polling_Center_Name": "Mosque",
    "د_مرکز_ځای__موقعیت_مرکز": "درۀ بشیر",
    "Polling_Center_Location": "Dara bashir",
    "Map_Accuracy": "Building",
    "Map_Accuracy_Dari": "تعمیر",
    "Status": "Open",
    "Status_Dari": null,
    "PS_Male": 2,
    "PS_Female": 1,
    "PS_Total": 3,
    "ولسوالي": "چا آب",
    "Region": "North Eastern Region"
   },
   "geometry": {
    "x": 7788967.9593485063,
    "y": 4483642.2473790646
   }
  },
  {
   "attributes": {
    "OBJECTID": 265,
    "ولایت": "کندز",
    "Province": "KUNDUZ",
    "PC_Code": "1903218",
    "District": "ALI ABAD",
    "د_مرکز_نوم__نام_مرکز": "مکتب متوسطه",
    "Polling_Center_Name": "Secondary School",
    "د_مرکز_ځای__موقعیت_مرکز": "چیپ",
    "Polling_Center_Location": "Cheep",
    "Map_Accuracy": "Building",
    "Map_Accuracy_Dari": "تعمیر",
    "Status": "Open",
    "Status_Dari": null,
    "PS_Male": 2,
    "PS_Female": 1,
    "PS_Total": 3,
    "ولسوالي": "علی آباد",
    "Region": "North Eastern Region"
   },
   "geometry": {
    "x": 7672113.5671816338,
    "y": 4367269.4949509958
   }
  },
  {
   "attributes": {
    "OBJECTID": 266,
    "ولایت": "سمنگان",
    "Province": "SAMANGAN",
    "PC_Code": "2003097",
    "District": "HAZRAT-E-SULTAN",
    "د_مرکز_نوم__نام_مرکز": "مکتب متوسطه خواجه قچقار",
    "Polling_Center_Name": "Khwaja quch qar Secondary School",
    "د_مرکز_ځای__موقعیت_مرکز": "خواجه قچقار",
    "Polling_Center_Location": "Khwaja quch qar",
    "Map_Accuracy": "Building",
    "Map_Accuracy_Dari": "تعمیر",
    "Status": "Open",
    "Status_Dari": null,
    "PS_Male": 2,
    "PS_Female": 1,
    "PS_Total": 3,
    "ولسوالي": "خرم وسارباغ",
    "Region": "Northern Region"
   },
   "geometry": {
    "x": 7601332.6517012483,
    "y": 4306647.0161135383
   }
  },
  {
   "attributes": {
    "OBJECTID": 267,
    "ولایت": "دایکندی",
    "Province": "DAYKUNDI",
    "PC_Code": "2404178",
    "District": "ASHTARLAY",
    "د_مرکز_نوم__نام_مرکز": "مسجد",
    "Polling_Center_Name": "Mosque",
    "د_مرکز_ځای__موقعیت_مرکز": "میدان آهنگران ",
    "Polling_Center_Location": "Maidan ahangaran",
    "Map_Accuracy": "Building",
    "Map_Accuracy_Dari": "تعمیر",
    "Status": "Open",
    "Status_Dari": null,
    "PS_Male": 2,
    "PS_Female": 1,
    "PS_Total": 3,
    "ولسوالي": "اشترلی",
    "Region": "Central Highlands Region"
   },
   "geometry": {
    "x": 7394831.0413208613,
    "y": 4031726.6308050766
   }
  },
  {
   "attributes": {
    "OBJECTID": 268,
    "ولایت": "دایکندی",
    "Province": "DAYKUNDI",
    "PC_Code": "2404179",
    "District": "ASHTARLAY",
    "د_مرکز_نوم__نام_مرکز": "مسجد",
    "Polling_Center_Name": "Mosque",
    "د_مرکز_ځای__موقعیت_مرکز": "نوجوک",
    "Polling_Center_Location": "Now jok",
    "Map_Accuracy": "Building",
    "Map_Accuracy_Dari": "تعمیر",
    "Status": "Open",
    "Status_Dari": null,
    "PS_Male": 2,
    "PS_Female": 1,
    "PS_Total": 3,
    "ولسوالي": "اشترلی",
    "Region": "Central Highlands Region"
   },
   "geometry": {
    "x": 7375038.4715913767,
    "y": 4030233.8031958565
   }
  },
  {
   "attributes": {
    "OBJECTID": 269,
    "ولایت": "دایکندی",
    "Province": "DAYKUNDI",
    "PC_Code": "2401169",
    "District": "NILI",
    "د_مرکز_نوم__نام_مرکز": "منبر",
    "Polling_Center_Name": "Mosque",
    "د_مرکز_ځای__موقعیت_مرکز": "جو قل ",
    "Polling_Center_Location": "Jaw qul",
    "Map_Accuracy": "Building",
    "Map_Accuracy_Dari": "تعمیر",
    "Status": "Open",
    "Status_Dari": null,
    "PS_Male": 2,
    "PS_Female": 2,
    "PS_Total": 4,
    "ولسوالي": "نیلی",
    "Region": "Central Highlands Region"
   },
   "geometry": {
    "x": 7353967.4285682635,
    "y": 4008591.4726573718
   }
  },
  {
   "attributes": {
    "OBJECTID": 270,
    "ولایت": "دایکندی",
    "Province": "DAYKUNDI",
    "PC_Code": "2401170",
    "District": "NILI",
    "د_مرکز_نوم__نام_مرکز": "مسجد",
    "Polling_Center_Name": "Mosque",
    "د_مرکز_ځای__موقعیت_مرکز": "میش علیا ",
    "Polling_Center_Location": "Mish hulia",
    "Map_Accuracy": "Building",
    "Map_Accuracy_Dari": "تعمیر",
    "Status": "Open",
    "Status_Dari": null,
    "PS_Male": 2,
    "PS_Female": 2,
    "PS_Total": 4,
    "ولسوالي": "نیلی",
    "Region": "Central Highlands Region"
   },
   "geometry": {
    "x": 7356055.9837038238,
    "y": 3995002.9740821822
   }
  },
  {
   "attributes": {
    "OBJECTID": 271,
    "ولایت": "دایکندی",
    "Province": "DAYKUNDI",
    "PC_Code": "2402171",
    "District": "SHAHRISTAN",
    "د_مرکز_نوم__نام_مرکز": "مسجد",
    "Polling_Center_Name": "Mosque",
    "د_مرکز_ځای__موقعیت_مرکز": "پیتاب لرگر",
    "Polling_Center_Location": "Pitab largar",
    "Map_Accuracy": "Building",
    "Map_Accuracy_Dari": "تعمیر",
    "Status": "Open",
    "Status_Dari": null,
    "PS_Male": 2,
    "PS_Female": 1,
    "PS_Total": 3,
    "ولسوالي": "شهرستان",
    "Region": "Central Highlands Region"
   },
   "geometry": {
    "x": 7395654.1653543403,
    "y": 4021007.7048562104
   }
  },
  {
   "attributes": {
    "OBJECTID": 272,
    "ولایت": "دایکندی",
    "Province": "DAYKUNDI",
    "PC_Code": "2407188",
    "District": "MIRAMOR",
    "د_مرکز_نوم__نام_مرکز": "منبر",
    "Polling_Center_Name": "Mosque",
    "د_مرکز_ځای__موقعیت_مرکز": "اونه برگر ",
    "Polling_Center_Location": "Aona bargar",
    "Map_Accuracy": "Building",
    "Map_Accuracy_Dari": "تعمیر",
    "Status": "Open",
    "Status_Dari": null,
    "PS_Male": 2,
    "PS_Female": 1,
    "PS_Total": 3,
    "ولسوالي": "میرامور",
    "Region": "Central Highlands Region"
   },
   "geometry": {
    "x": 7413677.0935914684,
    "y": 4010269.0372092267
   }
  },
  {
   "attributes": {
    "OBJECTID": 273,
    "ولایت": "دایکندی",
    "Province": "DAYKUNDI",
    "PC_Code": "2407189",
    "District": "MIRAMOR",
    "د_مرکز_نوم__نام_مرکز": "مسجد",
    "Polling_Center_Name": "Mosque",
    "د_مرکز_ځای__موقعیت_مرکز": "بردیز برکر",
    "Polling_Center_Location": "Bardiz bargar",
    "Map_Accuracy": "Building",
    "Map_Accuracy_Dari": "تعمیر",
    "Status": "Open",
    "Status_Dari": null,
    "PS_Male": 2,
    "PS_Female": 1,
    "PS_Total": 3,
    "ولسوالي": "میرامور",
    "Region": "Central Highlands Region"
   },
   "geometry": {
    "x": 7458263.2242162572,
    "y": 3995708.4751479425
   }
  },
  {
   "attributes": {
    "OBJECTID": 274,
    "ولایت": "دایکندی",
    "Province": "DAYKUNDI",
    "PC_Code": "2407190",
    "District": "MIRAMOR",
    "د_مرکز_نوم__نام_مرکز": "مکتب",
    "Polling_Center_Name": "School",
    "د_مرکز_ځای__موقعیت_مرکز": "دهن درراه ",
    "Polling_Center_Location": "Dahan dar ra",
    "Map_Accuracy": "Building",
    "Map_Accuracy_Dari": "تعمیر",
    "Status": "Open",
    "Status_Dari": null,
    "PS_Male": 2,
    "PS_Female": 1,
    "PS_Total": 3,
    "ولسوالي": "میرامور",
    "Region": "Central Highlands Region"
   },
   "geometry": {
    "x": 7464058.2695550462,
    "y": 3998953.318099319
   }
  },
  {
   "attributes": {
    "OBJECTID": 275,
    "ولایت": "دایکندی",
    "Province": "DAYKUNDI",
    "PC_Code": "2408193",
    "District": "SANG-E-TAKHT",
    "د_مرکز_نوم__نام_مرکز": "مسجد",
    "Polling_Center_Name": "Mosque",
    "د_مرکز_ځای__موقعیت_مرکز": "ایل غلام کلیکان",
    "Polling_Center_Location": "Ail ghulam kaligan",
    "Map_Accuracy": "Building",
    "Map_Accuracy_Dari": "تعمیر",
    "Status": "Open",
    "Status_Dari": null,
    "PS_Male": 2,
    "PS_Female": 1,
    "PS_Total": 3,
    "ولسوالي": "سنگ تخت",
    "Region": "Central Highlands Region"
   },
   "geometry": {
    "x": 7375774.5038193557,
    "y": 4061319.3267407808
   }
  },
  {
   "attributes": {
    "OBJECTID": 276,
    "ولایت": "دایکندی",
    "Province": "DAYKUNDI",
    "PC_Code": "2409194",
    "District": "KEJRAN",
    "د_مرکز_نوم__نام_مرکز": "مسجد",
    "Polling_Center_Name": "Mosque",
    "د_مرکز_ځای__موقعیت_مرکز": "قاسم آباد ",
    "Polling_Center_Location": "Qasem abad",
    "Map_Accuracy": "District",
    "Map_Accuracy_Dari": "ولسوالی",
    "Status": "Open",
    "Status_Dari": null,
    "PS_Male": 2,
    "PS_Female": 1,
    "PS_Total": 3,
    "ولسوالي": "کجران",
    "Region": "Central Highlands Region"
   },
   "geometry": {
    "x": 7313626.6750036376,
    "y": 3922614.895584173
   }
  },
  {
   "attributes": {
    "OBJECTID": 277,
    "ولایت": "زابل",
    "Province": "ZABUL",
    "PC_Code": "2601045",
    "District": "QALAT",
    "د_مرکز_نوم__نام_مرکز": "مکتب چهل دختران",
    "Polling_Center_Name": "Chel dokhtaran School",
    "د_مرکز_ځای__موقعیت_مرکز": "نوی کلی",
    "Polling_Center_Location": "Nawi kali village",
    "Map_Accuracy": "Building",
    "Map_Accuracy_Dari": "تعمیر",
    "Status": "Open",
    "Status_Dari": null,
    "PS_Male": 2,
    "PS_Female": 1,
    "PS_Total": 3,
    "ولسوالي": "قلات",
    "Region": "Southern Region"
   },
   "geometry": {
    "x": 7446329.6260803789,
    "y": 3776578.8237177795
   }
  },
  {
   "attributes": {
    "OBJECTID": 278,
    "ولایت": "جوزجان",
    "Province": "JAWZJAN",
    "PC_Code": "2802123",
    "District": "KHWAJA DUKOH",
    "د_مرکز_نوم__نام_مرکز": "منزل حاجی صالح",
    "Polling_Center_Name": "Haji saleh House",
    "د_مرکز_ځای__موقعیت_مرکز": "چوب باش افغانیه",
    "Polling_Center_Location": "Chob bash Afghania",
    "Map_Accuracy": "Village",
    "Map_Accuracy_Dari": "قریه",
    "Status": "Open",
    "Status_Dari": null,
    "PS_Male": 2,
    "PS_Female": 1,
    "PS_Total": 3,
    "ولسوالي": "خواجه دوکوه",
    "Region": "Northern Region"
   },
   "geometry": {
    "x": 7303666.2297588876,
    "y": 4410017.0384530555
   }
  },
  {
   "attributes": {
    "OBJECTID": 279,
    "ولایت": "هلمند",
    "Province": "HELMAND",
    "PC_Code": "3002223",
    "District": "NAD ALI",
    "د_مرکز_نوم__نام_مرکز": "چا انجیر",
    "Polling_Center_Name": "Cha anjeer",
    "د_مرکز_ځای__موقعیت_مرکز": "چا انجیر",
    "Polling_Center_Location": "Cha angeer",
    "Map_Accuracy": "Building",
    "Map_Accuracy_Dari": "تعمیر",
    "Status": "Open",
    "Status_Dari": null,
    "PS_Male": 2,
    "PS_Female": 1,
    "PS_Total": 3,
    "ولسوالي": "نادعلی",
    "Region": "Southern Region"
   },
   "geometry": {
    "x": 7158536.6054446483,
    "y": 3720592.5806298158
   }
  },
  {
   "attributes": {
    "OBJECTID": 280,
    "ولایت": "هلمند",
    "Province": "HELMAND",
    "PC_Code": "3002224",
    "District": "NAD ALI",
    "د_مرکز_نوم__نام_مرکز": "دوراهی",
    "Polling_Center_Name": "Dorahi",
    "د_مرکز_ځای__موقعیت_مرکز": "زابراباد",
    "Polling_Center_Location": "Zabur abad",
    "Map_Accuracy": "Building",
    "Map_Accuracy_Dari": "تعمیر",
    "Status": "Open",
    "Status_Dari": null,
    "PS_Male": 2,
    "PS_Female": 1,
    "PS_Total": 3,
    "ولسوالي": "نادعلی",
    "Region": "Southern Region"
   },
   "geometry": {
    "x": 7154115.0578318965,
    "y": 3707435.4461111436
   }
  },
  {
   "attributes": {
    "OBJECTID": 281,
    "ولایت": "هلمند",
    "Province": "HELMAND",
    "PC_Code": "3006225",
    "District": "GARM SER",
    "د_مرکز_نوم__نام_مرکز": "مکتب",
    "Polling_Center_Name": "School",
    "د_مرکز_ځای__موقعیت_مرکز": "کوچنی درویشان",
    "Polling_Center_Location": "Kochinai darwishian",
    "Map_Accuracy": "Building",
    "Map_Accuracy_Dari": "تعمیر",
    "Status": "Open",
    "Status_Dari": null,
    "PS_Male": 2,
    "PS_Female": 1,
    "PS_Total": 3,
    "ولسوالي": "گرم سیر",
    "Region": "Southern Region"
   },
   "geometry": {
    "x": 7151113.9128578994,
    "y": 3523596.9372514319
   }
  },
  {
   "attributes": {
    "OBJECTID": 282,
    "ولایت": "هلمند",
    "Province": "HELMAND",
    "PC_Code": "3011227",
    "District": "REG-E-KHAN NISHIN",
    "د_مرکز_نوم__نام_مرکز": "مسجد",
    "Polling_Center_Name": "Mosque",
    "د_مرکز_ځای__موقعیت_مرکز": "دیوارک",
    "Polling_Center_Location": "Diwarak",
    "Map_Accuracy": "Building",
    "Map_Accuracy_Dari": "تعمیر",
    "Status": "Open",
    "Status_Dari": null,
    "PS_Male": 2,
    "PS_Female": 1,
    "PS_Total": 3,
    "ولسوالي": "ریگ خانشین",
    "Region": "Southern Region"
   },
   "geometry": {
    "x": 7118530.08353044,
    "y": 3575802.4128858084
   }
  },
  {
   "attributes": {
    "OBJECTID": 283,
    "ولایت": "بادغيس",
    "Province": "BADGHIS",
    "PC_Code": "3102190",
    "District": "AB KAMARI",
    "د_مرکز_نوم__نام_مرکز": "مکتب سفیدلک",
    "Polling_Center_Name": "Safidlak School",
    "د_مرکز_ځای__موقعیت_مرکز": "سفیدلک",
    "Polling_Center_Location": "Safid lak",
    "Map_Accuracy": "Building",
    "Map_Accuracy_Dari": "تعمیر",
    "Status": "Open",
    "Status_Dari": null,
    "PS_Male": 2,
    "PS_Female": 1,
    "PS_Total": 3,
    "ولسوالي": "آبکمری",
    "Region": "Western Region"
   },
   "geometry": {
    "x": 6993728.9080613088,
    "y": 4138579.6048922776
   }
  },
  {
   "attributes": {
    "OBJECTID": 284,
    "ولایت": "بادغيس",
    "Province": "BADGHIS",
    "PC_Code": "3102191",
    "District": "AB KAMARI",
    "د_مرکز_نوم__نام_مرکز": "مکتب چالانک",
    "Polling_Center_Name": "Chalanak School",
    "د_مرکز_ځای__موقعیت_مرکز": "چالانک",
    "Polling_Center_Location": "Chalanak",
    "Map_Accuracy": "Building",
    "Map_Accuracy_Dari": "تعمیر",
    "Status": "Open",
    "Status_Dari": null,
    "PS_Male": 2,
    "PS_Female": 1,
    "PS_Total": 3,
    "ولسوالي": "آبکمری",
    "Region": "Western Region"
   },
   "geometry": {
    "x": 7002974.999547041,
    "y": 4129767.7422146727
   }
  },
  {
   "attributes": {
    "OBJECTID": 285,
    "ولایت": "ننگرهار",
    "Province": "NANGARHAR",
    "PC_Code": "0615383",
    "District": "ACHIN",
    "د_مرکز_نوم__نام_مرکز": "ګړوکو زیارت مدرسه",
    "Polling_Center_Name": "Garoko Ziarat Madrassa",
    "د_مرکز_ځای__موقعیت_مرکز": "ګړوکو",
    "Polling_Center_Location": "Garoko",
    "Map_Accuracy": "Village",
    "Map_Accuracy_Dari": "قریه",
    "Status": "Open",
    "Status_Dari": null,
    "PS_Male": 0,
    "PS_Female": 2,
    "PS_Total": 2,
    "ولسوالي": "اچین",
    "Region": "Eastern Region"
   },
   "geometry": {
    "x": 7908493.260318133,
    "y": 4061273.9475827776
   }
  },
  {
   "attributes": {
    "OBJECTID": 286,
    "ولایت": "ننگرهار",
    "Province": "NANGARHAR",
    "PC_Code": "0622413",
    "District": "DUR BABA",
    "د_مرکز_نوم__نام_مرکز": "زيارت کلي مسجد",
    "Polling_Center_Name": "Ziarat Village Mosque",
    "د_مرکز_ځای__موقعیت_مرکز": "زيارت کلي مسجد",
    "Polling_Center_Location": "Ziarat Kaley Mosque",
    "Map_Accuracy": "Village",
    "Map_Accuracy_Dari": "قریه",
    "Status": "Open",
    "Status_Dari": null,
    "PS_Male": 3,
    "PS_Female": 2,
    "PS_Total": 5,
    "ولسوالي": "در بابا",
    "Region": "Eastern Region"
   },
   "geometry": {
    "x": 7895773.1359898457,
    "y": 4034063.3347979146
   }
  },
  {
   "attributes": {
    "OBJECTID": 287,
    "ولایت": "ننگرهار",
    "Province": "NANGARHAR",
    "PC_Code": "0622414",
    "District": "DUR BABA",
    "د_مرکز_نوم__نام_مرکز": "سورکنډو داک ",
    "Polling_Center_Name": "Soor Kandaw Daag",
    "د_مرکز_ځای__موقعیت_مرکز": "سورکنډاو کلی",
    "Polling_Center_Location": "Soor Kandaw Daag",
    "Map_Accuracy": "Village",
    "Map_Accuracy_Dari": "قریه",
    "Status": "Open",
    "Status_Dari": null,
    "PS_Male": 2,
    "PS_Female": 1,
    "PS_Total": 3,
    "ولسوالي": "در بابا",
    "Region": "Eastern Region"
   },
   "geometry": {
    "x": 7892261.6361236386,
    "y": 4036212.6978964815
   }
  },
  {
   "attributes": {
    "OBJECTID": 288,
    "ولایت": "ننگرهار",
    "Province": "NANGARHAR",
    "PC_Code": "0622416",
    "District": "DUR BABA",
    "د_مرکز_نوم__نام_مرکز": "شګي دیره",
    "Polling_Center_Name": "Shagay Dera",
    "د_مرکز_ځای__موقعیت_مرکز": "شاګي",
    "Polling_Center_Location": "Shagay",
    "Map_Accuracy": "Village",
    "Map_Accuracy_Dari": "قریه",
    "Status": "Open",
    "Status_Dari": null,
    "PS_Male": 2,
    "PS_Female": 1,
    "PS_Total": 3,
    "ولسوالي": "در بابا",
    "Region": "Eastern Region"
   },
   "geometry": {
    "x": 7894505.7034746408,
    "y": 4035803.1456430242
   }
  },
  {
   "attributes": {
    "OBJECTID": 289,
    "ولایت": "ننگرهار",
    "Province": "NANGARHAR",
    "PC_Code": "0622417",
    "District": "DUR BABA",
    "د_مرکز_نوم__نام_مرکز": "مکتب څڅوبۍ",
    "Polling_Center_Name": "Sosobi School",
    "د_مرکز_ځای__موقعیت_مرکز": "څڅوبۍ",
    "Polling_Center_Location": "Sasobi",
    "Map_Accuracy": "Village",
    "Map_Accuracy_Dari": "قریه",
    "Status": "Open",
    "Status_Dari": null,
    "PS_Male": 2,
    "PS_Female": 1,
    "PS_Total": 3,
    "ولسوالي": "در بابا",
    "Region": "Eastern Region"
   },
   "geometry": {
    "x": 7906555.6665459163,
    "y": 4037967.3317122934
   }
  },
  {
   "attributes": {
    "OBJECTID": 290,
    "ولایت": " فراه",
    "Province": "FARAH",
    "PC_Code": "3304249",
    "District": "QALA-E-KAH",
    "د_مرکز_نوم__نام_مرکز": "مسجد گیست",
    "Polling_Center_Name": "Guest Mosque",
    "د_مرکز_ځای__موقعیت_مرکز": "گیست",
    "Polling_Center_Location": "Guest",
    "Map_Accuracy": "Building",
    "Map_Accuracy_Dari": "تعمیر",
    "Status": "Open",
    "Status_Dari": null,
    "PS_Male": 2,
    "PS_Female": 1,
    "PS_Total": 3,
    "ولسوالي": "قلعه کاه",
    "Region": "Western Region"
   },
   "geometry": {
    "x": 6842625.159411368,
    "y": 3801120.3524038759
   }
  },
  {
   "attributes": {
    "OBJECTID": 291,
    "ولایت": " فراه",
    "Province": "FARAH",
    "PC_Code": "3305250",
    "District": "SHIB KOH",
    "د_مرکز_نوم__نام_مرکز": "مکتب ابتدائ چکه ",
    "Polling_Center_Name": "Chaka Primary School",
    "د_مرکز_ځای__موقعیت_مرکز": "چکه",
    "Polling_Center_Location": "Chaka",
    "Map_Accuracy": "Building",
    "Map_Accuracy_Dari": "تعمیر",
    "Status": "Open",
    "Status_Dari": null,
    "PS_Male": 2,
    "PS_Female": 1,
    "PS_Total": 3,
    "ولسوالي": "\u064Eشیب کوه",
    "Region": "Western Region"
   },
   "geometry": {
    "x": 6863631.1696992721,
    "y": 3782700.8148430791
   }
  },
  {
   "attributes": {
    "OBJECTID": 292,
    "ولایت": " فراه",
    "Province": "FARAH",
    "PC_Code": "3305251",
    "District": "SHIB KOH",
    "د_مرکز_نوم__نام_مرکز": "مکتب ابتدائ فریب",
    "Polling_Center_Name": "Farib Primary School",
    "د_مرکز_ځای__موقعیت_مرکز": "فریب",
    "Polling_Center_Location": "Farib",
    "Map_Accuracy": "Building",
    "Map_Accuracy_Dari": "تعمیر",
    "Status": "Open",
    "Status_Dari": null,
    "PS_Male": 2,
    "PS_Female": 1,
    "PS_Total": 3,
    "ولسوالي": "\u064Eشیب کوه",
    "Region": "Western Region"
   },
   "geometry": {
    "x": 6844350.9650693638,
    "y": 3780770.7945264163
   }
  },
  {
   "attributes": {
    "OBJECTID": 293,
    "ولایت": "خوست",
    "Province": "KHOST",
    "PC_Code": "1412158",
    "District": "SHAMUL",
    "د_مرکز_نوم__نام_مرکز": " د امير ګلستان جومات",
    "Polling_Center_Name": "Amir Gulistan Mosque",
    "د_مرکز_ځای__موقعیت_مرکز": "علاو الدين کلى",
    "Polling_Center_Location": "Alauddin Village",
    "Map_Accuracy": "Building",
    "Map_Accuracy_Dari": "تعمیر",
    "Status": "Open",
    "Status_Dari": null,
    "PS_Male": 1,
    "PS_Female": 1,
    "PS_Total": 2,
    "ولسوالي": "شمل",
    "Region": "South Eastern Region"
   },
   "geometry": {
    "x": 7741568.4091541311,
    "y": 3936974.8666195916
   }
  },
  {
   "attributes": {
    "OBJECTID": 294,
    "ولایت": "هرات",
    "Province": "HERAT",
    "PC_Code": "3208220",
    "District": "GULRAN",
    "د_مرکز_نوم__نام_مرکز": "مکتب زیره گی کلان",
    "Polling_Center_Name": "Zeeragee kalan School",
    "د_مرکز_ځای__موقعیت_مرکز": "زیره گی کلان",
    "Polling_Center_Location": "Zeeragee Kalan",
    "Map_Accuracy": "Building",
    "Map_Accuracy_Dari": "تعمیر",
    "Status": "Open",
    "Status_Dari": null,
    "PS_Male": 2,
    "PS_Female": 1,
    "PS_Total": 3,
    "ولسوالي": "گلران ",
    "Region": "Western Region"
   },
   "geometry": {
    "x": 6874659.6447515581,
    "y": 4149477.2174387816
   }
  },
  {
   "attributes": {
    "OBJECTID": 295,
    "ولایت": "هرات",
    "Province": "HERAT",
    "PC_Code": "3208221",
    "District": "GULRAN",
    "د_مرکز_نوم__نام_مرکز": "مسجد شکرآب",
    "Polling_Center_Name": "Shakar Aab Mosque",
    "د_مرکز_ځای__موقعیت_مرکز": " شکرآب",
    "Polling_Center_Location": "Shakar Aab",
    "Map_Accuracy": "Building",
    "Map_Accuracy_Dari": "تعمیر",
    "Status": "Open",
    "Status_Dari": null,
    "PS_Male": 2,
    "PS_Female": 1,
    "PS_Total": 3,
    "ولسوالي": "گلران ",
    "Region": "Western Region"
   },
   "geometry": {
    "x": 6885626.6049871948,
    "y": 4137812.8998525226
   }
  },
  {
   "attributes": {
    "OBJECTID": 296,
    "ولایت": "ننگرهار",
    "Province": "NANGARHAR",
    "PC_Code": "0616421",
    "District": "SHINWAR",
    "د_مرکز_نوم__نام_مرکز": "حضرت بلال جومات",
    "Polling_Center_Name": "Hazrat Bilal Mosque",
    "د_مرکز_ځای__موقعیت_مرکز": "٢٥ وياله",
    "Polling_Center_Location": "25 Viyala",
    "Map_Accuracy": "Village",
    "Map_Accuracy_Dari": "قریه",
    "Status": "Open",
    "Status_Dari": null,
    "PS_Male": 0,
    "PS_Female": 3,
    "PS_Total": 3,
    "ولسوالي": "شینوار",
    "Region": "Eastern Region"
   },
   "geometry": {
    "x": 7879482.4446716616,
    "y": 4059739.910044651
   }
  },
  {
   "attributes": {
    "OBJECTID": 297,
    "ولایت": "ننگرهار",
    "Province": "NANGARHAR",
    "PC_Code": "0616422",
    "District": "SHINWAR",
    "د_مرکز_نوم__نام_مرکز": "حيات خان جومات",
    "Polling_Center_Name": "Hayat Khan Mosque",
    "د_مرکز_ځای__موقعیت_مرکز": "٢٧ وياله",
    "Polling_Center_Location": "27 Viyala",
    "Map_Accuracy": "Village",
    "Map_Accuracy_Dari": "قریه",
    "Status": "Open",
    "Status_Dari": null,
    "PS_Male": 0,
    "PS_Female": 3,
    "PS_Total": 3,
    "ولسوالي": "شینوار",
    "Region": "Eastern Region"
   },
   "geometry": {
    "x": 7884702.2701415094,
    "y": 4058437.9220398697
   }
  },
  {
   "attributes": {
    "OBJECTID": 298,
    "ولایت": "سرپل",
    "Province": "SAR-E-PUL",
    "PC_Code": "2206135",
    "District": "GOSFANDI",
    "د_مرکز_نوم__نام_مرکز": "مکتب متوسطه\u064E قریه آبخور",
    "Polling_Center_Name": "Qarya Aabkhor Secondary School",
    "د_مرکز_ځای__موقعیت_مرکز": "قریه آبخور",
    "Polling_Center_Location": "Aabkhor Village",
    "Map_Accuracy": "Building",
    "Map_Accuracy_Dari": "تعمیر",
    "Status": "Open",
    "Status_Dari": null,
    "PS_Male": 1,
    "PS_Female": 1,
    "PS_Total": 2,
    "ولسوالي": "گوسفندی ",
    "Region": "Northern Region"
   },
   "geometry": {
    "x": 7410296.6260054382,
    "y": 4281751.5456213383
   }
  },
  {
   "attributes": {
    "OBJECTID": 299,
    "ولایت": "پروان",
    "Province": "PARWAN",
    "PC_Code": "0306065",
    "District": "SALANG",
    "د_مرکز_نوم__نام_مرکز": "مکتب اولنگ",
    "Polling_Center_Name": "Awlang School",
    "د_مرکز_ځای__موقعیت_مرکز": "جوار قمر",
    "Polling_Center_Location": "Jawar-e-Qamar",
    "Map_Accuracy": "Building",
    "Map_Accuracy_Dari": "تعمیر",
    "Status": "Open",
    "Status_Dari": null,
    "PS_Male": 1,
    "PS_Female": 1,
    "PS_Total": 2,
    "ولسوالي": "سالنگ ",
    "Region": "Central Region"
   },
   "geometry": {
    "x": 7692006.2768080942,
    "y": 4202598.6249146583
   }
  },
  {
   "attributes": {
    "OBJECTID": 300,
    "ولایت": "پکتيکا",
    "Province": "PAKTIKA",
    "PC_Code": "1214306",
    "District": "BARMAL",
    "د_مرکز_نوم__نام_مرکز": "ابتدائيه ښوونځي ادم خان كلي",
    "Polling_Center_Name": "Adam Khan Village Primary School",
    "د_مرکز_ځای__موقعیت_مرکز": "آدم خان کلی",
    "Polling_Center_Location": "Adam Khan Village",
    "Map_Accuracy": "Village",
    "Map_Accuracy_Dari": "قریه",
    "Status": "Open",
    "Status_Dari": null,
    "PS_Male": 3,
    "PS_Female": 0,
    "PS_Total": 3,
    "ولسوالي": "برمل",
    "Region": "South Eastern Region"
   },
   "geometry": {
    "x": 7713073.6741178827,
    "y": 3869658.1200992228
   }
  },
  {
   "attributes": {
    "OBJECTID": 301,
    "ولایت": "پکتيکا",
    "Province": "PAKTIKA",
    "PC_Code": "1215267",
    "District": "GIYAN",
    "د_مرکز_نوم__نام_مرکز": "کمال کلی جومات",
    "Polling_Center_Name": "Kamal Village Mosque",
    "د_مرکز_ځای__موقعیت_مرکز": "کمال کلی",
    "Polling_Center_Location": "Kamal Village ",
    "Map_Accuracy": "Building",
    "Map_Accuracy_Dari": "تعمیر",
    "Status": "Open",
    "Status_Dari": null,
    "PS_Male": 4,
    "PS_Female": 0,
    "PS_Total": 4,
    "ولسوالي": "گیان",
    "Region": "South Eastern Region"
   },
   "geometry": {
    "x": 7719918.2531968467,
    "y": 3896179.2379898671
   }
  },
  {
   "attributes": {
    "OBJECTID": 302,
    "ولایت": "هرات",
    "Province": "HERAT",
    "PC_Code": "3202069",
    "District": "ENJIL",
    "د_مرکز_نوم__نام_مرکز": "مسجد جامع کشک باد صبا",
    "Polling_Center_Name": "Kashak Bad-e- Saba Mosque ",
    "د_مرکز_ځای__موقعیت_مرکز": "قریه کشک باد صبا",
    "Polling_Center_Location": "Kashak Bad-e-Saba Village ",
    "Map_Accuracy": "Building",
    "Map_Accuracy_Dari": "تعمیر",
    "Status": "Open",
    "Status_Dari": null,
    "PS_Male": 2,
    "PS_Female": 1,
    "PS_Total": 3,
    "ولسوالي": "انجیل",
    "Region": "Western Region"
   },
   "geometry": {
    "x": 6898004.8770666877,
    "y": 4078563.6913485834
   }
  },
  {
   "attributes": {
    "OBJECTID": 303,
    "ولایت": "هرات",
    "Province": "HERAT",
    "PC_Code": "3202070",
    "District": "ENJIL",
    "د_مرکز_نوم__نام_مرکز": "كوپراتيف زراعتي",
    "Polling_Center_Name": "Ab jalil Mosque and School",
    "د_مرکز_ځای__موقعیت_مرکز": "قریه  آبجليل ",
    "Polling_Center_Location": "Aab Jalil Village ",
    "Map_Accuracy": "Village",
    "Map_Accuracy_Dari": "قریه",
    "Status": "Open",
    "Status_Dari": null,
    "PS_Male": 2,
    "PS_Female": 1,
    "PS_Total": 3,
    "ولسوالي": "انجیل",
    "Region": "Western Region"
   },
   "geometry": {
    "x": 6905729.2541564079,
    "y": 4077211.1916211201
   }
  },
  {
   "attributes": {
    "OBJECTID": 304,
    "ولایت": "ننگرهار",
    "Province": "NANGARHAR",
    "PC_Code": "0601043",
    "District": "JALALABAD",
    "د_مرکز_نوم__نام_مرکز": "زراعت ليسه",
    "Polling_Center_Name": "Agriculture School",
    "د_مرکز_ځای__موقعیت_مرکز": "څلورمه ناحیه",
    "Polling_Center_Location": "D04-Nahia 4",
    "Map_Accuracy": "Building",
    "Map_Accuracy_Dari": "تعمیر",
    "Status": "Open",
    "Status_Dari": null,
    "PS_Male": 5,
    "PS_Female": 0,
    "PS_Total": 5,
    "ولسوالي": "جلال آباد",
    "Region": "Eastern Region"
   },
   "geometry": {
    "x": 7844929.4453531392,
    "y": 4085757.6410423191
   }
  },
  {
   "attributes": {
    "OBJECTID": 305,
    "ولایت": "کندز",
    "Province": "KUNDUZ",
    "PC_Code": "1904166",
    "District": "KHAN ABAD",
    "د_مرکز_نوم__نام_مرکز": "مکتب ابراهیم خیل",
    "Polling_Center_Name": "Ibrahim Khel School",
    "د_مرکز_ځای__موقعیت_مرکز": "قریه ابراهیم خیل",
    "Polling_Center_Location": "Ibrahim Khel Village",
    "Map_Accuracy": "Building",
    "Map_Accuracy_Dari": "تعمیر",
    "Status": "Open",
    "Status_Dari": null,
    "PS_Male": 1,
    "PS_Female": 1,
    "PS_Total": 2,
    "ولسوالي": "خان آباد",
    "Region": "North Eastern Region"
   },
   "geometry": {
    "x": 7683557.226531229,
    "y": 4409220.2425657874
   }
  },
  {
   "attributes": {
    "OBJECTID": 306,
    "ولایت": "لغمان",
    "Province": "LAGHMAN",
    "PC_Code": "0704055",
    "District": "ALINGAR",
    "د_مرکز_نوم__نام_مرکز": "د کندې جومات ",
    "Polling_Center_Name": "Kandi Mosque",
    "د_مرکز_ځای__موقعیت_مرکز": "کنده",
    "Polling_Center_Location": "Kanda",
    "Map_Accuracy": "Village",
    "Map_Accuracy_Dari": "قریه",
    "Status": "Open",
    "Status_Dari": null,
    "PS_Male": 2,
    "PS_Female": 1,
    "PS_Total": 3,
    "ولسوالي": "علینګار",
    "Region": "Eastern Region"
   },
   "geometry": {
    "x": 7827966.130947399,
    "y": 4134554.9026887682
   }
  },
  {
   "attributes": {
    "OBJECTID": 307,
    "ولایت": "کابل",
    "Province": "KABUL",
    "PC_Code": "0101058",
    "District": "KABUL-D04",
    "د_مرکز_نوم__نام_مرکز": " ليسه نادريه",
    "Polling_Center_Name": "Naderia High School",
    "د_مرکز_ځای__موقعیت_مرکز": "کارته پروان",
    "Polling_Center_Location": "Kart-e-Parwan",
    "Map_Accuracy": "Building",
    "Map_Accuracy_Dari": "تعمیر",
    "Status": "Open",
    "Status_Dari": null,
    "PS_Male": 4,
    "PS_Female": 3,
    "PS_Total": 7,
    "ولسوالي": "کابل - ناحیه 04",
    "Region": "Central Region"
   },
   "geometry": {
    "x": 7696654.7906136792,
    "y": 4100806.1750542857
   }
  },
  {
   "attributes": {
    "OBJECTID": 308,
    "ولایت": "کابل",
    "Province": "KABUL",
    "PC_Code": "0101061",
    "District": "KABUL-D04",
    "د_مرکز_نوم__نام_مرکز": " کودکستان نمبر١",
    "Polling_Center_Name": "Number One Kindergarten ",
    "د_مرکز_ځای__موقعیت_مرکز": "پروژه وزير آباد",
    "Polling_Center_Location": "Proja-e- Wazir Abad",
    "Map_Accuracy": "Building",
    "Map_Accuracy_Dari": "تعمیر",
    "Status": "Open",
    "Status_Dari": null,
    "PS_Male": 2,
    "PS_Female": 2,
    "PS_Total": 4,
    "ولسوالي": "کابل - ناحیه 04",
    "Region": "Central Region"
   },
   "geometry": {
    "x": 7698539.8481540978,
    "y": 4104326.4269037484
   }
  },
  {
   "attributes": {
    "OBJECTID": 309,
    "ولایت": "کابل",
    "Province": "KABUL",
    "PC_Code": "0101062",
    "District": "KABUL-D04",
    "د_مرکز_نوم__نام_مرکز": "مکتب نسوان ملکه ثریا",
    "Polling_Center_Name": "Malika Soraia Girls High School",
    "د_مرکز_ځای__موقعیت_مرکز": "پروژه تايمني",
    "Polling_Center_Location": "Proja-e-Taimani",
    "Map_Accuracy": "Building",
    "Map_Accuracy_Dari": "تعمیر",
    "Status": "Open",
    "Status_Dari": null,
    "PS_Male": 5,
    "PS_Female": 4,
    "PS_Total": 9,
    "ولسوالي": "کابل - ناحیه 04",
    "Region": "Central Region"
   },
   "geometry": {
    "x": 7698598.9732752452,
    "y": 4104197.5120985778
   }
  },
  {
   "attributes": {
    "OBJECTID": 310,
    "ولایت": "کابل",
    "Province": "KABUL",
    "PC_Code": "0101165",
    "District": "KABUL-D08",
    "د_مرکز_نوم__نام_مرکز": " مسجد غوث اعظم دستگير",
    "Polling_Center_Name": "Ghaws Azam Dastger Mosque",
    "د_مرکز_ځای__موقعیت_مرکز": "آب رساني",
    "Polling_Center_Location": "Aab Rasani",
    "Map_Accuracy": "Building",
    "Map_Accuracy_Dari": "تعمیر",
    "Status": "Open",
    "Status_Dari": null,
    "PS_Male": 3,
    "PS_Female": 2,
    "PS_Total": 5,
    "ولسوالي": "کابل - ناحیه 08",
    "Region": "Central Region"
   },
   "geometry": {
    "x": 7708019.2883356633,
    "y": 4097366.8746732823
   }
  },
  {
   "attributes": {
    "OBJECTID": 311,
    "ولایت": "کابل",
    "Province": "KABUL",
    "PC_Code": "0101167",
    "District": "KABUL-D08",
    "د_مرکز_نوم__نام_مرکز": " مسجد تپه بلخ",
    "Polling_Center_Name": "Tap-e- Balkh Mosque",
    "د_مرکز_ځای__موقعیت_مرکز": "شاه شهيد",
    "Polling_Center_Location": "Shah Shaheed ",
    "Map_Accuracy": "Building",
    "Map_Accuracy_Dari": "تعمیر",
    "Status": "Open",
    "Status_Dari": null,
    "PS_Male": 2,
    "PS_Female": 3,
    "PS_Total": 5,
    "ولسوالي": "کابل - ناحیه 08",
    "Region": "Central Region"
   },
   "geometry": {
    "x": 7703555.7496751519,
    "y": 4097459.389090423
   }
  },
  {
   "attributes": {
    "OBJECTID": 312,
    "ولایت": "کابل",
    "Province": "KABUL",
    "PC_Code": "0101168",
    "District": "KABUL-D08",
    "د_مرکز_نوم__نام_مرکز": " مسجد عبد القادر جیلانی",
    "Polling_Center_Name": "Abdul Qader Jilani Mosque",
    "د_مرکز_ځای__موقعیت_مرکز": "سر تپه مارکیت",
    "Polling_Center_Location": "Sar-e-Tapa, Market",
    "Map_Accuracy": "Building",
    "Map_Accuracy_Dari": "تعمیر",
    "Status": "Open",
    "Status_Dari": null,
    "PS_Male": 4,
    "PS_Female": 1,
    "PS_Total": 5,
    "ولسوالي": "کابل - ناحیه 08",
    "Region": "Central Region"
   },
   "geometry": {
    "x": 7707195.3949731877,
    "y": 4097916.8902259907
   }
  },
  {
   "attributes": {
    "OBJECTID": 313,
    "ولایت": "کابل",
    "Province": "KABUL",
    "PC_Code": "0101272",
    "District": "KABUL-D13",
    "د_مرکز_نوم__نام_مرکز": " مسجد محمدیه ",
    "Polling_Center_Name": "Mohammadia Mosque",
    "د_مرکز_ځای__موقعیت_مرکز": "شهرک مهدیه   ",
    "Polling_Center_Location": "Shahrak-e-Mahdia",
    "Map_Accuracy": "Building",
    "Map_Accuracy_Dari": "تعمیر",
    "Status": "Open",
    "Status_Dari": null,
    "PS_Male": 2,
    "PS_Female": 2,
    "PS_Total": 4,
    "ولسوالي": "کابل - ناحیه 13",
    "Region": "Central Region"
   },
   "geometry": {
    "x": 7690027.7287065312,
    "y": 4096656.842406428
   }
  },
  {
   "attributes": {
    "OBJECTID": 314,
    "ولایت": "کابل",
    "Province": "KABUL",
    "PC_Code": "0101273",
    "District": "KABUL-D13",
    "د_مرکز_نوم__نام_مرکز": " ليسه همايون شهيد",
    "Polling_Center_Name": "Homayoon Shaheed Mosque",
    "د_مرکز_ځای__موقعیت_مرکز": "پل خشک",
    "Polling_Center_Location": "Pul-e-Khushk",
    "Map_Accuracy": "Building",
    "Map_Accuracy_Dari": "تعمیر",
    "Status": "Open",
    "Status_Dari": null,
    "PS_Male": 6,
    "PS_Female": 6,
    "PS_Total": 12,
    "ولسوالي": "کابل - ناحیه 13",
    "Region": "Central Region"
   },
   "geometry": {
    "x": 7687498.3027464403,
    "y": 4095276.089188219
   }
  },
  {
   "attributes": {
    "OBJECTID": 315,
    "ولایت": "وردک",
    "Province": "WARDAK",
    "PC_Code": "0404097",
    "District": "CHAKI WARDAK",
    "د_مرکز_نوم__نام_مرکز": "دوکان در بومبی",
    "Polling_Center_Name": "Shop in Bumbai",
    "د_مرکز_ځای__موقعیت_مرکز": "قریه بومبی",
    "Polling_Center_Location": "Bumbi Village",
    "Map_Accuracy": "Village",
    "Map_Accuracy_Dari": "قریه",
    "Status": "Open",
    "Status_Dari": null,
    "PS_Male": 2,
    "PS_Female": 2,
    "PS_Total": 4,
    "ولسوالي": "چک وردک",
    "Region": "Central Region"
   },
   "geometry": {
    "x": 7638449.6638343344,
    "y": 4046416.8200195013
   }
  },
  {
   "attributes": {
    "OBJECTID": 316,
    "ولایت": "وردک",
    "Province": "WARDAK",
    "PC_Code": "0407027",
    "District": "HISSA-E-AWALI BIHSUD",
    "د_مرکز_نوم__نام_مرکز": "مکتب سیاه بوته",
    "Polling_Center_Name": "Sia Buta School",
    "د_مرکز_ځای__موقعیت_مرکز": "سیاه بوته",
    "Polling_Center_Location": "Sia Buta",
    "Map_Accuracy": "Building",
    "Map_Accuracy_Dari": "تعمیر",
    "Status": "Open",
    "Status_Dari": null,
    "PS_Male": 2,
    "PS_Female": 1,
    "PS_Total": 3,
    "ولسوالي": "حصه اول بهسود",
    "Region": "Central Region"
   },
   "geometry": {
    "x": 7573985.53745942,
    "y": 4095639.4683395717
   }
  },
  {
   "attributes": {
    "OBJECTID": 317,
    "ولایت": "غزنى",
    "Province": "GHAZNI",
    "PC_Code": "1117384",
    "District": "GELAN",
    "د_مرکز_نوم__نام_مرکز": "مسجد بازار جنده",
    "Polling_Center_Name": "Janda Bazar Mosque",
    "د_مرکز_ځای__موقعیت_مرکز": "بازار جنده",
    "Polling_Center_Location": "Mosque",
    "Map_Accuracy": "Building",
    "Map_Accuracy_Dari": "تعمیر",
    "Status": "Open",
    "Status_Dari": null,
    "PS_Male": 3,
    "PS_Female": 2,
    "PS_Total": 5,
    "ولسوالي": "گیلان",
    "Region": "South Eastern Region"
   },
   "geometry": {
    "x": 7529368.6655119713,
    "y": 3859084.9308456164
   }
  },
  {
   "attributes": {
    "OBJECTID": 318,
    "ولایت": "غزنى",
    "Province": "GHAZNI",
    "PC_Code": "1117385",
    "District": "GELAN",
    "د_مرکز_نوم__نام_مرکز": "مسجد قریه لطیف",
    "Polling_Center_Name": "Lateef Village Mosque",
    "د_مرکز_ځای__موقعیت_مرکز": "قریه لطیف",
    "Polling_Center_Location": "Lateef Village",
    "Map_Accuracy": "Building",
    "Map_Accuracy_Dari": "تعمیر",
    "Status": "Open",
    "Status_Dari": null,
    "PS_Male": 3,
    "PS_Female": 2,
    "PS_Total": 5,
    "ولسوالي": "گیلان",
    "Region": "South Eastern Region"
   },
   "geometry": {
    "x": 7531684.8200256275,
    "y": 3855189.607364241
   }
  },
  {
   "attributes": {
    "OBJECTID": 319,
    "ولایت": "پکتيکا",
    "Province": "PAKTIKA",
    "PC_Code": "1201023",
    "District": "SHARAN",
    "د_مرکز_نوم__نام_مرکز": "جومات بنوسی قلعه",
    "Polling_Center_Name": "Banosi Qala Mosque",
    "د_مرکز_ځای__موقعیت_مرکز": "بنوسی قلعه",
    "Polling_Center_Location": "Benosi Qala",
    "Map_Accuracy": "District",
    "Map_Accuracy_Dari": "ولسوالی",
    "Status": "Open",
    "Status_Dari": null,
    "PS_Male": 2,
    "PS_Female": 0,
    "PS_Total": 2,
    "ولسوالي": "شرن",
    "Region": "South Eastern Region"
   },
   "geometry": {
    "x": 7656986.3850661507,
    "y": 3917520.7137294277
   }
  },
  {
   "attributes": {
    "OBJECTID": 320,
    "ولایت": "پکتيکا",
    "Province": "PAKTIKA",
    "PC_Code": "1201024",
    "District": "SHARAN",
    "د_مرکز_نوم__نام_مرکز": "بانور میلمستون ",
    "Polling_Center_Name": "Banor Guest House",
    "د_مرکز_ځای__موقعیت_مرکز": "بنوسی قلعه",
    "Polling_Center_Location": "Benosi Qala",
    "Map_Accuracy": "District",
    "Map_Accuracy_Dari": "ولسوالی",
    "Status": "Open",
    "Status_Dari": null,
    "PS_Male": 0,
    "PS_Female": 2,
    "PS_Total": 2,
    "ولسوالي": "شرن",
    "Region": "South Eastern Region"
   },
   "geometry": {
    "x": 7656986.3850661507,
    "y": 3917520.7137294277
   }
  },
  {
   "attributes": {
    "OBJECTID": 321,
    "ولایت": "پکتيکا",
    "Province": "PAKTIKA",
    "PC_Code": "1215276",
    "District": "GIYAN",
    "د_مرکز_نوم__نام_مرکز": "خیراج میلمستون",
    "Polling_Center_Name": "Kheraj Guest House",
    "د_مرکز_ځای__موقعیت_مرکز": "اسلا شاه",
    "Polling_Center_Location": "Esla Shah",
    "Map_Accuracy": "District",
    "Map_Accuracy_Dari": "ولسوالی",
    "Status": "Open",
    "Status_Dari": null,
    "PS_Male": 0,
    "PS_Female": 2,
    "PS_Total": 2,
    "ولسوالي": "گیان",
    "Region": "South Eastern Region"
   },
   "geometry": {
    "x": 7722025.8139090678,
    "y": 3896580.7850802056
   }
  },
  {
   "attributes": {
    "OBJECTID": 322,
    "ولایت": "پکتيکا",
    "Province": "PAKTIKA",
    "PC_Code": "1218243",
    "District": "WOR MAMY",
    "د_مرکز_نوم__نام_مرکز": "جومات سروزی",
    "Polling_Center_Name": "Sarwazai Mosque",
    "د_مرکز_ځای__موقعیت_مرکز": "اوړ",
    "Polling_Center_Location": "Awr",
    "Map_Accuracy": "District",
    "Map_Accuracy_Dari": "ولسوالی",
    "Status": "Open",
    "Status_Dari": null,
    "PS_Male": 3,
    "PS_Female": 0,
    "PS_Total": 3,
    "ولسوالي": "وړممی",
    "Region": "South Eastern Region"
   },
   "geometry": {
    "x": 7635615.1623569448,
    "y": 3761174.7430194467
   }
  },
  {
   "attributes": {
    "OBJECTID": 323,
    "ولایت": "پکتيکا",
    "Province": "PAKTIKA",
    "PC_Code": "1218244",
    "District": "WOR MAMY",
    "د_مرکز_نوم__نام_مرکز": "ښوونځی وکیل غمی",
    "Polling_Center_Name": "Wakil Ghami School",
    "د_مرکز_ځای__موقعیت_مرکز": "اوړ",
    "Polling_Center_Location": "Awr",
    "Map_Accuracy": "District",
    "Map_Accuracy_Dari": "ولسوالی",
    "Status": "Open",
    "Status_Dari": null,
    "PS_Male": 0,
    "PS_Female": 3,
    "PS_Total": 3,
    "ولسوالي": "وړممی",
    "Region": "South Eastern Region"
   },
   "geometry": {
    "x": 7645929.0356303817,
    "y": 3780428.1690883934
   }
  },
  {
   "attributes": {
    "OBJECTID": 324,
    "ولایت": "پکتيا",
    "Province": "PAKTYA",
    "PC_Code": "1302199",
    "District": "AHMADABA",
    "د_مرکز_نوم__نام_مرکز": "د غړک لیسه",
    "Polling_Center_Name": "Gharak High School",
    "د_مرکز_ځای__موقعیت_مرکز": "غړک",
    "Polling_Center_Location": "Gharak",
    "Map_Accuracy": "Building",
    "Map_Accuracy_Dari": "تعمیر",
    "Status": "Open",
    "Status_Dari": null,
    "PS_Male": 4,
    "PS_Female": 0,
    "PS_Total": 4,
    "ولسوالي": "احمد آبا",
    "Region": "South Eastern Region"
   },
   "geometry": {
    "x": 7718549.3752296828,
    "y": 3995142.7067650408
   }
  },
  {
   "attributes": {
    "OBJECTID": 325,
    "ولایت": "پکتيا",
    "Province": "PAKTYA",
    "PC_Code": "1307217",
    "District": "JAJI ARYOB",
    "د_مرکز_نوم__نام_مرکز": "دبدالي مكتب ",
    "Polling_Center_Name": "Badali School ",
    "د_مرکز_ځای__موقعیت_مرکز": "بداله",
    "Polling_Center_Location": "Badala",
    "Map_Accuracy": "Village",
    "Map_Accuracy_Dari": "قریه",
    "Status": "Open",
    "Status_Dari": null,
    "PS_Male": 1,
    "PS_Female": 1,
    "PS_Total": 2,
    "ولسوالي": "ځاځی اریوب",
    "Region": "South Eastern Region"
   },
   "geometry": {
    "x": 7759894.7888685055,
    "y": 4023206.3778703203
   }
  },
  {
   "attributes": {
    "OBJECTID": 326,
    "ولایت": "پکتيا",
    "Province": "PAKTYA",
    "PC_Code": "1308132",
    "District": "LAJA AHMAD KHEL",
    "د_مرکز_نوم__نام_مرکز": "د شوات مکتب",
    "Polling_Center_Name": "Showat School",
    "د_مرکز_ځای__موقعیت_مرکز": "شوات، احمدخیل",
    "Polling_Center_Location": "Showat, Ahmad Khel ",
    "Map_Accuracy": "Village",
    "Map_Accuracy_Dari": "قریه",
    "Status": "Open",
    "Status_Dari": null,
    "PS_Male": 5,
    "PS_Female": 0,
    "PS_Total": 5,
    "ولسوالي": " لجه احمد خیل",
    "Region": "South Eastern Region"
   },
   "geometry": {
    "x": 7746849.5516258981,
    "y": 4006955.1279813438
   }
  },
  {
   "attributes": {
    "OBJECTID": 327,
    "ولایت": "خوست",
    "Province": "KHOST",
    "PC_Code": "1408050",
    "District": "ALI SHER",
    "د_مرکز_نوم__نام_مرکز": "جومات چينګاى",
    "Polling_Center_Name": "Chingai Mosque",
    "د_مرکز_ځای__موقعیت_مرکز": "چينګاى",
    "Polling_Center_Location": "Chingai",
    "Map_Accuracy": "Village",
    "Map_Accuracy_Dari": "قریه",
    "Status": "Open",
    "Status_Dari": null,
    "PS_Male": 5,
    "PS_Female": 1,
    "PS_Total": 6,
    "ولسوالي": "علی شیر",
    "Region": "South Eastern Region"
   },
   "geometry": {
    "x": 7802262.4816739373,
    "y": 3957013.6149405236
   }
  },
  {
   "attributes": {
    "OBJECTID": 328,
    "ولایت": "خوست",
    "Province": "KHOST",
    "PC_Code": "1408051",
    "District": "ALI SHER",
    "د_مرکز_نوم__نام_مرکز": "قدم جومات  ",
    "Polling_Center_Name": "Qadam Mosque",
    "د_مرکز_ځای__موقعیت_مرکز": "قدم",
    "Polling_Center_Location": "Qadam",
    "Map_Accuracy": "Village",
    "Map_Accuracy_Dari": "قریه",
    "Status": "Open",
    "Status_Dari": null,
    "PS_Male": 3,
    "PS_Female": 2,
    "PS_Total": 5,
    "ولسوالي": "علی شیر",
    "Region": "South Eastern Region"
   },
   "geometry": {
    "x": 7813147.9727402348,
    "y": 3941550.2971556927
   }
  },
  {
   "attributes": {
    "OBJECTID": 329,
    "ولایت": "دایکندی",
    "Province": "DAYKUNDI",
    "PC_Code": "2403120",
    "District": "GIZAB",
    "د_مرکز_نوم__نام_مرکز": "مسجد بازار کهنه",
    "Polling_Center_Name": "Bazar Kuhna Mosque",
    "د_مرکز_ځای__موقعیت_مرکز": "بازار کهنه",
    "Polling_Center_Location": "Bazar Kuhna",
    "Map_Accuracy": "Village",
    "Map_Accuracy_Dari": "قریه",
    "Status": "Open",
    "Status_Dari": null,
    "PS_Male": 1,
    "PS_Female": 1,
    "PS_Total": 2,
    "ولسوالي": "گیزاب",
    "Region": "Central Highlands Region"
   },
   "geometry": {
    "x": 7372601.2738294015,
    "y": 3947718.7644134499
   }
  },
  {
   "attributes": {
    "OBJECTID": 330,
    "ولایت": "هلمند",
    "Province": "HELMAND",
    "PC_Code": "3003097",
    "District": "NAWA-E-BARAKZAYI",
    "د_مرکز_نوم__نام_مرکز": "اسدالله مسجد",
    "Polling_Center_Name": "Asadullah Mosque",
    "د_مرکز_ځای__موقعیت_مرکز": "هزار اسپ",
    "Polling_Center_Location": "Hazar Asp",
    "Map_Accuracy": "Building",
    "Map_Accuracy_Dari": "تعمیر",
    "Status": "Open",
    "Status_Dari": null,
    "PS_Male": 3,
    "PS_Female": 1,
    "PS_Total": 4,
    "ولسوالي": "ناوه بارکزایی",
    "Region": "Southern Region"
   },
   "geometry": {
    "x": 7151568.8484548144,
    "y": 3672541.8839573842
   }
  },
  {
   "attributes": {
    "OBJECTID": 331,
    "ولایت": "هلمند",
    "Province": "HELMAND",
    "PC_Code": "3003098",
    "District": "NAWA-E-BARAKZAYI",
    "د_مرکز_نوم__نام_مرکز": "مكتب هزار اسپ",
    "Polling_Center_Name": "Hazar Asp School",
    "د_مرکز_ځای__موقعیت_مرکز": "هزار اسپ",
    "Polling_Center_Location": "Hazar Asp",
    "Map_Accuracy": "Building",
    "Map_Accuracy_Dari": "تعمیر",
    "Status": "Open",
    "Status_Dari": null,
    "PS_Male": 3,
    "PS_Female": 1,
    "PS_Total": 4,
    "ولسوالي": "ناوه بارکزایی",
    "Region": "Southern Region"
   },
   "geometry": {
    "x": 7155496.7344235564,
    "y": 3674982.2534394707
   }
  },
  {
   "attributes": {
    "OBJECTID": 332,
    "ولایت": "هلمند",
    "Province": "HELMAND",
    "PC_Code": "3004059",
    "District": "NAHR-E-SARAJ",
    "د_مرکز_نوم__نام_مرکز": "مکتب زمبلی",
    "Polling_Center_Name": "Zambali School",
    "د_مرکز_ځای__موقعیت_مرکز": "زمبلی",
    "Polling_Center_Location": "Zambali",
    "Map_Accuracy": "Village",
    "Map_Accuracy_Dari": "قریه",
    "Status": "Open",
    "Status_Dari": null,
    "PS_Male": 2,
    "PS_Female": 2,
    "PS_Total": 4,
    "ولسوالي": "نهرسراج",
    "Region": "Southern Region"
   },
   "geometry": {
    "x": 7203368.3044171045,
    "y": 3744145.1323129297
   }
  },
  {
   "attributes": {
    "OBJECTID": 333,
    "ولایت": "هلمند",
    "Province": "HELMAND",
    "PC_Code": "3011214",
    "District": "REG-E-KHAN NISHIN",
    "د_مرکز_نوم__نام_مرکز": "کرم خان مسجد",
    "Polling_Center_Name": "Karam Khan Mosque",
    "د_مرکز_ځای__موقعیت_مرکز": "د حا جی حسن کلی",
    "Polling_Center_Location": "Haji Hassan Village",
    "Map_Accuracy": "District",
    "Map_Accuracy_Dari": "ولسوالی",
    "Status": "Open",
    "Status_Dari": null,
    "PS_Male": 2,
    "PS_Female": 1,
    "PS_Total": 3,
    "ولسوالي": "ریگ خانشین",
    "Region": "Southern Region"
   },
   "geometry": {
    "x": 7039145.6037596213,
    "y": 3589172.3017767118
   }
  },
  {
   "attributes": {
    "OBJECTID": 334,
    "ولایت": "هلمند",
    "Province": "HELMAND",
    "PC_Code": "3011215",
    "District": "REG-E-KHAN NISHIN",
    "د_مرکز_نوم__نام_مرکز": "د عالم خان كور",
    "Polling_Center_Name": "Aalem Khan Private House",
    "د_مرکز_ځای__موقعیت_مرکز": "ددیوا لک کلی مسجد",
    "Polling_Center_Location": "Dewalak Village Masjid",
    "Map_Accuracy": "Village",
    "Map_Accuracy_Dari": "قریه",
    "Status": "Open",
    "Status_Dari": null,
    "PS_Male": 2,
    "PS_Female": 1,
    "PS_Total": 3,
    "ولسوالي": "ریگ خانشین",
    "Region": "Southern Region"
   },
   "geometry": {
    "x": 7116226.1101520639,
    "y": 3574886.4764760127
   }
  },
  {
   "attributes": {
    "OBJECTID": 335,
    "ولایت": "ننگرهار",
    "Province": "NANGARHAR",
    "PC_Code": "0612233",
    "District": "DARAH-E-NOOR",
    "د_مرکز_نوم__نام_مرکز": "اریمن جومات",
    "Polling_Center_Name": "Areeman Mosque",
    "د_مرکز_ځای__موقعیت_مرکز": "اريمن",
    "Polling_Center_Location": "Areeman",
    "Map_Accuracy": "District",
    "Map_Accuracy_Dari": "ولسوالی",
    "Status": "Open",
    "Status_Dari": null,
    "PS_Male": 1,
    "PS_Female": 1,
    "PS_Total": 2,
    "ولسوالي": "دره نور",
    "Region": "Eastern Region"
   },
   "geometry": {
    "x": 7861680.9608466681,
    "y": 4126005.3315807302
   }
  },
  {
   "attributes": {
    "OBJECTID": 336,
    "ولایت": "نيمروز",
    "Province": "NIMROZ",
    "PC_Code": "3405039",
    "District": "KHASHROD",
    "د_مرکز_نوم__نام_مرکز": "لیسه حامد کرزی",
    "Polling_Center_Name": "Hamid Karzai High School ",
    "د_مرکز_ځای__موقعیت_مرکز": "غرغری",
    "Polling_Center_Location": "Ghar Ghari",
    "Map_Accuracy": "Building",
    "Map_Accuracy_Dari": "تعمیر",
    "Status": "Open",
    "Status_Dari": null,
    "PS_Male": 1,
    "PS_Female": 3,
    "PS_Total": 4,
    "ولسوالي": "خاشرود",
    "Region": "Southern Region"
   },
   "geometry": {
    "x": 6971589.9503350249,
    "y": 3690131.4924380817
   }
  },
  {
   "attributes": {
    "OBJECTID": 337,
    "ولایت": "نيمروز",
    "Province": "NIMROZ",
    "PC_Code": "3405040",
    "District": "KHASHROD",
    "د_مرکز_نوم__نام_مرکز": "مسجد جامه",
    "Polling_Center_Name": "Jama Mosque ",
    "د_مرکز_ځای__موقعیت_مرکز": "قلعه نو",
    "Polling_Center_Location": "Qala-e-Now",
    "Map_Accuracy": "Village",
    "Map_Accuracy_Dari": "قریه",
    "Status": "Open",
    "Status_Dari": null,
    "PS_Male": 2,
    "PS_Female": 1,
    "PS_Total": 3,
    "ولسوالي": "خاشرود",
    "Region": "Southern Region"
   },
   "geometry": {
    "x": 6986198.2635096787,
    "y": 3702586.1039550556
   }
  },
  {
   "attributes": {
    "OBJECTID": 338,
    "ولایت": "هرات",
    "Province": "HERAT",
    "PC_Code": "3214300",
    "District": "SHINDAND",
    "د_مرکز_نوم__نام_مرکز": "مکتب دخترانه میر سادات",
    "Polling_Center_Name": "Mir Sadat Girls School ",
    "د_مرکز_ځای__موقعیت_مرکز": "میر سادات ",
    "Polling_Center_Location": "Mir Sadat ",
    "Map_Accuracy": "Building",
    "Map_Accuracy_Dari": "تعمیر",
    "Status": "Open",
    "Status_Dari": null,
    "PS_Male": 3,
    "PS_Female": 2,
    "PS_Total": 5,
    "ولسوالي": "شیندند",
    "Region": "Western Region"
   },
   "geometry": {
    "x": 6925245.6347745806,
    "y": 3925724.9743131255
   }
  },
  {
   "attributes": {
    "OBJECTID": 339,
    "ولایت": "کابل",
    "Province": "KABUL",
    "PC_Code": "0101192",
    "District": "KABUL-D09",
    "د_مرکز_نوم__نام_مرکز": " مسجد لغمانی ها",
    "Polling_Center_Name": "Laghmani ha Mosque",
    "د_مرکز_ځای__موقعیت_مرکز": "يکه توت",
    "Polling_Center_Location": "Yaka Toot",
    "Map_Accuracy": "Village",
    "Map_Accuracy_Dari": "قریه",
    "Status": "Open",
    "Status_Dari": null,
    "PS_Male": 2,
    "PS_Female": 1,
    "PS_Total": 3,
    "ولسوالي": "کابل - ناحیه 09",
    "Region": "Central Region"
   },
   "geometry": {
    "x": 7705441.8669771161,
    "y": 4102131.2460974986
   }
  },
  {
   "attributes": {
    "OBJECTID": 340,
    "ولایت": "کابل",
    "Province": "KABUL",
    "PC_Code": "0101514",
    "District": "KABUL-D09",
    "د_مرکز_نوم__نام_مرکز": " مسجد احمد جان",
    "Polling_Center_Name": "Ahmad Jan Mosque",
    "د_مرکز_ځای__موقعیت_مرکز": " نوآباد پلچرخی",
    "Polling_Center_Location": "Naw Abad, Pul-e-Charkhi",
    "Map_Accuracy": "Village",
    "Map_Accuracy_Dari": "قریه",
    "Status": "Open",
    "Status_Dari": null,
    "PS_Male": 2,
    "PS_Female": 3,
    "PS_Total": 5,
    "ولسوالي": "کابل - ناحیه 09",
    "Region": "Central Region"
   },
   "geometry": {
    "x": 7721263.3722450938,
    "y": 4102304.1013617693
   }
  },
  {
   "attributes": {
    "OBJECTID": 341,
    "ولایت": "کابل",
    "Province": "KABUL",
    "PC_Code": "0101221",
    "District": "KABUL-D10",
    "د_مرکز_نوم__نام_مرکز": " مکتب متوسطه مسعود سعد",
    "Polling_Center_Name": "Masood Saad Secondary School",
    "د_مرکز_ځای__موقعیت_مرکز": "سرک ٥ قلعه فتح الله",
    "Polling_Center_Location": "5th Road, Qala-e-Fathullah",
    "Map_Accuracy": "Village",
    "Map_Accuracy_Dari": "قریه",
    "Status": "Open",
    "Status_Dari": null,
    "PS_Male": 2,
    "PS_Female": 2,
    "PS_Total": 4,
    "ولسوالي": "کابل - ناحیه 10",
    "Region": "Central Region"
   },
   "geometry": {
    "x": 7700022.500206829,
    "y": 4102605.4894507537
   }
  },
  {
   "attributes": {
    "OBJECTID": 342,
    "ولایت": "کابل",
    "Province": "KABUL",
    "PC_Code": "0101042",
    "District": "KABUL-D03",
    "د_مرکز_نوم__نام_مرکز": " مسجد سنگ کشان",
    "Polling_Center_Name": "Sang Kashan Mosque",
    "د_مرکز_ځای__موقعیت_مرکز": "سرک سیلو",
    "Polling_Center_Location": "Silo Road",
    "Map_Accuracy": "Building",
    "Map_Accuracy_Dari": "تعمیر",
    "Status": "Open",
    "Status_Dari": null,
    "PS_Male": 1,
    "PS_Female": 1,
    "PS_Total": 2,
    "ولسوالي": "کابل - ناحیه 03",
    "Region": "Central Region"
   },
   "geometry": {
    "x": 7694686.0987398354,
    "y": 4098789.9324454293
   }
  },
  {
   "attributes": {
    "OBJECTID": 343,
    "ولایت": "کابل",
    "Province": "KABUL",
    "PC_Code": "0101043",
    "District": "KABUL-D03",
    "د_مرکز_نوم__نام_مرکز": " مسجد محمدیه",
    "Polling_Center_Name": "Mohammadia Mosque",
    "د_مرکز_ځای__موقعیت_مرکز": "سرک اول",
    "Polling_Center_Location": "First Road",
    "Map_Accuracy": "Building",
    "Map_Accuracy_Dari": "تعمیر",
    "Status": "Open",
    "Status_Dari": null,
    "PS_Male": 2,
    "PS_Female": 1,
    "PS_Total": 3,
    "ولسوالي": "کابل - ناحیه 03",
    "Region": "Central Region"
   },
   "geometry": {
    "x": 7697434.4333653739,
    "y": 4097989.7307730443
   }
  },
  {
   "attributes": {
    "OBJECTID": 344,
    "ولایت": "کابل",
    "Province": "KABUL",
    "PC_Code": "0101136",
    "District": "KABUL-D07",
    "د_مرکز_نوم__نام_مرکز": " مسجد حضرت نبوي",
    "Polling_Center_Name": "Hazrat Nabawi Mosque",
    "د_مرکز_ځای__موقعیت_مرکز": "واصل آباد",
    "Polling_Center_Location": "Wasil Abad",
    "Map_Accuracy": "Building",
    "Map_Accuracy_Dari": "تعمیر",
    "Status": "Open",
    "Status_Dari": null,
    "PS_Male": 2,
    "PS_Female": 1,
    "PS_Total": 3,
    "ولسوالي": "کابل - ناحیه 07",
    "Region": "Central Region"
   },
   "geometry": {
    "x": 7698822.0085542174,
    "y": 4094392.274577308
   }
  },
  {
   "attributes": {
    "OBJECTID": 345,
    "ولایت": "کابل",
    "Province": "KABUL",
    "PC_Code": "0101137",
    "District": "KABUL-D07",
    "د_مرکز_نوم__نام_مرکز": " مسجد لیث بن قیس",
    "Polling_Center_Name": "Lais Bin-e-Qais Mosque",
    "د_مرکز_ځای__موقعیت_مرکز": "ریشخور سفلی",
    "Polling_Center_Location": "Reshkhure Sufla",
    "Map_Accuracy": "Building",
    "Map_Accuracy_Dari": "تعمیر",
    "Status": "Open",
    "Status_Dari": null,
    "PS_Male": 3,
    "PS_Female": 2,
    "PS_Total": 5,
    "ولسوالي": "کابل - ناحیه 07",
    "Region": "Central Region"
   },
   "geometry": {
    "x": 7695529.1256963937,
    "y": 4087179.1856631092
   }
  },
  {
   "attributes": {
    "OBJECTID": 346,
    "ولایت": "کابل",
    "Province": "KABUL",
    "PC_Code": "0101267",
    "District": "KABUL-D13",
    "د_مرکز_نوم__نام_مرکز": "مسجد ابوذر غفاري",
    "Polling_Center_Name": "Abuzar Ghafari Mosque",
    "د_مرکز_ځای__موقعیت_مرکز": "حصه دوم دوغ آباد",
    "Polling_Center_Location": "Hesa-e-Duwom Dogh Abad",
    "Map_Accuracy": "Building",
    "Map_Accuracy_Dari": "تعمیر",
    "Status": "Open",
    "Status_Dari": null,
    "PS_Male": 4,
    "PS_Female": 3,
    "PS_Total": 7,
    "ولسوالي": "کابل - ناحیه 13",
    "Region": "Central Region"
   },
   "geometry": {
    "x": 7688808.0333285592,
    "y": 4095304.9270458571
   }
  },
  {
   "attributes": {
    "OBJECTID": 347,
    "ولایت": "کابل",
    "Province": "KABUL",
    "PC_Code": "0101268",
    "District": "KABUL-D13",
    "د_مرکز_نوم__نام_مرکز": " مسجد باقرالعلوم",
    "Polling_Center_Name": "Baqerul Ulum Mosque",
    "د_مرکز_ځای__موقعیت_مرکز": "حصه سوم دوغ آباد",
    "Polling_Center_Location": "Hesa-e-Sewom Dogh Abad",
    "Map_Accuracy": "Building",
    "Map_Accuracy_Dari": "تعمیر",
    "Status": "Open",
    "Status_Dari": null,
    "PS_Male": 3,
    "PS_Female": 3,
    "PS_Total": 6,
    "ولسوالي": "کابل - ناحیه 13",
    "Region": "Central Region"
   },
   "geometry": {
    "x": 7689025.7263851715,
    "y": 4094190.2343549221
   }
  },
  {
   "attributes": {
    "OBJECTID": 348,
    "ولایت": "کابل",
    "Province": "KABUL",
    "PC_Code": "0102401",
    "District": "PAGHMAN",
    "د_مرکز_نوم__نام_مرکز": " مسجد دوره",
    "Polling_Center_Name": "Dawra Mosque",
    "د_مرکز_ځای__موقعیت_مرکز": "پراچي",
    "Polling_Center_Location": "Parachi",
    "Map_Accuracy": "Building",
    "Map_Accuracy_Dari": "تعمیر",
    "Status": "Open",
    "Status_Dari": null,
    "PS_Male": 2,
    "PS_Female": 1,
    "PS_Total": 3,
    "ولسوالي": "پغمان",
    "Region": "Central Region"
   },
   "geometry": {
    "x": 7675891.1942130262,
    "y": 4109492.0647995383
   }
  },
  {
   "attributes": {
    "OBJECTID": 349,
    "ولایت": "کابل",
    "Province": "KABUL",
    "PC_Code": "0102402",
    "District": "PAGHMAN",
    "د_مرکز_نوم__نام_مرکز": " دفتر ولسوالي پغمان",
    "Polling_Center_Name": "Paghman District Office",
    "د_مرکز_ځای__موقعیت_مرکز": "چندل بايي، پراچي",
    "Polling_Center_Location": "Chandal Boi",
    "Map_Accuracy": "Village",
    "Map_Accuracy_Dari": "قریه",
    "Status": "Open",
    "Status_Dari": null,
    "PS_Male": 3,
    "PS_Female": 2,
    "PS_Total": 5,
    "ولسوالي": "پغمان",
    "Region": "Central Region"
   },
   "geometry": {
    "x": 7676284.3568433886,
    "y": 4107912.8476194781
   }
  },
  {
   "attributes": {
    "OBJECTID": 350,
    "ولایت": "کابل",
    "Province": "KABUL",
    "PC_Code": "0101048",
    "District": "KABUL-D04",
    "د_مرکز_نوم__نام_مرکز": " مکتب نمبر ۱ غازی محمد ایوب",
    "Polling_Center_Name": "Ghazi Mohammad Ayub First Number School",
    "د_مرکز_ځای__موقعیت_مرکز": "باغ بالا",
    "Polling_Center_Location": "Bagh-e-Bala",
    "Map_Accuracy": "Village",
    "Map_Accuracy_Dari": "قریه",
    "Status": "Open",
    "Status_Dari": null,
    "PS_Male": 3,
    "PS_Female": 3,
    "PS_Total": 6,
    "ولسوالي": "کابل - ناحیه 04",
    "Region": "Central Region"
   },
   "geometry": {
    "x": 7696295.6349745616,
    "y": 4101083.9000135921
   }
  },
  {
   "attributes": {
    "OBJECTID": 351,
    "ولایت": "کابل",
    "Province": "KABUL",
    "PC_Code": "0101052",
    "District": "KABUL-D04",
    "د_مرکز_نوم__نام_مرکز": " مسجد موسي کليم الله",
    "Polling_Center_Name": "Musa Kalimullah Mosque",
    "د_مرکز_ځای__موقعیت_مرکز": "چهار راهي تايمني",
    "Polling_Center_Location": "Taimani Square",
    "Map_Accuracy": "Building",
    "Map_Accuracy_Dari": "تعمیر",
    "Status": "Open",
    "Status_Dari": null,
    "PS_Male": 2,
    "PS_Female": 3,
    "PS_Total": 5,
    "ولسوالي": "کابل - ناحیه 04",
    "Region": "Central Region"
   },
   "geometry": {
    "x": 7697396.0281410534,
    "y": 4102432.3592519648
   }
  },
  {
   "attributes": {
    "OBJECTID": 352,
    "ولایت": "کابل",
    "Province": "KABUL",
    "PC_Code": "0101056",
    "District": "KABUL-D04",
    "د_مرکز_نوم__نام_مرکز": "مکتب متوسطه وزير محمد اکبر خان",
    "Polling_Center_Name": "Wazir Mohammad Akbar Khan Secondary School",
    "د_مرکز_ځای__موقعیت_مرکز": "کارته پروان",
    "Polling_Center_Location": "Kart-e-Parwan",
    "Map_Accuracy": "Village",
    "Map_Accuracy_Dari": "قریه",
    "Status": "Open",
    "Status_Dari": null,
    "PS_Male": 3,
    "PS_Female": 3,
    "PS_Total": 6,
    "ولسوالي": "کابل - ناحیه 04",
    "Region": "Central Region"
   },
   "geometry": {
    "x": 7697273.0201037256,
    "y": 4100567.6956234016
   }
  },
  {
   "attributes": {
    "OBJECTID": 353,
    "ولایت": "کابل",
    "Province": "KABUL",
    "PC_Code": "0101512",
    "District": "KABUL-D09",
    "د_مرکز_نوم__نام_مرکز": "مسجد حاجی باز ",
    "Polling_Center_Name": "Haji Baz Mosque",
    "د_مرکز_ځای__موقعیت_مرکز": "محبس پلچرخی",
    "Polling_Center_Location": "Pul-e-Charkhi Prison",
    "Map_Accuracy": "Building",
    "Map_Accuracy_Dari": "تعمیر",
    "Status": "Open",
    "Status_Dari": null,
    "PS_Male": 5,
    "PS_Female": 6,
    "PS_Total": 11,
    "ولسوالي": "کابل - ناحیه 09",
    "Region": "Central Region"
   },
   "geometry": {
    "x": 7720060.0085496185,
    "y": 4098618.2241633646
   }
  },
  {
   "attributes": {
    "OBJECTID": 354,
    "ولایت": "کابل",
    "Province": "KABUL",
    "PC_Code": "0101195",
    "District": "KABUL-D10",
    "د_مرکز_نوم__نام_مرکز": " مسجد ميدان بي بي مهرو",
    "Polling_Center_Name": "Bibi Mahru Maidan Mosque",
    "د_مرکز_ځای__موقعیت_مرکز": "بي بي مهرو",
    "Polling_Center_Location": "Bi Bi Mahro",
    "Map_Accuracy": "Building",
    "Map_Accuracy_Dari": "تعمیر",
    "Status": "Open",
    "Status_Dari": null,
    "PS_Male": 1,
    "PS_Female": 2,
    "PS_Total": 3,
    "ولسوالي": "کابل - ناحیه 10",
    "Region": "Central Region"
   },
   "geometry": {
    "x": 7702895.7675836915,
    "y": 4101825.8163931938
   }
  },
  {
   "attributes": {
    "OBJECTID": 355,
    "ولایت": "کابل",
    "Province": "KABUL",
    "PC_Code": "0101196",
    "District": "KABUL-D10",
    "د_مرکز_نوم__نام_مرکز": "مسجد خواجه پارسا ولي",
    "Polling_Center_Name": "Khwaja Parsa-e-Wali",
    "د_مرکز_ځای__موقعیت_مرکز": "چهار قلعه",
    "Polling_Center_Location": "Chahar Qala",
    "Map_Accuracy": "Building",
    "Map_Accuracy_Dari": "تعمیر",
    "Status": "Open",
    "Status_Dari": null,
    "PS_Male": 1,
    "PS_Female": 3,
    "PS_Total": 4,
    "ولسوالي": "کابل - ناحیه 10",
    "Region": "Central Region"
   },
   "geometry": {
    "x": 7701895.0053614611,
    "y": 4101151.4677862185
   }
  },
  {
   "attributes": {
    "OBJECTID": 356,
    "ولایت": "پروان",
    "Province": "PARWAN",
    "PC_Code": "0301035",
    "District": "CHARIKAR",
    "د_مرکز_نوم__نام_مرکز": "لیسه میر عبدالکریم (( معقول ))",
    "Polling_Center_Name": "Mir Abdul Karim Maqool High School",
    "د_مرکز_ځای__موقعیت_مرکز": "پارچه 12 شهر چهاریکار",
    "Polling_Center_Location": "Parcha 12, Charikar City",
    "Map_Accuracy": "Building",
    "Map_Accuracy_Dari": "تعمیر",
    "Status": "Open",
    "Status_Dari": null,
    "PS_Male": 2,
    "PS_Female": 1,
    "PS_Total": 3,
    "ولسوالي": "چاریکار",
    "Region": "Central Region"
   },
   "geometry": {
    "x": 7698592.3787086057,
    "y": 4164804.5957672773
   }
  },
  {
   "attributes": {
    "OBJECTID": 357,
    "ولایت": "غزنى",
    "Province": "GHAZNI",
    "PC_Code": "1116311",
    "District": "MALISTAN",
    "د_مرکز_نوم__نام_مرکز": "مسجد مرتبه ا\u064F لیات",
    "Polling_Center_Name": "Martaba Ulyat Mosque",
    "د_مرکز_ځای__موقعیت_مرکز": "قریه ا\u064F لیات ",
    "Polling_Center_Location": "Ulyat Village",
    "Map_Accuracy": "Village",
    "Map_Accuracy_Dari": "قریه",
    "Status": "Open",
    "Status_Dari": null,
    "PS_Male": 1,
    "PS_Female": 1,
    "PS_Total": 2,
    "ولسوالي": "مالستان",
    "Region": "South Eastern Region"
   },
   "geometry": {
    "x": 7474361.194445244,
    "y": 3922914.9387777396
   }
  },
  {
   "attributes": {
    "OBJECTID": 358,
    "ولایت": "غزنى",
    "Province": "GHAZNI",
    "PC_Code": "1116320",
    "District": "MALISTAN",
    "د_مرکز_نوم__نام_مرکز": "مسجد قریه توکریک",
    "Polling_Center_Name": "Tokreek Village School",
    "د_مرکز_ځای__موقعیت_مرکز": "قریه توکریک ",
    "Polling_Center_Location": "Tokreek Village",
    "Map_Accuracy": "Village",
    "Map_Accuracy_Dari": "قریه",
    "Status": "Open",
    "Status_Dari": null,
    "PS_Male": 1,
    "PS_Female": 1,
    "PS_Total": 2,
    "ولسوالي": "مالستان",
    "Region": "South Eastern Region"
   },
   "geometry": {
    "x": 7463137.7407444846,
    "y": 3931063.0893324879
   }
  },
  {
   "attributes": {
    "OBJECTID": 359,
    "ولایت": "پکتيکا",
    "Province": "PAKTIKA",
    "PC_Code": "1210154",
    "District": "SURUBI",
    "د_مرکز_نوم__نام_مرکز": "حیات میلمستون",
    "Polling_Center_Name": "Hayat Guest House",
    "د_مرکز_ځای__موقعیت_مرکز": "مستی",
    "Polling_Center_Location": "Masti",
    "Map_Accuracy": "Village",
    "Map_Accuracy_Dari": "قریه",
    "Status": "Open",
    "Status_Dari": null,
    "PS_Male": 0,
    "PS_Female": 3,
    "PS_Total": 3,
    "ولسوالي": "سروبی",
    "Region": "South Eastern Region"
   },
   "geometry": {
    "x": 7691547.4134142622,
    "y": 3867731.0529030664
   }
  },
  {
   "attributes": {
    "OBJECTID": 360,
    "ولایت": "پکتيکا",
    "Province": "PAKTIKA",
    "PC_Code": "1218246",
    "District": "WOR MAMY",
    "د_مرکز_نوم__نام_مرکز": "عبدل میلمستون",
    "Polling_Center_Name": "Abdul Guest House",
    "د_مرکز_ځای__موقعیت_مرکز": "سنګرخیل",
    "Polling_Center_Location": "Sangar Khel ",
    "Map_Accuracy": "Village",
    "Map_Accuracy_Dari": "قریه",
    "Status": "Open",
    "Status_Dari": null,
    "PS_Male": 1,
    "PS_Female": 2,
    "PS_Total": 3,
    "ولسوالي": "وړممی",
    "Region": "South Eastern Region"
   },
   "geometry": {
    "x": 7648143.7213149881,
    "y": 3759992.9540229728
   }
  },
  {
   "attributes": {
    "OBJECTID": 361,
    "ولایت": "پکتيا",
    "Province": "PAKTYA",
    "PC_Code": "1301202",
    "District": "GARDEZ",
    "د_مرکز_نوم__نام_مرکز": "د خواځکو مکتب",
    "Polling_Center_Name": "Khowazako School",
    "د_مرکز_ځای__موقعیت_مرکز": "خواځک",
    "Polling_Center_Location": "Khowazak",
    "Map_Accuracy": "Village",
    "Map_Accuracy_Dari": "قریه",
    "Status": "Open",
    "Status_Dari": null,
    "PS_Male": 3,
    "PS_Female": 1,
    "PS_Total": 4,
    "ولسوالي": "گردیز",
    "Region": "South Eastern Region"
   },
   "geometry": {
    "x": 7674407.5514168264,
    "y": 3956490.4316610335
   }
  },
  {
   "attributes": {
    "OBJECTID": 362,
    "ولایت": "کابل",
    "Province": "KABUL",
    "PC_Code": "0101501",
    "District": "KABUL-D13",
    "د_مرکز_نوم__نام_مرکز": "مسجد قمر بنی هاشم",
    "Polling_Center_Name": "Qamar Bani Hashim Mosque",
    "د_مرکز_ځای__موقعیت_مرکز": "شهرک جعفریه ",
    "Polling_Center_Location": "Shahrak-e-Jafaria",
    "Map_Accuracy": "Building",
    "Map_Accuracy_Dari": "تعمیر",
    "Status": "Open",
    "Status_Dari": null,
    "PS_Male": 4,
    "PS_Female": 3,
    "PS_Total": 7,
    "ولسوالي": "کابل - ناحیه 13",
    "Region": "Central Region"
   },
   "geometry": {
    "x": 7685914.1451292224,
    "y": 4096570.4672574438
   }
  },
  {
   "attributes": {
    "OBJECTID": 363,
    "ولایت": "کابل",
    "Province": "KABUL",
    "PC_Code": "0101286",
    "District": "KABUL-D14",
    "د_مرکز_نوم__نام_مرکز": " مسجد آغا صاحب",
    "Polling_Center_Name": "Agha Sahib Mosque",
    "د_مرکز_ځای__موقعیت_مرکز": "چندل باي",
    "Polling_Center_Location": "Chandal Boi",
    "Map_Accuracy": "Village",
    "Map_Accuracy_Dari": "قریه",
    "Status": "Open",
    "Status_Dari": null,
    "PS_Male": 2,
    "PS_Female": 3,
    "PS_Total": 5,
    "ولسوالي": "کابل - ناحیه 14",
    "Region": "Central Region"
   },
   "geometry": {
    "x": 7676275.6594515713,
    "y": 4107917.9169151173
   }
  },
  {
   "attributes": {
    "OBJECTID": 364,
    "ولایت": "کابل",
    "Province": "KABUL",
    "PC_Code": "0101287",
    "District": "KABUL-D14",
    "د_مرکز_نوم__نام_مرکز": "مکتب متوسطه سیدکریم  ",
    "Polling_Center_Name": "Sayed Karim Secondary School",
    "د_مرکز_ځای__موقعیت_مرکز": "باغ وزير",
    "Polling_Center_Location": "Bagh-e-Wazir",
    "Map_Accuracy": "Building",
    "Map_Accuracy_Dari": "تعمیر",
    "Status": "Open",
    "Status_Dari": null,
    "PS_Male": 2,
    "PS_Female": 3,
    "PS_Total": 5,
    "ولسوالي": "کابل - ناحیه 14",
    "Region": "Central Region"
   },
   "geometry": {
    "x": 7674482.5484709684,
    "y": 4110218.1795586548
   }
  },
  {
   "attributes": {
    "OBJECTID": 365,
    "ولایت": "کابل",
    "Province": "KABUL",
    "PC_Code": "0101288",
    "District": "KABUL-D14",
    "د_مرکز_نوم__نام_مرکز": " مرکز ناحيه ١٤",
    "Polling_Center_Name": "14th Nahia Office",
    "د_مرکز_ځای__موقعیت_مرکز": "پراچي",
    "Polling_Center_Location": "Parachi",
    "Map_Accuracy": "Building",
    "Map_Accuracy_Dari": "تعمیر",
    "Status": "Open",
    "Status_Dari": null,
    "PS_Male": 3,
    "PS_Female": 3,
    "PS_Total": 6,
    "ولسوالي": "کابل - ناحیه 14",
    "Region": "Central Region"
   },
   "geometry": {
    "x": 7676141.9291208908,
    "y": 4108649.14721963
   }
  },
  {
   "attributes": {
    "OBJECTID": 366,
    "ولایت": "کابل",
    "Province": "KABUL",
    "PC_Code": "0101298",
    "District": "KABUL-D15",
    "د_مرکز_نوم__نام_مرکز": " رياست اطفايه",
    "Polling_Center_Name": "Fire Department",
    "د_مرکز_ځای__موقعیت_مرکز": "خواجه بغرا",
    "Polling_Center_Location": "Khwaja Bughra",
    "Map_Accuracy": "Building",
    "Map_Accuracy_Dari": "تعمیر",
    "Status": "Open",
    "Status_Dari": null,
    "PS_Male": 4,
    "PS_Female": 3,
    "PS_Total": 7,
    "ولسوالي": "کابل - ناحیه 15",
    "Region": "Central Region"
   },
   "geometry": {
    "x": 7698415.8916747123,
    "y": 4105326.7922291569
   }
  },
  {
   "attributes": {
    "OBJECTID": 367,
    "ولایت": "کابل",
    "Province": "KABUL",
    "PC_Code": "0101299",
    "District": "KABUL-D15",
    "د_مرکز_نوم__نام_مرکز": " مسجد خواجه محي الدين چشتي",
    "Polling_Center_Name": "Khwaja Mahiuddin Chashti Mosque",
    "د_مرکز_ځای__موقعیت_مرکز": "خواجه بغرا",
    "Polling_Center_Location": "Khwaja Bughra",
    "Map_Accuracy": "Building",
    "Map_Accuracy_Dari": "تعمیر",
    "Status": "Open",
    "Status_Dari": null,
    "PS_Male": 2,
    "PS_Female": 2,
    "PS_Total": 4,
    "ولسوالي": "کابل - ناحیه 15",
    "Region": "Central Region"
   },
   "geometry": {
    "x": 7699103.359661635,
    "y": 4106011.4051215178
   }
  },
  {
   "attributes": {
    "OBJECTID": 368,
    "ولایت": "کابل",
    "Province": "KABUL",
    "PC_Code": "0101307",
    "District": "KABUL-D15",
    "د_مرکز_نوم__نام_مرکز": " مسجد حضرت نوح",
    "Polling_Center_Name": "Hazrat-e- Noh Mosque",
    "د_مرکز_ځای__موقعیت_مرکز": "سر پل خواجه بغرا",
    "Polling_Center_Location": "Sari Pul-e-Khwaja Bughra",
    "Map_Accuracy": "Building",
    "Map_Accuracy_Dari": "تعمیر",
    "Status": "Open",
    "Status_Dari": null,
    "PS_Male": 2,
    "PS_Female": 2,
    "PS_Total": 4,
    "ولسوالي": "کابل - ناحیه 15",
    "Region": "Central Region"
   },
   "geometry": {
    "x": 7698705.4971223706,
    "y": 4107450.0477358298
   }
  },
  {
   "attributes": {
    "OBJECTID": 369,
    "ولایت": "کابل",
    "Province": "KABUL",
    "PC_Code": "0101315",
    "District": "KABUL-D16",
    "د_مرکز_نوم__نام_مرکز": " مسجد حضرت بلال",
    "Polling_Center_Name": "Hazrat-e-Bilal Mosque",
    "د_مرکز_ځای__موقعیت_مرکز": "قلعه زمان خان",
    "Polling_Center_Location": "Qala-e-Zaman Khan",
    "Map_Accuracy": "Building",
    "Map_Accuracy_Dari": "تعمیر",
    "Status": "Open",
    "Status_Dari": null,
    "PS_Male": 2,
    "PS_Female": 2,
    "PS_Total": 4,
    "ولسوالي": "کابل - ناحیه 16",
    "Region": "Central Region"
   },
   "geometry": {
    "x": 7704638.4118731506,
    "y": 4100492.3236560486
   }
  },
  {
   "attributes": {
    "OBJECTID": 370,
    "ولایت": "کابل",
    "Province": "KABUL",
    "PC_Code": "0101316",
    "District": "KABUL-D16",
    "د_مرکز_نوم__نام_مرکز": "لیسه غفوراحمدی",
    "Polling_Center_Name": "Ghafor Ahmadi High School",
    "د_مرکز_ځای__موقعیت_مرکز": "ده خدايداد",
    "Polling_Center_Location": "Deh Khudaidad",
    "Map_Accuracy": "Building",
    "Map_Accuracy_Dari": "تعمیر",
    "Status": "Open",
    "Status_Dari": null,
    "PS_Male": 3,
    "PS_Female": 3,
    "PS_Total": 6,
    "ولسوالي": "کابل - ناحیه 16",
    "Region": "Central Region"
   },
   "geometry": {
    "x": 7706611.3194161141,
    "y": 4100224.5706421821
   }
  },
  {
   "attributes": {
    "OBJECTID": 371,
    "ولایت": "کابل",
    "Province": "KABUL",
    "PC_Code": "0101325",
    "District": "KABUL-D16",
    "د_مرکز_نوم__نام_مرکز": "مسجد ابو عبيده",
    "Polling_Center_Name": "Abu Obaida Mosque",
    "د_مرکز_ځای__موقعیت_مرکز": "قلعه زمان خان",
    "Polling_Center_Location": "Qala-e-Zaman Khan",
    "Map_Accuracy": "Building",
    "Map_Accuracy_Dari": "تعمیر",
    "Status": "Open",
    "Status_Dari": null,
    "PS_Male": 2,
    "PS_Female": 2,
    "PS_Total": 4,
    "ولسوالي": "کابل - ناحیه 16",
    "Region": "Central Region"
   },
   "geometry": {
    "x": 7705196.1347671701,
    "y": 4100174.7961740815
   }
  },
  {
   "attributes": {
    "OBJECTID": 372,
    "ولایت": "کابل",
    "Province": "KABUL",
    "PC_Code": "0101505",
    "District": "KABUL-D16",
    "د_مرکز_نوم__نام_مرکز": "مکتب متوسطه شهیدان",
    "Polling_Center_Name": "Shaheedan Secondary School",
    "د_مرکز_ځای__موقعیت_مرکز": "ده خدایداد",
    "Polling_Center_Location": "Deh Khudaidad",
    "Map_Accuracy": "Village",
    "Map_Accuracy_Dari": "قریه",
    "Status": "Open",
    "Status_Dari": null,
    "PS_Male": 2,
    "PS_Female": 2,
    "PS_Total": 4,
    "ولسوالي": "کابل - ناحیه 16",
    "Region": "Central Region"
   },
   "geometry": {
    "x": 7706889.1372428965,
    "y": 4099111.5012185834
   }
  },
  {
   "attributes": {
    "OBJECTID": 373,
    "ولایت": "کابل",
    "Province": "KABUL",
    "PC_Code": "0101507",
    "District": "KABUL-D17",
    "د_مرکز_نوم__نام_مرکز": " لیسه نسوان نوآباد ده کیپک",
    "Polling_Center_Name": "Now Abad DehKapak Girls High School",
    "د_مرکز_ځای__موقعیت_مرکز": "ده کیپک",
    "Polling_Center_Location": "Deh Kepak",
    "Map_Accuracy": "Village",
    "Map_Accuracy_Dari": "قریه",
    "Status": "Open",
    "Status_Dari": null,
    "PS_Male": 2,
    "PS_Female": 3,
    "PS_Total": 5,
    "ولسوالي": "کابل - ناحیه 17",
    "Region": "Central Region"
   },
   "geometry": {
    "x": 7694926.6401219284,
    "y": 4104381.4983208599
   }
  },
  {
   "attributes": {
    "OBJECTID": 374,
    "ولایت": "کابل",
    "Province": "KABUL",
    "PC_Code": "0101329",
    "District": "KABUL-D18",
    "د_مرکز_نوم__نام_مرکز": "لیسه محمدجان خان ",
    "Polling_Center_Name": "Mohammad Jan Khan High School",
    "د_مرکز_ځای__موقعیت_مرکز": "بختياران",
    "Polling_Center_Location": "Bakhtyaran",
    "Map_Accuracy": "Building",
    "Map_Accuracy_Dari": "تعمیر",
    "Status": "Open",
    "Status_Dari": null,
    "PS_Male": 4,
    "PS_Female": 3,
    "PS_Total": 7,
    "ولسوالي": "کابل - ناحیه 18",
    "Region": "Central Region"
   },
   "geometry": {
    "x": 7712434.8148998003,
    "y": 4111278.9604927716
   }
  },
  {
   "attributes": {
    "OBJECTID": 375,
    "ولایت": "کابل",
    "Province": "KABUL",
    "PC_Code": "0101332",
    "District": "KABUL-D21",
    "د_مرکز_نوم__نام_مرکز": " مسجد حاجی گل ولی",
    "Polling_Center_Name": "Haji Gul Wali Mosque",
    "د_مرکز_ځای__موقعیت_مرکز": "ناحیه ۲۱، پروژه",
    "Polling_Center_Location": "Nahia 21, Proja",
    "Map_Accuracy": "Village",
    "Map_Accuracy_Dari": "قریه",
    "Status": "Open",
    "Status_Dari": null,
    "PS_Male": 4,
    "PS_Female": 3,
    "PS_Total": 7,
    "ولسوالي": "کابل - ناحیه 21",
    "Region": "Central Region"
   },
   "geometry": {
    "x": 7722882.4396546204,
    "y": 4102932.3992400714
   }
  },
  {
   "attributes": {
    "OBJECTID": 376,
    "ولایت": "کابل",
    "Province": "KABUL",
    "PC_Code": "0101448",
    "District": "KABUL-D21",
    "د_مرکز_نوم__نام_مرکز": " مکتب حاجی سناتور جنت ګل ",
    "Polling_Center_Name": "Haji Senator Janat Gul School",
    "د_مرکز_ځای__موقعیت_مرکز": "دشت خاک جبار ",
    "Polling_Center_Location": "Dasht-e-Khak Jabar",
    "Map_Accuracy": "Building",
    "Map_Accuracy_Dari": "تعمیر",
    "Status": "Open",
    "Status_Dari": null,
    "PS_Male": 3,
    "PS_Female": 4,
    "PS_Total": 7,
    "ولسوالي": "کابل - ناحیه 21",
    "Region": "Central Region"
   },
   "geometry": {
    "x": 7722573.2185994871,
    "y": 4100567.3942858689
   }
  },
  {
   "attributes": {
    "OBJECTID": 377,
    "ولایت": "کابل",
    "Province": "KABUL",
    "PC_Code": "0103420",
    "District": "CHAHAR ASYAB",
    "د_مرکز_نوم__نام_مرکز": " جامع خیرآباد",
    "Polling_Center_Name": "Jami Khair Abad",
    "د_مرکز_ځای__موقعیت_مرکز": "خير آباد",
    "Polling_Center_Location": "Khair Abad",
    "Map_Accuracy": "Village",
    "Map_Accuracy_Dari": "قریه",
    "Status": "Open",
    "Status_Dari": null,
    "PS_Male": 3,
    "PS_Female": 1,
    "PS_Total": 4,
    "ولسوالي": "چهار آسیاب",
    "Region": "Central Region"
   },
   "geometry": {
    "x": 7700363.0906491932,
    "y": 4085031.9190487824
   }
  },
  {
   "attributes": {
    "OBJECTID": 378,
    "ولایت": "کابل",
    "Province": "KABUL",
    "PC_Code": "0103429",
    "District": "CHAHAR ASYAB",
    "د_مرکز_نوم__نام_مرکز": " لیسه نسوان تنگی سعیدان",
    "Polling_Center_Name": "Tangi Saiedan Girls High School",
    "د_مرکز_ځای__موقعیت_مرکز": "تنگي سعيدان",
    "Polling_Center_Location": "Tangi Sayedan",
    "Map_Accuracy": "Building",
    "Map_Accuracy_Dari": "تعمیر",
    "Status": "Open",
    "Status_Dari": null,
    "PS_Male": 2,
    "PS_Female": 1,
    "PS_Total": 3,
    "ولسوالي": "چهار آسیاب",
    "Region": "Central Region"
   },
   "geometry": {
    "x": 7693075.4525384614,
    "y": 4084917.098596958
   }
  },
  {
   "attributes": {
    "OBJECTID": 379,
    "ولایت": "کابل",
    "Province": "KABUL",
    "PC_Code": "0104457",
    "District": "BAGRAMI",
    "د_مرکز_نوم__نام_مرکز": " لیسه نسوان کمری",
    "Polling_Center_Name": "Kamari Girls High School",
    "د_مرکز_ځای__موقعیت_مرکز": "کمري",
    "Polling_Center_Location": "Kamari",
    "Map_Accuracy": "Building",
    "Map_Accuracy_Dari": "تعمیر",
    "Status": "Open",
    "Status_Dari": null,
    "PS_Male": 3,
    "PS_Female": 1,
    "PS_Total": 4,
    "ولسوالي": "بگرامی",
    "Region": "Central Region"
   },
   "geometry": {
    "x": 7712360.1061631404,
    "y": 4092470.7931622113
   }
  },
  {
   "attributes": {
    "OBJECTID": 380,
    "ولایت": "کابل",
    "Province": "KABUL",
    "PC_Code": "0104458",
    "District": "BAGRAMI",
    "د_مرکز_نوم__نام_مرکز": "لیسه نسوان قلعه وزیر",
    "Polling_Center_Name": "Qala-e-Wazir Girls High School",
    "د_مرکز_ځای__موقعیت_مرکز": "قلعه وزير",
    "Polling_Center_Location": "Qala-e-Wazir",
    "Map_Accuracy": "Building",
    "Map_Accuracy_Dari": "تعمیر",
    "Status": "Open",
    "Status_Dari": null,
    "PS_Male": 2,
    "PS_Female": 1,
    "PS_Total": 3,
    "ولسوالي": "بگرامی",
    "Region": "Central Region"
   },
   "geometry": {
    "x": 7705143.4940063609,
    "y": 4092493.4204643681
   }
  },
  {
   "attributes": {
    "OBJECTID": 381,
    "ولایت": "کابل",
    "Province": "KABUL",
    "PC_Code": "0104462",
    "District": "BAGRAMI",
    "د_مرکز_نوم__نام_مرکز": " لیسه ذکور سهاک",
    "Polling_Center_Name": "Sahak Boys High School",
    "د_مرکز_ځای__موقعیت_مرکز": "قريه سهاگ",
    "Polling_Center_Location": "Sahag Village",
    "Map_Accuracy": "Building",
    "Map_Accuracy_Dari": "تعمیر",
    "Status": "Open",
    "Status_Dari": null,
    "PS_Male": 3,
    "PS_Female": 1,
    "PS_Total": 4,
    "ولسوالي": "بگرامی",
    "Region": "Central Region"
   },
   "geometry": {
    "x": 7706220.0525566787,
    "y": 4089319.8087579487
   }
  },
  {
   "attributes": {
    "OBJECTID": 382,
    "ولایت": "کابل",
    "Province": "KABUL",
    "PC_Code": "0105330",
    "District": "DEHSABZ",
    "د_مرکز_نوم__نام_مرکز": "لیسه نسوان تره خیل",
    "Polling_Center_Name": "Tara Khel Girls High School",
    "د_مرکز_ځای__موقعیت_مرکز": "تره خيل",
    "Polling_Center_Location": "TaraKhel",
    "Map_Accuracy": "Village",
    "Map_Accuracy_Dari": "قریه",
    "Status": "Open",
    "Status_Dari": null,
    "PS_Male": 4,
    "PS_Female": 3,
    "PS_Total": 7,
    "ولسوالي": "ده سبز",
    "Region": "Central Region"
   },
   "geometry": {
    "x": 7714364.6763088731,
    "y": 4103702.4143144647
   }
  },
  {
   "attributes": {
    "OBJECTID": 383,
    "ولایت": "کابل",
    "Province": "KABUL",
    "PC_Code": "0105468",
    "District": "DEHSABZ",
    "د_مرکز_نوم__نام_مرکز": " مسجد سفيد",
    "Polling_Center_Name": "Safid Mosque",
    "د_مرکز_ځای__موقعیت_مرکز": "پل چرخي",
    "Polling_Center_Location": "Pul-e-Charkhi",
    "Map_Accuracy": "Building",
    "Map_Accuracy_Dari": "تعمیر",
    "Status": "Open",
    "Status_Dari": null,
    "PS_Male": 5,
    "PS_Female": 3,
    "PS_Total": 8,
    "ولسوالي": "ده سبز",
    "Region": "Central Region"
   },
   "geometry": {
    "x": 7721026.7125736419,
    "y": 4102583.5378536573
   }
  },
  {
   "attributes": {
    "OBJECTID": 384,
    "ولایت": "کابل",
    "Province": "KABUL",
    "PC_Code": "0105469",
    "District": "DEHSABZ",
    "د_مرکز_نوم__نام_مرکز": "مسجد مهترلام بابا",
    "Polling_Center_Name": "Mehtar Lam Baba Mosque",
    "د_مرکز_ځای__موقعیت_مرکز": "پل چرخي",
    "Polling_Center_Location": "Pul-e-Charkhi",
    "Map_Accuracy": "Building",
    "Map_Accuracy_Dari": "تعمیر",
    "Status": "Open",
    "Status_Dari": null,
    "PS_Male": 3,
    "PS_Female": 1,
    "PS_Total": 4,
    "ولسوالي": "ده سبز",
    "Region": "Central Region"
   },
   "geometry": {
    "x": 7720827.7111727316,
    "y": 4102206.5303878263
   }
  },
  {
   "attributes": {
    "OBJECTID": 385,
    "ولایت": "کابل",
    "Province": "KABUL",
    "PC_Code": "0106386",
    "District": "SHAKAR DARA",
    "د_مرکز_نوم__نام_مرکز": " مکتب متوسطه بالا کاريز",
    "Polling_Center_Name": "Bala Kariz Secondary School",
    "د_مرکز_ځای__موقعیت_مرکز": "قریه بالا کاریز",
    "Polling_Center_Location": "Bala Karez Village",
    "Map_Accuracy": "Building",
    "Map_Accuracy_Dari": "تعمیر",
    "Status": "Open",
    "Status_Dari": null,
    "PS_Male": 3,
    "PS_Female": 1,
    "PS_Total": 4,
    "ولسوالي": "شکردره",
    "Region": "Central Region"
   },
   "geometry": {
    "x": 7684955.7633503322,
    "y": 4112775.4345370848
   }
  },
  {
   "attributes": {
    "OBJECTID": 386,
    "ولایت": "کابل",
    "Province": "KABUL",
    "PC_Code": "0107434",
    "District": "MUSAHI",
    "د_مرکز_نوم__نام_مرکز": "مسجد حسین خیل ده کلان",
    "Polling_Center_Name": "Hussain Khel Deh Kalan Mosque",
    "د_مرکز_ځای__موقعیت_مرکز": "قريه حسين خيل، ده کلان",
    "Polling_Center_Location": "Hasan Khel Village, Deh Kalan",
    "Map_Accuracy": "Village",
    "Map_Accuracy_Dari": "قریه",
    "Status": "Open",
    "Status_Dari": null,
    "PS_Male": 1,
    "PS_Female": 1,
    "PS_Total": 2,
    "ولسوالي": "موسهی",
    "Region": "Central Region"
   },
   "geometry": {
    "x": 7700126.5783647448,
    "y": 4073716.8672565888
   }
  },
  {
   "attributes": {
    "OBJECTID": 387,
    "ولایت": "کابل",
    "Province": "KABUL",
    "PC_Code": "0107437",
    "District": "MUSAHI",
    "د_مرکز_نوم__نام_مرکز": "نسوان ابتدائيه موسهي",
    "Polling_Center_Name": "Musahi Girls Primary School",
    "د_مرکز_ځای__موقعیت_مرکز": "چارسوق",
    "Polling_Center_Location": "Char Sowq",
    "Map_Accuracy": "Building",
    "Map_Accuracy_Dari": "تعمیر",
    "Status": "Open",
    "Status_Dari": null,
    "PS_Male": 2,
    "PS_Female": 1,
    "PS_Total": 3,
    "ولسوالي": "موسهی",
    "Region": "Central Region"
   },
   "geometry": {
    "x": 7704518.7189302584,
    "y": 4076853.0172421802
   }
  },
  {
   "attributes": {
    "OBJECTID": 388,
    "ولایت": "کابل",
    "Province": "KABUL",
    "PC_Code": "0107438",
    "District": "MUSAHI",
    "د_مرکز_نوم__نام_مرکز": " مسجد عباس قلي",
    "Polling_Center_Name": "Abbas Quli Mosque",
    "د_مرکز_ځای__موقعیت_مرکز": "قلعه عباس قلي",
    "Polling_Center_Location": "Qala-e-Abbas Quli",
    "Map_Accuracy": "Building",
    "Map_Accuracy_Dari": "تعمیر",
    "Status": "Open",
    "Status_Dari": null,
    "PS_Male": 2,
    "PS_Female": 1,
    "PS_Total": 3,
    "ولسوالي": "موسهی",
    "Region": "Central Region"
   },
   "geometry": {
    "x": 7703520.5148299253,
    "y": 4085343.2149575036
   }
  },
  {
   "attributes": {
    "OBJECTID": 389,
    "ولایت": "کابل",
    "Province": "KABUL",
    "PC_Code": "0108342",
    "District": "MIR BACHA KOT",
    "د_مرکز_نوم__نام_مرکز": " مسجد بابه قشقار",
    "Polling_Center_Name": "Baba Qashqar Mosque",
    "د_مرکز_ځای__موقعیت_مرکز": "بابه قشقار",
    "Polling_Center_Location": "Baba Qushqar",
    "Map_Accuracy": "Building",
    "Map_Accuracy_Dari": "تعمیر",
    "Status": "Open",
    "Status_Dari": null,
    "PS_Male": 3,
    "PS_Female": 2,
    "PS_Total": 5,
    "ولسوالي": "میر بچه کوت",
    "Region": "Central Region"
   },
   "geometry": {
    "x": 7692129.058866852,
    "y": 4129085.0808005403
   }
  },
  {
   "attributes": {
    "OBJECTID": 390,
    "ولایت": "کابل",
    "Province": "KABUL",
    "PC_Code": "0109439",
    "District": "KHAK-E-JABAR",
    "د_مرکز_نوم__نام_مرکز": " مکتب ابتدائيه غزگي",
    "Polling_Center_Name": "Ghezgai Primary School",
    "د_مرکز_ځای__موقعیت_مرکز": "غزگي",
    "Polling_Center_Location": "Ghizgi ",
    "Map_Accuracy": "Building",
    "Map_Accuracy_Dari": "تعمیر",
    "Status": "Open",
    "Status_Dari": null,
    "PS_Male": 2,
    "PS_Female": 1,
    "PS_Total": 3,
    "ولسوالي": "خاک جبار",
    "Region": "Central Region"
   },
   "geometry": {
    "x": 7726981.3190403953,
    "y": 4070167.4667869201
   }
  },
  {
   "attributes": {
    "OBJECTID": 391,
    "ولایت": "کابل",
    "Province": "KABUL",
    "PC_Code": "0109440",
    "District": "KHAK-E-JABAR",
    "د_مرکز_نوم__نام_مرکز": "منزل ولي خان",
    "Polling_Center_Name": "Wali Khan House",
    "د_مرکز_ځای__موقعیت_مرکز": "غزگي",
    "Polling_Center_Location": "Ghizgi ",
    "Map_Accuracy": "Village",
    "Map_Accuracy_Dari": "قریه",
    "Status": "Open",
    "Status_Dari": null,
    "PS_Male": 2,
    "PS_Female": 1,
    "PS_Total": 3,
    "ولسوالي": "خاک جبار",
    "Region": "Central Region"
   },
   "geometry": {
    "x": 7725327.1859912612,
    "y": 4071370.9989808998
   }
  },
  {
   "attributes": {
    "OBJECTID": 392,
    "ولایت": "کابل",
    "Province": "KABUL",
    "PC_Code": "0110352",
    "District": "KALAKAN",
    "د_مرکز_نوم__نام_مرکز": " ليسه امير حبيب الله شهيد",
    "Polling_Center_Name": "Amir Habibullah Shaheed High School",
    "د_مرکز_ځای__موقعیت_مرکز": "مرکز کلکان",
    "Polling_Center_Location": "Markaz-e-Kalakan ",
    "Map_Accuracy": "Building",
    "Map_Accuracy_Dari": "تعمیر",
    "Status": "Open",
    "Status_Dari": null,
    "PS_Male": 4,
    "PS_Female": 2,
    "PS_Total": 6,
    "ولسوالي": "کلکان",
    "Region": "Central Region"
   },
   "geometry": {
    "x": 7697256.2153133973,
    "y": 4135117.7563034976
   }
  },
  {
   "attributes": {
    "OBJECTID": 393,
    "ولایت": "کابل",
    "Province": "KABUL",
    "PC_Code": "0101200",
    "District": "KABUL-D10",
    "د_مرکز_نوم__نام_مرکز": "مسجد سيد نظام",
    "Polling_Center_Name": "Sayed Nizam Mosque",
    "د_مرکز_ځای__موقعیت_مرکز": "چهار قلعه",
    "Polling_Center_Location": "Chahar Qala",
    "Map_Accuracy": "Village",
    "Map_Accuracy_Dari": "قریه",
    "Status": "Open",
    "Status_Dari": null,
    "PS_Male": 2,
    "PS_Female": 3,
    "PS_Total": 5,
    "ولسوالي": "کابل - ناحیه 10",
    "Region": "Central Region"
   },
   "geometry": {
    "x": 7704565.114667627,
    "y": 4101181.4680073559
   }
  },
  {
   "attributes": {
    "OBJECTID": 394,
    "ولایت": "کابل",
    "Province": "KABUL",
    "PC_Code": "0101205",
    "District": "KABUL-D10",
    "د_مرکز_نوم__نام_مرکز": " مسجد احمد خيل",
    "Polling_Center_Name": "AhmadKhel Mosque",
    "د_مرکز_ځای__موقعیت_مرکز": "چهار قلعه",
    "Polling_Center_Location": "Chahar Qala",
    "Map_Accuracy": "Building",
    "Map_Accuracy_Dari": "تعمیر",
    "Status": "Open",
    "Status_Dari": null,
    "PS_Male": 2,
    "PS_Female": 2,
    "PS_Total": 4,
    "ولسوالي": "کابل - ناحیه 10",
    "Region": "Central Region"
   },
   "geometry": {
    "x": 7701349.5398565736,
    "y": 4100962.2790454784
   }
  },
  {
   "attributes": {
    "OBJECTID": 395,
    "ولایت": "کابل",
    "Province": "KABUL",
    "PC_Code": "0101006",
    "District": "KABUL-D01",
    "د_مرکز_نوم__نام_مرکز": " مکتب متوسطه دقیقی بلخی",
    "Polling_Center_Name": "Daqiqi Balkhi Secondary school",
    "د_مرکز_ځای__موقعیت_مرکز": "سراجي، کوچه آهنگري",
    "Polling_Center_Location": "Saraji, Ahangari Street",
    "Map_Accuracy": "Building",
    "Map_Accuracy_Dari": "تعمیر",
    "Status": "Open",
    "Status_Dari": null,
    "PS_Male": 3,
    "PS_Female": 3,
    "PS_Total": 6,
    "ولسوالي": "کابل - ناحیه 01",
    "Region": "Central Region"
   },
   "geometry": {
    "x": 7701885.6489582621,
    "y": 4097926.1997720213
   }
  },
  {
   "attributes": {
    "OBJECTID": 396,
    "ولایت": "کابل",
    "Province": "KABUL",
    "PC_Code": "0101011",
    "District": "KABUL-D01",
    "د_مرکز_نوم__نام_مرکز": " مسجد بي بي صديقه",
    "Polling_Center_Name": "Bibi Sedeqa Mosque",
    "د_مرکز_ځای__موقعیت_مرکز": "چنداول",
    "Polling_Center_Location": "Chendawol",
    "Map_Accuracy": "Building",
    "Map_Accuracy_Dari": "تعمیر",
    "Status": "Open",
    "Status_Dari": null,
    "PS_Male": 2,
    "PS_Female": 1,
    "PS_Total": 3,
    "ولسوالي": "کابل - ناحیه 01",
    "Region": "Central Region"
   },
   "geometry": {
    "x": 7700464.6723562088,
    "y": 4097824.6557506574
   }
  },
  {
   "attributes": {
    "OBJECTID": 397,
    "ولایت": "کابل",
    "Province": "KABUL",
    "PC_Code": "0101019",
    "District": "KABUL-D02",
    "د_مرکز_نوم__نام_مرکز": " مسجد عبدالله بن مسعود",
    "Polling_Center_Name": "Abdullah Ibn Masood Mosque",
    "د_مرکز_ځای__موقعیت_مرکز": "باغ بالا",
    "Polling_Center_Location": "Bagh-e-Bala",
    "Map_Accuracy": "Building",
    "Map_Accuracy_Dari": "تعمیر",
    "Status": "Open",
    "Status_Dari": null,
    "PS_Male": 2,
    "PS_Female": 3,
    "PS_Total": 5,
    "ولسوالي": "کابل - ناحیه 02",
    "Region": "Central Region"
   },
   "geometry": {
    "x": 7695794.0237830747,
    "y": 4100625.6620338419
   }
  },
  {
   "attributes": {
    "OBJECTID": 398,
    "ولایت": "کابل",
    "Province": "KABUL",
    "PC_Code": "0101020",
    "District": "KABUL-D02",
    "د_مرکز_نوم__نام_مرکز": "مسجد رنگه",
    "Polling_Center_Name": "Ranga Mosque",
    "د_مرکز_ځای__موقعیت_مرکز": "ده افغانان",
    "Polling_Center_Location": "Deh Afghanan",
    "Map_Accuracy": "Building",
    "Map_Accuracy_Dari": "تعمیر",
    "Status": "Open",
    "Status_Dari": null,
    "PS_Male": 1,
    "PS_Female": 2,
    "PS_Total": 3,
    "ولسوالي": "کابل - ناحیه 02",
    "Region": "Central Region"
   },
   "geometry": {
    "x": 7700273.6636947365,
    "y": 4098840.3168820236
   }
  },
  {
   "attributes": {
    "OBJECTID": 399,
    "ولایت": "کابل",
    "Province": "KABUL",
    "PC_Code": "0101025",
    "District": "KABUL-D02",
    "د_مرکز_نوم__نام_مرکز": "لیسه عالی ذبیح الله شهید ",
    "Polling_Center_Name": "Zabihullah Shaheed High School",
    "د_مرکز_ځای__موقعیت_مرکز": "کارته آريانا",
    "Polling_Center_Location": "Kart-e-Ariana",
    "Map_Accuracy": "Building",
    "Map_Accuracy_Dari": "تعمیر",
    "Status": "Open",
    "Status_Dari": null,
    "PS_Male": 4,
    "PS_Female": 3,
    "PS_Total": 7,
    "ولسوالي": "کابل - ناحیه 02",
    "Region": "Central Region"
   },
   "geometry": {
    "x": 7697979.3500651754,
    "y": 4099874.6690133978
   }
  },
  {
   "attributes": {
    "OBJECTID": 400,
    "ولایت": "کابل",
    "Province": "KABUL",
    "PC_Code": "0101026",
    "District": "KABUL-D02",
    "د_مرکز_نوم__نام_مرکز": "مسجد معاذ ابن جبل",
    "Polling_Center_Name": "Maaz Ibn Jabal Mosque",
    "د_مرکز_ځای__موقعیت_مرکز": "کارته پروان",
    "Polling_Center_Location": "Kart-e-Parwan ",
    "Map_Accuracy": "Building",
    "Map_Accuracy_Dari": "تعمیر",
    "Status": "Open",
    "Status_Dari": null,
    "PS_Male": 1,
    "PS_Female": 1,
    "PS_Total": 2,
    "ولسوالي": "کابل - ناحیه 02",
    "Region": "Central Region"
   },
   "geometry": {
    "x": 7696649.6387476455,
    "y": 4100000.8804846257
   }
  }
 ]
}