{
 "displayFieldName": "Polling_Center_Name",
 "fieldAliases": {
  "OBJECTID": "OBJECTID",
  "ولایت": "ولایت",
  "Province": "Province",
  "PC_Code": "PC_Code",
  "District": "District",
  "د_مرکز_نوم__نام_مرکز": "د_مرکز_نوم__نام_مرکز",
  "Polling_Center_Name": "Polling_Center_Name",
  "د_مرکز_ځای__موقعیت_مرکز": "د_مرکز_ځای__موقعیت_مرکز",
  "Polling_Center_Location": "Polling_Center_Location",
  "Map_Accuracy": "Map_Accuracy",
  "Map_Accuracy_Dari": "Map_Accuracy_Dari",
  "Status": "Status",
  "Status_Dari": "Status_Dari",
  "PS_Male": "PS_Male",
  "PS_Female": "PS_Female",
  "PS_Total": "PS_Total",
  "ولسوالي": "ولسوالي",
  "Region": "Region"
 },
 "geometryType": "esriGeometryPoint",
 "spatialReference": {
  "wkid": 102100,
  "latestWkid": 3857
 },
 "fields": [
  {
   "name": "OBJECTID",
   "type": "esriFieldTypeOID",
   "alias": "OBJECTID"
  },
  {
   "name": "ولایت",
   "type": "esriFieldTypeString",
   "alias": "ولایت",
   "length": 255
  },
  {
   "name": "Province",
   "type": "esriFieldTypeString",
   "alias": "Province",
   "length": 255
  },
  {
   "name": "PC_Code",
   "type": "esriFieldTypeString",
   "alias": "PC_Code",
   "length": 255
  },
  {
   "name": "District",
   "type": "esriFieldTypeString",
   "alias": "District",
   "length": 255
  },
  {
   "name": "د_مرکز_نوم__نام_مرکز",
   "type": "esriFieldTypeString",
   "alias": "د_مرکز_نوم__نام_مرکز",
   "length": 255
  },
  {
   "name": "Polling_Center_Name",
   "type": "esriFieldTypeString",
   "alias": "Polling_Center_Name",
   "length": 255
  },
  {
   "name": "د_مرکز_ځای__موقعیت_مرکز",
   "type": "esriFieldTypeString",
   "alias": "د_مرکز_ځای__موقعیت_مرکز",
   "length": 255
  },
  {
   "name": "Polling_Center_Location",
   "type": "esriFieldTypeString",
   "alias": "Polling_Center_Location",
   "length": 255
  },
  {
   "name": "Map_Accuracy",
   "type": "esriFieldTypeString",
   "alias": "Map_Accuracy",
   "length": 10
  },
  {
   "name": "Map_Accuracy_Dari",
   "type": "esriFieldTypeString",
   "alias": "Map_Accuracy_Dari",
   "length": 50
  },
  {
   "name": "Status",
   "type": "esriFieldTypeString",
   "alias": "Status",
   "length": 6
  },
  {
   "name": "Status_Dari",
   "type": "esriFieldTypeString",
   "alias": "Status_Dari",
   "length": 8
  },
  {
   "name": "PS_Male",
   "type": "esriFieldTypeSmallInteger",
   "alias": "PS_Male"
  },
  {
   "name": "PS_Female",
   "type": "esriFieldTypeSmallInteger",
   "alias": "PS_Female"
  },
  {
   "name": "PS_Total",
   "type": "esriFieldTypeSmallInteger",
   "alias": "PS_Total"
  },
  {
   "name": "ولسوالي",
   "type": "esriFieldTypeString",
   "alias": "ولسوالي",
   "length": 255
  },
  {
   "name": "Region",
   "type": "esriFieldTypeString",
   "alias": "Region",
   "length": 50
  }
 ],
 "features": [
  {
   "attributes": {
    "OBJECTID": 401,
    "ولایت": "کابل",
    "Province": "KABUL",
    "PC_Code": "0101081",
    "District": "KABUL-D05",
    "د_مرکز_نوم__نام_مرکز": " مسجد شاه اوليا",
    "Polling_Center_Name": "Shah-e- Awlia Mosque",
    "د_مرکز_ځای__موقعیت_مرکز": "قرغه",
    "Polling_Center_Location": "Qargha",
    "Map_Accuracy": "Building",
    "Map_Accuracy_Dari": "تعمیر",
    "Status": "Open",
    "Status_Dari": null,
    "PS_Male": 2,
    "PS_Female": 1,
    "PS_Total": 3,
    "ولسوالي": "کابل - ناحیه 05",
    "Region": "Central Region"
   },
   "geometry": {
    "x": 7687076.9640397597,
    "y": 4101937.6864929013
   }
  },
  {
   "attributes": {
    "OBJECTID": 402,
    "ولایت": "کابل",
    "Province": "KABUL",
    "PC_Code": "0101082",
    "District": "KABUL-D05",
    "د_مرکز_نوم__نام_مرکز": " مکتب ده عربان",
    "Polling_Center_Name": "Deh Araban School",
    "د_مرکز_ځای__موقعیت_مرکز": "قرغه",
    "Polling_Center_Location": "Qargha",
    "Map_Accuracy": "Building",
    "Map_Accuracy_Dari": "تعمیر",
    "Status": "Open",
    "Status_Dari": null,
    "PS_Male": 3,
    "PS_Female": 3,
    "PS_Total": 6,
    "ولسوالي": "کابل - ناحیه 05",
    "Region": "Central Region"
   },
   "geometry": {
    "x": 7687725.2464527339,
    "y": 4101855.4886604026
   }
  },
  {
   "attributes": {
    "OBJECTID": 403,
    "ولایت": "کابل",
    "Province": "KABUL",
    "PC_Code": "0101116",
    "District": "KABUL-D06",
    "د_مرکز_نوم__نام_مرکز": " مسجد وحدت",
    "Polling_Center_Name": "Wahdat Mosque",
    "د_مرکز_ځای__موقعیت_مرکز": "پل وحدت",
    "Polling_Center_Location": "Pul-e-Wahdat",
    "Map_Accuracy": "Building",
    "Map_Accuracy_Dari": "تعمیر",
    "Status": "Open",
    "Status_Dari": null,
    "PS_Male": 2,
    "PS_Female": 3,
    "PS_Total": 5,
    "ولسوالي": "کابل - ناحیه 06",
    "Region": "Central Region"
   },
   "geometry": {
    "x": 7695015.3962651324,
    "y": 4096707.752223921
   }
  },
  {
   "attributes": {
    "OBJECTID": 404,
    "ولایت": "کابل",
    "Province": "KABUL",
    "PC_Code": "0101117",
    "District": "KABUL-D06",
    "د_مرکز_نوم__نام_مرکز": " تکيه خانه وحدت",
    "Polling_Center_Name": "Takia Khana-e-Wahdat ",
    "د_مرکز_ځای__موقعیت_مرکز": "پل وحدت",
    "Polling_Center_Location": "Pul-e-Wahdat",
    "Map_Accuracy": "Building",
    "Map_Accuracy_Dari": "تعمیر",
    "Status": "Open",
    "Status_Dari": null,
    "PS_Male": 2,
    "PS_Female": 2,
    "PS_Total": 4,
    "ولسوالي": "کابل - ناحیه 06",
    "Region": "Central Region"
   },
   "geometry": {
    "x": 7695024.1504298905,
    "y": 4096503.2538744197
   }
  },
  {
   "attributes": {
    "OBJECTID": 405,
    "ولایت": "کابل",
    "Province": "KABUL",
    "PC_Code": "0101145",
    "District": "KABUL-D07",
    "د_مرکز_نوم__نام_مرکز": "مسجد عبدالله بن ذبیر\r\n",
    "Polling_Center_Name": "Mohammadia Mosque",
    "د_مرکز_ځای__موقعیت_مرکز": "جاي رييس",
    "Polling_Center_Location": "Jaie Raies",
    "Map_Accuracy": "Building",
    "Map_Accuracy_Dari": "تعمیر",
    "Status": "Open",
    "Status_Dari": null,
    "PS_Male": 3,
    "PS_Female": 1,
    "PS_Total": 4,
    "ولسوالي": "کابل - ناحیه 07",
    "Region": "Central Region"
   },
   "geometry": {
    "x": 7696243.1934756413,
    "y": 4093491.6947031948
   }
  },
  {
   "attributes": {
    "OBJECTID": 406,
    "ولایت": "کابل",
    "Province": "KABUL",
    "PC_Code": "0101489",
    "District": "KABUL-D07",
    "د_مرکز_نوم__نام_مرکز": " مسجد جامع احمدیه قلعه فتوح",
    "Polling_Center_Name": "Ahmadia Qala-e- Fotoh Mosque",
    "د_مرکز_ځای__موقعیت_مرکز": "قلعه فتوح",
    "Polling_Center_Location": "Qala-e-Fatoh",
    "Map_Accuracy": "Building",
    "Map_Accuracy_Dari": "تعمیر",
    "Status": "Open",
    "Status_Dari": null,
    "PS_Male": 3,
    "PS_Female": 3,
    "PS_Total": 6,
    "ولسوالي": "کابل - ناحیه 07",
    "Region": "Central Region"
   },
   "geometry": {
    "x": 7697057.3397035105,
    "y": 4088087.291237392
   }
  },
  {
   "attributes": {
    "OBJECTID": 407,
    "ولایت": "کابل",
    "Province": "KABUL",
    "PC_Code": "0101149",
    "District": "KABUL-D08",
    "د_مرکز_نوم__نام_مرکز": "  لیسه ذکور سید نورمحمد شاه مینه",
    "Polling_Center_Name": "Sayed Noor Muhammad Shah Mina Boys High School",
    "د_مرکز_ځای__موقعیت_مرکز": "حصه الف سرک سه کارته نو",
    "Polling_Center_Location": "Hesa-e-Alef, Sarak Se Kart-e-Naw",
    "Map_Accuracy": "Building",
    "Map_Accuracy_Dari": "تعمیر",
    "Status": "Open",
    "Status_Dari": null,
    "PS_Male": 4,
    "PS_Female": 2,
    "PS_Total": 6,
    "ولسوالي": "کابل - ناحیه 08",
    "Region": "Central Region"
   },
   "geometry": {
    "x": 7706024.0089146374,
    "y": 4097085.3981924499
   }
  },
  {
   "attributes": {
    "OBJECTID": 408,
    "ولایت": "کابل",
    "Province": "KABUL",
    "PC_Code": "0101150",
    "District": "KABUL-D08",
    "د_مرکز_نوم__نام_مرکز": "  لیسه توتیا",
    "Polling_Center_Name": "Tottia High School",
    "د_مرکز_ځای__موقعیت_مرکز": "سرک ١٣ کارته نو",
    "Polling_Center_Location": "Sarak-e- 13, Kart-e-Naw",
    "Map_Accuracy": "Building",
    "Map_Accuracy_Dari": "تعمیر",
    "Status": "Open",
    "Status_Dari": null,
    "PS_Male": 3,
    "PS_Female": 4,
    "PS_Total": 7,
    "ولسوالي": "کابل - ناحیه 08",
    "Region": "Central Region"
   },
   "geometry": {
    "x": 7706799.6452778559,
    "y": 4097858.0299179172
   }
  },
  {
   "attributes": {
    "OBJECTID": 409,
    "ولایت": "کابل",
    "Province": "KABUL",
    "PC_Code": "0101492",
    "District": "KABUL-D08",
    "د_مرکز_نوم__نام_مرکز": "مسجد اصحاب کرام",
    "Polling_Center_Name": "Ashab-e- Keram Mosque",
    "د_مرکز_ځای__موقعیت_مرکز": "تانک لوگر",
    "Polling_Center_Location": "Tank-e-Logar",
    "Map_Accuracy": "Building",
    "Map_Accuracy_Dari": "تعمیر",
    "Status": "Open",
    "Status_Dari": null,
    "PS_Male": 3,
    "PS_Female": 2,
    "PS_Total": 5,
    "ولسوالي": "کابل - ناحیه 08",
    "Region": "Central Region"
   },
   "geometry": {
    "x": 7703096.3273461573,
    "y": 4096492.9279470337
   }
  },
  {
   "attributes": {
    "OBJECTID": 410,
    "ولایت": "کابل",
    "Province": "KABUL",
    "PC_Code": "0101176",
    "District": "KABUL-D09",
    "د_مرکز_نوم__نام_مرکز": " لیسه علی احمد خان پوپل",
    "Polling_Center_Name": "Ali Ahmad Khan Popal High School",
    "د_مرکز_ځای__موقعیت_مرکز": "هوتخیل",
    "Polling_Center_Location": "HodKhel",
    "Map_Accuracy": "Building",
    "Map_Accuracy_Dari": "تعمیر",
    "Status": "Open",
    "Status_Dari": null,
    "PS_Male": 5,
    "PS_Female": 4,
    "PS_Total": 9,
    "ولسوالي": "کابل - ناحیه 09",
    "Region": "Central Region"
   },
   "geometry": {
    "x": 7710064.1093828781,
    "y": 4101316.1226880071
   }
  },
  {
   "attributes": {
    "OBJECTID": 411,
    "ولایت": "کابل",
    "Province": "KABUL",
    "PC_Code": "0101513",
    "District": "KABUL-D09",
    "د_مرکز_نوم__نام_مرکز": " مسجد وزیر ګل",
    "Polling_Center_Name": "Wazir Gul Mosque",
    "د_مرکز_ځای__موقعیت_مرکز": " ګردی خیل",
    "Polling_Center_Location": "Gardi Khel",
    "Map_Accuracy": "Building",
    "Map_Accuracy_Dari": "تعمیر",
    "Status": "Open",
    "Status_Dari": null,
    "PS_Male": 3,
    "PS_Female": 3,
    "PS_Total": 6,
    "ولسوالي": "کابل - ناحیه 09",
    "Region": "Central Region"
   },
   "geometry": {
    "x": 7712186.9013844291,
    "y": 4104658.7858757246
   }
  },
  {
   "attributes": {
    "OBJECTID": 412,
    "ولایت": "کابل",
    "Province": "KABUL",
    "PC_Code": "0101204",
    "District": "KABUL-D10",
    "د_مرکز_نوم__نام_مرکز": " مسجد شیبری ها",
    "Polling_Center_Name": "Shebari ha Mosque",
    "د_مرکز_ځای__موقعیت_مرکز": "چهار قلعه",
    "Polling_Center_Location": "Chahar Qala",
    "Map_Accuracy": "Building",
    "Map_Accuracy_Dari": "تعمیر",
    "Status": "Open",
    "Status_Dari": null,
    "PS_Male": 2,
    "PS_Female": 1,
    "PS_Total": 3,
    "ولسوالي": "کابل - ناحیه 10",
    "Region": "Central Region"
   },
   "geometry": {
    "x": 7701705.1777997883,
    "y": 4103446.9820711766
   }
  },
  {
   "attributes": {
    "OBJECTID": 413,
    "ولایت": "کابل",
    "Province": "KABUL",
    "PC_Code": "0101224",
    "District": "KABUL-D10",
    "د_مرکز_نوم__نام_مرکز": " معینیت سواد آموزی ",
    "Polling_Center_Name": "Moenyat Sewad Aamozi",
    "د_مرکز_ځای__موقعیت_مرکز": "شهر نو",
    "Polling_Center_Location": "Shahr-e-Naw",
    "Map_Accuracy": "Building",
    "Map_Accuracy_Dari": "تعمیر",
    "Status": "Open",
    "Status_Dari": null,
    "PS_Male": 2,
    "PS_Female": 3,
    "PS_Total": 5,
    "ولسوالي": "کابل - ناحیه 10",
    "Region": "Central Region"
   },
   "geometry": {
    "x": 7700614.552918612,
    "y": 4100540.430690337
   }
  },
  {
   "attributes": {
    "OBJECTID": 414,
    "ولایت": "کابل",
    "Province": "KABUL",
    "PC_Code": "0101225",
    "District": "KABUL-D10",
    "د_مرکز_نوم__نام_مرکز": " مسجد جامع الجواد",
    "Polling_Center_Name": "Aljawad Mosque",
    "د_مرکز_ځای__موقعیت_مرکز": "وزير آباد",
    "Polling_Center_Location": "Wazir Abad",
    "Map_Accuracy": "Building",
    "Map_Accuracy_Dari": "تعمیر",
    "Status": "Open",
    "Status_Dari": null,
    "PS_Male": 2,
    "PS_Female": 1,
    "PS_Total": 3,
    "ولسوالي": "کابل - ناحیه 10",
    "Region": "Central Region"
   },
   "geometry": {
    "x": 7699567.064340123,
    "y": 4103625.0289967596
   }
  },
  {
   "attributes": {
    "OBJECTID": 415,
    "ولایت": "کابل",
    "Province": "KABUL",
    "PC_Code": "0101240",
    "District": "KABUL-D11",
    "د_مرکز_نوم__نام_مرکز": " مسجد بابا آدم صفي الله",
    "Polling_Center_Name": "Baba Adam Safiullah Mosque",
    "د_مرکز_ځای__موقعیت_مرکز": "نو آباد پروژه پنج خیرخانه",
    "Polling_Center_Location": "Naw Abad, Proja 5 Khair Khana",
    "Map_Accuracy": "Building",
    "Map_Accuracy_Dari": "تعمیر",
    "Status": "Open",
    "Status_Dari": null,
    "PS_Male": 4,
    "PS_Female": 5,
    "PS_Total": 9,
    "ولسوالي": "کابل - ناحیه 11",
    "Region": "Central Region"
   },
   "geometry": {
    "x": 7695798.7170128031,
    "y": 4108880.5214701341
   }
  },
  {
   "attributes": {
    "OBJECTID": 416,
    "ولایت": "کابل",
    "Province": "KABUL",
    "PC_Code": "0101254",
    "District": "KABUL-D12",
    "د_مرکز_نوم__نام_مرکز": "مرکز تعليمي",
    "Polling_Center_Name": "Educational Center",
    "د_مرکز_ځای__موقعیت_مرکز": "بلاک ٩ ارزان قيمت",
    "Polling_Center_Location": "9th Block, Arzan Qemat",
    "Map_Accuracy": "Building",
    "Map_Accuracy_Dari": "تعمیر",
    "Status": "Open",
    "Status_Dari": null,
    "PS_Male": 3,
    "PS_Female": 3,
    "PS_Total": 6,
    "ولسوالي": "کابل - ناحیه 12",
    "Region": "Central Region"
   },
   "geometry": {
    "x": 7717217.2950333906,
    "y": 4097711.3679156774
   }
  },
  {
   "attributes": {
    "OBJECTID": 417,
    "ولایت": "کابل",
    "Province": "KABUL",
    "PC_Code": "0101278",
    "District": "KABUL-D13",
    "د_مرکز_نوم__نام_مرکز": "لیسه سیدالشهدا ",
    "Polling_Center_Name": "Sayedul Shuhada High School",
    "د_مرکز_ځای__موقعیت_مرکز": "قلعه محب",
    "Polling_Center_Location": "Qala-e-Muhib",
    "Map_Accuracy": "Building",
    "Map_Accuracy_Dari": "تعمیر",
    "Status": "Open",
    "Status_Dari": null,
    "PS_Male": 4,
    "PS_Female": 4,
    "PS_Total": 8,
    "ولسوالي": "کابل - ناحیه 13",
    "Region": "Central Region"
   },
   "geometry": {
    "x": 7684892.7008587923,
    "y": 4096603.8390578423
   }
  },
  {
   "attributes": {
    "OBJECTID": 418,
    "ولایت": "کابل",
    "Province": "KABUL",
    "PC_Code": "0101279",
    "District": "KABUL-D13",
    "د_مرکز_نوم__نام_مرکز": "لیسه قاضی ",
    "Polling_Center_Name": "Qala-e-Qazi High School",
    "د_مرکز_ځای__موقعیت_مرکز": "قلعه قاضي",
    "Polling_Center_Location": "Qala-e-Qazi",
    "Map_Accuracy": "Building",
    "Map_Accuracy_Dari": "تعمیر",
    "Status": "Open",
    "Status_Dari": null,
    "PS_Male": 4,
    "PS_Female": 4,
    "PS_Total": 8,
    "ولسوالي": "کابل - ناحیه 13",
    "Region": "Central Region"
   },
   "geometry": {
    "x": 7686424.3490722049,
    "y": 4094026.3615978467
   }
  },
  {
   "attributes": {
    "OBJECTID": 419,
    "ولایت": "کابل",
    "Province": "KABUL",
    "PC_Code": "0101282",
    "District": "KABUL-D13",
    "د_مرکز_نوم__نام_مرکز": " مکتب خصوصی تلاش",
    "Polling_Center_Name": "Talash Private School",
    "د_مرکز_ځای__موقعیت_مرکز": "سر پل برچي",
    "Polling_Center_Location": "Sari Pul-e-Barchi",
    "Map_Accuracy": "Building",
    "Map_Accuracy_Dari": "تعمیر",
    "Status": "Open",
    "Status_Dari": null,
    "PS_Male": 4,
    "PS_Female": 2,
    "PS_Total": 6,
    "ولسوالي": "کابل - ناحیه 13",
    "Region": "Central Region"
   },
   "geometry": {
    "x": 7690250.3676881185,
    "y": 4096641.8334559216
   }
  },
  {
   "attributes": {
    "OBJECTID": 420,
    "ولایت": "کابل",
    "Province": "KABUL",
    "PC_Code": "0101170",
    "District": "KABUL-D08",
    "د_مرکز_نوم__نام_مرکز": " ليسه نسوان رحمن مينه",
    "Polling_Center_Name": "Rahman Mina Girls High School",
    "د_مرکز_ځای__موقعیت_مرکز": "پروژه الف، سرک سوم رحمن مینه ",
    "Polling_Center_Location": "Project A, Road 3 of Rahman Mina",
    "Map_Accuracy": "Building",
    "Map_Accuracy_Dari": "تعمیر",
    "Status": "Open",
    "Status_Dari": null,
    "PS_Male": 2,
    "PS_Female": 4,
    "PS_Total": 6,
    "ولسوالي": "کابل - ناحیه 08",
    "Region": "Central Region"
   },
   "geometry": {
    "x": 7706067.2598763956,
    "y": 4097069.7510602437
   }
  },
  {
   "attributes": {
    "OBJECTID": 421,
    "ولایت": "کابل",
    "Province": "KABUL",
    "PC_Code": "0101208",
    "District": "KABUL-D10",
    "د_مرکز_نوم__نام_مرکز": " پسته خانه مقابل کلینیک ",
    "Polling_Center_Name": "Post Office Infront of Clinic",
    "د_مرکز_ځای__موقعیت_مرکز": "قلعه فتح الله",
    "Polling_Center_Location": "Qala-e-Fathullah",
    "Map_Accuracy": "Building",
    "Map_Accuracy_Dari": "تعمیر",
    "Status": "Open",
    "Status_Dari": null,
    "PS_Male": 2,
    "PS_Female": 2,
    "PS_Total": 4,
    "ولسوالي": "کابل - ناحیه 10",
    "Region": "Central Region"
   },
   "geometry": {
    "x": 7699259.4050974455,
    "y": 4103191.8002702463
   }
  },
  {
   "attributes": {
    "OBJECTID": 422,
    "ولایت": "کابل",
    "Province": "KABUL",
    "PC_Code": "0101212",
    "District": "KABUL-D10",
    "د_مرکز_نوم__نام_مرکز": " مسجد ابراهيم خليل الله",
    "Polling_Center_Name": "Ibrahim Khalilullah Mosque",
    "د_مرکز_ځای__موقعیت_مرکز": "قلعه فتح الله",
    "Polling_Center_Location": "Qala-e-Fathullah",
    "Map_Accuracy": "Building",
    "Map_Accuracy_Dari": "تعمیر",
    "Status": "Open",
    "Status_Dari": null,
    "PS_Male": 2,
    "PS_Female": 1,
    "PS_Total": 3,
    "ولسوالي": "کابل - ناحیه 10",
    "Region": "Central Region"
   },
   "geometry": {
    "x": 7702326.7023467571,
    "y": 4101160.2516264664
   }
  },
  {
   "attributes": {
    "OBJECTID": 423,
    "ولایت": "کابل",
    "Province": "KABUL",
    "PC_Code": "0101220",
    "District": "KABUL-D10",
    "د_مرکز_نوم__نام_مرکز": " انستیتیوت طبی ",
    "Polling_Center_Name": "Medical Institute",
    "د_مرکز_ځای__موقعیت_مرکز": "سرک ۳ قلعه فتح الله",
    "Polling_Center_Location": "3rd Road, Qala-e-Fathullah",
    "Map_Accuracy": "Village",
    "Map_Accuracy_Dari": "قریه",
    "Status": "Open",
    "Status_Dari": null,
    "PS_Male": 2,
    "PS_Female": 1,
    "PS_Total": 3,
    "ولسوالي": "کابل - ناحیه 10",
    "Region": "Central Region"
   },
   "geometry": {
    "x": 7699301.59518445,
    "y": 4103146.7919250149
   }
  },
  {
   "attributes": {
    "OBJECTID": 424,
    "ولایت": "کاپيسا",
    "Province": "KAPISA",
    "PC_Code": "0201015",
    "District": "MAHMUDI RAQI",
    "د_مرکز_نوم__نام_مرکز": "منزل حاجی عجب گل ",
    "Polling_Center_Name": "Haji Ajab Gul House",
    "د_مرکز_ځای__موقعیت_مرکز": "نوآباد",
    "Polling_Center_Location": "Naw Abad ",
    "Map_Accuracy": "Building",
    "Map_Accuracy_Dari": "تعمیر",
    "Status": "Open",
    "Status_Dari": null,
    "PS_Male": 2,
    "PS_Female": 2,
    "PS_Total": 4,
    "ولسوالي": "محمود راقی ",
    "Region": "Central Region"
   },
   "geometry": {
    "x": 7727896.1704456033,
    "y": 4170815.2122307802
   }
  },
  {
   "attributes": {
    "OBJECTID": 425,
    "ولایت": "کاپيسا",
    "Province": "KAPISA",
    "PC_Code": "0201016",
    "District": "MAHMUDI RAQI",
    "د_مرکز_نوم__نام_مرکز": "منزل حاجی ثنا گل ",
    "Polling_Center_Name": "Haji Sana Gul House",
    "د_مرکز_ځای__موقعیت_مرکز": "کره تاز",
    "Polling_Center_Location": "Karataz",
    "Map_Accuracy": "Village",
    "Map_Accuracy_Dari": "قریه",
    "Status": "Open",
    "Status_Dari": null,
    "PS_Male": 1,
    "PS_Female": 2,
    "PS_Total": 3,
    "ولسوالي": "محمود راقی ",
    "Region": "Central Region"
   },
   "geometry": {
    "x": 7721966.2419514898,
    "y": 4168652.6251511858
   }
  },
  {
   "attributes": {
    "OBJECTID": 426,
    "ولایت": "کاپيسا",
    "Province": "KAPISA",
    "PC_Code": "0202025",
    "District": "HISSA-E-DUWUMI KOHISTAN",
    "د_مرکز_نوم__نام_مرکز": "دوکان های بازار مراد خواجه ",
    "Polling_Center_Name": "Dukan Haye Bazar Murad khwaja",
    "د_مرکز_ځای__موقعیت_مرکز": "بازار مراد خواجه ",
    "Polling_Center_Location": "Bazar Murad Khwaja",
    "Map_Accuracy": "Building",
    "Map_Accuracy_Dari": "تعمیر",
    "Status": "Open",
    "Status_Dari": null,
    "PS_Male": 2,
    "PS_Female": 1,
    "PS_Total": 3,
    "ولسوالي": "حصه دوم کوهستان",
    "Region": "Central Region"
   },
   "geometry": {
    "x": 7715876.2981458874,
    "y": 4171361.9841974736
   }
  },
  {
   "attributes": {
    "OBJECTID": 427,
    "ولایت": "کاپيسا",
    "Province": "KAPISA",
    "PC_Code": "0203067",
    "District": "KOH BAND",
    "د_مرکز_نوم__نام_مرکز": "لیسه اناث بولغین ",
    "Polling_Center_Name": "Bolaghen Girls High School ",
    "د_مرکز_ځای__موقعیت_مرکز": "عرب خیل ",
    "Polling_Center_Location": "Arab Khel",
    "Map_Accuracy": "Building",
    "Map_Accuracy_Dari": "تعمیر",
    "Status": "Open",
    "Status_Dari": null,
    "PS_Male": 3,
    "PS_Female": 1,
    "PS_Total": 4,
    "ولسوالي": "کوه بند",
    "Region": "Central Region"
   },
   "geometry": {
    "x": 7729653.6001898265,
    "y": 4177145.4800598836
   }
  },
  {
   "attributes": {
    "OBJECTID": 428,
    "ولایت": "کاپيسا",
    "Province": "KAPISA",
    "PC_Code": "0204035",
    "District": "HISSA-E-AWALI KOHISTAN",
    "د_مرکز_نوم__نام_مرکز": "مکتب متوسطه حقبین شهید",
    "Polling_Center_Name": "Haqbin Shaheed Secondry School ",
    "د_مرکز_ځای__موقعیت_مرکز": "باغچه لعلو",
    "Polling_Center_Location": "Baghcha Lalo ",
    "Map_Accuracy": "Building",
    "Map_Accuracy_Dari": "تعمیر",
    "Status": "Open",
    "Status_Dari": null,
    "PS_Male": 2,
    "PS_Female": 1,
    "PS_Total": 3,
    "ولسوالي": "حصه اول کوهستان ",
    "Region": "Central Region"
   },
   "geometry": {
    "x": 7719642.9612093102,
    "y": 4179039.041291595
   }
  },
  {
   "attributes": {
    "OBJECTID": 429,
    "ولایت": "کاپيسا",
    "Province": "KAPISA",
    "PC_Code": "0204036",
    "District": "HISSA-E-AWALI KOHISTAN",
    "د_مرکز_نوم__نام_مرکز": "مکتب ابتدائیه سنجن ",
    "Polling_Center_Name": "Sanjan Primary School ",
    "د_مرکز_ځای__موقعیت_مرکز": "سنجن ",
    "Polling_Center_Location": "Sanjan",
    "Map_Accuracy": "Building",
    "Map_Accuracy_Dari": "تعمیر",
    "Status": "Open",
    "Status_Dari": null,
    "PS_Male": 2,
    "PS_Female": 1,
    "PS_Total": 3,
    "ولسوالي": "حصه اول کوهستان ",
    "Region": "Central Region"
   },
   "geometry": {
    "x": 7721572.5086974157,
    "y": 4183273.6638898593
   }
  },
  {
   "attributes": {
    "OBJECTID": 430,
    "ولایت": "کاپيسا",
    "Province": "KAPISA",
    "PC_Code": "0205054",
    "District": "NIJRAB",
    "د_مرکز_نوم__نام_مرکز": "مسجد جامع ولسوالی",
    "Polling_Center_Name": "District Mosque",
    "د_مرکز_ځای__موقعیت_مرکز": "شیر وانی، مرکزولسوالی",
    "Polling_Center_Location": "Sheerwani, District Compound",
    "Map_Accuracy": "Building",
    "Map_Accuracy_Dari": "تعمیر",
    "Status": "Open",
    "Status_Dari": null,
    "PS_Male": 2,
    "PS_Female": 1,
    "PS_Total": 3,
    "ولسوالي": "نجراب ",
    "Region": "Central Region"
   },
   "geometry": {
    "x": 7747422.0532955118,
    "y": 4165940.2393827098
   }
  },
  {
   "attributes": {
    "OBJECTID": 431,
    "ولایت": "کاپيسا",
    "Province": "KAPISA",
    "PC_Code": "0205055",
    "District": "NIJRAB",
    "د_مرکز_نوم__نام_مرکز": "دو قومی",
    "Polling_Center_Name": "Do Qowmi",
    "د_مرکز_ځای__موقعیت_مرکز": " پجغا ن",
    "Polling_Center_Location": "Puchghan",
    "Map_Accuracy": "Village",
    "Map_Accuracy_Dari": "قریه",
    "Status": "Open",
    "Status_Dari": null,
    "PS_Male": 1,
    "PS_Female": 1,
    "PS_Total": 2,
    "ولسوالي": "نجراب ",
    "Region": "Central Region"
   },
   "geometry": {
    "x": 7760716.4914634069,
    "y": 4166989.8831428946
   }
  },
  {
   "attributes": {
    "OBJECTID": 432,
    "ولایت": "کاپيسا",
    "Province": "KAPISA",
    "PC_Code": "0206083",
    "District": "TAGAB",
    "د_مرکز_نوم__نام_مرکز": "مسجد جالو خیل",
    "Polling_Center_Name": "Jalo Khel Mosque",
    "د_مرکز_ځای__موقعیت_مرکز": "جا لو خیل",
    "Polling_Center_Location": "Jalo Khel",
    "Map_Accuracy": "Building",
    "Map_Accuracy_Dari": "تعمیر",
    "Status": "Open",
    "Status_Dari": null,
    "PS_Male": 3,
    "PS_Female": 1,
    "PS_Total": 4,
    "ولسوالي": "تگاب ",
    "Region": "Central Region"
   },
   "geometry": {
    "x": 7751868.4866030719,
    "y": 4148558.4504240179
   }
  },
  {
   "attributes": {
    "OBJECTID": 433,
    "ولایت": "کاپيسا",
    "Province": "KAPISA",
    "PC_Code": "0206084",
    "District": "TAGAB",
    "د_مرکز_نوم__نام_مرکز": "متو سطه آغاشیرین",
    "Polling_Center_Name": "Agha Shareen Secondary School",
    "د_مرکز_ځای__موقعیت_مرکز": " قریه شین کی",
    "Polling_Center_Location": "Sheenki  Village",
    "Map_Accuracy": "Building",
    "Map_Accuracy_Dari": "تعمیر",
    "Status": "Open",
    "Status_Dari": null,
    "PS_Male": 4,
    "PS_Female": 0,
    "PS_Total": 4,
    "ولسوالي": "تگاب ",
    "Region": "Central Region"
   },
   "geometry": {
    "x": 7756818.3266855106,
    "y": 4126354.1945399903
   }
  },
  {
   "attributes": {
    "OBJECTID": 434,
    "ولایت": "کاپيسا",
    "Province": "KAPISA",
    "PC_Code": "0201005",
    "District": "MAHMUDI RAQI",
    "د_مرکز_نوم__نام_مرکز": "مسجد قلعه سفید",
    "Polling_Center_Name": "Qala-e-Safid Mosque",
    "د_مرکز_ځای__موقعیت_مرکز": "قلعه سفید",
    "Polling_Center_Location": "Qala-e-Safid ",
    "Map_Accuracy": "Building",
    "Map_Accuracy_Dari": "تعمیر",
    "Status": "Open",
    "Status_Dari": null,
    "PS_Male": 4,
    "PS_Female": 1,
    "PS_Total": 5,
    "ولسوالي": "محمود راقی ",
    "Region": "Central Region"
   },
   "geometry": {
    "x": 7719495.7645598268,
    "y": 4167842.0603183056
   }
  },
  {
   "attributes": {
    "OBJECTID": 435,
    "ولایت": "خوست",
    "Province": "KHOST",
    "PC_Code": "1404181",
    "District": "TANAY",
    "د_مرکز_نوم__نام_مرکز": "حاجي نيک محمد کلي ښونځې",
    "Polling_Center_Name": "Haji nik muhammad village School",
    "د_مرکز_ځای__موقعیت_مرکز": "نيک محمد کلى",
    "Polling_Center_Location": "Nik muhammad village",
    "Map_Accuracy": "Building",
    "Map_Accuracy_Dari": "تعمیر",
    "Status": "Open",
    "Status_Dari": null,
    "PS_Male": 2,
    "PS_Female": 1,
    "PS_Total": 3,
    "ولسوالي": "تنی",
    "Region": "South Eastern Region"
   },
   "geometry": {
    "x": 7768607.776990124,
    "y": 3929080.8665798898
   }
  },
  {
   "attributes": {
    "OBJECTID": 436,
    "ولایت": "بادغيس",
    "Province": "BADGHIS",
    "PC_Code": "3106201",
    "District": "JAWAND",
    "د_مرکز_نوم__نام_مرکز": "مسجد تخلنگه",
    "Polling_Center_Name": "Takhlanga Mosque",
    "د_مرکز_ځای__موقعیت_مرکز": "تخلنگه",
    "Polling_Center_Location": "Takhlanga",
    "Map_Accuracy": "Building",
    "Map_Accuracy_Dari": "تعمیر",
    "Status": "Open",
    "Status_Dari": null,
    "PS_Male": 2,
    "PS_Female": 1,
    "PS_Total": 3,
    "ولسوالي": "جوند",
    "Region": "Western Region"
   },
   "geometry": {
    "x": 7161958.0865819873,
    "y": 4152732.7213149662
   }
  },
  {
   "attributes": {
    "OBJECTID": 437,
    "ولایت": "هرات",
    "Province": "HERAT",
    "PC_Code": "3201471",
    "District": "DISTRICT_12",
    "د_مرکز_نوم__نام_مرکز": "مسجد جامع جبرئيل",
    "Polling_Center_Name": "Jebariel Mosque",
    "د_مرکز_ځای__موقعیت_مرکز": "مسجد جامع جبرئيل",
    "Polling_Center_Location": "Jebraiel Mosque",
    "Map_Accuracy": "Building",
    "Map_Accuracy_Dari": "تعمیر",
    "Status": "Open",
    "Status_Dari": null,
    "PS_Male": 2,
    "PS_Female": 2,
    "PS_Total": 4,
    "ولسوالي": "ناحیه_12",
    "Region": "Western Region"
   },
   "geometry": {
    "x": 6917907.6045567608,
    "y": 4079109.3883087509
   }
  },
  {
   "attributes": {
    "OBJECTID": 438,
    "ولایت": "کابل",
    "Province": "KABUL",
    "PC_Code": "0115551",
    "District": "Surbi",
    "د_مرکز_نوم__نام_مرکز": "لیسه تهزین عام جروبی",
    "Polling_Center_Name": "Tahzin am jarobe High school",
    "د_مرکز_ځای__موقعیت_مرکز": "جروبی",
    "Polling_Center_Location": "Jarobi",
    "Map_Accuracy": "Building",
    "Map_Accuracy_Dari": "تعمیر",
    "Status": "Open",
    "Status_Dari": null,
    "PS_Male": 2,
    "PS_Female": 1,
    "PS_Total": 3,
    "ولسوالي": "سروبی",
    "Region": "Central Region"
   },
   "geometry": {
    "x": 7749992.7729980759,
    "y": 4076916.8308237991
   }
  },
  {
   "attributes": {
    "OBJECTID": 439,
    "ولایت": "کابل",
    "Province": "KABUL",
    "PC_Code": "0115552",
    "District": "Surbi",
    "د_مرکز_نوم__نام_مرکز": "مکتب وکه خاص",
    "Polling_Center_Name": "Waka khas School",
    "د_مرکز_ځای__موقعیت_مرکز": "وکه خاص",
    "Polling_Center_Location": "Waka khas",
    "Map_Accuracy": "Building",
    "Map_Accuracy_Dari": "تعمیر",
    "Status": "Open",
    "Status_Dari": null,
    "PS_Male": 2,
    "PS_Female": 1,
    "PS_Total": 3,
    "ولسوالي": "سروبی",
    "Region": "Central Region"
   },
   "geometry": {
    "x": 7765635.5428010765,
    "y": 4114749.0729990802
   }
  },
  {
   "attributes": {
    "OBJECTID": 440,
    "ولایت": "بغلان",
    "Province": "BAGHLAN",
    "PC_Code": "0911279",
    "District": "Tala wa Barfak",
    "د_مرکز_نوم__نام_مرکز": "مسجد کلوله سنگ",
    "Polling_Center_Name": "Klola sang Mosque",
    "د_مرکز_ځای__موقعیت_مرکز": "کلوله سنگ",
    "Polling_Center_Location": "Klola sang",
    "Map_Accuracy": "Building",
    "Map_Accuracy_Dari": "تعمیر",
    "Status": "Open",
    "Status_Dari": null,
    "PS_Male": 2,
    "PS_Female": 1,
    "PS_Total": 3,
    "ولسوالي": "تاله وبرفک",
    "Region": "North Eastern Region"
   },
   "geometry": {
    "x": 7614048.3844756261,
    "y": 4217042.5203810968
   }
  },
  {
   "attributes": {
    "OBJECTID": 441,
    "ولایت": "تخار",
    "Province": "TAKHAR",
    "PC_Code": "1812212",
    "District": "DASHT-E-QALA",
    "د_مرکز_نوم__نام_مرکز": "لیسه آی خانم",
    "Polling_Center_Name": "Ai khanum High school",
    "د_مرکز_ځای__موقعیت_مرکز": "آی خانم",
    "Polling_Center_Location": "Ai khanum",
    "Map_Accuracy": "Building",
    "Map_Accuracy_Dari": "تعمیر",
    "Status": "Open",
    "Status_Dari": null,
    "PS_Male": 2,
    "PS_Female": 1,
    "PS_Total": 3,
    "ولسوالي": "دشت قلعه",
    "Region": "North Eastern Region"
   },
   "geometry": {
    "x": 7729107.5124089839,
    "y": 4462652.564009252
   }
  },
  {
   "attributes": {
    "OBJECTID": 442,
    "ولایت": "تخار",
    "Province": "TAKHAR",
    "PC_Code": "1813213",
    "District": "WARSAJ",
    "د_مرکز_نوم__نام_مرکز": "مکتب متوسطه",
    "Polling_Center_Name": "Secondary School",
    "د_مرکز_ځای__موقعیت_مرکز": "ترشت",
    "Polling_Center_Location": "Trsht",
    "Map_Accuracy": "Building",
    "Map_Accuracy_Dari": "تعمیر",
    "Status": "Open",
    "Status_Dari": null,
    "PS_Male": 2,
    "PS_Female": 1,
    "PS_Total": 3,
    "ولسوالي": "ورسج",
    "Region": "North Eastern Region"
   },
   "geometry": {
    "x": 7778946.1590305679,
    "y": 4329075.1797715127
   }
  },
  {
   "attributes": {
    "OBJECTID": 443,
    "ولایت": "غور",
    "Province": "GHOR",
    "PC_Code": "2301239",
    "District": "CHIGHCHERAN",
    "د_مرکز_نوم__نام_مرکز": "مسجد شاخ ملان",
    "Polling_Center_Name": "Shakh malan Mosque",
    "د_مرکز_ځای__موقعیت_مرکز": "شاخ ملان،چشمه سکینه",
    "Polling_Center_Location": "Shakh malan_Cheshma sakina",
    "Map_Accuracy": "Building",
    "Map_Accuracy_Dari": "تعمیر",
    "Status": "Open",
    "Status_Dari": null,
    "PS_Male": 2,
    "PS_Female": 1,
    "PS_Total": 3,
    "ولسوالي": "چغچران",
    "Region": "Western Region"
   },
   "geometry": {
    "x": 7202726.9665592443,
    "y": 4105148.8135224241
   }
  },
  {
   "attributes": {
    "OBJECTID": 444,
    "ولایت": "بغلان",
    "Province": "BAGHLAN",
    "PC_Code": "0907122",
    "District": "ANDARAB",
    "د_مرکز_نوم__نام_مرکز": "مسجد جامع کشن آباد ",
    "Polling_Center_Name": "Keshan Abad Village Mosque",
    "د_مرکز_ځای__موقعیت_مرکز": "مرکز کشن آباد",
    "Polling_Center_Location": "Keshan Abad Village",
    "Map_Accuracy": "Building",
    "Map_Accuracy_Dari": "تعمیر",
    "Status": "Open",
    "Status_Dari": null,
    "PS_Male": 3,
    "PS_Female": 1,
    "PS_Total": 4,
    "ولسوالي": "اندراب",
    "Region": "North Eastern Region"
   },
   "geometry": {
    "x": 7704755.0390772652,
    "y": 4248187.7079071971
   }
  },
  {
   "attributes": {
    "OBJECTID": 445,
    "ولایت": "بغلان",
    "Province": "BAGHLAN",
    "PC_Code": "0907123",
    "District": "ANDARAB",
    "د_مرکز_نوم__نام_مرکز": "لیسه زکور بنو ",
    "Polling_Center_Name": "Beno Boys School",
    "د_مرکز_ځای__موقعیت_مرکز": "شهر بنو",
    "Polling_Center_Location": "Center of Bano City",
    "Map_Accuracy": "Building",
    "Map_Accuracy_Dari": "تعمیر",
    "Status": "Open",
    "Status_Dari": null,
    "PS_Male": 3,
    "PS_Female": 2,
    "PS_Total": 5,
    "ولسوالي": "اندراب",
    "Region": "North Eastern Region"
   },
   "geometry": {
    "x": 7709703.7459272807,
    "y": 4250365.8555705063
   }
  },
  {
   "attributes": {
    "OBJECTID": 446,
    "ولایت": "بغلان",
    "Province": "BAGHLAN",
    "PC_Code": "0910247",
    "District": "BURKA",
    "د_مرکز_نوم__نام_مرکز": "مکتب نو آباد دشت فلول ",
    "Polling_Center_Name": "Naw Abad School",
    "د_مرکز_ځای__موقعیت_مرکز": "دشت فلول",
    "Polling_Center_Location": "Folol Dasht",
    "Map_Accuracy": "Building",
    "Map_Accuracy_Dari": "تعمیر",
    "Status": "Open",
    "Status_Dari": null,
    "PS_Male": 2,
    "PS_Female": 1,
    "PS_Total": 3,
    "ولسوالي": "برکه",
    "Region": "North Eastern Region"
   },
   "geometry": {
    "x": 7703783.495994973,
    "y": 4333809.4472448649
   }
  },
  {
   "attributes": {
    "OBJECTID": 447,
    "ولایت": "بغلان",
    "Province": "BAGHLAN",
    "PC_Code": "0910248",
    "District": "BURKA",
    "د_مرکز_نوم__نام_مرکز": "مکتب تاش  چشمه ",
    "Polling_Center_Name": "Tash Cheshma",
    "د_مرکز_ځای__موقعیت_مرکز": "قرچه و تاش چشمه",
    "Polling_Center_Location": "Qarcha and Tash Cheshma",
    "Map_Accuracy": "Building",
    "Map_Accuracy_Dari": "تعمیر",
    "Status": "Open",
    "Status_Dari": null,
    "PS_Male": 2,
    "PS_Female": 1,
    "PS_Total": 3,
    "ولسوالي": "برکه",
    "Region": "North Eastern Region"
   },
   "geometry": {
    "x": 7693843.5682682069,
    "y": 4348116.5594530404
   }
  },
  {
   "attributes": {
    "OBJECTID": 448,
    "ولایت": "بغلان",
    "Province": "BAGHLAN",
    "PC_Code": "0911165",
    "District": "TALA WA BARFAK",
    "د_مرکز_نوم__نام_مرکز": "مدرسه  پشته قره",
    "Polling_Center_Name": "Poshta Qara Madrassa",
    "د_مرکز_ځای__موقعیت_مرکز": "پشته قره",
    "Polling_Center_Location": "Poshta Qara",
    "Map_Accuracy": "Building",
    "Map_Accuracy_Dari": "تعمیر",
    "Status": "Open",
    "Status_Dari": null,
    "PS_Male": 2,
    "PS_Female": 1,
    "PS_Total": 3,
    "ولسوالي": "تاله و برفک",
    "Region": "North Eastern Region"
   },
   "geometry": {
    "x": 7587179.527597988,
    "y": 4212197.4225691548
   }
  },
  {
   "attributes": {
    "OBJECTID": 449,
    "ولایت": "بغلان",
    "Province": "BAGHLAN",
    "PC_Code": "0911166",
    "District": "TALA WA BARFAK",
    "د_مرکز_نوم__نام_مرکز": "مکتب انگار ",
    "Polling_Center_Name": "Angar School",
    "د_مرکز_ځای__موقعیت_مرکز": "انگار",
    "Polling_Center_Location": "Angar",
    "Map_Accuracy": "Building",
    "Map_Accuracy_Dari": "تعمیر",
    "Status": "Open",
    "Status_Dari": null,
    "PS_Male": 1,
    "PS_Female": 1,
    "PS_Total": 2,
    "ولسوالي": "تاله و برفک",
    "Region": "North Eastern Region"
   },
   "geometry": {
    "x": 7607766.8829808263,
    "y": 4218064.7581494059
   }
  },
  {
   "attributes": {
    "OBJECTID": 450,
    "ولایت": "بغلان",
    "Province": "BAGHLAN",
    "PC_Code": "0911171",
    "District": "TALA WA BARFAK",
    "د_مرکز_نوم__نام_مرکز": "مسجد امیر نازیه",
    "Polling_Center_Name": "Amir Nazia Mosque",
    "د_مرکز_ځای__موقعیت_مرکز": "دهنه رشقآب",
    "Polling_Center_Location": "Dahana Rashqab",
    "Map_Accuracy": "Building",
    "Map_Accuracy_Dari": "تعمیر",
    "Status": "Open",
    "Status_Dari": null,
    "PS_Male": 1,
    "PS_Female": 1,
    "PS_Total": 2,
    "ولسوالي": "تاله و برفک",
    "Region": "North Eastern Region"
   },
   "geometry": {
    "x": 7575147.9734309101,
    "y": 4176720.8920906591
   }
  },
  {
   "attributes": {
    "OBJECTID": 451,
    "ولایت": "بغلان",
    "Province": "BAGHLAN",
    "PC_Code": "0911172",
    "District": "TALA WA BARFAK",
    "د_مرکز_نوم__نام_مرکز": "مسجد جامع ترمش",
    "Polling_Center_Name": "Tarmesh Mosque",
    "د_مرکز_ځای__موقعیت_مرکز": "ترمش",
    "Polling_Center_Location": "Termesh",
    "Map_Accuracy": "Building",
    "Map_Accuracy_Dari": "تعمیر",
    "Status": "Open",
    "Status_Dari": null,
    "PS_Male": 1,
    "PS_Female": 1,
    "PS_Total": 2,
    "ولسوالي": "تاله و برفک",
    "Region": "North Eastern Region"
   },
   "geometry": {
    "x": 7602035.1125311581,
    "y": 4236473.9475564407
   }
  },
  {
   "attributes": {
    "OBJECTID": 452,
    "ولایت": "بغلان",
    "Province": "BAGHLAN",
    "PC_Code": "0913205",
    "District": "KHOST WA FIRING",
    "د_مرکز_نوم__نام_مرکز": "مکتب متوسطه کنجک",
    "Polling_Center_Name": "Konjak Secondary School",
    "د_مرکز_ځای__موقعیت_مرکز": "کنجک",
    "Polling_Center_Location": "Konjak",
    "Map_Accuracy": "Building",
    "Map_Accuracy_Dari": "تعمیر",
    "Status": "Open",
    "Status_Dari": null,
    "PS_Male": 1,
    "PS_Female": 1,
    "PS_Total": 2,
    "ولسوالي": "خوست و فرنگ",
    "Region": "North Eastern Region"
   },
   "geometry": {
    "x": 7752199.151131724,
    "y": 4296747.6087006303
   }
  },
  {
   "attributes": {
    "OBJECTID": 453,
    "ولایت": "کاپيسا",
    "Province": "KAPISA",
    "PC_Code": "0201006",
    "District": "MAHMUDI RAQI",
    "د_مرکز_نوم__نام_مرکز": "لیسه خال محمد",
    "Polling_Center_Name": "Khal Mohammad High School ",
    "د_مرکز_ځای__موقعیت_مرکز": "نوآباد",
    "Polling_Center_Location": "Now Abad",
    "Map_Accuracy": "Building",
    "Map_Accuracy_Dari": "تعمیر",
    "Status": "Open",
    "Status_Dari": null,
    "PS_Male": 4,
    "PS_Female": 1,
    "PS_Total": 5,
    "ولسوالي": "محمود راقی ",
    "Region": "Central Region"
   },
   "geometry": {
    "x": 7723962.3633931493,
    "y": 4173429.0985446363
   }
  },
  {
   "attributes": {
    "OBJECTID": 454,
    "ولایت": "غزنى",
    "Province": "GHAZNI",
    "PC_Code": "1105067",
    "District": "DEH YAK",
    "د_مرکز_نوم__نام_مرکز": "مسجد رباط زد زریل",
    "Polling_Center_Name": "Rubat Zed-e-Zareel Mosque",
    "د_مرکز_ځای__موقعیت_مرکز": "رباط زد زریل",
    "Polling_Center_Location": "Rubat Zed-e-Zareel ",
    "Map_Accuracy": "Village",
    "Map_Accuracy_Dari": "قریه",
    "Status": "Open",
    "Status_Dari": null,
    "PS_Male": 2,
    "PS_Female": 1,
    "PS_Total": 3,
    "ولسوالي": "ده یک",
    "Region": "South Eastern Region"
   },
   "geometry": {
    "x": 7647654.1214965507,
    "y": 3970937.1116711912
   }
  },
  {
   "attributes": {
    "OBJECTID": 455,
    "ولایت": "غزنى",
    "Province": "GHAZNI",
    "PC_Code": "1106108",
    "District": "JAGHATU",
    "د_مرکز_نوم__نام_مرکز": "مسجد ده رمزی",
    "Polling_Center_Name": "Deh Ramzi Mosque",
    "د_مرکز_ځای__موقعیت_مرکز": "ده رمزی",
    "Polling_Center_Location": "Deh Ramzi",
    "Map_Accuracy": "Building",
    "Map_Accuracy_Dari": "تعمیر",
    "Status": "Open",
    "Status_Dari": null,
    "PS_Male": 3,
    "PS_Female": 0,
    "PS_Total": 3,
    "ولسوالي": "جغتو",
    "Region": "South Eastern Region"
   },
   "geometry": {
    "x": 7588535.4902778352,
    "y": 3980472.1438379576
   }
  },
  {
   "attributes": {
    "OBJECTID": 456,
    "ولایت": "غزنى",
    "Province": "GHAZNI",
    "PC_Code": "1106109",
    "District": "JAGHATU",
    "د_مرکز_نوم__نام_مرکز": "مهمان خانه عبدالحسین",
    "Polling_Center_Name": "Abdul Hussain Guest House",
    "د_مرکز_ځای__موقعیت_مرکز": "ده رمزی",
    "Polling_Center_Location": "Deh Ramzi",
    "Map_Accuracy": "Village",
    "Map_Accuracy_Dari": "قریه",
    "Status": "Open",
    "Status_Dari": null,
    "PS_Male": 0,
    "PS_Female": 3,
    "PS_Total": 3,
    "ولسوالي": "جغتو",
    "Region": "South Eastern Region"
   },
   "geometry": {
    "x": 7588552.1414472712,
    "y": 3980405.1631155405
   }
  },
  {
   "attributes": {
    "OBJECTID": 457,
    "ولایت": "غزنى",
    "Province": "GHAZNI",
    "PC_Code": "1106118",
    "District": "JAGHATU",
    "د_مرکز_نوم__نام_مرکز": "مسجد کهنه ده شاشی",
    "Polling_Center_Name": "Deh Shashi Old Mosque",
    "د_مرکز_ځای__موقعیت_مرکز": "ده شاشی",
    "Polling_Center_Location": "Deh Shahshi",
    "Map_Accuracy": "Village",
    "Map_Accuracy_Dari": "قریه",
    "Status": "Open",
    "Status_Dari": null,
    "PS_Male": 0,
    "PS_Female": 3,
    "PS_Total": 3,
    "ولسوالي": "جغتو",
    "Region": "South Eastern Region"
   },
   "geometry": {
    "x": 7584711.3863571612,
    "y": 3968053.1122916364
   }
  },
  {
   "attributes": {
    "OBJECTID": 458,
    "ولایت": "غزنى",
    "Province": "GHAZNI",
    "PC_Code": "1107230",
    "District": "ANDAR",
    "د_مرکز_نوم__نام_مرکز": "مکتب سلطان شهاب الدین اندړ",
    "Polling_Center_Name": "Sultan Shahabuddin Andar School",
    "د_مرکز_ځای__موقعیت_مرکز": "بازار میری ",
    "Polling_Center_Location": "Meeri Bazar",
    "Map_Accuracy": "Building",
    "Map_Accuracy_Dari": "تعمیر",
    "Status": "Open",
    "Status_Dari": null,
    "PS_Male": 1,
    "PS_Female": 2,
    "PS_Total": 3,
    "ولسوالي": "اندر",
    "Region": "South Eastern Region"
   },
   "geometry": {
    "x": 7619034.1253164811,
    "y": 3938300.920271534
   }
  },
  {
   "attributes": {
    "OBJECTID": 459,
    "ولایت": "غزنى",
    "Province": "GHAZNI",
    "PC_Code": "1107231",
    "District": "ANDAR",
    "د_مرکز_نوم__نام_مرکز": "مسجد قریه میدادوال",
    "Polling_Center_Name": "Medadwal Village Mosque",
    "د_مرکز_ځای__موقعیت_مرکز": "قریه میداد وال",
    "Polling_Center_Location": "Medadwal Village",
    "Map_Accuracy": "Village",
    "Map_Accuracy_Dari": "قریه",
    "Status": "Open",
    "Status_Dari": null,
    "PS_Male": 3,
    "PS_Female": 0,
    "PS_Total": 3,
    "ولسوالي": "اندر",
    "Region": "South Eastern Region"
   },
   "geometry": {
    "x": 7617864.6383684445,
    "y": 3930939.9361986592
   }
  },
  {
   "attributes": {
    "OBJECTID": 460,
    "ولایت": "ننگرهار",
    "Province": "NANGARHAR",
    "PC_Code": "0609449",
    "District": "BATI KOT",
    "د_مرکز_نوم__نام_مرکز": "ګندياني جومات",
    "Polling_Center_Name": "Gandyani Mosque",
    "د_مرکز_ځای__موقعیت_مرکز": "ګندياني",
    "Polling_Center_Location": "Gandyani",
    "Map_Accuracy": "Village",
    "Map_Accuracy_Dari": "قریه",
    "Status": "Open",
    "Status_Dari": null,
    "PS_Male": 2,
    "PS_Female": 1,
    "PS_Total": 3,
    "ولسوالي": "بټي کوټ",
    "Region": "Eastern Region"
   },
   "geometry": {
    "x": 7878098.1612001639,
    "y": 4070680.3414843027
   }
  },
  {
   "attributes": {
    "OBJECTID": 461,
    "ولایت": "ننگرهار",
    "Province": "NANGARHAR",
    "PC_Code": "0610327",
    "District": "DEH BALA",
    "د_مرکز_نوم__نام_مرکز": "ده بالا ليسه",
    "Polling_Center_Name": "Deh Bala High School",
    "د_مرکز_ځای__موقعیت_مرکز": "کوټوال",
    "Polling_Center_Location": "Kotwal",
    "Map_Accuracy": "Building",
    "Map_Accuracy_Dari": "تعمیر",
    "Status": "Open",
    "Status_Dari": null,
    "PS_Male": 4,
    "PS_Female": 2,
    "PS_Total": 6,
    "ولسوالي": "ده بالا",
    "Region": "Eastern Region"
   },
   "geometry": {
    "x": 7843909.6201133849,
    "y": 4044701.57537892
   }
  },
  {
   "attributes": {
    "OBJECTID": 462,
    "ولایت": "ننگرهار",
    "Province": "NANGARHAR",
    "PC_Code": "0611307",
    "District": "PACHIR WAGAM",
    "د_مرکز_نوم__نام_مرکز": "پچير اګام مکتب",
    "Polling_Center_Name": "Pacheer Agam School",
    "د_مرکز_ځای__موقعیت_مرکز": "مورکۍ",
    "Polling_Center_Location": "Morkay",
    "Map_Accuracy": "Village",
    "Map_Accuracy_Dari": "قریه",
    "Status": "Open",
    "Status_Dari": null,
    "PS_Male": 2,
    "PS_Female": 0,
    "PS_Total": 2,
    "ولسوالي": "پچیر و اګام",
    "Region": "Eastern Region"
   },
   "geometry": {
    "x": 7821301.0879431842,
    "y": 4052916.6849641642
   }
  },
  {
   "attributes": {
    "OBJECTID": 463,
    "ولایت": "ننگرهار",
    "Province": "NANGARHAR",
    "PC_Code": "0612215",
    "District": "DARAH-E-NOOR",
    "د_مرکز_نوم__نام_مرکز": "کوز کلی جومات",
    "Polling_Center_Name": "Koz Kalay Mosque",
    "د_مرکز_ځای__موقعیت_مرکز": "امله",
    "Polling_Center_Location": "Amla",
    "Map_Accuracy": "Village",
    "Map_Accuracy_Dari": "قریه",
    "Status": "Open",
    "Status_Dari": null,
    "PS_Male": 3,
    "PS_Female": 2,
    "PS_Total": 5,
    "ولسوالي": "دره نور",
    "Region": "Eastern Region"
   },
   "geometry": {
    "x": 7859198.2066962859,
    "y": 4112962.3250246141
   }
  },
  {
   "attributes": {
    "OBJECTID": 464,
    "ولایت": "ننگرهار",
    "Province": "NANGARHAR",
    "PC_Code": "0612216",
    "District": "DARAH-E-NOOR",
    "د_مرکز_نوم__نام_مرکز": "د انجونو منځنی ښوونځی",
    "Polling_Center_Name": "Girls Secondary School",
    "د_مرکز_ځای__موقعیت_مرکز": "امله",
    "Polling_Center_Location": "Amla",
    "Map_Accuracy": "Building",
    "Map_Accuracy_Dari": "تعمیر",
    "Status": "Open",
    "Status_Dari": null,
    "PS_Male": 2,
    "PS_Female": 1,
    "PS_Total": 3,
    "ولسوالي": "دره نور",
    "Region": "Eastern Region"
   },
   "geometry": {
    "x": 7858725.1300298702,
    "y": 4113908.388677469
   }
  },
  {
   "attributes": {
    "OBJECTID": 465,
    "ولایت": "ننگرهار",
    "Province": "NANGARHAR",
    "PC_Code": "0612218",
    "District": "DARAH-E-NOOR",
    "د_مرکز_نوم__نام_مرکز": "جينکو مکتب",
    "Polling_Center_Name": "Girls School",
    "د_مرکز_ځای__موقعیت_مرکز": "قلاې شاهې",
    "Polling_Center_Location": "Qalay Shahee",
    "Map_Accuracy": "Building",
    "Map_Accuracy_Dari": "تعمیر",
    "Status": "Open",
    "Status_Dari": null,
    "PS_Male": 0,
    "PS_Female": 2,
    "PS_Total": 2,
    "ولسوالي": "دره نور",
    "Region": "Eastern Region"
   },
   "geometry": {
    "x": 7858043.7044649031,
    "y": 4116807.2111701728
   }
  },
  {
   "attributes": {
    "OBJECTID": 466,
    "ولایت": "ننگرهار",
    "Province": "NANGARHAR",
    "PC_Code": "0612219",
    "District": "DARAH-E-NOOR",
    "د_مرکز_نوم__نام_مرکز": "هلکانو قلعه شاهی لیسه ",
    "Polling_Center_Name": "Qala-e- Shahee Boys High School",
    "د_مرکز_ځای__موقعیت_مرکز": "قلاې شاهې",
    "Polling_Center_Location": "Qalay Shahee",
    "Map_Accuracy": "Building",
    "Map_Accuracy_Dari": "تعمیر",
    "Status": "Open",
    "Status_Dari": null,
    "PS_Male": 3,
    "PS_Female": 0,
    "PS_Total": 3,
    "ولسوالي": "دره نور",
    "Region": "Eastern Region"
   },
   "geometry": {
    "x": 7858284.6911249636,
    "y": 4116038.1888826778
   }
  },
  {
   "attributes": {
    "OBJECTID": 467,
    "ولایت": "ننگرهار",
    "Province": "NANGARHAR",
    "PC_Code": "0612221",
    "District": "DARAH-E-NOOR",
    "د_مرکز_نوم__نام_مرکز": "شهید محمود شاه متوسطه",
    "Polling_Center_Name": "Shaheed Mahmood Shah Secondary School",
    "د_مرکز_ځای__موقعیت_مرکز": "سفرکلا",
    "Polling_Center_Location": "Safar Kala",
    "Map_Accuracy": "Building",
    "Map_Accuracy_Dari": "تعمیر",
    "Status": "Open",
    "Status_Dari": null,
    "PS_Male": 2,
    "PS_Female": 1,
    "PS_Total": 3,
    "ولسوالي": "دره نور",
    "Region": "Eastern Region"
   },
   "geometry": {
    "x": 7856485.5032133535,
    "y": 4122548.3100454682
   }
  },
  {
   "attributes": {
    "OBJECTID": 468,
    "ولایت": "ننگرهار",
    "Province": "NANGARHAR",
    "PC_Code": "0612222",
    "District": "DARAH-E-NOOR",
    "د_مرکز_نوم__نام_مرکز": "لمه ټک جومات",
    "Polling_Center_Name": "Lama Tak Mosque",
    "د_مرکز_ځای__موقعیت_مرکز": "لمه ټک",
    "Polling_Center_Location": "Lama Tak",
    "Map_Accuracy": "Village",
    "Map_Accuracy_Dari": "قریه",
    "Status": "Open",
    "Status_Dari": null,
    "PS_Male": 1,
    "PS_Female": 1,
    "PS_Total": 2,
    "ولسوالي": "دره نور",
    "Region": "Eastern Region"
   },
   "geometry": {
    "x": 7861368.3156039966,
    "y": 4125963.4143652893
   }
  },
  {
   "attributes": {
    "OBJECTID": 469,
    "ولایت": "ننگرهار",
    "Province": "NANGARHAR",
    "PC_Code": "0612224",
    "District": "DARAH-E-NOOR",
    "د_مرکز_نوم__نام_مرکز": "حسن او سرور شاه دیره",
    "Polling_Center_Name": "Hassan and Sarwar Shah Dera",
    "د_مرکز_ځای__موقعیت_مرکز": "شوکالۍ",
    "Polling_Center_Location": "Shokalay",
    "Map_Accuracy": "Village",
    "Map_Accuracy_Dari": "قریه",
    "Status": "Open",
    "Status_Dari": null,
    "PS_Male": 2,
    "PS_Female": 1,
    "PS_Total": 3,
    "ولسوالي": "دره نور",
    "Region": "Eastern Region"
   },
   "geometry": {
    "x": 7858687.0810279176,
    "y": 4121007.6041746968
   }
  },
  {
   "attributes": {
    "OBJECTID": 470,
    "ولایت": "ننگرهار",
    "Province": "NANGARHAR",
    "PC_Code": "0612225",
    "District": "DARAH-E-NOOR",
    "د_مرکز_نوم__نام_مرکز": "عمر قلا جومات",
    "Polling_Center_Name": "Umar Qala Mosque",
    "د_مرکز_ځای__موقعیت_مرکز": "عمر قلا",
    "Polling_Center_Location": "Omar Qala",
    "Map_Accuracy": "Village",
    "Map_Accuracy_Dari": "قریه",
    "Status": "Open",
    "Status_Dari": null,
    "PS_Male": 1,
    "PS_Female": 1,
    "PS_Total": 2,
    "ولسوالي": "دره نور",
    "Region": "Eastern Region"
   },
   "geometry": {
    "x": 7859771.0044757472,
    "y": 4122283.5737506459
   }
  },
  {
   "attributes": {
    "OBJECTID": 471,
    "ولایت": "ننگرهار",
    "Province": "NANGARHAR",
    "PC_Code": "0612229",
    "District": "DARAH-E-NOOR",
    "د_مرکز_نوم__نام_مرکز": "شيمول ميدان",
    "Polling_Center_Name": "Shemol Maidan",
    "د_مرکز_ځای__موقعیت_مرکز": "شېمول",
    "Polling_Center_Location": "Shemol",
    "Map_Accuracy": "Village",
    "Map_Accuracy_Dari": "قریه",
    "Status": "Open",
    "Status_Dari": null,
    "PS_Male": 1,
    "PS_Female": 2,
    "PS_Total": 3,
    "ولسوالي": "دره نور",
    "Region": "Eastern Region"
   },
   "geometry": {
    "x": 7859841.5543162283,
    "y": 4128294.1834001462
   }
  },
  {
   "attributes": {
    "OBJECTID": 472,
    "ولایت": "ننگرهار",
    "Province": "NANGARHAR",
    "PC_Code": "0612230",
    "District": "DARAH-E-NOOR",
    "د_مرکز_نوم__نام_مرکز": "وايګل ميدان",
    "Polling_Center_Name": "Waygal Maidan",
    "د_مرکز_ځای__موقعیت_مرکز": "واېګل",
    "Polling_Center_Location": "Waygal",
    "Map_Accuracy": "Village",
    "Map_Accuracy_Dari": "قریه",
    "Status": "Open",
    "Status_Dari": null,
    "PS_Male": 2,
    "PS_Female": 1,
    "PS_Total": 3,
    "ولسوالي": "دره نور",
    "Region": "Eastern Region"
   },
   "geometry": {
    "x": 7853961.1400637012,
    "y": 4126986.1159643526
   }
  },
  {
   "attributes": {
    "OBJECTID": 473,
    "ولایت": "ننگرهار",
    "Province": "NANGARHAR",
    "PC_Code": "0612232",
    "District": "DARAH-E-NOOR",
    "د_مرکز_نوم__نام_مرکز": "وتران مکتب",
    "Polling_Center_Name": "Watran School",
    "د_مرکز_ځای__موقعیت_مرکز": "وتران",
    "Polling_Center_Location": "Watran",
    "Map_Accuracy": "Village",
    "Map_Accuracy_Dari": "قریه",
    "Status": "Open",
    "Status_Dari": null,
    "PS_Male": 1,
    "PS_Female": 1,
    "PS_Total": 2,
    "ولسوالي": "دره نور",
    "Region": "Eastern Region"
   },
   "geometry": {
    "x": 7862510.6383698862,
    "y": 4126294.6635144581
   }
  },
  {
   "attributes": {
    "OBJECTID": 474,
    "ولایت": "ننگرهار",
    "Province": "NANGARHAR",
    "PC_Code": "0614485",
    "District": "GOSHTA",
    "د_مرکز_نوم__نام_مرکز": "کوداخيل جومات",
    "Polling_Center_Name": "Koda Khel Mosque",
    "د_مرکز_ځای__موقعیت_مرکز": "اړخۍ",
    "Polling_Center_Location": "Arkhai",
    "Map_Accuracy": "Village",
    "Map_Accuracy_Dari": "قریه",
    "Status": "Open",
    "Status_Dari": null,
    "PS_Male": 0,
    "PS_Female": 2,
    "PS_Total": 2,
    "ولسوالي": "ګوشته",
    "Region": "Eastern Region"
   },
   "geometry": {
    "x": 7877703.2052128054,
    "y": 4078256.492204119
   }
  },
  {
   "attributes": {
    "OBJECTID": 475,
    "ولایت": "ننگرهار",
    "Province": "NANGARHAR",
    "PC_Code": "0614486",
    "District": "GOSHTA",
    "د_مرکز_نوم__نام_مرکز": "اړخۍ جومات",
    "Polling_Center_Name": "Arkhai Mosque",
    "د_مرکز_ځای__موقعیت_مرکز": "اړخۍ",
    "Polling_Center_Location": "Arkhai",
    "Map_Accuracy": "Village",
    "Map_Accuracy_Dari": "قریه",
    "Status": "Open",
    "Status_Dari": null,
    "PS_Male": 2,
    "PS_Female": 0,
    "PS_Total": 2,
    "ولسوالي": "ګوشته",
    "Region": "Eastern Region"
   },
   "geometry": {
    "x": 7877922.2619331796,
    "y": 4078177.5524694677
   }
  },
  {
   "attributes": {
    "OBJECTID": 476,
    "ولایت": "ننگرهار",
    "Province": "NANGARHAR",
    "PC_Code": "0614501",
    "District": "GOSHTA",
    "د_مرکز_نوم__نام_مرکز": "راغه کلې جومات",
    "Polling_Center_Name": "Ragha Village Mosque",
    "د_مرکز_ځای__موقعیت_مرکز": "راغه کلې",
    "Polling_Center_Location": "Ragha Village",
    "Map_Accuracy": "Village",
    "Map_Accuracy_Dari": "قریه",
    "Status": "Open",
    "Status_Dari": null,
    "PS_Male": 1,
    "PS_Female": 1,
    "PS_Total": 2,
    "ولسوالي": "ګوشته",
    "Region": "Eastern Region"
   },
   "geometry": {
    "x": 7884857.0487615075,
    "y": 4071746.1159766363
   }
  },
  {
   "attributes": {
    "OBJECTID": 477,
    "ولایت": "ننگرهار",
    "Province": "NANGARHAR",
    "PC_Code": "0616430",
    "District": "SHINWAR",
    "د_مرکز_نوم__نام_مرکز": "الفتحی لیسه",
    "Polling_Center_Name": "Alfathi High School",
    "د_مرکز_ځای__موقعیت_مرکز": "شېرګړ",
    "Polling_Center_Location": "Sher Garh",
    "Map_Accuracy": "Building",
    "Map_Accuracy_Dari": "تعمیر",
    "Status": "Open",
    "Status_Dari": null,
    "PS_Male": 0,
    "PS_Female": 3,
    "PS_Total": 3,
    "ولسوالي": "شینوار",
    "Region": "Eastern Region"
   },
   "geometry": {
    "x": 7881183.3285673419,
    "y": 4055503.1554419077
   }
  },
  {
   "attributes": {
    "OBJECTID": 478,
    "ولایت": "ننگرهار",
    "Province": "NANGARHAR",
    "PC_Code": "0616431",
    "District": "SHINWAR",
    "د_مرکز_نوم__نام_مرکز": "الله محمد جومات",
    "Polling_Center_Name": "Allah Mohammad Mosque",
    "د_مرکز_ځای__موقعیت_مرکز": "سياچوب",
    "Polling_Center_Location": "Siya Chob",
    "Map_Accuracy": "Village",
    "Map_Accuracy_Dari": "قریه",
    "Status": "Open",
    "Status_Dari": null,
    "PS_Male": 0,
    "PS_Female": 2,
    "PS_Total": 2,
    "ولسوالي": "شینوار",
    "Region": "Eastern Region"
   },
   "geometry": {
    "x": 7872939.4089425523,
    "y": 4052746.7942915023
   }
  },
  {
   "attributes": {
    "OBJECTID": 479,
    "ولایت": "بغلان",
    "Province": "BAGHLAN",
    "PC_Code": "0913206",
    "District": "KHOST WA FIRING",
    "د_مرکز_نوم__نام_مرکز": "مکتب زکورخوشدره",
    "Polling_Center_Name": "Zakor Khoshdara School",
    "د_مرکز_ځای__موقعیت_مرکز": "میانه ده ",
    "Polling_Center_Location": "Meyan Deh",
    "Map_Accuracy": "Building",
    "Map_Accuracy_Dari": "تعمیر",
    "Status": "Open",
    "Status_Dari": null,
    "PS_Male": 2,
    "PS_Female": 1,
    "PS_Total": 3,
    "ولسوالي": "خوست و فرنگ",
    "Region": "North Eastern Region"
   },
   "geometry": {
    "x": 7754947.3176648319,
    "y": 4300488.4541240577
   }
  },
  {
   "attributes": {
    "OBJECTID": 480,
    "ولایت": "بغلان",
    "Province": "BAGHLAN",
    "PC_Code": "0914224",
    "District": "GOZARGAH-E-NOOR",
    "د_مرکز_نوم__نام_مرکز": "لیسه زکور غارو",
    "Polling_Center_Name": "Gharo Boys High School",
    "د_مرکز_ځای__موقعیت_مرکز": "غارو",
    "Polling_Center_Location": "Gharo",
    "Map_Accuracy": "Building",
    "Map_Accuracy_Dari": "تعمیر",
    "Status": "Open",
    "Status_Dari": null,
    "PS_Male": 3,
    "PS_Female": 2,
    "PS_Total": 5,
    "ولسوالي": "گذرگاه نور",
    "Region": "North Eastern Region"
   },
   "geometry": {
    "x": 7745326.104319375,
    "y": 4329238.0711260345
   }
  },
  {
   "attributes": {
    "OBJECTID": 481,
    "ولایت": "بغلان",
    "Province": "BAGHLAN",
    "PC_Code": "0914225",
    "District": "GOZARGAH-E-NOOR",
    "د_مرکز_نوم__نام_مرکز": "مکتب متوسطه جرآب",
    "Polling_Center_Name": "Jerab Secondary School",
    "د_مرکز_ځای__موقعیت_مرکز": "قریه جرآب",
    "Polling_Center_Location": "Jar Aab Village",
    "Map_Accuracy": "Building",
    "Map_Accuracy_Dari": "تعمیر",
    "Status": "Open",
    "Status_Dari": null,
    "PS_Male": 2,
    "PS_Female": 1,
    "PS_Total": 3,
    "ولسوالي": "گذرگاه نور",
    "Region": "North Eastern Region"
   },
   "geometry": {
    "x": 7740537.3535588738,
    "y": 4328868.9899087558
   }
  },
  {
   "attributes": {
    "OBJECTID": 482,
    "ولایت": "بغلان",
    "Province": "BAGHLAN",
    "PC_Code": "0915219",
    "District": "FIRING WA GHARU",
    "د_مرکز_نوم__نام_مرکز": "مسجد ده میر",
    "Polling_Center_Name": "Deh Mir Mosque",
    "د_مرکز_ځای__موقعیت_مرکز": "چهار قریه ",
    "Polling_Center_Location": "Char Qarya",
    "Map_Accuracy": "Building",
    "Map_Accuracy_Dari": "تعمیر",
    "Status": "Open",
    "Status_Dari": null,
    "PS_Male": 1,
    "PS_Female": 1,
    "PS_Total": 2,
    "ولسوالي": "فرنگ و غارو",
    "Region": "North Eastern Region"
   },
   "geometry": {
    "x": 7748683.5981228491,
    "y": 4316841.671417064
   }
  },
  {
   "attributes": {
    "OBJECTID": 483,
    "ولایت": "بغلان",
    "Province": "BAGHLAN",
    "PC_Code": "0911167",
    "District": "TALA WA BARFAK",
    "د_مرکز_نوم__نام_مرکز": "مدرسه  بلندی اشرف",
    "Polling_Center_Name": "Bolandi Ashraf Madrassa",
    "د_مرکز_ځای__موقعیت_مرکز": "قریه بلندی اشرف",
    "Polling_Center_Location": "Bolandi Ashraf Village",
    "Map_Accuracy": "Building",
    "Map_Accuracy_Dari": "تعمیر",
    "Status": "Open",
    "Status_Dari": null,
    "PS_Male": 2,
    "PS_Female": 2,
    "PS_Total": 4,
    "ولسوالي": "تاله و برفک",
    "Region": "North Eastern Region"
   },
   "geometry": {
    "x": 7601132.3526490387,
    "y": 4218811.0611319216
   }
  },
  {
   "attributes": {
    "OBJECTID": 484,
    "ولایت": "بغلان",
    "Province": "BAGHLAN",
    "PC_Code": "0911168",
    "District": "TALA WA BARFAK",
    "د_مرکز_نوم__نام_مرکز": "خیمه در دهنه استمه ",
    "Polling_Center_Name": "Dahana Astma Tent",
    "د_مرکز_ځای__موقعیت_مرکز": "دهنه استمه",
    "Polling_Center_Location": "Dahana Astma",
    "Map_Accuracy": "Building",
    "Map_Accuracy_Dari": "تعمیر",
    "Status": "Open",
    "Status_Dari": null,
    "PS_Male": 2,
    "PS_Female": 2,
    "PS_Total": 4,
    "ولسوالي": "تاله و برفک",
    "Region": "North Eastern Region"
   },
   "geometry": {
    "x": 7597522.6389356852,
    "y": 4220848.2002368197
   }
  },
  {
   "attributes": {
    "OBJECTID": 485,
    "ولایت": "بغلان",
    "Province": "BAGHLAN",
    "PC_Code": "0912180",
    "District": "PUL-E-HISAR",
    "د_مرکز_نوم__نام_مرکز": "خیمه در پل حصار",
    "Polling_Center_Name": "Pul-e-Hesar Tent",
    "د_مرکز_ځای__موقعیت_مرکز": "مرکز ولسوالی پل حصار",
    "Polling_Center_Location": "Pul-e-Hesar District Center",
    "Map_Accuracy": "Building",
    "Map_Accuracy_Dari": "تعمیر",
    "Status": "Open",
    "Status_Dari": null,
    "PS_Male": 1,
    "PS_Female": 1,
    "PS_Total": 2,
    "ولسوالي": "پل حصار",
    "Region": "North Eastern Region"
   },
   "geometry": {
    "x": 7732753.575275667,
    "y": 4248429.3955627838
   }
  },
  {
   "attributes": {
    "OBJECTID": 486,
    "ولایت": "بغلان",
    "Province": "BAGHLAN",
    "PC_Code": "0912250",
    "District": "PUL-E-HISAR",
    "د_مرکز_نوم__نام_مرکز": "مکتب اصحاب کهف",
    "Polling_Center_Name": "As-hab-e-Kahf School",
    "د_مرکز_ځای__موقعیت_مرکز": "اصحاب کهف",
    "Polling_Center_Location": "As-hab-e-Kahf",
    "Map_Accuracy": "Building",
    "Map_Accuracy_Dari": "تعمیر",
    "Status": "Open",
    "Status_Dari": null,
    "PS_Male": 1,
    "PS_Female": 1,
    "PS_Total": 2,
    "ولسوالي": "پل حصار",
    "Region": "North Eastern Region"
   },
   "geometry": {
    "x": 7722008.6528963717,
    "y": 4253217.7040029382
   }
  },
  {
   "attributes": {
    "OBJECTID": 487,
    "ولایت": "بغلان",
    "Province": "BAGHLAN",
    "PC_Code": "0913201",
    "District": "KHOST WA FIRING",
    "د_مرکز_نوم__نام_مرکز": "مکتب نسوان دو ابی",
    "Polling_Center_Name": "Du Aabi Girls High School",
    "د_مرکز_ځای__موقعیت_مرکز": "قرغن",
    "Polling_Center_Location": "Qarghan",
    "Map_Accuracy": "Building",
    "Map_Accuracy_Dari": "تعمیر",
    "Status": "Open",
    "Status_Dari": null,
    "PS_Male": 2,
    "PS_Female": 1,
    "PS_Total": 3,
    "ولسوالي": "خوست و فرنگ",
    "Region": "North Eastern Region"
   },
   "geometry": {
    "x": 7748414.4164621625,
    "y": 4302925.3643443473
   }
  },
  {
   "attributes": {
    "OBJECTID": 488,
    "ولایت": "بغلان",
    "Province": "BAGHLAN",
    "PC_Code": "0913202",
    "District": "KHOST WA FIRING",
    "د_مرکز_نوم__نام_مرکز": "مکتب لیسه سبزمحمد خان",
    "Polling_Center_Name": "Sabz Mohammad Khan High School",
    "د_مرکز_ځای__موقعیت_مرکز": "فرغانبل",
    "Polling_Center_Location": "Far Ghanbal",
    "Map_Accuracy": "Building",
    "Map_Accuracy_Dari": "تعمیر",
    "Status": "Open",
    "Status_Dari": null,
    "PS_Male": 2,
    "PS_Female": 1,
    "PS_Total": 3,
    "ولسوالي": "خوست و فرنگ",
    "Region": "North Eastern Region"
   },
   "geometry": {
    "x": 7754591.334631199,
    "y": 4304278.4499767162
   }
  },
  {
   "attributes": {
    "OBJECTID": 489,
    "ولایت": "بغلان",
    "Province": "BAGHLAN",
    "PC_Code": "0913214",
    "District": "KHOST WA FIRING",
    "د_مرکز_نوم__نام_مرکز": "مکتب ابتدائیه خاهوش",
    "Polling_Center_Name": "Khahosh Primary School",
    "د_مرکز_ځای__موقعیت_مرکز": "شیخان",
    "Polling_Center_Location": "Shekhan",
    "Map_Accuracy": "Building",
    "Map_Accuracy_Dari": "تعمیر",
    "Status": "Open",
    "Status_Dari": null,
    "PS_Male": 2,
    "PS_Female": 1,
    "PS_Total": 3,
    "ولسوالي": "خوست و فرنگ",
    "Region": "North Eastern Region"
   },
   "geometry": {
    "x": 7742067.6225237874,
    "y": 4277611.582276375
   }
  },
  {
   "attributes": {
    "OBJECTID": 490,
    "ولایت": "باميان",
    "Province": "BAMYAN",
    "PC_Code": "1001001",
    "District": "BAMYAN",
    "د_مرکز_نوم__نام_مرکز": "لیسه ذکور مرکز بامیان",
    "Polling_Center_Name": "Bamyan Center Boys High School",
    "د_مرکز_ځای__موقعیت_مرکز": "مرکز بامیان",
    "Polling_Center_Location": "Bamyan Center",
    "Map_Accuracy": "Building",
    "Map_Accuracy_Dari": "تعمیر",
    "Status": "Open",
    "Status_Dari": null,
    "PS_Male": 6,
    "PS_Female": 3,
    "PS_Total": 9,
    "ولسوالي": "بامیان",
    "Region": "Central Highlands Region"
   },
   "geometry": {
    "x": 7552353.6980111524,
    "y": 4139948.8215792337
   }
  },
  {
   "attributes": {
    "OBJECTID": 491,
    "ولایت": "باميان",
    "Province": "BAMYAN",
    "PC_Code": "1001002",
    "District": "BAMYAN",
    "د_مرکز_نوم__نام_مرکز": "مکتب دخترانه سید آباد",
    "Polling_Center_Name": "Sayed Abad Girls School",
    "د_مرکز_ځای__موقعیت_مرکز": "سید آباد",
    "Polling_Center_Location": "Sayed Abad",
    "Map_Accuracy": "Building",
    "Map_Accuracy_Dari": "تعمیر",
    "Status": "Open",
    "Status_Dari": null,
    "PS_Male": 0,
    "PS_Female": 6,
    "PS_Total": 6,
    "ولسوالي": "بامیان",
    "Region": "Central Highlands Region"
   },
   "geometry": {
    "x": 7551380.2992329523,
    "y": 4138234.4201959311
   }
  },
  {
   "attributes": {
    "OBJECTID": 492,
    "ولایت": "بغلان",
    "Province": "BAGHLAN",
    "PC_Code": "0904267",
    "District": "NAHREEN",
    "د_مرکز_نوم__نام_مرکز": "مکتب ",
    "Polling_Center_Name": "School",
    "د_مرکز_ځای__موقعیت_مرکز": "قره غاج ساکه",
    "Polling_Center_Location": "Qara ghaj saka",
    "Map_Accuracy": "Building",
    "Map_Accuracy_Dari": "تعمیر",
    "Status": "Open",
    "Status_Dari": null,
    "PS_Male": 2,
    "PS_Female": 1,
    "PS_Total": 3,
    "ولسوالي": "نهرین",
    "Region": "North Eastern Region"
   },
   "geometry": {
    "x": 7676699.6986577762,
    "y": 4315729.2257044846
   }
  },
  {
   "attributes": {
    "OBJECTID": 493,
    "ولایت": "بغلان",
    "Province": "BAGHLAN",
    "PC_Code": "0905268",
    "District": "BAGLAN-E-JADEED",
    "د_مرکز_نوم__نام_مرکز": "مسجد",
    "Polling_Center_Name": "Mosque",
    "د_مرکز_ځای__موقعیت_مرکز": "ارباب یحیی",
    "Polling_Center_Location": "Arbab yahya",
    "Map_Accuracy": "Building",
    "Map_Accuracy_Dari": "تعمیر",
    "Status": "Open",
    "Status_Dari": null,
    "PS_Male": 2,
    "PS_Female": 1,
    "PS_Total": 3,
    "ولسوالي": "بغلان جدید",
    "Region": "North Eastern Region"
   },
   "geometry": {
    "x": 7655930.0466994597,
    "y": 4326506.8504312187
   }
  },
  {
   "attributes": {
    "OBJECTID": 494,
    "ولایت": "بغلان",
    "Province": "BAGHLAN",
    "PC_Code": "0902258",
    "District": "DAHANA-E-GHURI",
    "د_مرکز_نوم__نام_مرکز": "فضای آزاد",
    "Polling_Center_Name": "Open Field",
    "د_مرکز_ځای__موقعیت_مرکز": "زیر کو.تل اومکی",
    "Polling_Center_Location": "Zir kotal omaki",
    "Map_Accuracy": "Village",
    "Map_Accuracy_Dari": "قریه",
    "Status": "Open",
    "Status_Dari": null,
    "PS_Male": 2,
    "PS_Female": 1,
    "PS_Total": 3,
    "ولسوالي": "دهنۀ غوری",
    "Region": "North Eastern Region"
   },
   "geometry": {
    "x": 7628043.7903450951,
    "y": 4273310.2638798552
   }
  },
  {
   "attributes": {
    "OBJECTID": 495,
    "ولایت": "بغلان",
    "Province": "BAGHLAN",
    "PC_Code": "0902259",
    "District": "DAHANA-E-GHURI",
    "د_مرکز_نوم__نام_مرکز": "مدرسه لرخواب",
    "Polling_Center_Name": "Larkhwab Madrasa",
    "د_مرکز_ځای__موقعیت_مرکز": "لرخوابی",
    "Polling_Center_Location": "Lar khwabi",
    "Map_Accuracy": "Building",
    "Map_Accuracy_Dari": "تعمیر",
    "Status": "Open",
    "Status_Dari": null,
    "PS_Male": 2,
    "PS_Female": 1,
    "PS_Total": 3,
    "ولسوالي": "دهنۀ غوری",
    "Region": "North Eastern Region"
   },
   "geometry": {
    "x": 7638360.2087160479,
    "y": 4291047.2717035748
   }
  },
  {
   "attributes": {
    "OBJECTID": 496,
    "ولایت": "بغلان",
    "Province": "BAGHLAN",
    "PC_Code": "0905270",
    "District": "BAGLAN-E-JADEED",
    "د_مرکز_نوم__نام_مرکز": "مکتب غروشاخ ",
    "Polling_Center_Name": "Gharo shakh School",
    "د_مرکز_ځای__موقعیت_مرکز": "غرو شاخ تاجک ها",
    "Polling_Center_Location": "Gharo Shakh tajik ha",
    "Map_Accuracy": "Building",
    "Map_Accuracy_Dari": "تعمیر",
    "Status": "Open",
    "Status_Dari": null,
    "PS_Male": 2,
    "PS_Female": 1,
    "PS_Total": 3,
    "ولسوالي": "بغلان جدید",
    "Region": "North Eastern Region"
   },
   "geometry": {
    "x": 7651384.2215619069,
    "y": 4327315.8411273751
   }
  },
  {
   "attributes": {
    "OBJECTID": 497,
    "ولایت": "بغلان",
    "Province": "BAGHLAN",
    "PC_Code": "0905271",
    "District": "BAGLAN-E-JADEED",
    "د_مرکز_نوم__نام_مرکز": "مکتب متوسطه",
    "Polling_Center_Name": "Secondary School",
    "د_مرکز_ځای__موقعیت_مرکز": "لقها",
    "Polling_Center_Location": "Laqha",
    "Map_Accuracy": "Building",
    "Map_Accuracy_Dari": "تعمیر",
    "Status": "Open",
    "Status_Dari": null,
    "PS_Male": 2,
    "PS_Female": 1,
    "PS_Total": 3,
    "ولسوالي": "بغلان جدید",
    "Region": "North Eastern Region"
   },
   "geometry": {
    "x": 7655203.6181152677,
    "y": 4324152.2729725251
   }
  },
  {
   "attributes": {
    "OBJECTID": 498,
    "ولایت": "باميان",
    "Province": "BAMYAN",
    "PC_Code": "1001004",
    "District": "BAMYAN",
    "د_مرکز_نوم__نام_مرکز": "مکتب دوکانی",
    "Polling_Center_Name": "Dokani School",
    "د_مرکز_ځای__موقعیت_مرکز": "دوکانی",
    "Polling_Center_Location": "Dokani",
    "Map_Accuracy": "Building",
    "Map_Accuracy_Dari": "تعمیر",
    "Status": "Open",
    "Status_Dari": null,
    "PS_Male": 1,
    "PS_Female": 2,
    "PS_Total": 3,
    "ولسوالي": "بامیان",
    "Region": "Central Highlands Region"
   },
   "geometry": {
    "x": 7552959.3862473592,
    "y": 4127529.6280442681
   }
  },
  {
   "attributes": {
    "OBJECTID": 499,
    "ولایت": "باميان",
    "Province": "BAMYAN",
    "PC_Code": "1001005",
    "District": "BAMYAN",
    "د_مرکز_نوم__نام_مرکز": "مسجد لالاخیل",
    "Polling_Center_Name": "Lala Khel School",
    "د_مرکز_ځای__موقعیت_مرکز": "لالاخیل",
    "Polling_Center_Location": "Lala Khel",
    "Map_Accuracy": "Building",
    "Map_Accuracy_Dari": "تعمیر",
    "Status": "Open",
    "Status_Dari": null,
    "PS_Male": 2,
    "PS_Female": 2,
    "PS_Total": 4,
    "ولسوالي": "بامیان",
    "Region": "Central Highlands Region"
   },
   "geometry": {
    "x": 7555410.4366067657,
    "y": 4138381.1945574963
   }
  },
  {
   "attributes": {
    "OBJECTID": 500,
    "ولایت": "باميان",
    "Province": "BAMYAN",
    "PC_Code": "1001007",
    "District": "BAMYAN",
    "د_مرکز_نوم__نام_مرکز": "مسجد ذکریا",
    "Polling_Center_Name": "Zekria Mosque",
    "د_مرکز_ځای__موقعیت_مرکز": "ذکریا",
    "Polling_Center_Location": "Zekria",
    "Map_Accuracy": "Building",
    "Map_Accuracy_Dari": "تعمیر",
    "Status": "Open",
    "Status_Dari": null,
    "PS_Male": 2,
    "PS_Female": 2,
    "PS_Total": 4,
    "ولسوالي": "بامیان",
    "Region": "Central Highlands Region"
   },
   "geometry": {
    "x": 7537761.9436107483,
    "y": 4129903.6278232178
   }
  },
  {
   "attributes": {
    "OBJECTID": 501,
    "ولایت": "باميان",
    "Province": "BAMYAN",
    "PC_Code": "1001008",
    "District": "BAMYAN",
    "د_مرکز_نوم__نام_مرکز": "مکتب دخترانه شینیه",
    "Polling_Center_Name": "Shinia Girls School",
    "د_مرکز_ځای__موقعیت_مرکز": "شینیه",
    "Polling_Center_Location": "Shinia",
    "Map_Accuracy": "Building",
    "Map_Accuracy_Dari": "تعمیر",
    "Status": "Open",
    "Status_Dari": null,
    "PS_Male": 0,
    "PS_Female": 3,
    "PS_Total": 3,
    "ولسوالي": "بامیان",
    "Region": "Central Highlands Region"
   },
   "geometry": {
    "x": 7540950.3564660484,
    "y": 4133620.3485135352
   }
  },
  {
   "attributes": {
    "OBJECTID": 502,
    "ولایت": "باميان",
    "Province": "BAMYAN",
    "PC_Code": "1001018",
    "District": "BAMYAN",
    "د_مرکز_نوم__نام_مرکز": "مکتب بام سرای",
    "Polling_Center_Name": "Bam Sarai School",
    "د_مرکز_ځای__موقعیت_مرکز": "بام سرای",
    "Polling_Center_Location": "Bam Sarai",
    "Map_Accuracy": "Building",
    "Map_Accuracy_Dari": "تعمیر",
    "Status": "Open",
    "Status_Dari": null,
    "PS_Male": 2,
    "PS_Female": 2,
    "PS_Total": 4,
    "ولسوالي": "بامیان",
    "Region": "Central Highlands Region"
   },
   "geometry": {
    "x": 7543769.201970255,
    "y": 4130895.611056651
   }
  },
  {
   "attributes": {
    "OBJECTID": 503,
    "ولایت": "باميان",
    "Province": "BAMYAN",
    "PC_Code": "1001019",
    "District": "BAMYAN",
    "د_مرکز_نوم__نام_مرکز": "مسجد چپ دره",
    "Polling_Center_Name": "Chap Dara Mosque",
    "د_مرکز_ځای__موقعیت_مرکز": "چپ دره",
    "Polling_Center_Location": "Chap Dara",
    "Map_Accuracy": "Building",
    "Map_Accuracy_Dari": "تعمیر",
    "Status": "Open",
    "Status_Dari": null,
    "PS_Male": 1,
    "PS_Female": 2,
    "PS_Total": 3,
    "ولسوالي": "بامیان",
    "Region": "Central Highlands Region"
   },
   "geometry": {
    "x": 7546342.6514493702,
    "y": 4129141.8250753917
   }
  },
  {
   "attributes": {
    "OBJECTID": 504,
    "ولایت": "باميان",
    "Province": "BAMYAN",
    "PC_Code": "1002029",
    "District": "SHEBAR",
    "د_مرکز_نوم__نام_مرکز": "مکتب کنگور",
    "Polling_Center_Name": "Kangor School",
    "د_مرکز_ځای__موقعیت_مرکز": "دهن کنگور",
    "Polling_Center_Location": "Dahan-e-Kangor",
    "Map_Accuracy": "Building",
    "Map_Accuracy_Dari": "تعمیر",
    "Status": "Open",
    "Status_Dari": null,
    "PS_Male": 1,
    "PS_Female": 1,
    "PS_Total": 2,
    "ولسوالي": "شیبر",
    "Region": "Central Highlands Region"
   },
   "geometry": {
    "x": 7558961.0463496745,
    "y": 4161707.1781066069
   }
  },
  {
   "attributes": {
    "OBJECTID": 505,
    "ولایت": "باميان",
    "Province": "BAMYAN",
    "PC_Code": "1002030",
    "District": "SHEBAR",
    "د_مرکز_نوم__نام_مرکز": "مکتب ذکور دهن غندک",
    "Polling_Center_Name": "Dahan-e-Ghundak Boys School",
    "د_مرکز_ځای__موقعیت_مرکز": "دهن غندک بازار",
    "Polling_Center_Location": "Dahan-e-Ghundak Bazar",
    "Map_Accuracy": "Building",
    "Map_Accuracy_Dari": "تعمیر",
    "Status": "Open",
    "Status_Dari": null,
    "PS_Male": 3,
    "PS_Female": 0,
    "PS_Total": 3,
    "ولسوالي": "شیبر",
    "Region": "Central Highlands Region"
   },
   "geometry": {
    "x": 7571622.2157643195,
    "y": 4162465.1230977578
   }
  },
  {
   "attributes": {
    "OBJECTID": 506,
    "ولایت": "باميان",
    "Province": "BAMYAN",
    "PC_Code": "1003042",
    "District": "SAIGHAN",
    "د_مرکز_نوم__نام_مرکز": "مسجد پیشنگ",
    "Polling_Center_Name": "Pasheng Mosque",
    "د_مرکز_ځای__موقعیت_مرکز": "پیشنگ",
    "Polling_Center_Location": "Pasheng",
    "Map_Accuracy": "Building",
    "Map_Accuracy_Dari": "تعمیر",
    "Status": "Open",
    "Status_Dari": null,
    "PS_Male": 2,
    "PS_Female": 0,
    "PS_Total": 2,
    "ولسوالي": "سیغان",
    "Region": "Central Highlands Region"
   },
   "geometry": {
    "x": 7563583.5637145806,
    "y": 4194879.7166223591
   }
  },
  {
   "attributes": {
    "OBJECTID": 507,
    "ولایت": "باميان",
    "Province": "BAMYAN",
    "PC_Code": "1003043",
    "District": "SAIGHAN",
    "د_مرکز_نوم__نام_مرکز": "مکتب پیشنگ",
    "Polling_Center_Name": "Pasheng School",
    "د_مرکز_ځای__موقعیت_مرکز": "پیشنگ",
    "Polling_Center_Location": "Pasheng",
    "Map_Accuracy": "Building",
    "Map_Accuracy_Dari": "تعمیر",
    "Status": "Open",
    "Status_Dari": null,
    "PS_Male": 0,
    "PS_Female": 2,
    "PS_Total": 2,
    "ولسوالي": "سیغان",
    "Region": "Central Highlands Region"
   },
   "geometry": {
    "x": 7563684.1987606483,
    "y": 4194973.9712633789
   }
  },
  {
   "attributes": {
    "OBJECTID": 508,
    "ولایت": "باميان",
    "Province": "BAMYAN",
    "PC_Code": "1004050",
    "District": "KAHMARD",
    "د_مرکز_نوم__نام_مرکز": "مکتب روی سنگ",
    "Polling_Center_Name": "Roy Sang School",
    "د_مرکز_ځای__موقعیت_مرکز": "روی سنگ",
    "Polling_Center_Location": "Roy Sang",
    "Map_Accuracy": "Building",
    "Map_Accuracy_Dari": "تعمیر",
    "Status": "Open",
    "Status_Dari": null,
    "PS_Male": 1,
    "PS_Female": 2,
    "PS_Total": 3,
    "ولسوالي": "کهمرد",
    "Region": "Central Highlands Region"
   },
   "geometry": {
    "x": 7527472.8533955459,
    "y": 4206770.7991613774
   }
  },
  {
   "attributes": {
    "OBJECTID": 509,
    "ولایت": "باميان",
    "Province": "BAMYAN",
    "PC_Code": "1004051",
    "District": "KAHMARD",
    "د_مرکز_نوم__نام_مرکز": "مسجد پایان باغ",
    "Polling_Center_Name": "Payan Baagh Mosque",
    "د_مرکز_ځای__موقعیت_مرکز": "پایان باغ",
    "Polling_Center_Location": "Payan Baagh",
    "Map_Accuracy": "Building",
    "Map_Accuracy_Dari": "تعمیر",
    "Status": "Open",
    "Status_Dari": null,
    "PS_Male": 1,
    "PS_Female": 1,
    "PS_Total": 2,
    "ولسوالي": "کهمرد",
    "Region": "Central Highlands Region"
   },
   "geometry": {
    "x": 7534417.0945882341,
    "y": 4208759.3811075743
   }
  },
  {
   "attributes": {
    "OBJECTID": 510,
    "ولایت": "باميان",
    "Province": "BAMYAN",
    "PC_Code": "1005075",
    "District": "YAKAWLANG",
    "د_مرکز_نوم__نام_مرکز": "مکتب تنگی سفیدک",
    "Polling_Center_Name": "Tangi Safidak School",
    "د_مرکز_ځای__موقعیت_مرکز": "تنگی سفیدک",
    "Polling_Center_Location": "Tangi Safidak",
    "Map_Accuracy": "Building",
    "Map_Accuracy_Dari": "تعمیر",
    "Status": "Open",
    "Status_Dari": null,
    "PS_Male": 1,
    "PS_Female": 2,
    "PS_Total": 3,
    "ولسوالي": "یکاولنگ",
    "Region": "Central Highlands Region"
   },
   "geometry": {
    "x": 7433499.7768016886,
    "y": 4129632.9922188874
   }
  },
  {
   "attributes": {
    "OBJECTID": 511,
    "ولایت": "باميان",
    "Province": "BAMYAN",
    "PC_Code": "1005076",
    "District": "YAKAWLANG",
    "د_مرکز_نوم__نام_مرکز": "مکتب قلعه جعفر",
    "Polling_Center_Name": "Qala-e-Jafar School",
    "د_مرکز_ځای__موقعیت_مرکز": "قلعه جعفر",
    "Polling_Center_Location": "Qala-e-Jafar",
    "Map_Accuracy": "Building",
    "Map_Accuracy_Dari": "تعمیر",
    "Status": "Open",
    "Status_Dari": null,
    "PS_Male": 1,
    "PS_Female": 1,
    "PS_Total": 2,
    "ولسوالي": "یکاولنگ",
    "Region": "Central Highlands Region"
   },
   "geometry": {
    "x": 7478197.6036224272,
    "y": 4139402.8980388218
   }
  },
  {
   "attributes": {
    "OBJECTID": 512,
    "ولایت": "باميان",
    "Province": "BAMYAN",
    "PC_Code": "1005085",
    "District": "YAKAWLANG",
    "د_مرکز_نوم__نام_مرکز": "مکتب دزدان چشمه",
    "Polling_Center_Name": "Duzdan Cheshma School",
    "د_مرکز_ځای__موقعیت_مرکز": "دزدان چشمه",
    "Polling_Center_Location": "Duzdan Cheshma",
    "Map_Accuracy": "Building",
    "Map_Accuracy_Dari": "تعمیر",
    "Status": "Open",
    "Status_Dari": null,
    "PS_Male": 1,
    "PS_Female": 1,
    "PS_Total": 2,
    "ولسوالي": "یکاولنگ",
    "Region": "Central Highlands Region"
   },
   "geometry": {
    "x": 7463346.4347334597,
    "y": 4206791.1371557536
   }
  },
  {
   "attributes": {
    "OBJECTID": 513,
    "ولایت": "باميان",
    "Province": "BAMYAN",
    "PC_Code": "1005086",
    "District": "YAKAWLANG",
    "د_مرکز_نوم__نام_مرکز": "مکتب دره چاشت",
    "Polling_Center_Name": "Dara-e-Chasht School",
    "د_مرکز_ځای__موقعیت_مرکز": "دهن دره چاشت",
    "Polling_Center_Location": "Dahane Dara-e-Chasht",
    "Map_Accuracy": "Building",
    "Map_Accuracy_Dari": "تعمیر",
    "Status": "Open",
    "Status_Dari": null,
    "PS_Male": 1,
    "PS_Female": 1,
    "PS_Total": 2,
    "ولسوالي": "یکاولنگ",
    "Region": "Central Highlands Region"
   },
   "geometry": {
    "x": 7408450.7340014651,
    "y": 4158058.6436979277
   }
  },
  {
   "attributes": {
    "OBJECTID": 514,
    "ولایت": "کاپيسا",
    "Province": "KAPISA",
    "PC_Code": "0202019",
    "District": "HISSA-E-DUWUMI KOHISTAN",
    "د_مرکز_نوم__نام_مرکز": "مکتب ابتدائیه فیض محمد شهید",
    "Polling_Center_Name": "Faiz Mohammad Shaheed Primary School",
    "د_مرکز_ځای__موقعیت_مرکز": "جمال آغه ",
    "Polling_Center_Location": "Jamal Agha",
    "Map_Accuracy": "Building",
    "Map_Accuracy_Dari": "تعمیر",
    "Status": "Open",
    "Status_Dari": null,
    "PS_Male": 4,
    "PS_Female": 1,
    "PS_Total": 5,
    "ولسوالي": "حصه دوم کوهستان",
    "Region": "Central Region"
   },
   "geometry": {
    "x": 7715013.6600346379,
    "y": 4173339.5711721689
   }
  },
  {
   "attributes": {
    "OBJECTID": 515,
    "ولایت": "کاپيسا",
    "Province": "KAPISA",
    "PC_Code": "0202020",
    "District": "HISSA-E-DUWUMI KOHISTAN",
    "د_مرکز_نوم__نام_مرکز": "مکتب ابتدائیه جلال الدین شهید",
    "Polling_Center_Name": "Jalaluddin Shaheed Primary School",
    "د_مرکز_ځای__موقعیت_مرکز": "کالوته ",
    "Polling_Center_Location": "Kalota",
    "Map_Accuracy": "Building",
    "Map_Accuracy_Dari": "تعمیر",
    "Status": "Open",
    "Status_Dari": null,
    "PS_Male": 3,
    "PS_Female": 1,
    "PS_Total": 4,
    "ولسوالي": "حصه دوم کوهستان",
    "Region": "Central Region"
   },
   "geometry": {
    "x": 7713022.6285653776,
    "y": 4169255.5128809088
   }
  },
  {
   "attributes": {
    "OBJECTID": 516,
    "ولایت": "کاپيسا",
    "Province": "KAPISA",
    "PC_Code": "0203070",
    "District": "KOH BAND",
    "د_مرکز_نوم__نام_مرکز": "مکتب متوسطه کوتلی ",
    "Polling_Center_Name": "Kotali Secondary School ",
    "د_مرکز_ځای__موقعیت_مرکز": "کوتلی ",
    "Polling_Center_Location": "Kutali",
    "Map_Accuracy": "Building",
    "Map_Accuracy_Dari": "تعمیر",
    "Status": "Open",
    "Status_Dari": null,
    "PS_Male": 1,
    "PS_Female": 1,
    "PS_Total": 2,
    "ولسوالي": "کوه بند",
    "Region": "Central Region"
   },
   "geometry": {
    "x": 7731144.9819170292,
    "y": 4178552.5220229155
   }
  },
  {
   "attributes": {
    "OBJECTID": 517,
    "ولایت": "کاپيسا",
    "Province": "KAPISA",
    "PC_Code": "0203071",
    "District": "KOH BAND",
    "د_مرکز_نوم__نام_مرکز": "مسجد لعل بیک خیل ",
    "Polling_Center_Name": "Lalbik Khel Mosque",
    "د_مرکز_ځای__موقعیت_مرکز": "ملکیر",
    "Polling_Center_Location": "Malker",
    "Map_Accuracy": "Building",
    "Map_Accuracy_Dari": "تعمیر",
    "Status": "Open",
    "Status_Dari": null,
    "PS_Male": 3,
    "PS_Female": 1,
    "PS_Total": 4,
    "ولسوالي": "کوه بند",
    "Region": "Central Region"
   },
   "geometry": {
    "x": 7733743.3391322065,
    "y": 4175814.4978363849
   }
  },
  {
   "attributes": {
    "OBJECTID": 518,
    "ولایت": "کاپيسا",
    "Province": "KAPISA",
    "PC_Code": "0203073",
    "District": "KOH BAND",
    "د_مرکز_نوم__نام_مرکز": "مسحد پل میرویس ",
    "Polling_Center_Name": "Pul-e-Mirwis Mosque",
    "د_مرکز_ځای__موقعیت_مرکز": "سرجوی نهر خواجه ",
    "Polling_Center_Location": "Sar Joy Nahr-e-Khwaja",
    "Map_Accuracy": "Building",
    "Map_Accuracy_Dari": "تعمیر",
    "Status": "Open",
    "Status_Dari": null,
    "PS_Male": 3,
    "PS_Female": 2,
    "PS_Total": 5,
    "ولسوالي": "کوه بند",
    "Region": "Central Region"
   },
   "geometry": {
    "x": 7721795.3816725723,
    "y": 4177514.7114281063
   }
  },
  {
   "attributes": {
    "OBJECTID": 519,
    "ولایت": "کاپيسا",
    "Province": "KAPISA",
    "PC_Code": "0205043",
    "District": "NIJRAB",
    "د_مرکز_نوم__نام_مرکز": "مکتب گیاوه ",
    "Polling_Center_Name": "Geyawa School",
    "د_مرکز_ځای__موقعیت_مرکز": "گیاوه ",
    "Polling_Center_Location": "Geyawa",
    "Map_Accuracy": "Building",
    "Map_Accuracy_Dari": "تعمیر",
    "Status": "Open",
    "Status_Dari": null,
    "PS_Male": 2,
    "PS_Female": 2,
    "PS_Total": 4,
    "ولسوالي": "نجراب ",
    "Region": "Central Region"
   },
   "geometry": {
    "x": 7738723.0384416571,
    "y": 4167626.7359310738
   }
  },
  {
   "attributes": {
    "OBJECTID": 520,
    "ولایت": "کاپيسا",
    "Province": "KAPISA",
    "PC_Code": "0205044",
    "District": "NIJRAB",
    "د_مرکز_نوم__نام_مرکز": "مکتب ابراهیم خیل ",
    "Polling_Center_Name": "Ibrahim khel School ",
    "د_مرکز_ځای__موقعیت_مرکز": "دره کلان ",
    "Polling_Center_Location": "Dara-e-Kalan",
    "Map_Accuracy": "Building",
    "Map_Accuracy_Dari": "تعمیر",
    "Status": "Open",
    "Status_Dari": null,
    "PS_Male": 2,
    "PS_Female": 1,
    "PS_Total": 3,
    "ولسوالي": "نجراب ",
    "Region": "Central Region"
   },
   "geometry": {
    "x": 7748603.528239511,
    "y": 4173953.5560539104
   }
  },
  {
   "attributes": {
    "OBJECTID": 521,
    "ولایت": "کاپيسا",
    "Province": "KAPISA",
    "PC_Code": "0205049",
    "District": "NIJRAB",
    "د_مرکز_نوم__نام_مرکز": "لیسه ضیاالحق شهید",
    "Polling_Center_Name": "Ziaulhaq Shaheed High School ",
    "د_مرکز_ځای__موقعیت_مرکز": "ده خوری دره غوث",
    "Polling_Center_Location": "Deh Khuri Dar-e-Ghous",
    "Map_Accuracy": "Building",
    "Map_Accuracy_Dari": "تعمیر",
    "Status": "Open",
    "Status_Dari": null,
    "PS_Male": 1,
    "PS_Female": 1,
    "PS_Total": 2,
    "ولسوالي": "نجراب ",
    "Region": "Central Region"
   },
   "geometry": {
    "x": 7752992.5084446799,
    "y": 4174165.2462216392
   }
  },
  {
   "attributes": {
    "OBJECTID": 522,
    "ولایت": "کاپيسا",
    "Province": "KAPISA",
    "PC_Code": "0205050",
    "District": "NIJRAB",
    "د_مرکز_نوم__نام_مرکز": "ساحه آزاد",
    "Polling_Center_Name": "Open Space ",
    "د_مرکز_ځای__موقعیت_مرکز": "غچولان ",
    "Polling_Center_Location": "Ghachulan",
    "Map_Accuracy": "Building",
    "Map_Accuracy_Dari": "تعمیر",
    "Status": "Open",
    "Status_Dari": null,
    "PS_Male": 1,
    "PS_Female": 1,
    "PS_Total": 2,
    "ولسوالي": "نجراب ",
    "Region": "Central Region"
   },
   "geometry": {
    "x": 7749948.2932917811,
    "y": 4179929.7504045898
   }
  },
  {
   "attributes": {
    "OBJECTID": 523,
    "ولایت": "کاپيسا",
    "Province": "KAPISA",
    "PC_Code": "0205060",
    "District": "NIJRAB",
    "د_مرکز_نوم__نام_مرکز": "مکتب نسوان زرشوی ",
    "Polling_Center_Name": "Zarshoy Girls School ",
    "د_مرکز_ځای__موقعیت_مرکز": "زرشوی ",
    "Polling_Center_Location": "Zarshoy",
    "Map_Accuracy": "Building",
    "Map_Accuracy_Dari": "تعمیر",
    "Status": "Open",
    "Status_Dari": null,
    "PS_Male": 1,
    "PS_Female": 1,
    "PS_Total": 2,
    "ولسوالي": "نجراب ",
    "Region": "Central Region"
   },
   "geometry": {
    "x": 7745494.3615033226,
    "y": 4159471.0651263781
   }
  },
  {
   "attributes": {
    "OBJECTID": 524,
    "ولایت": "کاپيسا",
    "Province": "KAPISA",
    "PC_Code": "0205061",
    "District": "NIJRAB",
    "د_مرکز_نوم__نام_مرکز": "ساحه باز",
    "Polling_Center_Name": "Open Space ",
    "د_مرکز_ځای__موقعیت_مرکز": "شیروانی ",
    "Polling_Center_Location": "Sheerwani",
    "Map_Accuracy": "Building",
    "Map_Accuracy_Dari": "تعمیر",
    "Status": "Open",
    "Status_Dari": null,
    "PS_Male": 1,
    "PS_Female": 1,
    "PS_Total": 2,
    "ولسوالي": "نجراب ",
    "Region": "Central Region"
   },
   "geometry": {
    "x": 7747892.1254488751,
    "y": 4165450.6104375599
   }
  },
  {
   "attributes": {
    "OBJECTID": 525,
    "ولایت": "کاپيسا",
    "Province": "KAPISA",
    "PC_Code": "0206097",
    "District": "TAGAB",
    "د_مرکز_نوم__نام_مرکز": "مسجد تتارخیل",
    "Polling_Center_Name": "Tetar Khel Mosque",
    "د_مرکز_ځای__موقعیت_مرکز": "تتارخیل (کوچیان)",
    "Polling_Center_Location": "Tater Khel (Kuchian)",
    "Map_Accuracy": "Building",
    "Map_Accuracy_Dari": "تعمیر",
    "Status": "Open",
    "Status_Dari": null,
    "PS_Male": 2,
    "PS_Female": 1,
    "PS_Total": 3,
    "ولسوالي": "تگاب ",
    "Region": "Central Region"
   },
   "geometry": {
    "x": 7755936.9813338332,
    "y": 4147380.8395405565
   }
  },
  {
   "attributes": {
    "OBJECTID": 526,
    "ولایت": "کاپيسا",
    "Province": "KAPISA",
    "PC_Code": "0206098",
    "District": "TAGAB",
    "د_مرکز_نوم__نام_مرکز": "مسجد حده انور",
    "Polling_Center_Name": "Hada-e-Anwer Mosque",
    "د_مرکز_ځای__موقعیت_مرکز": "لنداخیل  ",
    "Polling_Center_Location": "Landa Khel",
    "Map_Accuracy": "Village",
    "Map_Accuracy_Dari": "قریه",
    "Status": "Open",
    "Status_Dari": null,
    "PS_Male": 2,
    "PS_Female": 1,
    "PS_Total": 3,
    "ولسوالي": "تگاب ",
    "Region": "Central Region"
   },
   "geometry": {
    "x": 7750137.6533115972,
    "y": 4152358.5277793785
   }
  },
  {
   "attributes": {
    "OBJECTID": 527,
    "ولایت": "پروان",
    "Province": "PARWAN",
    "PC_Code": "0301021",
    "District": "CHARIKAR",
    "د_مرکز_نوم__نام_مرکز": "مسجد جامع سنجد دره",
    "Polling_Center_Name": "Sunjid Dara Mosque",
    "د_مرکز_ځای__موقعیت_مرکز": "سنجد دره",
    "Polling_Center_Location": "Sunjid Dara",
    "Map_Accuracy": "Building",
    "Map_Accuracy_Dari": "تعمیر",
    "Status": "Open",
    "Status_Dari": null,
    "PS_Male": 3,
    "PS_Female": 1,
    "PS_Total": 4,
    "ولسوالي": "چاریکار",
    "Region": "Central Region"
   },
   "geometry": {
    "x": 7694626.9639338944,
    "y": 4156685.5528417523
   }
  },
  {
   "attributes": {
    "OBJECTID": 528,
    "ولایت": "پروان",
    "Province": "PARWAN",
    "PC_Code": "0301022",
    "District": "CHARIKAR",
    "د_مرکز_نوم__نام_مرکز": "مسجد جامع صادقی پادشاه (( رح ))",
    "Polling_Center_Name": "Sadiqi Padshah Mosque",
    "د_مرکز_ځای__موقعیت_مرکز": "گذر دهقانان ",
    "Polling_Center_Location": "Guzar-e-Dehqanan",
    "Map_Accuracy": "Building",
    "Map_Accuracy_Dari": "تعمیر",
    "Status": "Open",
    "Status_Dari": null,
    "PS_Male": 2,
    "PS_Female": 1,
    "PS_Total": 3,
    "ولسوالي": "چاریکار",
    "Region": "Central Region"
   },
   "geometry": {
    "x": 7700340.4197669756,
    "y": 4167023.976805097
   }
  },
  {
   "attributes": {
    "OBJECTID": 529,
    "ولایت": "پروان",
    "Province": "PARWAN",
    "PC_Code": "0301030",
    "District": "CHARIKAR",
    "د_مرکز_نوم__نام_مرکز": "تعمیر شاروالی",
    "Polling_Center_Name": "Muncipality Building",
    "د_مرکز_ځای__موقعیت_مرکز": "پارچه 6  شهر چهاریکار",
    "Polling_Center_Location": "Parch 6, Charikar City",
    "Map_Accuracy": "Building",
    "Map_Accuracy_Dari": "تعمیر",
    "Status": "Open",
    "Status_Dari": null,
    "PS_Male": 3,
    "PS_Female": 1,
    "PS_Total": 4,
    "ولسوالي": "چاریکار",
    "Region": "Central Region"
   },
   "geometry": {
    "x": 7699639.1592951408,
    "y": 4164121.3007197715
   }
  },
  {
   "attributes": {
    "OBJECTID": 530,
    "ولایت": "پروان",
    "Province": "PARWAN",
    "PC_Code": "0301031",
    "District": "CHARIKAR",
    "د_مرکز_نوم__نام_مرکز": "لیسه حره جلالی ",
    "Polling_Center_Name": "Hura Jalali High School",
    "د_مرکز_ځای__موقعیت_مرکز": "پارچه 7 شهر چهاریکار",
    "Polling_Center_Location": "Parcha 7, Charikar City ",
    "Map_Accuracy": "Building",
    "Map_Accuracy_Dari": "تعمیر",
    "Status": "Open",
    "Status_Dari": null,
    "PS_Male": 2,
    "PS_Female": 1,
    "PS_Total": 3,
    "ولسوالي": "چاریکار",
    "Region": "Central Region"
   },
   "geometry": {
    "x": 7699925.1257086443,
    "y": 4165981.3447409733
   }
  },
  {
   "attributes": {
    "OBJECTID": 531,
    "ولایت": "پروان",
    "Province": "PARWAN",
    "PC_Code": "0302103",
    "District": "BAGRAM",
    "د_مرکز_نوم__نام_مرکز": "مکتب ملا محمد شهید و مسجد تونچی",
    "Polling_Center_Name": "Mula Mohammad Shaheed School and Tonchi Mosque",
    "د_مرکز_ځای__موقعیت_مرکز": "تونچی ",
    "Polling_Center_Location": "Tonchi ",
    "Map_Accuracy": "Building",
    "Map_Accuracy_Dari": "تعمیر",
    "Status": "Open",
    "Status_Dari": null,
    "PS_Male": 2,
    "PS_Female": 2,
    "PS_Total": 4,
    "ولسوالي": "بگرام ",
    "Region": "Central Region"
   },
   "geometry": {
    "x": 7705785.9098821664,
    "y": 4160624.788780563
   }
  },
  {
   "attributes": {
    "OBJECTID": 532,
    "ولایت": "پروان",
    "Province": "PARWAN",
    "PC_Code": "0302104",
    "District": "BAGRAM",
    "د_مرکز_نوم__نام_مرکز": "مکتب طالوت شهید",
    "Polling_Center_Name": "Talot Shaheed School",
    "د_مرکز_ځای__موقعیت_مرکز": "قلندرخیل ",
    "Polling_Center_Location": "Qalandar Khel",
    "Map_Accuracy": "Building",
    "Map_Accuracy_Dari": "تعمیر",
    "Status": "Open",
    "Status_Dari": null,
    "PS_Male": 2,
    "PS_Female": 1,
    "PS_Total": 3,
    "ولسوالي": "بگرام ",
    "Region": "Central Region"
   },
   "geometry": {
    "x": 7709276.7544168616,
    "y": 4162468.1165060024
   }
  },
  {
   "attributes": {
    "OBJECTID": 533,
    "ولایت": "پروان",
    "Province": "PARWAN",
    "PC_Code": "0302116",
    "District": "BAGRAM",
    "د_مرکز_نوم__نام_مرکز": "مکتب جانقدم",
    "Polling_Center_Name": "Janqadam School",
    "د_مرکز_ځای__موقعیت_مرکز": "جانقدم",
    "Polling_Center_Location": "Janqadam",
    "Map_Accuracy": "Building",
    "Map_Accuracy_Dari": "تعمیر",
    "Status": "Open",
    "Status_Dari": null,
    "PS_Male": 3,
    "PS_Female": 2,
    "PS_Total": 5,
    "ولسوالي": "بگرام ",
    "Region": "Central Region"
   },
   "geometry": {
    "x": 7709277.9867236279,
    "y": 4156503.6739343023
   }
  },
  {
   "attributes": {
    "OBJECTID": 534,
    "ولایت": "پروان",
    "Province": "PARWAN",
    "PC_Code": "0302117",
    "District": "BAGRAM",
    "د_مرکز_نوم__نام_مرکز": "مکتب شیرآقا شهید ",
    "Polling_Center_Name": "Sher Aqa Shaheed School",
    "د_مرکز_ځای__موقعیت_مرکز": "جعفرخیل ",
    "Polling_Center_Location": "Jafar Khel ",
    "Map_Accuracy": "Building",
    "Map_Accuracy_Dari": "تعمیر",
    "Status": "Open",
    "Status_Dari": null,
    "PS_Male": 3,
    "PS_Female": 1,
    "PS_Total": 4,
    "ولسوالي": "بگرام ",
    "Region": "Central Region"
   },
   "geometry": {
    "x": 7710352.8877267223,
    "y": 4159618.0051839119
   }
  },
  {
   "attributes": {
    "OBJECTID": 535,
    "ولایت": "پروان",
    "Province": "PARWAN",
    "PC_Code": "0303074",
    "District": "SHINWARI",
    "د_مرکز_نوم__نام_مرکز": "مکتب جان فدا شهید",
    "Polling_Center_Name": "Jan Fida Shaheed School",
    "د_مرکز_ځای__موقعیت_مرکز": "شیوه",
    "Polling_Center_Location": "Shewa",
    "Map_Accuracy": "Building",
    "Map_Accuracy_Dari": "تعمیر",
    "Status": "Open",
    "Status_Dari": null,
    "PS_Male": 1,
    "PS_Female": 1,
    "PS_Total": 2,
    "ولسوالي": "شینواری ",
    "Region": "Central Region"
   },
   "geometry": {
    "x": 7678973.334803246,
    "y": 4164631.1182572171
   }
  },
  {
   "attributes": {
    "OBJECTID": 536,
    "ولایت": "پروان",
    "Province": "PARWAN",
    "PC_Code": "0303075",
    "District": "SHINWARI",
    "د_مرکز_نوم__نام_مرکز": "مکتب متوسطه صوفی خیل",
    "Polling_Center_Name": "Sofi Khel Secondary School",
    "د_مرکز_ځای__موقعیت_مرکز": "صوفی خیل ",
    "Polling_Center_Location": "Sofi Khel ",
    "Map_Accuracy": "Building",
    "Map_Accuracy_Dari": "تعمیر",
    "Status": "Open",
    "Status_Dari": null,
    "PS_Male": 1,
    "PS_Female": 1,
    "PS_Total": 2,
    "ولسوالي": "شینواری ",
    "Region": "Central Region"
   },
   "geometry": {
    "x": 7685254.6161080934,
    "y": 4169791.6691620783
   }
  },
  {
   "attributes": {
    "OBJECTID": 537,
    "ولایت": "پروان",
    "Province": "PARWAN",
    "PC_Code": "0304040",
    "District": "SAYID KHIAL",
    "د_مرکز_نوم__نام_مرکز": "لیسه نسوان چینکی علیا",
    "Polling_Center_Name": "Chinki Ulya Girls High School",
    "د_مرکز_ځای__موقعیت_مرکز": "ملک خیل ",
    "Polling_Center_Location": "Malik Khel ",
    "Map_Accuracy": "Building",
    "Map_Accuracy_Dari": "تعمیر",
    "Status": "Open",
    "Status_Dari": null,
    "PS_Male": 2,
    "PS_Female": 1,
    "PS_Total": 3,
    "ولسوالي": "سیدخیل ",
    "Region": "Central Region"
   },
   "geometry": {
    "x": 7712458.9779084735,
    "y": 4177422.2943327231
   }
  },
  {
   "attributes": {
    "OBJECTID": 538,
    "ولایت": "پروان",
    "Province": "PARWAN",
    "PC_Code": "0304041",
    "District": "SAYID KHIAL",
    "د_مرکز_نوم__نام_مرکز": "مکتب سید رحمان شهید",
    "Polling_Center_Name": "Sayed Rahman Shaheed School",
    "د_مرکز_ځای__موقعیت_مرکز": "کما نگر",
    "Polling_Center_Location": "Kumangar",
    "Map_Accuracy": "Building",
    "Map_Accuracy_Dari": "تعمیر",
    "Status": "Open",
    "Status_Dari": null,
    "PS_Male": 1,
    "PS_Female": 1,
    "PS_Total": 2,
    "ولسوالي": "سیدخیل ",
    "Region": "Central Region"
   },
   "geometry": {
    "x": 7708344.5249259425,
    "y": 4172718.4120268053
   }
  },
  {
   "attributes": {
    "OBJECTID": 539,
    "ولایت": "پروان",
    "Province": "PARWAN",
    "PC_Code": "0304045",
    "District": "SAYID KHIAL",
    "د_مرکز_نوم__نام_مرکز": "مسجد خان جان خیل ",
    "Polling_Center_Name": "Khan Jan Khel Mosque",
    "د_مرکز_ځای__موقعیت_مرکز": "ملا سید خیل ",
    "Polling_Center_Location": "Mula Sayed Khel ",
    "Map_Accuracy": "Building",
    "Map_Accuracy_Dari": "تعمیر",
    "Status": "Open",
    "Status_Dari": null,
    "PS_Male": 1,
    "PS_Female": 1,
    "PS_Total": 2,
    "ولسوالي": "سیدخیل ",
    "Region": "Central Region"
   },
   "geometry": {
    "x": 7709036.1506958492,
    "y": 4171648.4265684527
   }
  },
  {
   "attributes": {
    "OBJECTID": 540,
    "ولایت": "پروان",
    "Province": "PARWAN",
    "PC_Code": "0304046",
    "District": "SAYID KHIAL",
    "د_مرکز_نوم__نام_مرکز": "مسجد و الحاقیه چینکی پایان ",
    "Polling_Center_Name": "Chinki Payan Mosque and Elhaqia",
    "د_مرکز_ځای__موقعیت_مرکز": "چینکی پایان ",
    "Polling_Center_Location": "Chinki Payan",
    "Map_Accuracy": "Building",
    "Map_Accuracy_Dari": "تعمیر",
    "Status": "Open",
    "Status_Dari": null,
    "PS_Male": 1,
    "PS_Female": 1,
    "PS_Total": 2,
    "ولسوالي": "سیدخیل ",
    "Region": "Central Region"
   },
   "geometry": {
    "x": 7711380.6593970088,
    "y": 4174253.4703529798
   }
  },
  {
   "attributes": {
    "OBJECTID": 541,
    "ولایت": "پروان",
    "Province": "PARWAN",
    "PC_Code": "0305055",
    "District": "JABULUSSARAJ",
    "د_مرکز_نوم__نام_مرکز": "مسجد جامی پنجاه خانه",
    "Polling_Center_Name": "Penjah Khana Mosque",
    "د_مرکز_ځای__موقعیت_مرکز": "بازار گلبهار ",
    "Polling_Center_Location": "Gul Bahar Bazar",
    "Map_Accuracy": "Building",
    "Map_Accuracy_Dari": "تعمیر",
    "Status": "Open",
    "Status_Dari": null,
    "PS_Male": 3,
    "PS_Female": 1,
    "PS_Total": 4,
    "ولسوالي": "جبل السراج",
    "Region": "Central Region"
   },
   "geometry": {
    "x": 7713130.8222048683,
    "y": 4184147.029571176
   }
  },
  {
   "attributes": {
    "OBJECTID": 542,
    "ولایت": "پروان",
    "Province": "PARWAN",
    "PC_Code": "0305056",
    "District": "JABULUSSARAJ",
    "د_مرکز_نوم__نام_مرکز": "مسجد جا می ملک جا ن خیل",
    "Polling_Center_Name": "Malik Jan Khel Mosque",
    "د_مرکز_ځای__موقعیت_مرکز": "ملک جان خیل ",
    "Polling_Center_Location": "Malik Jan Khel",
    "Map_Accuracy": "Building",
    "Map_Accuracy_Dari": "تعمیر",
    "Status": "Open",
    "Status_Dari": null,
    "PS_Male": 3,
    "PS_Female": 1,
    "PS_Total": 4,
    "ولسوالي": "جبل السراج",
    "Region": "Central Region"
   },
   "geometry": {
    "x": 7710205.4940417418,
    "y": 4179530.8770764256
   }
  },
  {
   "attributes": {
    "OBJECTID": 543,
    "ولایت": "پروان",
    "Province": "PARWAN",
    "PC_Code": "0308146",
    "District": "KOHI SAFI",
    "د_مرکز_نوم__نام_مرکز": "مکتب مومن خیل",
    "Polling_Center_Name": "Momin Khel School",
    "د_مرکز_ځای__موقعیت_مرکز": "مومن خیل",
    "Polling_Center_Location": "Momin Khail",
    "Map_Accuracy": "Building",
    "Map_Accuracy_Dari": "تعمیر",
    "Status": "Open",
    "Status_Dari": null,
    "PS_Male": 1,
    "PS_Female": 1,
    "PS_Total": 2,
    "ولسوالي": "کوه صافی",
    "Region": "Central Region"
   },
   "geometry": {
    "x": 7730949.7909822864,
    "y": 4133940.6186521733
   }
  },
  {
   "attributes": {
    "OBJECTID": 544,
    "ولایت": "پروان",
    "Province": "PARWAN",
    "PC_Code": "0308147",
    "District": "KOHI SAFI",
    "د_مرکز_نوم__نام_مرکز": "مسجد احمدزی",
    "Polling_Center_Name": "Ahmadzai Mosque",
    "د_مرکز_ځای__موقعیت_مرکز": "احمدزی",
    "Polling_Center_Location": "Ahmadzai",
    "Map_Accuracy": "Village",
    "Map_Accuracy_Dari": "قریه",
    "Status": "Open",
    "Status_Dari": null,
    "PS_Male": 1,
    "PS_Female": 1,
    "PS_Total": 2,
    "ولسوالي": "کوه صافی",
    "Region": "Central Region"
   },
   "geometry": {
    "x": 7729995.9710761216,
    "y": 4150273.2346901321
   }
  },
  {
   "attributes": {
    "OBJECTID": 545,
    "ولایت": "پروان",
    "Province": "PARWAN",
    "PC_Code": "0309134",
    "District": "SURKHI PARSA",
    "د_مرکز_نوم__نام_مرکز": "لیسه شهید زلفقار",
    "Polling_Center_Name": "Shaheed Zulfaqar High School",
    "د_مرکز_ځای__موقعیت_مرکز": "علی خانی ",
    "Polling_Center_Location": "Ali Khani",
    "Map_Accuracy": "Building",
    "Map_Accuracy_Dari": "تعمیر",
    "Status": "Open",
    "Status_Dari": null,
    "PS_Male": 1,
    "PS_Female": 1,
    "PS_Total": 2,
    "ولسوالي": "سرخ پارسا ",
    "Region": "Central Region"
   },
   "geometry": {
    "x": 7632571.8477787264,
    "y": 4134624.7204252477
   }
  },
  {
   "attributes": {
    "OBJECTID": 546,
    "ولایت": "پروان",
    "Province": "PARWAN",
    "PC_Code": "0309135",
    "District": "SURKHI PARSA",
    "د_مرکز_نوم__نام_مرکز": "لیسه خدری",
    "Polling_Center_Name": "Khedri High School",
    "د_مرکز_ځای__موقعیت_مرکز": "دهن پرنداز ",
    "Polling_Center_Location": "Dahan-e-Parandaz",
    "Map_Accuracy": "Building",
    "Map_Accuracy_Dari": "تعمیر",
    "Status": "Open",
    "Status_Dari": null,
    "PS_Male": 1,
    "PS_Female": 1,
    "PS_Total": 2,
    "ولسوالي": "سرخ پارسا ",
    "Region": "Central Region"
   },
   "geometry": {
    "x": 7623753.7667107135,
    "y": 4130650.3710340825
   }
  },
  {
   "attributes": {
    "OBJECTID": 547,
    "ولایت": "پروان",
    "Province": "PARWAN",
    "PC_Code": "0310122",
    "District": "SHAYKH ALI",
    "د_مرکز_نوم__نام_مرکز": "لیسه ذکور امام مهدی",
    "Polling_Center_Name": "Imam-e-Mahdi Boys High School",
    "د_مرکز_ځای__موقعیت_مرکز": "چوچه شیر ",
    "Polling_Center_Location": "Chocha Sheer",
    "Map_Accuracy": "Building",
    "Map_Accuracy_Dari": "تعمیر",
    "Status": "Open",
    "Status_Dari": null,
    "PS_Male": 2,
    "PS_Female": 1,
    "PS_Total": 3,
    "ولسوالي": "شیخ علی ",
    "Region": "Central Region"
   },
   "geometry": {
    "x": 7606349.6255629575,
    "y": 4153141.5667042392
   }
  },
  {
   "attributes": {
    "OBJECTID": 548,
    "ولایت": "پروان",
    "Province": "PARWAN",
    "PC_Code": "0310124",
    "District": "SHAYKH ALI",
    "د_مرکز_نوم__نام_مرکز": "لیسه ابوبکر صدیق رض ",
    "Polling_Center_Name": "Abu Bakr-e-Sediq High School",
    "د_مرکز_ځای__موقعیت_مرکز": "تپه زیارت قرلق بابا",
    "Polling_Center_Location": "Tapa Ziarat-e-Qarlaq Baba",
    "Map_Accuracy": "Building",
    "Map_Accuracy_Dari": "تعمیر",
    "Status": "Open",
    "Status_Dari": null,
    "PS_Male": 1,
    "PS_Female": 1,
    "PS_Total": 2,
    "ولسوالي": "شیخ علی ",
    "Region": "Central Region"
   },
   "geometry": {
    "x": 7634450.0558308717,
    "y": 4159141.6636722772
   }
  },
  {
   "attributes": {
    "OBJECTID": 549,
    "ولایت": "پروان",
    "Province": "PARWAN",
    "PC_Code": "0310125",
    "District": "SHAYKH ALI",
    "د_مرکز_نوم__نام_مرکز": "متوسطه حضر ت علی",
    "Polling_Center_Name": "Hazrat Ali Secondary School",
    "د_مرکز_ځای__موقعیت_مرکز": "بدل دره نرخ",
    "Polling_Center_Location": "Badal Dara Nerkh",
    "Map_Accuracy": "Building",
    "Map_Accuracy_Dari": "تعمیر",
    "Status": "Open",
    "Status_Dari": null,
    "PS_Male": 1,
    "PS_Female": 1,
    "PS_Total": 2,
    "ولسوالي": "شیخ علی ",
    "Region": "Central Region"
   },
   "geometry": {
    "x": 7623077.8837431921,
    "y": 4152371.1693303525
   }
  },
  {
   "attributes": {
    "OBJECTID": 550,
    "ولایت": "پروان",
    "Province": "PARWAN",
    "PC_Code": "0306066",
    "District": "SALANG",
    "د_مرکز_نوم__نام_مرکز": "لیسه آهنگران",
    "Polling_Center_Name": "Aahangaran Mosque",
    "د_مرکز_ځای__موقعیت_مرکز": "آهنگران",
    "Polling_Center_Location": "Ahangaran Salang",
    "Map_Accuracy": "Building",
    "Map_Accuracy_Dari": "تعمیر",
    "Status": "Open",
    "Status_Dari": null,
    "PS_Male": 2,
    "PS_Female": 1,
    "PS_Total": 3,
    "ولسوالي": "سالنگ ",
    "Region": "Central Region"
   },
   "geometry": {
    "x": 7697839.641543881,
    "y": 4196437.8471860727
   }
  },
  {
   "attributes": {
    "OBJECTID": 551,
    "ولایت": "پروان",
    "Province": "PARWAN",
    "PC_Code": "0306067",
    "District": "SALANG",
    "د_مرکز_نوم__نام_مرکز": "مکتب متوسطه حاجی عبدالحکیم",
    "Polling_Center_Name": "Tatumzar Mosque",
    "د_مرکز_ځای__موقعیت_مرکز": "قریه تتمزار",
    "Polling_Center_Location": "Tutumzar Village",
    "Map_Accuracy": "Building",
    "Map_Accuracy_Dari": "تعمیر",
    "Status": "Open",
    "Status_Dari": null,
    "PS_Male": 1,
    "PS_Female": 1,
    "PS_Total": 2,
    "ولسوالي": "سالنگ ",
    "Region": "Central Region"
   },
   "geometry": {
    "x": 7703264.1558387419,
    "y": 4185932.5684212716
   }
  },
  {
   "attributes": {
    "OBJECTID": 552,
    "ولایت": "پروان",
    "Province": "PARWAN",
    "PC_Code": "0309136",
    "District": "SURKHI PARSA",
    "د_مرکز_نوم__نام_مرکز": "لیسه اظهارالحق شهید ",
    "Polling_Center_Name": "Abdul Parsa Mosque",
    "د_مرکز_ځای__موقعیت_مرکز": "قریه ابدال ",
    "Polling_Center_Location": "Abdal Village ",
    "Map_Accuracy": "Building",
    "Map_Accuracy_Dari": "تعمیر",
    "Status": "Open",
    "Status_Dari": null,
    "PS_Male": 1,
    "PS_Female": 1,
    "PS_Total": 2,
    "ولسوالي": "سرخ پارسا ",
    "Region": "Central Region"
   },
   "geometry": {
    "x": 7650947.0957476785,
    "y": 4147276.975009196
   }
  },
  {
   "attributes": {
    "OBJECTID": 553,
    "ولایت": "پروان",
    "Province": "PARWAN",
    "PC_Code": "0309139",
    "District": "SURKHI PARSA",
    "د_مرکز_نوم__نام_مرکز": "لیسه ذکور دهن خاکریز",
    "Polling_Center_Name": "Membar-e-Dahane Khakrez ",
    "د_مرکز_ځای__موقعیت_مرکز": "دهن خاکریز",
    "Polling_Center_Location": "Dahan-e-Khakriz",
    "Map_Accuracy": "Building",
    "Map_Accuracy_Dari": "تعمیر",
    "Status": "Open",
    "Status_Dari": null,
    "PS_Male": 1,
    "PS_Female": 1,
    "PS_Total": 2,
    "ولسوالي": "سرخ پارسا ",
    "Region": "Central Region"
   },
   "geometry": {
    "x": 7612253.9589231564,
    "y": 4125033.9348057527
   }
  },
  {
   "attributes": {
    "OBJECTID": 554,
    "ولایت": "پروان",
    "Province": "PARWAN",
    "PC_Code": "0309141",
    "District": "SURKHI PARSA",
    "د_مرکز_نوم__نام_مرکز": "لیسه شهید حق بین وند",
    "Polling_Center_Name": "Wand Mosque",
    "د_مرکز_ځای__موقعیت_مرکز": "وند",
    "Polling_Center_Location": "Deyar Wand ",
    "Map_Accuracy": "Building",
    "Map_Accuracy_Dari": "تعمیر",
    "Status": "Open",
    "Status_Dari": null,
    "PS_Male": 1,
    "PS_Female": 1,
    "PS_Total": 2,
    "ولسوالي": "سرخ پارسا ",
    "Region": "Central Region"
   },
   "geometry": {
    "x": 7659016.758958525,
    "y": 4135603.3631868074
   }
  },
  {
   "attributes": {
    "OBJECTID": 555,
    "ولایت": "وردک",
    "Province": "WARDAK",
    "PC_Code": "0401008",
    "District": "MAYDAN SHAHR",
    "د_مرکز_نوم__نام_مرکز": "مکتب اناث کوته اشرو",
    "Polling_Center_Name": "Kute Ashru Girls School",
    "د_مرکز_ځای__موقعیت_مرکز": "قریه طور خیل",
    "Polling_Center_Location": "Tur Khel Village",
    "Map_Accuracy": "Village",
    "Map_Accuracy_Dari": "قریه",
    "Status": "Open",
    "Status_Dari": null,
    "PS_Male": 3,
    "PS_Female": 2,
    "PS_Total": 5,
    "ولسوالي": "میدان شهر",
    "Region": "Central Region"
   },
   "geometry": {
    "x": 7660190.1600111788,
    "y": 4084328.5318884156
   }
  },
  {
   "attributes": {
    "OBJECTID": 556,
    "ولایت": "وردک",
    "Province": "WARDAK",
    "PC_Code": "0402150",
    "District": "NERKH",
    "د_مرکز_نوم__نام_مرکز": "مکتب و کلینیک",
    "Polling_Center_Name": "School and Clinic",
    "د_مرکز_ځای__موقعیت_مرکز": "عمر خیل یک",
    "Polling_Center_Location": "Omer Khel Yak",
    "Map_Accuracy": "Building",
    "Map_Accuracy_Dari": "تعمیر",
    "Status": "Open",
    "Status_Dari": null,
    "PS_Male": 1,
    "PS_Female": 1,
    "PS_Total": 2,
    "ولسوالي": "نرخ",
    "Region": "Central Region"
   },
   "geometry": {
    "x": 7649225.8580849841,
    "y": 4076569.1004914371
   }
  },
  {
   "attributes": {
    "OBJECTID": 557,
    "ولایت": "پروان",
    "Province": "PARWAN",
    "PC_Code": "0301005",
    "District": "CHARIKAR",
    "د_مرکز_نوم__نام_مرکز": "لیسه ده قاضی",
    "Polling_Center_Name": "Deh Qazi High School ",
    "د_مرکز_ځای__موقعیت_مرکز": "ده فاضی",
    "Polling_Center_Location": "Deh Qazi ",
    "Map_Accuracy": "Building",
    "Map_Accuracy_Dari": "تعمیر",
    "Status": "Open",
    "Status_Dari": null,
    "PS_Male": 3,
    "PS_Female": 1,
    "PS_Total": 4,
    "ولسوالي": "چاریکار",
    "Region": "Central Region"
   },
   "geometry": {
    "x": 7708115.7310897103,
    "y": 4165972.8972118092
   }
  },
  {
   "attributes": {
    "OBJECTID": 558,
    "ولایت": "پروان",
    "Province": "PARWAN",
    "PC_Code": "0301008",
    "District": "CHARIKAR",
    "د_مرکز_نوم__نام_مرکز": "لیسه عمر فاروق",
    "Polling_Center_Name": "Omer Farooq High School ",
    "د_مرکز_ځای__موقعیت_مرکز": "تتمدره سفلی",
    "Polling_Center_Location": "Tatumdara-e-Sufla",
    "Map_Accuracy": "Building",
    "Map_Accuracy_Dari": "تعمیر",
    "Status": "Open",
    "Status_Dari": null,
    "PS_Male": 3,
    "PS_Female": 1,
    "PS_Total": 4,
    "ولسوالي": "چاریکار",
    "Region": "Central Region"
   },
   "geometry": {
    "x": 7704106.3971023364,
    "y": 4172613.2663673782
   }
  },
  {
   "attributes": {
    "OBJECTID": 559,
    "ولایت": "پروان",
    "Province": "PARWAN",
    "PC_Code": "0301009",
    "District": "CHARIKAR",
    "د_مرکز_نوم__نام_مرکز": "مسجد صوفی قلندر ",
    "Polling_Center_Name": "Sofi Qalandar Mosque",
    "د_مرکز_ځای__موقعیت_مرکز": "چاریکار ",
    "Polling_Center_Location": "Charikar",
    "Map_Accuracy": "Building",
    "Map_Accuracy_Dari": "تعمیر",
    "Status": "Open",
    "Status_Dari": null,
    "PS_Male": 3,
    "PS_Female": 1,
    "PS_Total": 4,
    "ولسوالي": "چاریکار",
    "Region": "Central Region"
   },
   "geometry": {
    "x": 7700525.0064070234,
    "y": 4166342.8098585629
   }
  },
  {
   "attributes": {
    "OBJECTID": 560,
    "ولایت": "پروان",
    "Province": "PARWAN",
    "PC_Code": "0301014",
    "District": "CHARIKAR",
    "د_مرکز_نوم__نام_مرکز": "مکتب متوسطه قلعچه سوخته ",
    "Polling_Center_Name": "Qalach-e-Sokhta Secondary School",
    "د_مرکز_ځای__موقعیت_مرکز": "قلعچه سوخته",
    "Polling_Center_Location": "Qalacha-e-Sokhta",
    "Map_Accuracy": "Building",
    "Map_Accuracy_Dari": "تعمیر",
    "Status": "Open",
    "Status_Dari": null,
    "PS_Male": 2,
    "PS_Female": 1,
    "PS_Total": 3,
    "ولسوالي": "چاریکار",
    "Region": "Central Region"
   },
   "geometry": {
    "x": 7704571.5645189276,
    "y": 4163055.1064130533
   }
  },
  {
   "attributes": {
    "OBJECTID": 561,
    "ولایت": "پروان",
    "Province": "PARWAN",
    "PC_Code": "0301015",
    "District": "CHARIKAR",
    "د_مرکز_نوم__نام_مرکز": "مسجد جامی عبدی بای",
    "Polling_Center_Name": "Abdi by Mosque",
    "د_مرکز_ځای__موقعیت_مرکز": "عبدی بای",
    "Polling_Center_Location": "Abdi By",
    "Map_Accuracy": "Building",
    "Map_Accuracy_Dari": "تعمیر",
    "Status": "Open",
    "Status_Dari": null,
    "PS_Male": 2,
    "PS_Female": 1,
    "PS_Total": 3,
    "ولسوالي": "چاریکار",
    "Region": "Central Region"
   },
   "geometry": {
    "x": 7707190.2765030023,
    "y": 4166517.4151011938
   }
  },
  {
   "attributes": {
    "OBJECTID": 562,
    "ولایت": "پروان",
    "Province": "PARWAN",
    "PC_Code": "0301025",
    "District": "CHARIKAR",
    "د_مرکز_نوم__نام_مرکز": "مکتب متوسطه بایان بالا",
    "Polling_Center_Name": "Bayan Bala Secondary School",
    "د_مرکز_ځای__موقعیت_مرکز": "بایان بالا ",
    "Polling_Center_Location": "Bayan Bala",
    "Map_Accuracy": "Building",
    "Map_Accuracy_Dari": "تعمیر",
    "Status": "Open",
    "Status_Dari": null,
    "PS_Male": 2,
    "PS_Female": 1,
    "PS_Total": 3,
    "ولسوالي": "چاریکار",
    "Region": "Central Region"
   },
   "geometry": {
    "x": 7704333.3730912833,
    "y": 4169064.8567375159
   }
  },
  {
   "attributes": {
    "OBJECTID": 563,
    "ولایت": "پروان",
    "Province": "PARWAN",
    "PC_Code": "0301026",
    "District": "CHARIKAR",
    "د_مرکز_نوم__نام_مرکز": "مسجد جامع بالاغیل ",
    "Polling_Center_Name": "Bala Ghail Mosque",
    "د_مرکز_ځای__موقعیت_مرکز": " بالاغیل",
    "Polling_Center_Location": "Bala Ghail",
    "Map_Accuracy": "Building",
    "Map_Accuracy_Dari": "تعمیر",
    "Status": "Open",
    "Status_Dari": null,
    "PS_Male": 3,
    "PS_Female": 1,
    "PS_Total": 4,
    "ولسوالي": "چاریکار",
    "Region": "Central Region"
   },
   "geometry": {
    "x": 7704397.6061072601,
    "y": 4169307.1674468662
   }
  },
  {
   "attributes": {
    "OBJECTID": 564,
    "ولایت": "پروان",
    "Province": "PARWAN",
    "PC_Code": "0304043",
    "District": "SAYID KHIAL",
    "د_مرکز_نوم__نام_مرکز": "مدرسه انچو",
    "Polling_Center_Name": "Ancho Madrassa ",
    "د_مرکز_ځای__موقعیت_مرکز": "بالا ده انچو ",
    "Polling_Center_Location": "Bala Deh Ancho ",
    "Map_Accuracy": "Building",
    "Map_Accuracy_Dari": "تعمیر",
    "Status": "Open",
    "Status_Dari": null,
    "PS_Male": 2,
    "PS_Female": 1,
    "PS_Total": 3,
    "ولسوالي": "سیدخیل ",
    "Region": "Central Region"
   },
   "geometry": {
    "x": 7712271.9945597872,
    "y": 4166440.1782279368
   }
  },
  {
   "attributes": {
    "OBJECTID": 565,
    "ولایت": "پروان",
    "Province": "PARWAN",
    "PC_Code": "0305053",
    "District": "JABULUSSARAJ",
    "د_مرکز_نوم__نام_مرکز": "فا بریکی سمنت",
    "Polling_Center_Name": "Cement Factory",
    "د_مرکز_ځای__موقعیت_مرکز": "عشق آباد ",
    "Polling_Center_Location": "Eshq Abad ",
    "Map_Accuracy": "Building",
    "Map_Accuracy_Dari": "تعمیر",
    "Status": "Open",
    "Status_Dari": null,
    "PS_Male": 3,
    "PS_Female": 1,
    "PS_Total": 4,
    "ولسوالي": "جبل السراج",
    "Region": "Central Region"
   },
   "geometry": {
    "x": 7708169.673175361,
    "y": 4181232.5893619014
   }
  },
  {
   "attributes": {
    "OBJECTID": 566,
    "ولایت": "پروان",
    "Province": "PARWAN",
    "PC_Code": "0305061",
    "District": "JABULUSSARAJ",
    "د_مرکز_نوم__نام_مرکز": "لیسه نسوان نمبر ۱ ګلبهار",
    "Polling_Center_Name": "Gul Bahar No.1 Girls High School",
    "د_مرکز_ځای__موقعیت_مرکز": "ګل مرزا خیل",
    "Polling_Center_Location": "Gul Mirza Khel ",
    "Map_Accuracy": "Building",
    "Map_Accuracy_Dari": "تعمیر",
    "Status": "Open",
    "Status_Dari": null,
    "PS_Male": 3,
    "PS_Female": 1,
    "PS_Total": 4,
    "ولسوالي": "جبل السراج",
    "Region": "Central Region"
   },
   "geometry": {
    "x": 7711740.5953857573,
    "y": 4183266.8327064854
   }
  },
  {
   "attributes": {
    "OBJECTID": 567,
    "ولایت": "پروان",
    "Province": "PARWAN",
    "PC_Code": "0305062",
    "District": "JABULUSSARAJ",
    "د_مرکز_نوم__نام_مرکز": "مسجد جامع آهنگران چپ قول",
    "Polling_Center_Name": "Aahangaran Chap Qol Mosque",
    "د_مرکز_ځای__موقعیت_مرکز": "آهنگران ",
    "Polling_Center_Location": "Ahangaran",
    "Map_Accuracy": "Building",
    "Map_Accuracy_Dari": "تعمیر",
    "Status": "Open",
    "Status_Dari": null,
    "PS_Male": 3,
    "PS_Female": 1,
    "PS_Total": 4,
    "ولسوالي": "جبل السراج",
    "Region": "Central Region"
   },
   "geometry": {
    "x": 7691502.8733728016,
    "y": 4180360.2059340444
   }
  },
  {
   "attributes": {
    "OBJECTID": 568,
    "ولایت": "پروان",
    "Province": "PARWAN",
    "PC_Code": "0306071",
    "District": "SALANG",
    "د_مرکز_نوم__نام_مرکز": "مکتب متوسطه للمی سبزک",
    "Polling_Center_Name": "Lalmi Sabzak Secondary School",
    "د_مرکز_ځای__موقعیت_مرکز": "للمی سبزک",
    "Polling_Center_Location": "Lalmi Sabzak",
    "Map_Accuracy": "Building",
    "Map_Accuracy_Dari": "تعمیر",
    "Status": "Open",
    "Status_Dari": null,
    "PS_Male": 1,
    "PS_Female": 1,
    "PS_Total": 2,
    "ولسوالي": "سالنگ ",
    "Region": "Central Region"
   },
   "geometry": {
    "x": 7700725.6575627923,
    "y": 4179045.7283450603
   }
  },
  {
   "attributes": {
    "OBJECTID": 569,
    "ولایت": "پروان",
    "Province": "PARWAN",
    "PC_Code": "0307092",
    "District": "SYAHGIRDI GHORBAND",
    "د_مرکز_نوم__نام_مرکز": "مکتب متوسطه حضرت علی رض",
    "Polling_Center_Name": "Hazrat Ali Secondary School",
    "د_مرکز_ځای__موقعیت_مرکز": "قریه سیاگرد",
    "Polling_Center_Location": "Seya Gird Village",
    "Map_Accuracy": "Building",
    "Map_Accuracy_Dari": "تعمیر",
    "Status": "Open",
    "Status_Dari": null,
    "PS_Male": 1,
    "PS_Female": 1,
    "PS_Total": 2,
    "ولسوالي": "سیاه گرد غوربند",
    "Region": "Central Region"
   },
   "geometry": {
    "x": 7664069.8791494481,
    "y": 4163963.0584012996
   }
  },
  {
   "attributes": {
    "OBJECTID": 570,
    "ولایت": "پروان",
    "Province": "PARWAN",
    "PC_Code": "0306070",
    "District": "SALANG",
    "د_مرکز_نوم__نام_مرکز": "مکتب متوسطه ویوا",
    "Polling_Center_Name": "Viva Mosque",
    "د_مرکز_ځای__موقعیت_مرکز": "ویوا",
    "Polling_Center_Location": "Veva",
    "Map_Accuracy": "Building",
    "Map_Accuracy_Dari": "تعمیر",
    "Status": "Open",
    "Status_Dari": null,
    "PS_Male": 1,
    "PS_Female": 1,
    "PS_Total": 2,
    "ولسوالي": "سالنگ ",
    "Region": "Central Region"
   },
   "geometry": {
    "x": 7700512.0600615619,
    "y": 4205210.4032811476
   }
  },
  {
   "attributes": {
    "OBJECTID": 571,
    "ولایت": "پروان",
    "Province": "PARWAN",
    "PC_Code": "0306068",
    "District": "SALANG",
    "د_مرکز_نوم__نام_مرکز": "مکتب متوسطه انجینر محمد گل شهید",
    "Polling_Center_Name": "Roye Aab Madrassa",
    "د_مرکز_ځای__موقعیت_مرکز": "مدرسه،روی آب",
    "Polling_Center_Location": "Roy Aab",
    "Map_Accuracy": "Building",
    "Map_Accuracy_Dari": "تعمیر",
    "Status": "Open",
    "Status_Dari": null,
    "PS_Male": 1,
    "PS_Female": 1,
    "PS_Total": 2,
    "ولسوالي": "سالنگ ",
    "Region": "Central Region"
   },
   "geometry": {
    "x": 7697833.6420912426,
    "y": 4176481.2169773909
   }
  },
  {
   "attributes": {
    "OBJECTID": 572,
    "ولایت": "وردک",
    "Province": "WARDAK",
    "PC_Code": "0401003",
    "District": "MAYDAN SHAHR",
    "د_مرکز_نوم__نام_مرکز": "مکتب ده افغانان",
    "Polling_Center_Name": "Deh Afghanan School",
    "د_مرکز_ځای__موقعیت_مرکز": "ده افغانان",
    "Polling_Center_Location": "Deh Afghanan",
    "Map_Accuracy": "Building",
    "Map_Accuracy_Dari": "تعمیر",
    "Status": "Open",
    "Status_Dari": null,
    "PS_Male": 3,
    "PS_Female": 1,
    "PS_Total": 4,
    "ولسوالي": "میدان شهر",
    "Region": "Central Region"
   },
   "geometry": {
    "x": 7663034.8416560041,
    "y": 4080402.6751227239
   }
  },
  {
   "attributes": {
    "OBJECTID": 573,
    "ولایت": "وردک",
    "Province": "WARDAK",
    "PC_Code": "0401004",
    "District": "MAYDAN SHAHR",
    "د_مرکز_نوم__نام_مرکز": "مکتب چارکه",
    "Polling_Center_Name": "Charka School",
    "د_مرکز_ځای__موقعیت_مرکز": "قریه گردنی",
    "Polling_Center_Location": "Gardani Village",
    "Map_Accuracy": "District",
    "Map_Accuracy_Dari": "ولسوالی",
    "Status": "Open",
    "Status_Dari": null,
    "PS_Male": 3,
    "PS_Female": 1,
    "PS_Total": 4,
    "ولسوالي": "میدان شهر",
    "Region": "Central Region"
   },
   "geometry": {
    "x": 7661552.8864632873,
    "y": 4086303.8305178992
   }
  },
  {
   "attributes": {
    "OBJECTID": 574,
    "ولایت": "وردک",
    "Province": "WARDAK",
    "PC_Code": "0402143",
    "District": "NERKH",
    "د_مرکز_نوم__نام_مرکز": "ده حیات خانه محد ولی ",
    "Polling_Center_Name": "Mohammad Wali House",
    "د_مرکز_ځای__موقعیت_مرکز": "ده حیات",
    "Polling_Center_Location": "Deh Hayat",
    "Map_Accuracy": "Village",
    "Map_Accuracy_Dari": "قریه",
    "Status": "Open",
    "Status_Dari": null,
    "PS_Male": 2,
    "PS_Female": 1,
    "PS_Total": 3,
    "ولسوالي": "نرخ",
    "Region": "Central Region"
   },
   "geometry": {
    "x": 7655657.8359241104,
    "y": 4078517.9248425458
   }
  },
  {
   "attributes": {
    "OBJECTID": 575,
    "ولایت": "وردک",
    "Province": "WARDAK",
    "PC_Code": "0402149",
    "District": "NERKH",
    "د_مرکز_نوم__نام_مرکز": "منزل ملک قریه",
    "Polling_Center_Name": "Malik Qarya House",
    "د_مرکز_ځای__موقعیت_مرکز": "قریه بین بادیم",
    "Polling_Center_Location": "Bain Badim Village",
    "Map_Accuracy": "Village",
    "Map_Accuracy_Dari": "قریه",
    "Status": "Open",
    "Status_Dari": null,
    "PS_Male": 1,
    "PS_Female": 1,
    "PS_Total": 2,
    "ولسوالي": "نرخ",
    "Region": "Central Region"
   },
   "geometry": {
    "x": 7657392.8425832968,
    "y": 4061518.0600241981
   }
  },
  {
   "attributes": {
    "OBJECTID": 576,
    "ولایت": "وردک",
    "Province": "WARDAK",
    "PC_Code": "0403018",
    "District": "JALREZ",
    "د_مرکز_نوم__نام_مرکز": "مکتب امام عظم",
    "Polling_Center_Name": "Imam-e-Azam School",
    "د_مرکز_ځای__موقعیت_مرکز": "سیاه پهتاب",
    "Polling_Center_Location": "Sia Pehtab",
    "Map_Accuracy": "Building",
    "Map_Accuracy_Dari": "تعمیر",
    "Status": "Open",
    "Status_Dari": null,
    "PS_Male": 2,
    "PS_Female": 1,
    "PS_Total": 3,
    "ولسوالي": "جلریز",
    "Region": "Central Region"
   },
   "geometry": {
    "x": 7634797.9425979387,
    "y": 4090531.3051601304
   }
  },
  {
   "attributes": {
    "OBJECTID": 577,
    "ولایت": "وردک",
    "Province": "WARDAK",
    "PC_Code": "0403019",
    "District": "JALREZ",
    "د_مرکز_نوم__نام_مرکز": "متوسطه غلام دستگیر شهید",
    "Polling_Center_Name": "Ghulam Dastager-e-Shaheed Secondary School",
    "د_مرکز_ځای__موقعیت_مرکز": "قریه قوم جمیل",
    "Polling_Center_Location": "Qawmi Jamil Village",
    "Map_Accuracy": "Building",
    "Map_Accuracy_Dari": "تعمیر",
    "Status": "Open",
    "Status_Dari": null,
    "PS_Male": 2,
    "PS_Female": 1,
    "PS_Total": 3,
    "ولسوالي": "جلریز",
    "Region": "Central Region"
   },
   "geometry": {
    "x": 7630547.2245399226,
    "y": 4088268.3674328052
   }
  },
  {
   "attributes": {
    "OBJECTID": 578,
    "ولایت": "وردک",
    "Province": "WARDAK",
    "PC_Code": "0404089",
    "District": "CHAKI WARDAK",
    "د_مرکز_نوم__نام_مرکز": "مکتب اله سنگ",
    "Polling_Center_Name": "Alasang School",
    "د_مرکز_ځای__موقعیت_مرکز": "اله سنگ",
    "Polling_Center_Location": "Alasang",
    "Map_Accuracy": "Village",
    "Map_Accuracy_Dari": "قریه",
    "Status": "Open",
    "Status_Dari": null,
    "PS_Male": 2,
    "PS_Female": 1,
    "PS_Total": 3,
    "ولسوالي": "چک وردک",
    "Region": "Central Region"
   },
   "geometry": {
    "x": 7654550.7669277508,
    "y": 4058140.3488454367
   }
  },
  {
   "attributes": {
    "OBJECTID": 579,
    "ولایت": "وردک",
    "Province": "WARDAK",
    "PC_Code": "0405118",
    "District": "SAYYD ABAD",
    "د_مرکز_نوم__نام_مرکز": "مکتب شش قلعه",
    "Polling_Center_Name": "Shash Qala School",
    "د_مرکز_ځای__موقعیت_مرکز": "شش قلعه",
    "Polling_Center_Location": "Shash Qala",
    "Map_Accuracy": "Village",
    "Map_Accuracy_Dari": "قریه",
    "Status": "Open",
    "Status_Dari": null,
    "PS_Male": 1,
    "PS_Female": 1,
    "PS_Total": 2,
    "ولسوالي": "سید آباد",
    "Region": "Central Region"
   },
   "geometry": {
    "x": 7630522.9067971613,
    "y": 3995369.8598635462
   }
  },
  {
   "attributes": {
    "OBJECTID": 580,
    "ولایت": "وردک",
    "Province": "WARDAK",
    "PC_Code": "0405119",
    "District": "SAYYD ABAD",
    "د_مرکز_نوم__نام_مرکز": "مکتب لوړه",
    "Polling_Center_Name": "Lura School",
    "د_مرکز_ځای__موقعیت_مرکز": "لوړه",
    "Polling_Center_Location": "Lurra",
    "Map_Accuracy": "Village",
    "Map_Accuracy_Dari": "قریه",
    "Status": "Open",
    "Status_Dari": null,
    "PS_Male": 1,
    "PS_Female": 1,
    "PS_Total": 2,
    "ولسوالي": "سید آباد",
    "Region": "Central Region"
   },
   "geometry": {
    "x": 7633331.4541352736,
    "y": 3998882.5706217024
   }
  },
  {
   "attributes": {
    "OBJECTID": 581,
    "ولایت": "وردک",
    "Province": "WARDAK",
    "PC_Code": "0405131",
    "District": "SAYYD ABAD",
    "د_مرکز_نوم__نام_مرکز": "خانه شخصی",
    "Polling_Center_Name": "Private House",
    "د_مرکز_ځای__موقعیت_مرکز": "قریه چی جان",
    "Polling_Center_Location": "Che Jan Village",
    "Map_Accuracy": "Village",
    "Map_Accuracy_Dari": "قریه",
    "Status": "Open",
    "Status_Dari": null,
    "PS_Male": 1,
    "PS_Female": 1,
    "PS_Total": 2,
    "ولسوالي": "سید آباد",
    "Region": "Central Region"
   },
   "geometry": {
    "x": 7645275.7983868727,
    "y": 4039854.8158528781
   }
  },
  {
   "attributes": {
    "OBJECTID": 582,
    "ولایت": "وردک",
    "Province": "WARDAK",
    "PC_Code": "0405141",
    "District": "SAYYD ABAD",
    "د_مرکز_نوم__نام_مرکز": "خیمه کوه سلار",
    "Polling_Center_Name": "Tent of Koh-e-Salar",
    "د_مرکز_ځای__موقعیت_مرکز": "کوه سلار",
    "Polling_Center_Location": "Koh-e-Salar",
    "Map_Accuracy": "Village",
    "Map_Accuracy_Dari": "قریه",
    "Status": "Open",
    "Status_Dari": null,
    "PS_Male": 2,
    "PS_Female": 1,
    "PS_Total": 3,
    "ولسوالي": "سید آباد",
    "Region": "Central Region"
   },
   "geometry": {
    "x": 7640827.9290578822,
    "y": 4011343.712057963
   }
  },
  {
   "attributes": {
    "OBJECTID": 583,
    "ولایت": "وردک",
    "Province": "WARDAK",
    "PC_Code": "0408077",
    "District": "JAGHATU",
    "د_مرکز_نوم__نام_مرکز": "کلینیک لاغری",
    "Polling_Center_Name": "Laghari Clinic",
    "د_مرکز_ځای__موقعیت_مرکز": "لاغری",
    "Polling_Center_Location": "Laghari",
    "Map_Accuracy": "Village",
    "Map_Accuracy_Dari": "قریه",
    "Status": "Open",
    "Status_Dari": null,
    "PS_Male": 1,
    "PS_Female": 1,
    "PS_Total": 2,
    "ولسوالي": "جغتو",
    "Region": "Central Region"
   },
   "geometry": {
    "x": 7611779.8693606928,
    "y": 4001580.1845845892
   }
  },
  {
   "attributes": {
    "OBJECTID": 584,
    "ولایت": "وردک",
    "Province": "WARDAK",
    "PC_Code": "0408078",
    "District": "JAGHATU",
    "د_مرکز_نوم__نام_مرکز": "مکتب نظر خان بند سلطان",
    "Polling_Center_Name": "Nazar Khan School",
    "د_مرکز_ځای__موقعیت_مرکز": "بند سلطان ",
    "Polling_Center_Location": "Band-e-Sultan",
    "Map_Accuracy": "Building",
    "Map_Accuracy_Dari": "تعمیر",
    "Status": "Open",
    "Status_Dari": null,
    "PS_Male": 1,
    "PS_Female": 1,
    "PS_Total": 2,
    "ولسوالي": "جغتو",
    "Region": "Central Region"
   },
   "geometry": {
    "x": 7612405.0652244696,
    "y": 3995903.8224329478
   }
  },
  {
   "attributes": {
    "OBJECTID": 585,
    "ولایت": "وردک",
    "Province": "WARDAK",
    "PC_Code": "0409047",
    "District": "MARKAZ-E-BEHSUD",
    "د_مرکز_نوم__نام_مرکز": "مهر خانه ",
    "Polling_Center_Name": "Mehar Khana ",
    "د_مرکز_ځای__موقعیت_مرکز": "مهر خانه",
    "Polling_Center_Location": "Mehar Khana",
    "Map_Accuracy": "Building",
    "Map_Accuracy_Dari": "تعمیر",
    "Status": "Open",
    "Status_Dari": null,
    "PS_Male": 1,
    "PS_Female": 1,
    "PS_Total": 2,
    "ولسوالي": "مرکز بهسود",
    "Region": "Central Region"
   },
   "geometry": {
    "x": 7511111.1580533562,
    "y": 4077707.5788709512
   }
  },
  {
   "attributes": {
    "OBJECTID": 586,
    "ولایت": "وردک",
    "Province": "WARDAK",
    "PC_Code": "0409048",
    "District": "MARKAZ-E-BEHSUD",
    "د_مرکز_نوم__نام_مرکز": "مسجد قلعه گردوم",
    "Polling_Center_Name": "Qala-e-Gordoom Mosque",
    "د_مرکز_ځای__موقعیت_مرکز": "قلعه گردوم",
    "Polling_Center_Location": "Qala-e-Gordoom",
    "Map_Accuracy": "Building",
    "Map_Accuracy_Dari": "تعمیر",
    "Status": "Open",
    "Status_Dari": null,
    "PS_Male": 1,
    "PS_Female": 1,
    "PS_Total": 2,
    "ولسوالي": "مرکز بهسود",
    "Region": "Central Region"
   },
   "geometry": {
    "x": 7511598.0806380277,
    "y": 4073166.7872070931
   }
  },
  {
   "attributes": {
    "OBJECTID": 587,
    "ولایت": "وردک",
    "Province": "WARDAK",
    "PC_Code": "0401009",
    "District": "MAYDAN SHAHR",
    "د_مرکز_نوم__نام_مرکز": "مکتب کهنه خمار",
    "Polling_Center_Name": "Kuhna Khumar School ",
    "د_مرکز_ځای__موقعیت_مرکز": "کهنه خمار",
    "Polling_Center_Location": "Kuhna Khumar",
    "Map_Accuracy": "Village",
    "Map_Accuracy_Dari": "قریه",
    "Status": "Open",
    "Status_Dari": null,
    "PS_Male": 3,
    "PS_Female": 1,
    "PS_Total": 4,
    "ولسوالي": "میدان شهر",
    "Region": "Central Region"
   },
   "geometry": {
    "x": 7658579.6063163048,
    "y": 4095135.1290305918
   }
  },
  {
   "attributes": {
    "OBJECTID": 588,
    "ولایت": "وردک",
    "Province": "WARDAK",
    "PC_Code": "0401010",
    "District": "MAYDAN SHAHR",
    "د_مرکز_نوم__نام_مرکز": "مکتب نایبان",
    "Polling_Center_Name": "Naiban School",
    "د_مرکز_ځای__موقعیت_مرکز": "نایبان",
    "Polling_Center_Location": "Naieban",
    "Map_Accuracy": "Village",
    "Map_Accuracy_Dari": "قریه",
    "Status": "Open",
    "Status_Dari": null,
    "PS_Male": 1,
    "PS_Female": 3,
    "PS_Total": 4,
    "ولسوالي": "میدان شهر",
    "Region": "Central Region"
   },
   "geometry": {
    "x": 7662499.4561310103,
    "y": 4079360.4696027087
   }
  },
  {
   "attributes": {
    "OBJECTID": 589,
    "ولایت": "وردک",
    "Province": "WARDAK",
    "PC_Code": "0402146",
    "District": "NERKH",
    "د_مرکز_نوم__نام_مرکز": "مکتب کرمو خیل یک",
    "Polling_Center_Name": "Karmo Khel School",
    "د_مرکز_ځای__موقعیت_مرکز": "کرمو خیل یک",
    "Polling_Center_Location": "Karmo Khel Yak",
    "Map_Accuracy": "Village",
    "Map_Accuracy_Dari": "قریه",
    "Status": "Open",
    "Status_Dari": null,
    "PS_Male": 1,
    "PS_Female": 1,
    "PS_Total": 2,
    "ولسوالي": "نرخ",
    "Region": "Central Region"
   },
   "geometry": {
    "x": 7648102.2703893939,
    "y": 4081524.4317855113
   }
  },
  {
   "attributes": {
    "OBJECTID": 590,
    "ولایت": "وردک",
    "Province": "WARDAK",
    "PC_Code": "0402147",
    "District": "NERKH",
    "د_مرکز_نوم__نام_مرکز": "مکتب کان عزت",
    "Polling_Center_Name": "Kan-e-Ezat School",
    "د_مرکز_ځای__موقعیت_مرکز": "باشی خیل",
    "Polling_Center_Location": "Bashi Khel",
    "Map_Accuracy": "Building",
    "Map_Accuracy_Dari": "تعمیر",
    "Status": "Open",
    "Status_Dari": null,
    "PS_Male": 1,
    "PS_Female": 1,
    "PS_Total": 2,
    "ولسوالي": "نرخ",
    "Region": "Central Region"
   },
   "geometry": {
    "x": 7658789.6639690408,
    "y": 4076756.2986890706
   }
  },
  {
   "attributes": {
    "OBJECTID": 591,
    "ولایت": "وردک",
    "Province": "WARDAK",
    "PC_Code": "0402160",
    "District": "NERKH",
    "د_مرکز_نوم__نام_مرکز": "خیمه چغره",
    "Polling_Center_Name": "Awal Khel Tent",
    "د_مرکز_ځای__موقعیت_مرکز": "اول خیل",
    "Polling_Center_Location": "Awal Khel",
    "Map_Accuracy": "Village",
    "Map_Accuracy_Dari": "قریه",
    "Status": "Open",
    "Status_Dari": null,
    "PS_Male": 2,
    "PS_Female": 1,
    "PS_Total": 3,
    "ولسوالي": "نرخ",
    "Region": "Central Region"
   },
   "geometry": {
    "x": 7665489.1236202279,
    "y": 4069833.6632905328
   }
  },
  {
   "attributes": {
    "OBJECTID": 592,
    "ولایت": "وردک",
    "Province": "WARDAK",
    "PC_Code": "0403014",
    "District": "JALREZ",
    "د_مرکز_نوم__نام_مرکز": "لیسه عالی زیولات",
    "Polling_Center_Name": "Zewalat High School",
    "د_مرکز_ځای__موقعیت_مرکز": "زیولات",
    "Polling_Center_Location": "Zewalat",
    "Map_Accuracy": "Building",
    "Map_Accuracy_Dari": "تعمیر",
    "Status": "Open",
    "Status_Dari": null,
    "PS_Male": 3,
    "PS_Female": 1,
    "PS_Total": 4,
    "ولسوالي": "جلریز",
    "Region": "Central Region"
   },
   "geometry": {
    "x": 7650894.1287094457,
    "y": 4090617.1965890806
   }
  },
  {
   "attributes": {
    "OBJECTID": 593,
    "ولایت": "وردک",
    "Province": "WARDAK",
    "PC_Code": "0404107",
    "District": "CHAKI WARDAK",
    "د_مرکز_نوم__نام_مرکز": "خیمه گاوکوش",
    "Polling_Center_Name": "Gawgosh Tent",
    "د_مرکز_ځای__موقعیت_مرکز": "گاوکوش",
    "Polling_Center_Location": "Gawgush Tent",
    "Map_Accuracy": "Village",
    "Map_Accuracy_Dari": "قریه",
    "Status": "Open",
    "Status_Dari": null,
    "PS_Male": 3,
    "PS_Female": 2,
    "PS_Total": 5,
    "ولسوالي": "چک وردک",
    "Region": "Central Region"
   },
   "geometry": {
    "x": 7645023.0519358087,
    "y": 4049976.9621534031
   }
  },
  {
   "attributes": {
    "OBJECTID": 594,
    "ولایت": "وردک",
    "Province": "WARDAK",
    "PC_Code": "0405108",
    "District": "SAYYD ABAD",
    "د_مرکز_نوم__نام_مرکز": "لیسه عالی سید آباد",
    "Polling_Center_Name": "Sayed Abad High School",
    "د_مرکز_ځای__موقعیت_مرکز": "امان خیل",
    "Polling_Center_Location": "Aman Khel",
    "Map_Accuracy": "Building",
    "Map_Accuracy_Dari": "تعمیر",
    "Status": "Open",
    "Status_Dari": null,
    "PS_Male": 2,
    "PS_Female": 2,
    "PS_Total": 4,
    "ولسوالي": "سید آباد",
    "Region": "Central Region"
   },
   "geometry": {
    "x": 7648779.3032872565,
    "y": 4028314.0482759243
   }
  },
  {
   "attributes": {
    "OBJECTID": 595,
    "ولایت": "وردک",
    "Province": "WARDAK",
    "PC_Code": "0405113",
    "District": "SAYYD ABAD",
    "د_مرکز_نوم__نام_مرکز": "لیسه عالی شیخ آباد",
    "Polling_Center_Name": "Shaikh Abad High School",
    "د_مرکز_ځای__موقعیت_مرکز": "هاشم خیل",
    "Polling_Center_Location": "Hashim Khel",
    "Map_Accuracy": "Building",
    "Map_Accuracy_Dari": "تعمیر",
    "Status": "Open",
    "Status_Dari": null,
    "PS_Male": 1,
    "PS_Female": 1,
    "PS_Total": 2,
    "ولسوالي": "سید آباد",
    "Region": "Central Region"
   },
   "geometry": {
    "x": 7654429.1926854709,
    "y": 4039852.9543314865
   }
  },
  {
   "attributes": {
    "OBJECTID": 596,
    "ولایت": "وردک",
    "Province": "WARDAK",
    "PC_Code": "0405114",
    "District": "SAYYD ABAD",
    "د_مرکز_نوم__نام_مرکز": "لیسه عالی دشت توپ",
    "Polling_Center_Name": "Dasht-e-Toop High School",
    "د_مرکز_ځای__موقعیت_مرکز": "دشت توپ",
    "Polling_Center_Location": "Dasht-e-Toop",
    "Map_Accuracy": "Building",
    "Map_Accuracy_Dari": "تعمیر",
    "Status": "Open",
    "Status_Dari": null,
    "PS_Male": 4,
    "PS_Female": 2,
    "PS_Total": 6,
    "ولسوالي": "سید آباد",
    "Region": "Central Region"
   },
   "geometry": {
    "x": 7658315.5542577542,
    "y": 4051461.2705266071
   }
  },
  {
   "attributes": {
    "OBJECTID": 597,
    "ولایت": "وردک",
    "Province": "WARDAK",
    "PC_Code": "0405125",
    "District": "SAYYD ABAD",
    "د_مرکز_نوم__نام_مرکز": "منزل خزانه دار",
    "Polling_Center_Name": "Khazandar House",
    "د_مرکز_ځای__موقعیت_مرکز": "قریه اکاخیل",
    "Polling_Center_Location": "Aka Khel Village",
    "Map_Accuracy": "Village",
    "Map_Accuracy_Dari": "قریه",
    "Status": "Open",
    "Status_Dari": null,
    "PS_Male": 2,
    "PS_Female": 1,
    "PS_Total": 3,
    "ولسوالي": "سید آباد",
    "Region": "Central Region"
   },
   "geometry": {
    "x": 7646202.6745234793,
    "y": 4019438.2865426703
   }
  },
  {
   "attributes": {
    "OBJECTID": 598,
    "ولایت": "وردک",
    "Province": "WARDAK",
    "PC_Code": "0405126",
    "District": "SAYYD ABAD",
    "د_مرکز_نوم__نام_مرکز": "مسجد جامع سالار ",
    "Polling_Center_Name": "Salar Mosque",
    "د_مرکز_ځای__موقعیت_مرکز": "سالار",
    "Polling_Center_Location": "Salar",
    "Map_Accuracy": "Village",
    "Map_Accuracy_Dari": "قریه",
    "Status": "Open",
    "Status_Dari": null,
    "PS_Male": 1,
    "PS_Female": 1,
    "PS_Total": 2,
    "ولسوالي": "سید آباد",
    "Region": "Central Region"
   },
   "geometry": {
    "x": 7643940.4420579681,
    "y": 4015810.6333178715
   }
  },
  {
   "attributes": {
    "OBJECTID": 599,
    "ولایت": "وردک",
    "Province": "WARDAK",
    "PC_Code": "0409036",
    "District": "MARKAZ-E-BEHSUD",
    "د_مرکز_نوم__نام_مرکز": "مکتب راشک",
    "Polling_Center_Name": "Rashak School",
    "د_مرکز_ځای__موقعیت_مرکز": "راشک",
    "Polling_Center_Location": "Rashak",
    "Map_Accuracy": "Village",
    "Map_Accuracy_Dari": "قریه",
    "Status": "Open",
    "Status_Dari": null,
    "PS_Male": 1,
    "PS_Female": 1,
    "PS_Total": 2,
    "ولسوالي": "مرکز بهسود",
    "Region": "Central Region"
   },
   "geometry": {
    "x": 7560136.9486399675,
    "y": 4096554.2697112896
   }
  },
  {
   "attributes": {
    "OBJECTID": 600,
    "ولایت": "وردک",
    "Province": "WARDAK",
    "PC_Code": "0409037",
    "District": "MARKAZ-E-BEHSUD",
    "د_مرکز_نوم__نام_مرکز": "مسجد دامن خلیل",
    "Polling_Center_Name": "Daman Khalil Mosque",
    "د_مرکز_ځای__موقعیت_مرکز": "دامن خلیل",
    "Polling_Center_Location": "Daman Khalil",
    "Map_Accuracy": "Village",
    "Map_Accuracy_Dari": "قریه",
    "Status": "Open",
    "Status_Dari": null,
    "PS_Male": 1,
    "PS_Female": 1,
    "PS_Total": 2,
    "ولسوالي": "مرکز بهسود",
    "Region": "Central Region"
   },
   "geometry": {
    "x": 7537558.2901683161,
    "y": 4101743.8558785282
   }
  }
 ]
}