{
 "displayFieldName": "Polling_Center_Name",
 "fieldAliases": {
  "OBJECTID": "OBJECTID",
  "ولایت": "ولایت",
  "Province": "Province",
  "PC_Code": "PC_Code",
  "District": "District",
  "د_مرکز_نوم__نام_مرکز": "د_مرکز_نوم__نام_مرکز",
  "Polling_Center_Name": "Polling_Center_Name",
  "د_مرکز_ځای__موقعیت_مرکز": "د_مرکز_ځای__موقعیت_مرکز",
  "Polling_Center_Location": "Polling_Center_Location",
  "Map_Accuracy": "Map_Accuracy",
  "Map_Accuracy_Dari": "Map_Accuracy_Dari",
  "Status": "Status",
  "Status_Dari": "Status_Dari",
  "PS_Male": "PS_Male",
  "PS_Female": "PS_Female",
  "PS_Total": "PS_Total",
  "ولسوالي": "ولسوالي",
  "Region": "Region"
 },
 "geometryType": "esriGeometryPoint",
 "spatialReference": {
  "wkid": 102100,
  "latestWkid": 3857
 },
 "fields": [
  {
   "name": "OBJECTID",
   "type": "esriFieldTypeOID",
   "alias": "OBJECTID"
  },
  {
   "name": "ولایت",
   "type": "esriFieldTypeString",
   "alias": "ولایت",
   "length": 255
  },
  {
   "name": "Province",
   "type": "esriFieldTypeString",
   "alias": "Province",
   "length": 255
  },
  {
   "name": "PC_Code",
   "type": "esriFieldTypeString",
   "alias": "PC_Code",
   "length": 255
  },
  {
   "name": "District",
   "type": "esriFieldTypeString",
   "alias": "District",
   "length": 255
  },
  {
   "name": "د_مرکز_نوم__نام_مرکز",
   "type": "esriFieldTypeString",
   "alias": "د_مرکز_نوم__نام_مرکز",
   "length": 255
  },
  {
   "name": "Polling_Center_Name",
   "type": "esriFieldTypeString",
   "alias": "Polling_Center_Name",
   "length": 255
  },
  {
   "name": "د_مرکز_ځای__موقعیت_مرکز",
   "type": "esriFieldTypeString",
   "alias": "د_مرکز_ځای__موقعیت_مرکز",
   "length": 255
  },
  {
   "name": "Polling_Center_Location",
   "type": "esriFieldTypeString",
   "alias": "Polling_Center_Location",
   "length": 255
  },
  {
   "name": "Map_Accuracy",
   "type": "esriFieldTypeString",
   "alias": "Map_Accuracy",
   "length": 10
  },
  {
   "name": "Map_Accuracy_Dari",
   "type": "esriFieldTypeString",
   "alias": "Map_Accuracy_Dari",
   "length": 50
  },
  {
   "name": "Status",
   "type": "esriFieldTypeString",
   "alias": "Status",
   "length": 6
  },
  {
   "name": "Status_Dari",
   "type": "esriFieldTypeString",
   "alias": "Status_Dari",
   "length": 8
  },
  {
   "name": "PS_Male",
   "type": "esriFieldTypeSmallInteger",
   "alias": "PS_Male"
  },
  {
   "name": "PS_Female",
   "type": "esriFieldTypeSmallInteger",
   "alias": "PS_Female"
  },
  {
   "name": "PS_Total",
   "type": "esriFieldTypeSmallInteger",
   "alias": "PS_Total"
  },
  {
   "name": "ولسوالي",
   "type": "esriFieldTypeString",
   "alias": "ولسوالي",
   "length": 255
  },
  {
   "name": "Region",
   "type": "esriFieldTypeString",
   "alias": "Region",
   "length": 50
  }
 ],
 "features": [
  {
   "attributes": {
    "OBJECTID": 5401,
    "ولایت": "فارياب",
    "Province": "FARYAB",
    "PC_Code": "2907094",
    "District": "QAISAR",
    "د_مرکز_نوم__نام_مرکز": "مکتب ایتی سلیق",
    "Polling_Center_Name": "Aiti Saleeq School",
    "د_مرکز_ځای__موقعیت_مرکز": "ایتی سلیق",
    "Polling_Center_Location": "Aiti Saleeq",
    "Map_Accuracy": "Building",
    "Map_Accuracy_Dari": "تعمیر",
    "Status": "Open",
    "Status_Dari": null,
    "PS_Male": 2,
    "PS_Female": 2,
    "PS_Total": 4,
    "ولسوالي": "قیصار ",
    "Region": "Northern Region"
   },
   "geometry": {
    "x": 7182811.8168158717,
    "y": 4264450.3852308709
   }
  },
  {
   "attributes": {
    "OBJECTID": 5402,
    "ولایت": "فارياب",
    "Province": "FARYAB",
    "PC_Code": "2908125",
    "District": "GURZIWAN",
    "د_مرکز_نوم__نام_مرکز": "مکتب متوسطه نسوان غولبیان",
    "Polling_Center_Name": "Gholbiyan Girls Secondary School",
    "د_مرکز_ځای__موقعیت_مرکز": "قریه غولبیان",
    "Polling_Center_Location": "Gholbiyan Village",
    "Map_Accuracy": "Building",
    "Map_Accuracy_Dari": "تعمیر",
    "Status": "Open",
    "Status_Dari": null,
    "PS_Male": 2,
    "PS_Female": 3,
    "PS_Total": 5,
    "ولسوالي": "گرزیوان",
    "Region": "Northern Region"
   },
   "geometry": {
    "x": 7275333.3195324382,
    "y": 4264121.2781904954
   }
  },
  {
   "attributes": {
    "OBJECTID": 5403,
    "ولایت": "فارياب",
    "Province": "FARYAB",
    "PC_Code": "2912191",
    "District": "QURGHAN",
    "د_مرکز_نوم__نام_مرکز": "مکتب متوسطه یکه توت",
    "Polling_Center_Name": "Yaka Toot Secondary School",
    "د_مرکز_ځای__موقعیت_مرکز": " یکه توت",
    "Polling_Center_Location": "Yaka Toot",
    "Map_Accuracy": "Building",
    "Map_Accuracy_Dari": "تعمیر",
    "Status": "Open",
    "Status_Dari": null,
    "PS_Male": 1,
    "PS_Female": 1,
    "PS_Total": 2,
    "ولسوالي": "قرغان",
    "Region": "Northern Region"
   },
   "geometry": {
    "x": 7242091.003022965,
    "y": 4437210.7402618285
   }
  },
  {
   "attributes": {
    "OBJECTID": 5404,
    "ولایت": "هلمند",
    "Province": "HELMAND",
    "PC_Code": "3001022",
    "District": "LASHKARGAH",
    "د_مرکز_نوم__نام_مرکز": "د فارم تعمیر بولان",
    "Polling_Center_Name": "Farm Tameer Bolan",
    "د_مرکز_ځای__موقعیت_مرکز": "د فارم تعمیر- بولان ",
    "Polling_Center_Location": "Farm Building Bolan",
    "Map_Accuracy": "Building",
    "Map_Accuracy_Dari": "تعمیر",
    "Status": "Open",
    "Status_Dari": null,
    "PS_Male": 5,
    "PS_Female": 3,
    "PS_Total": 8,
    "ولسوالي": "لشکرگاه",
    "Region": "Southern Region"
   },
   "geometry": {
    "x": 7161084.3105104109,
    "y": 3707661.7281804369
   }
  },
  {
   "attributes": {
    "OBJECTID": 5405,
    "ولایت": "هلمند",
    "Province": "HELMAND",
    "PC_Code": "3001024",
    "District": "LASHKARGAH",
    "د_مرکز_نوم__نام_مرکز": "مکتب بولان کلا",
    "Polling_Center_Name": "Bolan Kala School",
    "د_مرکز_ځای__موقعیت_مرکز": "بولان کلا",
    "Polling_Center_Location": "Bolan Kala",
    "Map_Accuracy": "Building",
    "Map_Accuracy_Dari": "تعمیر",
    "Status": "Open",
    "Status_Dari": null,
    "PS_Male": 3,
    "PS_Female": 2,
    "PS_Total": 5,
    "ولسوالي": "لشکرگاه",
    "Region": "Southern Region"
   },
   "geometry": {
    "x": 7160546.0173203144,
    "y": 3710903.8757735938
   }
  },
  {
   "attributes": {
    "OBJECTID": 5406,
    "ولایت": "هلمند",
    "Province": "HELMAND",
    "PC_Code": "3002079",
    "District": "NAD ALI",
    "د_مرکز_نوم__نام_مرکز": "مکتب سید آباد",
    "Polling_Center_Name": "Sayed Abad School",
    "د_مرکز_ځای__موقعیت_مرکز": "سیدآباد",
    "Polling_Center_Location": "Sayed Abad",
    "Map_Accuracy": "Village",
    "Map_Accuracy_Dari": "قریه",
    "Status": "Open",
    "Status_Dari": null,
    "PS_Male": 2,
    "PS_Female": 2,
    "PS_Total": 4,
    "ولسوالي": "نادعلی",
    "Region": "Southern Region"
   },
   "geometry": {
    "x": 7149736.9793671025,
    "y": 3716334.308692629
   }
  },
  {
   "attributes": {
    "OBJECTID": 5407,
    "ولایت": "بادغيس",
    "Province": "BADGHIS",
    "PC_Code": "3101005",
    "District": "QALA-E-NOW",
    "د_مرکز_نوم__نام_مرکز": "مکتب چشمه دوزدک ",
    "Polling_Center_Name": "Chashma-e-Dozdak School",
    "د_مرکز_ځای__موقعیت_مرکز": "چشمه دوزدک ",
    "Polling_Center_Location": "Chashma-e-Dozdak ",
    "Map_Accuracy": "Building",
    "Map_Accuracy_Dari": "تعمیر",
    "Status": "Open",
    "Status_Dari": null,
    "PS_Male": 3,
    "PS_Female": 2,
    "PS_Total": 5,
    "ولسوالي": "قلعه نو",
    "Region": "Western Region"
   },
   "geometry": {
    "x": 7023031.8514324659,
    "y": 4176032.0965564884
   }
  },
  {
   "attributes": {
    "OBJECTID": 5408,
    "ولایت": "بادغيس",
    "Province": "BADGHIS",
    "PC_Code": "3104067",
    "District": "QADIS",
    "د_مرکز_نوم__نام_مرکز": "کلینیک قرچیغی",
    "Polling_Center_Name": "Qarchighai Clinic",
    "د_مرکز_ځای__موقعیت_مرکز": "کلینیک قر چیغی ",
    "Polling_Center_Location": "Qarchi Ghai Clinic",
    "Map_Accuracy": "Building",
    "Map_Accuracy_Dari": "تعمیر",
    "Status": "Open",
    "Status_Dari": null,
    "PS_Male": 2,
    "PS_Female": 1,
    "PS_Total": 3,
    "ولسوالي": "قادس",
    "Region": "Western Region"
   },
   "geometry": {
    "x": 7048115.414406782,
    "y": 4151299.3926789453
   }
  },
  {
   "attributes": {
    "OBJECTID": 5409,
    "ولایت": "هرات",
    "Province": "HERAT",
    "PC_Code": "3201014",
    "District": "HERAT",
    "د_مرکز_نوم__نام_مرکز": "لیسه پل رنگینه",
    "Polling_Center_Name": "Pul -e- Rageena High School",
    "د_مرکز_ځای__موقعیت_مرکز": " ناحیه ششم",
    "Polling_Center_Location": "D06 - Nahia 6",
    "Map_Accuracy": "Building",
    "Map_Accuracy_Dari": "تعمیر",
    "Status": "Open",
    "Status_Dari": null,
    "PS_Male": 4,
    "PS_Female": 5,
    "PS_Total": 9,
    "ولسوالي": "هرات",
    "Region": "Western Region"
   },
   "geometry": {
    "x": 6927349.4117373144,
    "y": 4074153.4839839009
   }
  },
  {
   "attributes": {
    "OBJECTID": 5410,
    "ولایت": "هرات",
    "Province": "HERAT",
    "PC_Code": "3201428",
    "District": "HERAT",
    "د_مرکز_نوم__نام_مرکز": "لیسه حضرت عمر فاروق",
    "Polling_Center_Name": "Hazrat-e- Umar Faroq School ",
    "د_مرکز_ځای__موقعیت_مرکز": "ناحیه هفتم",
    "Polling_Center_Location": "D07 - Nahia 7",
    "Map_Accuracy": "Building",
    "Map_Accuracy_Dari": "تعمیر",
    "Status": "Open",
    "Status_Dari": null,
    "PS_Male": 4,
    "PS_Female": 6,
    "PS_Total": 10,
    "ولسوالي": "هرات",
    "Region": "Western Region"
   },
   "geometry": {
    "x": 6920695.1155167427,
    "y": 4073906.3369612084
   }
  },
  {
   "attributes": {
    "OBJECTID": 5411,
    "ولایت": "هرات",
    "Province": "HERAT",
    "PC_Code": "3201429",
    "District": "HERAT",
    "د_مرکز_نوم__نام_مرکز": "پوهنتون جديد",
    "Polling_Center_Name": "New Univrsity ",
    "د_مرکز_ځای__موقعیت_مرکز": "ناحیه پنجم",
    "Polling_Center_Location": "D05 - Nahia 5",
    "Map_Accuracy": "Building",
    "Map_Accuracy_Dari": "تعمیر",
    "Status": "Open",
    "Status_Dari": null,
    "PS_Male": 5,
    "PS_Female": 5,
    "PS_Total": 10,
    "ولسوالي": "هرات",
    "Region": "Western Region"
   },
   "geometry": {
    "x": 6925285.5706419069,
    "y": 4078183.3959922716
   }
  },
  {
   "attributes": {
    "OBJECTID": 5412,
    "ولایت": "هرات",
    "Province": "HERAT",
    "PC_Code": "3202049",
    "District": "ENJIL",
    "د_مرکز_نوم__نام_مرکز": "مسجد ننگ آباد",
    "Polling_Center_Name": "Nang Abad Mosque ",
    "د_مرکز_ځای__موقعیت_مرکز": "ننگ آباد",
    "Polling_Center_Location": "Nang Abad  ",
    "Map_Accuracy": "Building",
    "Map_Accuracy_Dari": "تعمیر",
    "Status": "Open",
    "Status_Dari": null,
    "PS_Male": 1,
    "PS_Female": 1,
    "PS_Total": 2,
    "ولسوالي": "انجیل",
    "Region": "Western Region"
   },
   "geometry": {
    "x": 6933187.8585418109,
    "y": 4073247.7234250335
   }
  },
  {
   "attributes": {
    "OBJECTID": 5413,
    "ولایت": "هرات",
    "Province": "HERAT",
    "PC_Code": "3203108",
    "District": "GUZARA",
    "د_مرکز_نوم__نام_مرکز": "لیسه ذکور مرغاب ",
    "Polling_Center_Name": "Murghaab Boys High School ",
    "د_مرکز_ځای__موقعیت_مرکز": "مرغاب ",
    "Polling_Center_Location": "Murghaab ",
    "Map_Accuracy": "Building",
    "Map_Accuracy_Dari": "تعمیر",
    "Status": "Open",
    "Status_Dari": null,
    "PS_Male": 1,
    "PS_Female": 1,
    "PS_Total": 2,
    "ولسوالي": "گذره",
    "Region": "Western Region"
   },
   "geometry": {
    "x": 6923337.1878959564,
    "y": 4060703.9616382131
   }
  },
  {
   "attributes": {
    "OBJECTID": 5414,
    "ولایت": "کابل",
    "Province": "KABUL",
    "PC_Code": "0101032",
    "District": "KABUL-D03",
    "د_مرکز_نوم__نام_مرکز": " مکتب صوفي اسلام",
    "Polling_Center_Name": "Sofi Islam School",
    "د_مرکز_ځای__موقعیت_مرکز": "ايستگاه آخر پوهنتون",
    "Polling_Center_Location": "Kabul University last Bus Station",
    "Map_Accuracy": "Building",
    "Map_Accuracy_Dari": "تعمیر",
    "Status": "Open",
    "Status_Dari": null,
    "PS_Male": 3,
    "PS_Female": 4,
    "PS_Total": 7,
    "ولسوالي": "کابل - ناحیه 03",
    "Region": "Central Region"
   },
   "geometry": {
    "x": 7695049.9965892639,
    "y": 4098454.0491707856
   }
  },
  {
   "attributes": {
    "OBJECTID": 5415,
    "ولایت": "کابل",
    "Province": "KABUL",
    "PC_Code": "0101033",
    "District": "KABUL-D03",
    "د_مرکز_نوم__نام_مرکز": " ليسه محمود هوتکي",
    "Polling_Center_Name": "Mahmood Hotaki High School",
    "د_مرکز_ځای__موقعیت_مرکز": "ده بوري",
    "Polling_Center_Location": "Deh Bori",
    "Map_Accuracy": "Building",
    "Map_Accuracy_Dari": "تعمیر",
    "Status": "Open",
    "Status_Dari": null,
    "PS_Male": 4,
    "PS_Female": 4,
    "PS_Total": 8,
    "ولسوالي": "کابل - ناحیه 03",
    "Region": "Central Region"
   },
   "geometry": {
    "x": 7694789.8930330519,
    "y": 4097687.1545226099
   }
  },
  {
   "attributes": {
    "OBJECTID": 5416,
    "ولایت": "کابل",
    "Province": "KABUL",
    "PC_Code": "0101069",
    "District": "KABUL-D04",
    "د_مرکز_نوم__نام_مرکز": " مسجد خواجه عبدالله انصاري",
    "Polling_Center_Name": "Khwaja Abdullah Ansari Mosque",
    "د_مرکز_ځای__موقعیت_مرکز": "تانک تيل شهر نو",
    "Polling_Center_Location": "Shahr-e-Naw Pump Station",
    "Map_Accuracy": "Building",
    "Map_Accuracy_Dari": "تعمیر",
    "Status": "Open",
    "Status_Dari": null,
    "PS_Male": 2,
    "PS_Female": 1,
    "PS_Total": 3,
    "ولسوالي": "کابل - ناحیه 04",
    "Region": "Central Region"
   },
   "geometry": {
    "x": 7699777.7899098024,
    "y": 4100422.4518690896
   }
  },
  {
   "attributes": {
    "OBJECTID": 5417,
    "ولایت": "کابل",
    "Province": "KABUL",
    "PC_Code": "0101502",
    "District": "KABUL-D14",
    "د_مرکز_نوم__نام_مرکز": " مسجد قریه دوده مست",
    "Polling_Center_Name": "Doda Mast Village Mosque",
    "د_مرکز_ځای__موقعیت_مرکز": "قریه دوده مست",
    "Polling_Center_Location": "Doda Mast Village",
    "Map_Accuracy": "Building",
    "Map_Accuracy_Dari": "تعمیر",
    "Status": "Open",
    "Status_Dari": null,
    "PS_Male": 1,
    "PS_Female": 2,
    "PS_Total": 3,
    "ولسوالي": "کابل - ناحیه 14",
    "Region": "Central Region"
   },
   "geometry": {
    "x": 7681935.1501558647,
    "y": 4105383.2231186582
   }
  },
  {
   "attributes": {
    "OBJECTID": 5418,
    "ولایت": "کابل",
    "Province": "KABUL",
    "PC_Code": "0101289",
    "District": "KABUL-D15",
    "د_مرکز_نوم__نام_مرکز": " مسجد امام طهاوی",
    "Polling_Center_Name": "Imam-e-Tahawi Mosque",
    "د_مرکز_ځای__موقعیت_مرکز": "عقب ميدان هوايي",
    "Polling_Center_Location": "Behind Airport",
    "Map_Accuracy": "Building",
    "Map_Accuracy_Dari": "تعمیر",
    "Status": "Open",
    "Status_Dari": null,
    "PS_Male": 4,
    "PS_Female": 4,
    "PS_Total": 8,
    "ولسوالي": "کابل - ناحیه 15",
    "Region": "Central Region"
   },
   "geometry": {
    "x": 7700340.2427689843,
    "y": 4107025.4086197736
   }
  },
  {
   "attributes": {
    "OBJECTID": 5419,
    "ولایت": "باميان",
    "Province": "BAMYAN",
    "PC_Code": "1007134",
    "District": "WARAS",
    "د_مرکز_نوم__نام_مرکز": "مکتب میان ملک دهن سرخ کنگگ",
    "Polling_Center_Name": "Meyan Malik Dahan-e-Surkh Kangag School",
    "د_مرکز_ځای__موقعیت_مرکز": "دهن سرخ کنگگ",
    "Polling_Center_Location": "Dahan-e-Surkh Kangag",
    "Map_Accuracy": "Building",
    "Map_Accuracy_Dari": "تعمیر",
    "Status": "Open",
    "Status_Dari": null,
    "PS_Male": 2,
    "PS_Female": 1,
    "PS_Total": 3,
    "ولسوالي": "ورس",
    "Region": "Central Highlands Region"
   },
   "geometry": {
    "x": 7417333.6731444029,
    "y": 4048697.7765469463
   }
  },
  {
   "attributes": {
    "OBJECTID": 5420,
    "ولایت": "پکتيکا",
    "Province": "PAKTIKA",
    "PC_Code": "1202035",
    "District": "MATA KHAN",
    "د_مرکز_نوم__نام_مرکز": "کوتی خیل (خیمه)",
    "Polling_Center_Name": "Koti Khel Tent",
    "د_مرکز_ځای__موقعیت_مرکز": "کوتی خیل",
    "Polling_Center_Location": "Koti Khel",
    "Map_Accuracy": "Building",
    "Map_Accuracy_Dari": "تعمیر",
    "Status": "Open",
    "Status_Dari": null,
    "PS_Male": 3,
    "PS_Female": 0,
    "PS_Total": 3,
    "ولسوالي": "مټا خان",
    "Region": "South Eastern Region"
   },
   "geometry": {
    "x": 7660285.9660177352,
    "y": 3928132.80877853
   }
  },
  {
   "attributes": {
    "OBJECTID": 5421,
    "ولایت": "پکتيکا",
    "Province": "PAKTIKA",
    "PC_Code": "1202036",
    "District": "MATA KHAN",
    "د_مرکز_نوم__نام_مرکز": "کوتی خیل (خیمه)",
    "Polling_Center_Name": "Koti Khel Tent",
    "د_مرکز_ځای__موقعیت_مرکز": "کریخیل ",
    "Polling_Center_Location": "Kari Khel",
    "Map_Accuracy": "Building",
    "Map_Accuracy_Dari": "تعمیر",
    "Status": "Open",
    "Status_Dari": null,
    "PS_Male": 0,
    "PS_Female": 3,
    "PS_Total": 3,
    "ولسوالي": "مټا خان",
    "Region": "South Eastern Region"
   },
   "geometry": {
    "x": 7661873.173789002,
    "y": 3925835.5932527282
   }
  },
  {
   "attributes": {
    "OBJECTID": 5422,
    "ولایت": "پکتيکا",
    "Province": "PAKTIKA",
    "PC_Code": "1202038",
    "District": "MATA KHAN",
    "د_مرکز_نوم__نام_مرکز": "مرکز ولسوالی چینه باغ ",
    "Polling_Center_Name": "Chena Bagh, District Center",
    "د_مرکز_ځای__موقعیت_مرکز": "چینا باغ",
    "Polling_Center_Location": "Chena Bagh",
    "Map_Accuracy": "Building",
    "Map_Accuracy_Dari": "تعمیر",
    "Status": "Open",
    "Status_Dari": null,
    "PS_Male": 2,
    "PS_Female": 1,
    "PS_Total": 3,
    "ولسوالي": "مټا خان",
    "Region": "South Eastern Region"
   },
   "geometry": {
    "x": 7669108.8583141398,
    "y": 3917678.0251318868
   }
  },
  {
   "attributes": {
    "OBJECTID": 5423,
    "ولایت": "پکتيکا",
    "Province": "PAKTIKA",
    "PC_Code": "1204060",
    "District": "YAHYA KHEL",
    "د_مرکز_نوم__نام_مرکز": "مرکز ولسوالی (خیمه) ",
    "Polling_Center_Name": "District Compound (Tent)",
    "د_مرکز_ځای__موقعیت_مرکز": "مرکز ولسوالی ",
    "Polling_Center_Location": "District Center",
    "Map_Accuracy": "Village",
    "Map_Accuracy_Dari": "قریه",
    "Status": "Open",
    "Status_Dari": null,
    "PS_Male": 2,
    "PS_Female": 1,
    "PS_Total": 3,
    "ولسوالي": "یحی خیل",
    "Region": "South Eastern Region"
   },
   "geometry": {
    "x": 7641722.3177142963,
    "y": 3886830.658322549
   }
  },
  {
   "attributes": {
    "OBJECTID": 5424,
    "ولایت": "پکتيکا",
    "Province": "PAKTIKA",
    "PC_Code": "1204062",
    "District": "YAHYA KHEL",
    "د_مرکز_نوم__نام_مرکز": "جومات مغل خیل",
    "Polling_Center_Name": "Mughol Khel Mosque",
    "د_مرکز_ځای__موقعیت_مرکز": "مغل خیل",
    "Polling_Center_Location": "Mughol Khel",
    "Map_Accuracy": "Village",
    "Map_Accuracy_Dari": "قریه",
    "Status": "Open",
    "Status_Dari": null,
    "PS_Male": 1,
    "PS_Female": 1,
    "PS_Total": 2,
    "ولسوالي": "یحی خیل",
    "Region": "South Eastern Region"
   },
   "geometry": {
    "x": 7639947.972973451,
    "y": 3884280.4452065225
   }
  },
  {
   "attributes": {
    "OBJECTID": 5425,
    "ولایت": "پکتيکا",
    "Province": "PAKTIKA",
    "PC_Code": "1207108",
    "District": "ZARGHUN SHAHR",
    "د_مرکز_نوم__نام_مرکز": "شاعلم میلمستون",
    "Polling_Center_Name": "Shah Alam Guest House",
    "د_مرکز_ځای__موقعیت_مرکز": "حاجی خیال گل",
    "Polling_Center_Location": "Haji Kheyal Gul",
    "Map_Accuracy": "Village",
    "Map_Accuracy_Dari": "قریه",
    "Status": "Open",
    "Status_Dari": null,
    "PS_Male": 0,
    "PS_Female": 2,
    "PS_Total": 2,
    "ولسوالي": "زرغون شهر ",
    "Region": "South Eastern Region"
   },
   "geometry": {
    "x": 7629871.775718417,
    "y": 3871464.4022725471
   }
  },
  {
   "attributes": {
    "OBJECTID": 5426,
    "ولایت": "پکتيکا",
    "Province": "PAKTIKA",
    "PC_Code": "1207287",
    "District": "ZARGHUN SHAHR",
    "د_مرکز_نوم__نام_مرکز": "سي ګانه ابتدائيه ښوونځي",
    "Polling_Center_Name": "Segana Primary School",
    "د_مرکز_ځای__موقعیت_مرکز": "سي ګانه",
    "Polling_Center_Location": "Segana",
    "Map_Accuracy": "Village",
    "Map_Accuracy_Dari": "قریه",
    "Status": "Open",
    "Status_Dari": null,
    "PS_Male": 2,
    "PS_Female": 0,
    "PS_Total": 2,
    "ولسوالي": "زرغون شهر ",
    "Region": "South Eastern Region"
   },
   "geometry": {
    "x": 7627938.3576516146,
    "y": 3885584.823354987
   }
  },
  {
   "attributes": {
    "OBJECTID": 5427,
    "ولایت": "پکتيا",
    "Province": "PAKTYA",
    "PC_Code": "1309172",
    "District": "JANI KHEL",
    "د_مرکز_نوم__نام_مرکز": "جانی خیلو عالی لیسه",
    "Polling_Center_Name": "Jani Khel High School",
    "د_مرکز_ځای__موقعیت_مرکز": "میدان خوله",
    "Polling_Center_Location": "Maidan Khola",
    "Map_Accuracy": "Building",
    "Map_Accuracy_Dari": "تعمیر",
    "Status": "Open",
    "Status_Dari": null,
    "PS_Male": 6,
    "PS_Female": 0,
    "PS_Total": 6,
    "ولسوالي": "جانی خیل",
    "Region": "South Eastern Region"
   },
   "geometry": {
    "x": 7767756.3282688102,
    "y": 3982515.5667382786
   }
  },
  {
   "attributes": {
    "OBJECTID": 5428,
    "ولایت": "کندز",
    "Province": "KUNDUZ",
    "PC_Code": "1904177",
    "District": "KHAN ABAD",
    "د_مرکز_نوم__نام_مرکز": "مکتب ابراهیم خیل کوچی",
    "Polling_Center_Name": "Ibrahim Khel Kochi School",
    "د_مرکز_ځای__موقعیت_مرکز": "قریه ابراهیم خیل کوچی",
    "Polling_Center_Location": "Ibrahim Khel Kochi Village",
    "Map_Accuracy": "Building",
    "Map_Accuracy_Dari": "تعمیر",
    "Status": "Open",
    "Status_Dari": null,
    "PS_Male": 1,
    "PS_Female": 1,
    "PS_Total": 2,
    "ولسوالي": "خان آباد",
    "Region": "North Eastern Region"
   },
   "geometry": {
    "x": 7683518.8157409355,
    "y": 4409252.0447985027
   }
  },
  {
   "attributes": {
    "OBJECTID": 5429,
    "ولایت": "سمنگان",
    "Province": "SAMANGAN",
    "PC_Code": "2001013",
    "District": "AYBAK",
    "د_مرکز_نوم__نام_مرکز": "مکتب متوسطه ساره کنده ",
    "Polling_Center_Name": "Sara Kanda Secondary School",
    "د_مرکز_ځای__موقعیت_مرکز": "قریه ساره کنده ",
    "Polling_Center_Location": "Sara Kanda Village",
    "Map_Accuracy": "Building",
    "Map_Accuracy_Dari": "تعمیر",
    "Status": "Open",
    "Status_Dari": null,
    "PS_Male": 3,
    "PS_Female": 1,
    "PS_Total": 4,
    "ولسوالي": "ایبک",
    "Region": "Northern Region"
   },
   "geometry": {
    "x": 7577730.5399763221,
    "y": 4325303.3531189263
   }
  },
  {
   "attributes": {
    "OBJECTID": 5430,
    "ولایت": "بلخ",
    "Province": "BALKH",
    "PC_Code": "2102067",
    "District": "NAHR-E-SHAHI",
    "د_مرکز_نوم__نام_مرکز": "مکتب مولانا جلا ل الدین",
    "Polling_Center_Name": "Maulana Jalaluddin School",
    "د_مرکز_ځای__موقعیت_مرکز": "قریه بابه یاد گار",
    "Polling_Center_Location": "Baba Yadgar Village",
    "Map_Accuracy": "Building",
    "Map_Accuracy_Dari": "تعمیر",
    "Status": "Open",
    "Status_Dari": null,
    "PS_Male": 5,
    "PS_Female": 3,
    "PS_Total": 8,
    "ولسوالي": "نهر شاهی ",
    "Region": "Northern Region"
   },
   "geometry": {
    "x": 7467244.127516713,
    "y": 4397736.0855660951
   }
  },
  {
   "attributes": {
    "OBJECTID": 5431,
    "ولایت": "غور",
    "Province": "GHOR",
    "PC_Code": "2306077",
    "District": "SHAHRAK",
    "د_مرکز_نوم__نام_مرکز": "مسجد کاریز اسحاق",
    "Polling_Center_Name": "Kaarez Ishaq Mosque",
    "د_مرکز_ځای__موقعیت_مرکز": " کاریز اسحاق",
    "Polling_Center_Location": "Kaarez Ishaq",
    "Map_Accuracy": "Building",
    "Map_Accuracy_Dari": "تعمیر",
    "Status": "Open",
    "Status_Dari": null,
    "PS_Male": 1,
    "PS_Female": 1,
    "PS_Total": 2,
    "ولسوالي": "شهرک ",
    "Region": "Western Region"
   },
   "geometry": {
    "x": 7151505.5176833104,
    "y": 4028332.72522366
   }
  },
  {
   "attributes": {
    "OBJECTID": 5432,
    "ولایت": "کندهار",
    "Province": "کندهار",
    "PC_Code": "2704182",
    "District": "PANJWAYEE",
    "د_مرکز_نوم__نام_مرکز": "د حاجي نور محمد كمپ",
    "Polling_Center_Name": "Haji Noor Mohammad Camp",
    "د_مرکز_ځای__موقعیت_مرکز": "موشان",
    "Polling_Center_Location": "Moshan",
    "Map_Accuracy": "Village",
    "Map_Accuracy_Dari": "قریه",
    "Status": "Open",
    "Status_Dari": null,
    "PS_Male": 2,
    "PS_Female": 0,
    "PS_Total": 2,
    "ولسوالي": "پنجوایې",
    "Region": "Southern Region"
   },
   "geometry": {
    "x": 7265327.7956825253,
    "y": 3692942.2100147922
   }
  },
  {
   "attributes": {
    "OBJECTID": 5433,
    "ولایت": "کندهار",
    "Province": "کندهار",
    "PC_Code": "2704183",
    "District": "PANJWAYEE",
    "د_مرکز_نوم__نام_مرکز": "سلطان محمد خان مكتب",
    "Polling_Center_Name": "Sultan Mohammad Khan School",
    "د_مرکز_ځای__موقعیت_مرکز": "زنګي آباد",
    "Polling_Center_Location": "Zangi Abad",
    "Map_Accuracy": "Village",
    "Map_Accuracy_Dari": "قریه",
    "Status": "Open",
    "Status_Dari": null,
    "PS_Male": 2,
    "PS_Female": 0,
    "PS_Total": 2,
    "ولسوالي": "پنجوایې",
    "Region": "Southern Region"
   },
   "geometry": {
    "x": 7278382.8279271284,
    "y": 3695986.2374790576
   }
  },
  {
   "attributes": {
    "OBJECTID": 5434,
    "ولایت": "هرات",
    "Province": "HERAT",
    "PC_Code": "3208227",
    "District": "GULRAN",
    "د_مرکز_نوم__نام_مرکز": "مسجد چاه گلگل",
    "Polling_Center_Name": "Chah galgal Mosque",
    "د_مرکز_ځای__موقعیت_مرکز": "قریه چاه گلگل",
    "Polling_Center_Location": "Chah Galgal Village",
    "Map_Accuracy": "Village",
    "Map_Accuracy_Dari": "قریه",
    "Status": "Open",
    "Status_Dari": null,
    "PS_Male": 1,
    "PS_Female": 1,
    "PS_Total": 2,
    "ولسوالي": "گلران ",
    "Region": "Western Region"
   },
   "geometry": {
    "x": 6833448.6282471633,
    "y": 4231020.0616569743
   }
  },
  {
   "attributes": {
    "OBJECTID": 5435,
    "ولایت": "هرات",
    "Province": "HERAT",
    "PC_Code": "3213235",
    "District": "KOHSAN",
    "د_مرکز_نوم__نام_مرکز": "مکتب ابتدایی بای محمد",
    "Polling_Center_Name": "Bay Mohammad Primary School ",
    "د_مرکز_ځای__موقعیت_مرکز": " بای محمد",
    "Polling_Center_Location": "Bay Mohammad  ",
    "Map_Accuracy": "Building",
    "Map_Accuracy_Dari": "تعمیر",
    "Status": "Open",
    "Status_Dari": null,
    "PS_Male": 1,
    "PS_Female": 2,
    "PS_Total": 3,
    "ولسوالي": "کهسان ",
    "Region": "Western Region"
   },
   "geometry": {
    "x": 6825148.7438615719,
    "y": 4137419.362891857
   }
  },
  {
   "attributes": {
    "OBJECTID": 5436,
    "ولایت": "هرات",
    "Province": "HERAT",
    "PC_Code": "3214307",
    "District": "SHINDAND",
    "د_مرکز_نوم__نام_مرکز": "مسجد حاجی ابراهیم",
    "Polling_Center_Name": "Haji Ibrahim Mosque ",
    "د_مرکز_ځای__موقعیت_مرکز": "قریه خواجه نوح",
    "Polling_Center_Location": "Khwaja Nowh Village",
    "Map_Accuracy": "Building",
    "Map_Accuracy_Dari": "تعمیر",
    "Status": "Open",
    "Status_Dari": null,
    "PS_Male": 1,
    "PS_Female": 1,
    "PS_Total": 2,
    "ولسوالي": "شیندند",
    "Region": "Western Region"
   },
   "geometry": {
    "x": 6920976.3597574532,
    "y": 3935943.3863732074
   }
  },
  {
   "attributes": {
    "OBJECTID": 5437,
    "ولایت": "هرات",
    "Province": "HERAT",
    "PC_Code": "3216393",
    "District": "CHISHT-E-SHARIF",
    "د_مرکز_نوم__نام_مرکز": "مسجد ده زبر ",
    "Polling_Center_Name": "Deh Zabr Mosque",
    "د_مرکز_ځای__موقعیت_مرکز": "ده زبر ",
    "Polling_Center_Location": "Deh Zabr",
    "Map_Accuracy": "Building",
    "Map_Accuracy_Dari": "تعمیر",
    "Status": "Open",
    "Status_Dari": null,
    "PS_Male": 1,
    "PS_Female": 1,
    "PS_Total": 2,
    "ولسوالي": "چشت شریف",
    "Region": "Western Region"
   },
   "geometry": {
    "x": 7099460.7502987403,
    "y": 4073903.1972387144
   }
  },
  {
   "attributes": {
    "OBJECTID": 5438,
    "ولایت": " فراه",
    "Province": "FARAH",
    "PC_Code": "3301033",
    "District": "FARAH",
    "د_مرکز_نوم__نام_مرکز": " لیسه توفیق میرزایی",
    "Polling_Center_Name": "Tawfiq Merzaye High School",
    "د_مرکز_ځای__موقعیت_مرکز": "ناحیه سوم ",
    "Polling_Center_Location": "Nahia 3",
    "Map_Accuracy": "Building",
    "Map_Accuracy_Dari": "تعمیر",
    "Status": "Open",
    "Status_Dari": null,
    "PS_Male": 2,
    "PS_Female": 2,
    "PS_Total": 4,
    "ولسوالي": "فراه",
    "Region": "Western Region"
   },
   "geometry": {
    "x": 6914561.3614802621,
    "y": 3812392.9927865583
   }
  },
  {
   "attributes": {
    "OBJECTID": 5439,
    "ولایت": " فراه",
    "Province": "FARAH",
    "PC_Code": "3309106",
    "District": "LASH-E-JUWAYN",
    "د_مرکز_نوم__نام_مرکز": "مکتب ابتدائیه پیر کندر",
    "Polling_Center_Name": "Peer Kandar Primary School ",
    "د_مرکز_ځای__موقعیت_مرکز": " پیر کندر",
    "Polling_Center_Location": "Peer Kandar ",
    "Map_Accuracy": "Building",
    "Map_Accuracy_Dari": "تعمیر",
    "Status": "Open",
    "Status_Dari": null,
    "PS_Male": 1,
    "PS_Female": 1,
    "PS_Total": 2,
    "ولسوالي": "لاش جوین ",
    "Region": "Western Region"
   },
   "geometry": {
    "x": 6859872.7840192271,
    "y": 3754326.9240918648
   }
  },
  {
   "attributes": {
    "OBJECTID": 5440,
    "ولایت": "نيمروز",
    "Province": "NIMROZ",
    "PC_Code": "3406048",
    "District": "DELARAM",
    "د_مرکز_نوم__نام_مرکز": "مکتب ابتدایی ذکور",
    "Polling_Center_Name": "Boys Primary School",
    "د_مرکز_ځای__موقعیت_مرکز": "مرکز ولسوالی",
    "Polling_Center_Location": "District Capital",
    "Map_Accuracy": "Building",
    "Map_Accuracy_Dari": "تعمیر",
    "Status": "Open",
    "Status_Dari": null,
    "PS_Male": 2,
    "PS_Female": 1,
    "PS_Total": 3,
    "ولسوالي": "دلارام",
    "Region": "Southern Region"
   },
   "geometry": {
    "x": 7060849.7006893652,
    "y": 3784711.1173604471
   }
  },
  {
   "attributes": {
    "OBJECTID": 5441,
    "ولایت": "ننگرهار",
    "Province": "NANGARHAR",
    "PC_Code": "0605158",
    "District": "KAMA",
    "د_مرکز_نوم__نام_مرکز": "سنګرسراي کلنيک",
    "Polling_Center_Name": "Sangar Sray Clinic",
    "د_مرکز_ځای__موقعیت_مرکز": "سنګرسراي",
    "Polling_Center_Location": "Sangar Sray",
    "Map_Accuracy": "Building",
    "Map_Accuracy_Dari": "تعمیر",
    "Status": "Open",
    "Status_Dari": null,
    "PS_Male": 1,
    "PS_Female": 2,
    "PS_Total": 3,
    "ولسوالي": "کامه",
    "Region": "Eastern Region"
   },
   "geometry": {
    "x": 7863633.4768853057,
    "y": 4084072.6034698463
   }
  },
  {
   "attributes": {
    "OBJECTID": 5442,
    "ولایت": "ننگرهار",
    "Province": "NANGARHAR",
    "PC_Code": "0605159",
    "District": "KAMA",
    "د_مرکز_نوم__نام_مرکز": "میرزاخیل مکتب",
    "Polling_Center_Name": "Mirza Khel School",
    "د_مرکز_ځای__موقعیت_مرکز": "میرزاخیل",
    "Polling_Center_Location": "MerzaKhel",
    "Map_Accuracy": "Building",
    "Map_Accuracy_Dari": "تعمیر",
    "Status": "Open",
    "Status_Dari": null,
    "PS_Male": 1,
    "PS_Female": 1,
    "PS_Total": 2,
    "ولسوالي": "کامه",
    "Region": "Eastern Region"
   },
   "geometry": {
    "x": 7867620.6683127666,
    "y": 4084216.3642239938
   }
  },
  {
   "attributes": {
    "OBJECTID": 5443,
    "ولایت": "پکتيکا",
    "Province": "PAKTIKA",
    "PC_Code": "1205074",
    "District": "SAR RAWZA",
    "د_مرکز_نوم__نام_مرکز": "سروضه لومړنی ښوونځی ",
    "Polling_Center_Name": "Sar Rawza Primary School",
    "د_مرکز_ځای__موقعیت_مرکز": "بازار سروضه ",
    "Polling_Center_Location": "Sar Rawza Bazar",
    "Map_Accuracy": "Building",
    "Map_Accuracy_Dari": "تعمیر",
    "Status": "Open",
    "Status_Dari": null,
    "PS_Male": 4,
    "PS_Female": 0,
    "PS_Total": 4,
    "ولسوالي": "سروضه ",
    "Region": "South Eastern Region"
   },
   "geometry": {
    "x": 7680938.5145471599,
    "y": 3910670.2886550101
   }
  },
  {
   "attributes": {
    "OBJECTID": 5444,
    "ولایت": "پکتيکا",
    "Province": "PAKTIKA",
    "PC_Code": "1205075",
    "District": "SAR RAWZA",
    "د_مرکز_نوم__نام_مرکز": "مارزک هلکانو ښوونځی ",
    "Polling_Center_Name": "Marzak Boys School",
    "د_مرکز_ځای__موقعیت_مرکز": "مارزک ",
    "Polling_Center_Location": "Marzak",
    "Map_Accuracy": "Village",
    "Map_Accuracy_Dari": "قریه",
    "Status": "Open",
    "Status_Dari": null,
    "PS_Male": 3,
    "PS_Female": 0,
    "PS_Total": 3,
    "ولسوالي": "سروضه ",
    "Region": "South Eastern Region"
   },
   "geometry": {
    "x": 7690469.9097614717,
    "y": 3914926.1098871394
   }
  },
  {
   "attributes": {
    "OBJECTID": 5445,
    "ولایت": "پکتيا",
    "Province": "PAKTYA",
    "PC_Code": "1305116",
    "District": "WUZA ZADRAN",
    "د_مرکز_نوم__نام_مرکز": "لوټه مسجد",
    "Polling_Center_Name": "Lota Mosque",
    "د_مرکز_ځای__موقعیت_مرکز": "لوټه کلی",
    "Polling_Center_Location": "Lotta Village",
    "Map_Accuracy": "Building",
    "Map_Accuracy_Dari": "تعمیر",
    "Status": "Open",
    "Status_Dari": null,
    "PS_Male": 2,
    "PS_Female": 0,
    "PS_Total": 2,
    "ولسوالي": "وزه ځدراڼ",
    "Region": "South Eastern Region"
   },
   "geometry": {
    "x": 7731431.5360974483,
    "y": 3944465.465259708
   }
  },
  {
   "attributes": {
    "OBJECTID": 5446,
    "ولایت": "ارزگان",
    "Province": "UROZGAN",
    "PC_Code": "2505025",
    "District": "KHAS UROZGAN",
    "د_مرکز_نوم__نام_مرکز": "لیسه بازار گنداب",
    "Polling_Center_Name": "Bazar Gandab High School",
    "د_مرکز_ځای__موقعیت_مرکز": "بازار ګنداب",
    "Polling_Center_Location": "Gandab Bazar",
    "Map_Accuracy": "Building",
    "Map_Accuracy_Dari": "تعمیر",
    "Status": "Open",
    "Status_Dari": null,
    "PS_Male": 4,
    "PS_Female": 3,
    "PS_Total": 7,
    "ولسوالي": "خاص ارزگان",
    "Region": "Southern Region"
   },
   "geometry": {
    "x": 7441736.6521290997,
    "y": 3910763.7538000029
   }
  },
  {
   "attributes": {
    "OBJECTID": 5447,
    "ولایت": "ارزگان",
    "Province": "UROZGAN",
    "PC_Code": "2505026",
    "District": "KHAS UROZGAN",
    "د_مرکز_نوم__نام_مرکز": "لیسه بازار حسینی",
    "Polling_Center_Name": "Hussaini Bazar High School",
    "د_مرکز_ځای__موقعیت_مرکز": "بازار حسینی",
    "Polling_Center_Location": "Hussaini Bazar",
    "Map_Accuracy": "Building",
    "Map_Accuracy_Dari": "تعمیر",
    "Status": "Open",
    "Status_Dari": null,
    "PS_Male": 4,
    "PS_Female": 3,
    "PS_Total": 7,
    "ولسوالي": "خاص ارزگان",
    "Region": "Southern Region"
   },
   "geometry": {
    "x": 7438366.1573222885,
    "y": 3904340.8905054429
   }
  },
  {
   "attributes": {
    "OBJECTID": 5448,
    "ولایت": "زابل",
    "Province": "ZABUL",
    "PC_Code": "2608035",
    "District": "ATGHAR",
    "د_مرکز_نوم__نام_مرکز": "كلينیك ولسوالي",
    "Polling_Center_Name": "District Clinic",
    "د_مرکز_ځای__موقعیت_مرکز": "بازار اطغر",
    "Polling_Center_Location": "Atghar Bazar",
    "Map_Accuracy": "Building",
    "Map_Accuracy_Dari": "تعمیر",
    "Status": "Open",
    "Status_Dari": null,
    "PS_Male": 3,
    "PS_Female": 3,
    "PS_Total": 6,
    "ولسوالي": "اتغر",
    "Region": "Southern Region"
   },
   "geometry": {
    "x": 7498334.4557051929,
    "y": 3728701.6242193184
   }
  },
  {
   "attributes": {
    "OBJECTID": 5449,
    "ولایت": "کندهار",
    "Province": "کندهار",
    "PC_Code": "2703082",
    "District": "DAMAN",
    "د_مرکز_نوم__نام_مرکز": "مكتب ښوراندام",
    "Polling_Center_Name": "Shorandam School",
    "د_مرکز_ځای__موقعیت_مرکز": "ښوراندام",
    "Polling_Center_Location": "Shorandam",
    "Map_Accuracy": "Building",
    "Map_Accuracy_Dari": "تعمیر",
    "Status": "Open",
    "Status_Dari": null,
    "PS_Male": 3,
    "PS_Female": 0,
    "PS_Total": 3,
    "ولسوالي": "دامان",
    "Region": "Southern Region"
   },
   "geometry": {
    "x": 7327535.2577928621,
    "y": 3708684.4635086171
   }
  },
  {
   "attributes": {
    "OBJECTID": 5450,
    "ولایت": "هلمند",
    "Province": "HELMAND",
    "PC_Code": "3014082",
    "District": "MARJA",
    "د_مرکز_نوم__نام_مرکز": "امر بلند مارجه شخصي كور",
    "Polling_Center_Name": "Amr Boland Marja Private House",
    "د_مرکز_ځای__موقعیت_مرکز": "زا بر آباد دوراهی",
    "Polling_Center_Location": "Zabar Abad Dorahi",
    "Map_Accuracy": "Village",
    "Map_Accuracy_Dari": "قریه",
    "Status": "Open",
    "Status_Dari": null,
    "PS_Male": 2,
    "PS_Female": 1,
    "PS_Total": 3,
    "ولسوالي": "مارجه",
    "Region": "Southern Region"
   },
   "geometry": {
    "x": 7150253.3671078002,
    "y": 3706048.8683516937
   }
  },
  {
   "attributes": {
    "OBJECTID": 5451,
    "ولایت": "نيمروز",
    "Province": "NIMROZ",
    "PC_Code": "3403031",
    "District": "ASL-E-CHAKHANSUR",
    "د_مرکز_نوم__نام_مرکز": "مکتب صاحبداد",
    "Polling_Center_Name": "Sahib Dad School",
    "د_مرکز_ځای__موقعیت_مرکز": "مکتب صاحبداد",
    "Polling_Center_Location": "Sahib Dad",
    "Map_Accuracy": "Building",
    "Map_Accuracy_Dari": "تعمیر",
    "Status": "Open",
    "Status_Dari": null,
    "PS_Male": 2,
    "PS_Female": 1,
    "PS_Total": 3,
    "ولسوالي": "اصل چغانسور",
    "Region": "Southern Region"
   },
   "geometry": {
    "x": 6923118.2347027101,
    "y": 3660917.1740343301
   }
  },
  {
   "attributes": {
    "OBJECTID": 5452,
    "ولایت": "نيمروز",
    "Province": "NIMROZ",
    "PC_Code": "3403032",
    "District": "ASL-E-CHAKHANSUR",
    "د_مرکز_نوم__نام_مرکز": "مکتب قریه شاقیس",
    "Polling_Center_Name": "Shah Qais School ",
    "د_مرکز_ځای__موقعیت_مرکز": "قریه شاقیس",
    "Polling_Center_Location": "Shah Qais Village",
    "Map_Accuracy": "Building",
    "Map_Accuracy_Dari": "تعمیر",
    "Status": "Open",
    "Status_Dari": null,
    "PS_Male": 2,
    "PS_Female": 1,
    "PS_Total": 3,
    "ولسوالي": "اصل چغانسور",
    "Region": "Southern Region"
   },
   "geometry": {
    "x": 6910355.5964590143,
    "y": 3660892.3397452594
   }
  },
  {
   "attributes": {
    "OBJECTID": 5453,
    "ولایت": "کابل",
    "Province": "KABUL",
    "PC_Code": "0101018",
    "District": "KABUL-D01",
    "د_مرکز_نوم__نام_مرکز": "مسجد بالا قلعه",
    "Polling_Center_Name": "Bala Qala Mosque",
    "د_مرکز_ځای__موقعیت_مرکز": "مسجد بالا قلعه عاشقان وعارفان",
    "Polling_Center_Location": "Bala Qala Ashuqan-o-Arifan",
    "Map_Accuracy": "Building",
    "Map_Accuracy_Dari": "تعمیر",
    "Status": "Open",
    "Status_Dari": null,
    "PS_Male": 2,
    "PS_Female": 1,
    "PS_Total": 3,
    "ولسوالي": "کابل - ناحیه 01",
    "Region": "Central Region"
   },
   "geometry": {
    "x": 7700594.7937089959,
    "y": 4097157.5579196941
   }
  },
  {
   "attributes": {
    "OBJECTID": 5454,
    "ولایت": "کابل",
    "Province": "KABUL",
    "PC_Code": "0101029",
    "District": "KABUL-D02",
    "د_مرکز_نوم__نام_مرکز": "لیسه شاه دو شمشیره",
    "Polling_Center_Name": "Shah-e- Du Shamshera High School",
    "د_مرکز_ځای__موقعیت_مرکز": "شاه دو شمشیره",
    "Polling_Center_Location": "Shah-e-Du Shamshera",
    "Map_Accuracy": "Building",
    "Map_Accuracy_Dari": "تعمیر",
    "Status": "Open",
    "Status_Dari": null,
    "PS_Male": 3,
    "PS_Female": 2,
    "PS_Total": 5,
    "ولسوالي": "کابل - ناحیه 02",
    "Region": "Central Region"
   },
   "geometry": {
    "x": 7700180.0662668794,
    "y": 4098415.6717184372
   }
  },
  {
   "attributes": {
    "OBJECTID": 5455,
    "ولایت": "کابل",
    "Province": "KABUL",
    "PC_Code": "0101030",
    "District": "KABUL-D02",
    "د_مرکز_نوم__نام_مرکز": "مسجد نایب سالار",
    "Polling_Center_Name": "Naieb Salar Mosque",
    "د_مرکز_ځای__موقعیت_مرکز": "قول آب چکان",
    "Polling_Center_Location": "Qul-e-Aab Chakan",
    "Map_Accuracy": "Building",
    "Map_Accuracy_Dari": "تعمیر",
    "Status": "Open",
    "Status_Dari": null,
    "PS_Male": 2,
    "PS_Female": 1,
    "PS_Total": 3,
    "ولسوالي": "کابل - ناحیه 02",
    "Region": "Central Region"
   },
   "geometry": {
    "x": 7699029.4880475458,
    "y": 4099641.8558964017
   }
  },
  {
   "attributes": {
    "OBJECTID": 5456,
    "ولایت": "کابل",
    "Province": "KABUL",
    "PC_Code": "0101077",
    "District": "KABUL-D05",
    "د_مرکز_نوم__نام_مرکز": " مسجد پولي تخنيک",
    "Polling_Center_Name": "Poly Technique Mosque",
    "د_مرکز_ځای__موقعیت_مرکز": "پولي تخنيک",
    "Polling_Center_Location": "Poly Technique",
    "Map_Accuracy": "Building",
    "Map_Accuracy_Dari": "تعمیر",
    "Status": "Open",
    "Status_Dari": null,
    "PS_Male": 3,
    "PS_Female": 3,
    "PS_Total": 6,
    "ولسوالي": "کابل - ناحیه 05",
    "Region": "Central Region"
   },
   "geometry": {
    "x": 7694010.3359973636,
    "y": 4100510.682165748
   }
  },
  {
   "attributes": {
    "OBJECTID": 5457,
    "ولایت": "کابل",
    "Province": "KABUL",
    "PC_Code": "0101078",
    "District": "KABUL-D05",
    "د_مرکز_نوم__نام_مرکز": " مسجد حضرت بلال ",
    "Polling_Center_Name": "Hazrat Bilal Mosque",
    "د_مرکز_ځای__موقعیت_مرکز": "قلعه کاشف",
    "Polling_Center_Location": "Qala-e-Kashif",
    "Map_Accuracy": "Building",
    "Map_Accuracy_Dari": "تعمیر",
    "Status": "Open",
    "Status_Dari": null,
    "PS_Male": 3,
    "PS_Female": 4,
    "PS_Total": 7,
    "ولسوالي": "کابل - ناحیه 05",
    "Region": "Central Region"
   },
   "geometry": {
    "x": 7686114.0381992515,
    "y": 4099571.4232500354
   }
  },
  {
   "attributes": {
    "OBJECTID": 5458,
    "ولایت": "کابل",
    "Province": "KABUL",
    "PC_Code": "0101096",
    "District": "KABUL-D06",
    "د_مرکز_نوم__نام_مرکز": " مسجد امام حسن مجتبي",
    "Polling_Center_Name": "Imam-e-Hussain Mujtaba Mosque",
    "د_مرکز_ځای__موقعیت_مرکز": "مرکز تلگراف",
    "Polling_Center_Location": "Telegraph Center",
    "Map_Accuracy": "Building",
    "Map_Accuracy_Dari": "تعمیر",
    "Status": "Open",
    "Status_Dari": null,
    "PS_Male": 3,
    "PS_Female": 3,
    "PS_Total": 6,
    "ولسوالي": "کابل - ناحیه 06",
    "Region": "Central Region"
   },
   "geometry": {
    "x": 7693311.5957987951,
    "y": 4096856.2886865344
   }
  },
  {
   "attributes": {
    "OBJECTID": 5459,
    "ولایت": "کابل",
    "Province": "KABUL",
    "PC_Code": "0101097",
    "District": "KABUL-D06",
    "د_مرکز_نوم__نام_مرکز": " مدرسه خاتم الانبيا",
    "Polling_Center_Name": "Khatamul Anbia Madrassa",
    "د_مرکز_ځای__موقعیت_مرکز": "قلعه ناظر",
    "Polling_Center_Location": "Qala-e-Nazer",
    "Map_Accuracy": "Building",
    "Map_Accuracy_Dari": "تعمیر",
    "Status": "Open",
    "Status_Dari": null,
    "PS_Male": 4,
    "PS_Female": 5,
    "PS_Total": 9,
    "ولسوالي": "کابل - ناحیه 06",
    "Region": "Central Region"
   },
   "geometry": {
    "x": 7692677.4364896212,
    "y": 4096701.3547135112
   }
  },
  {
   "attributes": {
    "OBJECTID": 5460,
    "ولایت": "کابل",
    "Province": "KABUL",
    "PC_Code": "0101115",
    "District": "KABUL-D06",
    "د_مرکز_نوم__نام_مرکز": " مدرسه جامعۀ الاسلام",
    "Polling_Center_Name": "Jamia Islam Madrassa",
    "د_مرکز_ځای__موقعیت_مرکز": "پل سوخته",
    "Polling_Center_Location": "Pul-e-Sukhta",
    "Map_Accuracy": "Building",
    "Map_Accuracy_Dari": "تعمیر",
    "Status": "Open",
    "Status_Dari": null,
    "PS_Male": 3,
    "PS_Female": 2,
    "PS_Total": 5,
    "ولسوالي": "کابل - ناحیه 06",
    "Region": "Central Region"
   },
   "geometry": {
    "x": 7694156.7355992869,
    "y": 4096731.2147462214
   }
  },
  {
   "attributes": {
    "OBJECTID": 5461,
    "ولایت": "کابل",
    "Province": "KABUL",
    "PC_Code": "0101203",
    "District": "KABUL-D10",
    "د_مرکز_نوم__نام_مرکز": " مسجد يادگار",
    "Polling_Center_Name": "Yadgar Mosque",
    "د_مرکز_ځای__موقعیت_مرکز": "چهار قلعه",
    "Polling_Center_Location": "Chahar Qala",
    "Map_Accuracy": "Building",
    "Map_Accuracy_Dari": "تعمیر",
    "Status": "Open",
    "Status_Dari": null,
    "PS_Male": 2,
    "PS_Female": 1,
    "PS_Total": 3,
    "ولسوالي": "کابل - ناحیه 10",
    "Region": "Central Region"
   },
   "geometry": {
    "x": 7700753.5108125824,
    "y": 4102743.226496242
   }
  },
  {
   "attributes": {
    "OBJECTID": 5462,
    "ولایت": "کابل",
    "Province": "KABUL",
    "PC_Code": "0101223",
    "District": "KABUL-D10",
    "د_مرکز_نوم__نام_مرکز": " ليسه احمد شاه مسعود",
    "Polling_Center_Name": "Ahmad Shah Masood High School",
    "د_مرکز_ځای__موقعیت_مرکز": "شهر نو",
    "Polling_Center_Location": "Shahr-e-Naw",
    "Map_Accuracy": "Building",
    "Map_Accuracy_Dari": "تعمیر",
    "Status": "Open",
    "Status_Dari": null,
    "PS_Male": 4,
    "PS_Female": 3,
    "PS_Total": 7,
    "ولسوالي": "کابل - ناحیه 10",
    "Region": "Central Region"
   },
   "geometry": {
    "x": 7699244.8200177569,
    "y": 4102595.8543675528
   }
  },
  {
   "attributes": {
    "OBJECTID": 5463,
    "ولایت": "کابل",
    "Province": "KABUL",
    "PC_Code": "0101242",
    "District": "KABUL-D11",
    "د_مرکز_نوم__نام_مرکز": " لیسه پروژه ",
    "Polling_Center_Name": "Proja High School",
    "د_مرکز_ځای__موقعیت_مرکز": "پروژه پنج خيرخانه",
    "Polling_Center_Location": "Proja 5 Khair Khana",
    "Map_Accuracy": "Building",
    "Map_Accuracy_Dari": "تعمیر",
    "Status": "Open",
    "Status_Dari": null,
    "PS_Male": 4,
    "PS_Female": 3,
    "PS_Total": 7,
    "ولسوالي": "کابل - ناحیه 11",
    "Region": "Central Region"
   },
   "geometry": {
    "x": 7694698.5086366683,
    "y": 4108703.9734259495
   }
  },
  {
   "attributes": {
    "OBJECTID": 5464,
    "ولایت": "کابل",
    "Province": "KABUL",
    "PC_Code": "0101243",
    "District": "KABUL-D11",
    "د_مرکز_نوم__نام_مرکز": " مسجد حضرت علی ",
    "Polling_Center_Name": "Public helthe Workshop",
    "د_مرکز_ځای__موقعیت_مرکز": "قلعه نجارها",
    "Polling_Center_Location": "Qala-e-Najarha",
    "Map_Accuracy": "Building",
    "Map_Accuracy_Dari": "تعمیر",
    "Status": "Open",
    "Status_Dari": null,
    "PS_Male": 3,
    "PS_Female": 2,
    "PS_Total": 5,
    "ولسوالي": "کابل - ناحیه 11",
    "Region": "Central Region"
   },
   "geometry": {
    "x": 7695664.8723570062,
    "y": 4106272.6934459936
   }
  },
  {
   "attributes": {
    "OBJECTID": 5465,
    "ولایت": "کابل",
    "Province": "KABUL",
    "PC_Code": "0101249",
    "District": "KABUL-D12",
    "د_مرکز_نوم__نام_مرکز": "مکتب متوسطه استاد ابراهیم خواخوږی",
    "Polling_Center_Name": "Ustad Ibrahim Khwakhwagi Secondary School",
    "د_مرکز_ځای__موقعیت_مرکز": "احمد شاه بابا مينه",
    "Polling_Center_Location": "Ahmad Shah Baba Mina",
    "Map_Accuracy": "Building",
    "Map_Accuracy_Dari": "تعمیر",
    "Status": "Open",
    "Status_Dari": null,
    "PS_Male": 4,
    "PS_Female": 4,
    "PS_Total": 8,
    "ولسوالي": "کابل - ناحیه 12",
    "Region": "Central Region"
   },
   "geometry": {
    "x": 7718474.0063684378,
    "y": 4099619.4533839086
   }
  },
  {
   "attributes": {
    "OBJECTID": 5466,
    "ولایت": "کابل",
    "Province": "KABUL",
    "PC_Code": "0101250",
    "District": "KABUL-D12",
    "د_مرکز_نوم__نام_مرکز": " ليسه حضرت  ابراهيم خليل الله",
    "Polling_Center_Name": "Hazrat Ibrahim Khalilullah High School",
    "د_مرکز_ځای__موقعیت_مرکز": "احمد شاه بابا مينه",
    "Polling_Center_Location": "Ahmad Shah Baba Mina",
    "Map_Accuracy": "Building",
    "Map_Accuracy_Dari": "تعمیر",
    "Status": "Open",
    "Status_Dari": null,
    "PS_Male": 5,
    "PS_Female": 5,
    "PS_Total": 10,
    "ولسوالي": "کابل - ناحیه 12",
    "Region": "Central Region"
   },
   "geometry": {
    "x": 7715823.0929952618,
    "y": 4098080.6075041364
   }
  },
  {
   "attributes": {
    "OBJECTID": 5467,
    "ولایت": "کابل",
    "Province": "KABUL",
    "PC_Code": "0101277",
    "District": "KABUL-D13",
    "د_مرکز_نوم__نام_مرکز": " مسجد مالک اشتر",
    "Polling_Center_Name": "Malik Ashtar Mosque",
    "د_مرکز_ځای__موقعیت_مرکز": "قلعه محب",
    "Polling_Center_Location": "Qala-e-Muhib",
    "Map_Accuracy": "Building",
    "Map_Accuracy_Dari": "تعمیر",
    "Status": "Open",
    "Status_Dari": null,
    "PS_Male": 3,
    "PS_Female": 3,
    "PS_Total": 6,
    "ولسوالي": "کابل - ناحیه 13",
    "Region": "Central Region"
   },
   "geometry": {
    "x": 7686206.3209439265,
    "y": 4096774.918197663
   }
  },
  {
   "attributes": {
    "OBJECTID": 5468,
    "ولایت": "کابل",
    "Province": "KABUL",
    "PC_Code": "0101500",
    "District": "KABUL-D13",
    "د_مرکز_نوم__نام_مرکز": "مسجد قران و عترت",
    "Polling_Center_Name": "Quran o Utrat Mosque",
    "د_مرکز_ځای__موقعیت_مرکز": "اونچی، ایستگاه شفاخانه",
    "Polling_Center_Location": "Onchi, Hospital Bus Stop",
    "Map_Accuracy": "Building",
    "Map_Accuracy_Dari": "تعمیر",
    "Status": "Open",
    "Status_Dari": null,
    "PS_Male": 4,
    "PS_Female": 3,
    "PS_Total": 7,
    "ولسوالي": "کابل - ناحیه 13",
    "Region": "Central Region"
   },
   "geometry": {
    "x": 7691102.5874082232,
    "y": 4096498.975886791
   }
  },
  {
   "attributes": {
    "OBJECTID": 5469,
    "ولایت": "کابل",
    "Province": "KABUL",
    "PC_Code": "0103428",
    "District": "CHAHAR ASYAB",
    "د_مرکز_نوم__نام_مرکز": "مسجد کاریز چارسوق",
    "Polling_Center_Name": "CharSawq Karez Mosque",
    "د_مرکز_ځای__موقعیت_مرکز": "کاریز چارسوق",
    "Polling_Center_Location": "Karez Charsoq",
    "Map_Accuracy": "Village",
    "Map_Accuracy_Dari": "قریه",
    "Status": "Open",
    "Status_Dari": null,
    "PS_Male": 1,
    "PS_Female": 1,
    "PS_Total": 2,
    "ولسوالي": "چهار آسیاب",
    "Region": "Central Region"
   },
   "geometry": {
    "x": 7699498.224367016,
    "y": 4084110.8066291171
   }
  },
  {
   "attributes": {
    "OBJECTID": 5470,
    "ولایت": "کابل",
    "Province": "KABUL",
    "PC_Code": "0104456",
    "District": "BAGRAMI",
    "د_مرکز_نوم__نام_مرکز": " لیسه عبدالشکور رشاد",
    "Polling_Center_Name": "Abdul Shakur Reshad High School",
    "د_مرکز_ځای__موقعیت_مرکز": "بگرامي",
    "Polling_Center_Location": "Bagrami",
    "Map_Accuracy": "Building",
    "Map_Accuracy_Dari": "تعمیر",
    "Status": "Open",
    "Status_Dari": null,
    "PS_Male": 3,
    "PS_Female": 2,
    "PS_Total": 5,
    "ولسوالي": "بگرامی",
    "Region": "Central Region"
   },
   "geometry": {
    "x": 7714034.9713542387,
    "y": 4095521.6745903706
   }
  },
  {
   "attributes": {
    "OBJECTID": 5471,
    "ولایت": "کابل",
    "Province": "KABUL",
    "PC_Code": "0105467",
    "District": "DEHSABZ",
    "د_مرکز_نوم__نام_مرکز": "مکتب متوسطه شیخو",
    "Polling_Center_Name": "Shekho Secondary School",
    "د_مرکز_ځای__موقعیت_مرکز": "بندي خانه",
    "Polling_Center_Location": "Bandi Khana",
    "Map_Accuracy": "Building",
    "Map_Accuracy_Dari": "تعمیر",
    "Status": "Open",
    "Status_Dari": null,
    "PS_Male": 3,
    "PS_Female": 2,
    "PS_Total": 5,
    "ولسوالي": "ده سبز",
    "Region": "Central Region"
   },
   "geometry": {
    "x": 7708112.4070897177,
    "y": 4127108.6247311896
   }
  },
  {
   "attributes": {
    "OBJECTID": 5472,
    "ولایت": "کابل",
    "Province": "KABUL",
    "PC_Code": "0106388",
    "District": "SHAKAR DARA",
    "د_مرکز_نوم__نام_مرکز": " ليسه بويه زار",
    "Polling_Center_Name": "Boya Zar High School",
    "د_مرکز_ځای__موقعیت_مرکز": "ده بويه زار",
    "Polling_Center_Location": "Deh Boya Zar",
    "Map_Accuracy": "Building",
    "Map_Accuracy_Dari": "تعمیر",
    "Status": "Open",
    "Status_Dari": null,
    "PS_Male": 3,
    "PS_Female": 3,
    "PS_Total": 6,
    "ولسوالي": "شکردره",
    "Region": "Central Region"
   },
   "geometry": {
    "x": 7687910.4898777781,
    "y": 4123174.6278044782
   }
  },
  {
   "attributes": {
    "OBJECTID": 5473,
    "ولایت": "کابل",
    "Province": "KABUL",
    "PC_Code": "0107432",
    "District": "MUSAHI",
    "د_مرکز_نوم__نام_مرکز": " مسجد قريه شينکي",
    "Polling_Center_Name": "Shenkai Village Mosque",
    "د_مرکز_ځای__موقعیت_مرکز": "دشتک",
    "Polling_Center_Location": "Dashtak",
    "Map_Accuracy": "Village",
    "Map_Accuracy_Dari": "قریه",
    "Status": "Open",
    "Status_Dari": null,
    "PS_Male": 1,
    "PS_Female": 3,
    "PS_Total": 4,
    "ولسوالي": "موسهی",
    "Region": "Central Region"
   },
   "geometry": {
    "x": 7707015.4982232861,
    "y": 4078572.8392774188
   }
  },
  {
   "attributes": {
    "OBJECTID": 5474,
    "ولایت": "کابل",
    "Province": "KABUL",
    "PC_Code": "0107433",
    "District": "MUSAHI",
    "د_مرکز_نوم__نام_مرکز": " ليسه موسهي عليا",
    "Polling_Center_Name": "Musahi Ulya High School",
    "د_مرکز_ځای__موقعیت_مرکز": "ده کلان",
    "Polling_Center_Location": "Deh Kalan",
    "Map_Accuracy": "Village",
    "Map_Accuracy_Dari": "قریه",
    "Status": "Open",
    "Status_Dari": null,
    "PS_Male": 3,
    "PS_Female": 3,
    "PS_Total": 6,
    "ولسوالي": "موسهی",
    "Region": "Central Region"
   },
   "geometry": {
    "x": 7700546.3040520018,
    "y": 4073033.4791411203
   }
  },
  {
   "attributes": {
    "OBJECTID": 5475,
    "ولایت": "کابل",
    "Province": "KABUL",
    "PC_Code": "0108336",
    "District": "MIR BACHA KOT",
    "د_مرکز_نوم__نام_مرکز": " مکتب متوسطه شیخان ",
    "Polling_Center_Name": "Shaikan Secondary School",
    "د_مرکز_ځای__موقعیت_مرکز": " شیخان",
    "Polling_Center_Location": "Shaikhan",
    "Map_Accuracy": "Building",
    "Map_Accuracy_Dari": "تعمیر",
    "Status": "Open",
    "Status_Dari": null,
    "PS_Male": 2,
    "PS_Female": 2,
    "PS_Total": 4,
    "ولسوالي": "میر بچه کوت",
    "Region": "Central Region"
   },
   "geometry": {
    "x": 7694518.2759245401,
    "y": 4127333.0519381501
   }
  },
  {
   "attributes": {
    "OBJECTID": 5476,
    "ولایت": "کابل",
    "Province": "KABUL",
    "PC_Code": "0109442",
    "District": "KHAK-E-JABAR",
    "د_مرکز_نوم__نام_مرکز": " منزل شاه رسول",
    "Polling_Center_Name": "Shah Rasool House",
    "د_مرکز_ځای__موقعیت_مرکز": "ملنگ",
    "Polling_Center_Location": "Malang",
    "Map_Accuracy": "Village",
    "Map_Accuracy_Dari": "قریه",
    "Status": "Open",
    "Status_Dari": null,
    "PS_Male": 2,
    "PS_Female": 1,
    "PS_Total": 3,
    "ولسوالي": "خاک جبار",
    "Region": "Central Region"
   },
   "geometry": {
    "x": 7725020.4751906442,
    "y": 4077932.17713801
   }
  },
  {
   "attributes": {
    "OBJECTID": 5477,
    "ولایت": "کابل",
    "Province": "KABUL",
    "PC_Code": "0110357",
    "District": "KALAKAN",
    "د_مرکز_نوم__نام_مرکز": " مکتب متوسطه زمه",
    "Polling_Center_Name": "Zama Secondary School",
    "د_مرکز_ځای__موقعیت_مرکز": "قریه زمه نو",
    "Polling_Center_Location": "Zama Naw Village",
    "Map_Accuracy": "Building",
    "Map_Accuracy_Dari": "تعمیر",
    "Status": "Open",
    "Status_Dari": null,
    "PS_Male": 3,
    "PS_Female": 1,
    "PS_Total": 4,
    "ولسوالي": "کلکان",
    "Region": "Central Region"
   },
   "geometry": {
    "x": 7702260.0865370817,
    "y": 4127131.8731989325
   }
  },
  {
   "attributes": {
    "OBJECTID": 5478,
    "ولایت": "کابل",
    "Province": "KABUL",
    "PC_Code": "0112350",
    "District": "FARZA",
    "د_مرکز_نوم__نام_مرکز": "مسجد زرکران",
    "Polling_Center_Name": "Zargaran Mosque",
    "د_مرکز_ځای__موقعیت_مرکز": "زرگران",
    "Polling_Center_Location": "Zargaran",
    "Map_Accuracy": "Building",
    "Map_Accuracy_Dari": "تعمیر",
    "Status": "Open",
    "Status_Dari": null,
    "PS_Male": 1,
    "PS_Female": 1,
    "PS_Total": 2,
    "ولسوالي": "فرزه",
    "Region": "Central Region"
   },
   "geometry": {
    "x": 7687516.6014443357,
    "y": 4135197.5077121053
   }
  },
  {
   "attributes": {
    "OBJECTID": 5479,
    "ولایت": "کابل",
    "Province": "KABUL",
    "PC_Code": "0114360",
    "District": "QARA BAGH",
    "د_مرکز_نوم__نام_مرکز": " مکتب متوسطه اکا خيل",
    "Polling_Center_Name": "Aka Khel Secondary School",
    "د_مرکز_ځای__موقعیت_مرکز": "اکا خيل",
    "Polling_Center_Location": "Aka Khel ",
    "Map_Accuracy": "Building",
    "Map_Accuracy_Dari": "تعمیر",
    "Status": "Open",
    "Status_Dari": null,
    "PS_Male": 4,
    "PS_Female": 3,
    "PS_Total": 7,
    "ولسوالي": "قره باغ",
    "Region": "Central Region"
   },
   "geometry": {
    "x": 7700420.3182182945,
    "y": 4146237.460389208
   }
  },
  {
   "attributes": {
    "OBJECTID": 5480,
    "ولایت": "کابل",
    "Province": "KABUL",
    "PC_Code": "0114371",
    "District": "QARA BAGH",
    "د_مرکز_نوم__نام_مرکز": "لیسه لنگر",
    "Polling_Center_Name": "Langar High School",
    "د_مرکز_ځای__موقعیت_مرکز": "لنگر",
    "Polling_Center_Location": "Langar",
    "Map_Accuracy": "Building",
    "Map_Accuracy_Dari": "تعمیر",
    "Status": "Open",
    "Status_Dari": null,
    "PS_Male": 3,
    "PS_Female": 3,
    "PS_Total": 6,
    "ولسوالي": "قره باغ",
    "Region": "Central Region"
   },
   "geometry": {
    "x": 7703266.3041935926,
    "y": 4139571.5317921089
   }
  },
  {
   "attributes": {
    "OBJECTID": 5481,
    "ولایت": "کابل",
    "Province": "KABUL",
    "PC_Code": "0115484",
    "District": "SURUBI",
    "د_مرکز_نوم__نام_مرکز": "مکتب ابتدائيه شهرک",
    "Polling_Center_Name": "Shahrak Primary School",
    "د_مرکز_ځای__موقعیت_مرکز": "شهرک",
    "Polling_Center_Location": "Shahrak",
    "Map_Accuracy": "Building",
    "Map_Accuracy_Dari": "تعمیر",
    "Status": "Open",
    "Status_Dari": null,
    "PS_Male": 3,
    "PS_Female": 1,
    "PS_Total": 4,
    "ولسوالي": "سروبی",
    "Region": "Central Region"
   },
   "geometry": {
    "x": 7765064.864544726,
    "y": 4108349.9431598471
   }
  },
  {
   "attributes": {
    "OBJECTID": 5482,
    "ولایت": "کابل",
    "Province": "KABUL",
    "PC_Code": "0115485",
    "District": "SURUBI",
    "د_مرکز_نوم__نام_مرکز": "مکتب متوسطه نسوان هوتخیل ",
    "Polling_Center_Name": "HudKhel Girls Secondary School",
    "د_مرکز_ځای__موقعیت_مرکز": "هوتخيل",
    "Polling_Center_Location": "HudKhel ",
    "Map_Accuracy": "Building",
    "Map_Accuracy_Dari": "تعمیر",
    "Status": "Open",
    "Status_Dari": null,
    "PS_Male": 2,
    "PS_Female": 1,
    "PS_Total": 3,
    "ولسوالي": "سروبی",
    "Region": "Central Region"
   },
   "geometry": {
    "x": 7762761.8323726431,
    "y": 4107776.4291218747
   }
  },
  {
   "attributes": {
    "OBJECTID": 5483,
    "ولایت": "کابل",
    "Province": "KABUL",
    "PC_Code": "0115486",
    "District": "SURUBI",
    "د_مرکز_نوم__نام_مرکز": "مسجد بام دړي",
    "Polling_Center_Name": "Bam Dare Mosque",
    "د_مرکز_ځای__موقعیت_مرکز": " بام دړي",
    "Polling_Center_Location": "Bam Darai",
    "Map_Accuracy": "Village",
    "Map_Accuracy_Dari": "قریه",
    "Status": "Open",
    "Status_Dari": null,
    "PS_Male": 2,
    "PS_Female": 2,
    "PS_Total": 4,
    "ولسوالي": "سروبی",
    "Region": "Central Region"
   },
   "geometry": {
    "x": 7781117.3165678848,
    "y": 4136309.1270275544
   }
  },
  {
   "attributes": {
    "OBJECTID": 5484,
    "ولایت": "کاپيسا",
    "Province": "KAPISA",
    "PC_Code": "0201004",
    "District": "MAHMUDI RAQI",
    "د_مرکز_نوم__نام_مرکز": "لیسه الله محمد شوخی",
    "Polling_Center_Name": "Allah Mohammad Shukhi High School",
    "د_مرکز_ځای__موقعیت_مرکز": "شوخی ",
    "Polling_Center_Location": "Shukhi",
    "Map_Accuracy": "Building",
    "Map_Accuracy_Dari": "تعمیر",
    "Status": "Open",
    "Status_Dari": null,
    "PS_Male": 3,
    "PS_Female": 2,
    "PS_Total": 5,
    "ولسوالي": "محمود راقی ",
    "Region": "Central Region"
   },
   "geometry": {
    "x": 7728987.4075839771,
    "y": 4156572.348492268
   }
  },
  {
   "attributes": {
    "OBJECTID": 5485,
    "ولایت": "کاپيسا",
    "Province": "KAPISA",
    "PC_Code": "0205048",
    "District": "NIJRAB",
    "د_مرکز_نوم__نام_مرکز": "مکتب غلام جیلانی شهید",
    "Polling_Center_Name": "Ghulam Jelani Shaheed School ",
    "د_مرکز_ځای__موقعیت_مرکز": "چنارقاضی ",
    "Polling_Center_Location": "Chinar-e-Qazi",
    "Map_Accuracy": "Building",
    "Map_Accuracy_Dari": "تعمیر",
    "Status": "Open",
    "Status_Dari": null,
    "PS_Male": 2,
    "PS_Female": 1,
    "PS_Total": 3,
    "ولسوالي": "نجراب ",
    "Region": "Central Region"
   },
   "geometry": {
    "x": 7750875.7237994494,
    "y": 4170099.788471858
   }
  },
  {
   "attributes": {
    "OBJECTID": 5486,
    "ولایت": "کاپيسا",
    "Province": "KAPISA",
    "PC_Code": "0205059",
    "District": "NIJRAB",
    "د_مرکز_نوم__نام_مرکز": "مکتب څارنوال حبیب الرحمن شهید",
    "Polling_Center_Name": "Saranwal Habib Rahman Shaheed School ",
    "د_مرکز_ځای__موقعیت_مرکز": "لقمان دره غوث ",
    "Polling_Center_Location": "Loqman Dara-e-Ghous ",
    "Map_Accuracy": "Building",
    "Map_Accuracy_Dari": "تعمیر",
    "Status": "Open",
    "Status_Dari": null,
    "PS_Male": 1,
    "PS_Female": 1,
    "PS_Total": 2,
    "ولسوالي": "نجراب ",
    "Region": "Central Region"
   },
   "geometry": {
    "x": 7754276.6221855823,
    "y": 4178049.4807555955
   }
  },
  {
   "attributes": {
    "OBJECTID": 5487,
    "ولایت": "پروان",
    "Province": "PARWAN",
    "PC_Code": "0301003",
    "District": "CHARIKAR",
    "د_مرکز_نوم__نام_مرکز": "لیسه عالی تجربوی  محمد عثمان ",
    "Polling_Center_Name": "Mohammad Usman Experimental High School",
    "د_مرکز_ځای__موقعیت_مرکز": "چاریکار",
    "Polling_Center_Location": "Charikar",
    "Map_Accuracy": "Building",
    "Map_Accuracy_Dari": "تعمیر",
    "Status": "Open",
    "Status_Dari": null,
    "PS_Male": 4,
    "PS_Female": 2,
    "PS_Total": 6,
    "ولسوالي": "چاریکار",
    "Region": "Central Region"
   },
   "geometry": {
    "x": 7699855.8760798164,
    "y": 4165716.1416015052
   }
  },
  {
   "attributes": {
    "OBJECTID": 5488,
    "ولایت": "پروان",
    "Province": "PARWAN",
    "PC_Code": "0301013",
    "District": "CHARIKAR",
    "د_مرکز_نوم__نام_مرکز": "مکتب خواجه سیاران پایان",
    "Polling_Center_Name": "Khwaja Sayaran Payan School",
    "د_مرکز_ځای__موقعیت_مرکز": "خواجه سیاران پایان",
    "Polling_Center_Location": "Khwaja Sayaran Payan",
    "Map_Accuracy": "Building",
    "Map_Accuracy_Dari": "تعمیر",
    "Status": "Open",
    "Status_Dari": null,
    "PS_Male": 2,
    "PS_Female": 1,
    "PS_Total": 3,
    "ولسوالي": "چاریکار",
    "Region": "Central Region"
   },
   "geometry": {
    "x": 7699244.1142521836,
    "y": 4162557.9245632701
   }
  },
  {
   "attributes": {
    "OBJECTID": 5489,
    "ولایت": "پروان",
    "Province": "PARWAN",
    "PC_Code": "0301024",
    "District": "CHARIKAR",
    "د_مرکز_نوم__نام_مرکز": "لیسه لغمانی",
    "Polling_Center_Name": "Laghmani High School",
    "د_مرکز_ځای__موقعیت_مرکز": "لغمانی",
    "Polling_Center_Location": "Laghmani",
    "Map_Accuracy": "Building",
    "Map_Accuracy_Dari": "تعمیر",
    "Status": "Open",
    "Status_Dari": null,
    "PS_Male": 2,
    "PS_Female": 1,
    "PS_Total": 3,
    "ولسوالي": "چاریکار",
    "Region": "Central Region"
   },
   "geometry": {
    "x": 7698474.7874777028,
    "y": 4159594.7161238128
   }
  },
  {
   "attributes": {
    "OBJECTID": 5490,
    "ولایت": "پروان",
    "Province": "PARWAN",
    "PC_Code": "0302108",
    "District": "BAGRAM",
    "د_مرکز_نوم__نام_مرکز": "مکتب عزیز رحما ن شاه ",
    "Polling_Center_Name": "Aziz Rahman Shah School",
    "د_مرکز_ځای__موقعیت_مرکز": "قلعه خواجه ",
    "Polling_Center_Location": "Qala-e-Khwaja",
    "Map_Accuracy": "Building",
    "Map_Accuracy_Dari": "تعمیر",
    "Status": "Open",
    "Status_Dari": null,
    "PS_Male": 2,
    "PS_Female": 2,
    "PS_Total": 4,
    "ولسوالي": "بگرام ",
    "Region": "Central Region"
   },
   "geometry": {
    "x": 7703382.8282045415,
    "y": 4155676.9370933054
   }
  },
  {
   "attributes": {
    "OBJECTID": 5491,
    "ولایت": "پروان",
    "Province": "PARWAN",
    "PC_Code": "0307085",
    "District": "SYAHGIRDI GHORBAND",
    "د_مرکز_نوم__نام_مرکز": "لیسه چهارده",
    "Polling_Center_Name": "Chahar Deh High School",
    "د_مرکز_ځای__موقعیت_مرکز": "چهارده",
    "Polling_Center_Location": "Chahar Deh",
    "Map_Accuracy": "Building",
    "Map_Accuracy_Dari": "تعمیر",
    "Status": "Open",
    "Status_Dari": null,
    "PS_Male": 2,
    "PS_Female": 1,
    "PS_Total": 3,
    "ولسوالي": "سیاه گرد غوربند",
    "Region": "Central Region"
   },
   "geometry": {
    "x": 7653920.372443757,
    "y": 4163682.0649929368
   }
  },
  {
   "attributes": {
    "OBJECTID": 5492,
    "ولایت": "پروان",
    "Province": "PARWAN",
    "PC_Code": "0310130",
    "District": "SHAYKH ALI",
    "د_مرکز_نوم__نام_مرکز": "خیمه پای کوتل",
    "Polling_Center_Name": "Pay-e-Kotal Tent",
    "د_مرکز_ځای__موقعیت_مرکز": "قریه زیر شیبر ",
    "Polling_Center_Location": "Zeer Shebar Village",
    "Map_Accuracy": "Village",
    "Map_Accuracy_Dari": "قریه",
    "Status": "Open",
    "Status_Dari": null,
    "PS_Male": 1,
    "PS_Female": 1,
    "PS_Total": 2,
    "ولسوالي": "شیخ علی ",
    "Region": "Central Region"
   },
   "geometry": {
    "x": 7600562.2833102914,
    "y": 4151440.8983559785
   }
  },
  {
   "attributes": {
    "OBJECTID": 5493,
    "ولایت": "وردک",
    "Province": "WARDAK",
    "PC_Code": "0403023",
    "District": "JALREZ",
    "د_مرکز_نوم__نام_مرکز": "متوسطه داولان",
    "Polling_Center_Name": "Dawalan Secondary School",
    "د_مرکز_ځای__موقعیت_مرکز": "قریه احمد زی",
    "Polling_Center_Location": "Ahmad Zai Village",
    "Map_Accuracy": "Village",
    "Map_Accuracy_Dari": "قریه",
    "Status": "Open",
    "Status_Dari": null,
    "PS_Male": 2,
    "PS_Female": 1,
    "PS_Total": 3,
    "ولسوالي": "جلریز",
    "Region": "Central Region"
   },
   "geometry": {
    "x": 7636158.8790326323,
    "y": 4094157.0938919289
   }
  },
  {
   "attributes": {
    "OBJECTID": 5494,
    "ولایت": "وردک",
    "Province": "WARDAK",
    "PC_Code": "0405112",
    "District": "SAYYD ABAD",
    "د_مرکز_نوم__نام_مرکز": "مکتب قریه حیدرخیل ",
    "Polling_Center_Name": "Haider Khel Village School",
    "د_مرکز_ځای__موقعیت_مرکز": "حیدر خیل",
    "Polling_Center_Location": "Haider Khel",
    "Map_Accuracy": "Village",
    "Map_Accuracy_Dari": "قریه",
    "Status": "Open",
    "Status_Dari": null,
    "PS_Male": 2,
    "PS_Female": 1,
    "PS_Total": 3,
    "ولسوالي": "سید آباد",
    "Region": "Central Region"
   },
   "geometry": {
    "x": 7647529.5817030314,
    "y": 4023157.6074951296
   }
  },
  {
   "attributes": {
    "OBJECTID": 5495,
    "ولایت": "وردک",
    "Province": "WARDAK",
    "PC_Code": "0405124",
    "District": "SAYYD ABAD",
    "د_مرکز_نوم__نام_مرکز": "مکتب ابتدائیه حکیم خیل ",
    "Polling_Center_Name": "School and Tent",
    "د_مرکز_ځای__موقعیت_مرکز": "حکیم خیل",
    "Polling_Center_Location": "Hakim Khel",
    "Map_Accuracy": "Village",
    "Map_Accuracy_Dari": "قریه",
    "Status": "Open",
    "Status_Dari": null,
    "PS_Male": 1,
    "PS_Female": 1,
    "PS_Total": 2,
    "ولسوالي": "سید آباد",
    "Region": "Central Region"
   },
   "geometry": {
    "x": 7644237.9901513001,
    "y": 4030803.5320994719
   }
  },
  {
   "attributes": {
    "OBJECTID": 5496,
    "ولایت": "وردک",
    "Province": "WARDAK",
    "PC_Code": "0406068",
    "District": "DAYMIRDAD",
    "د_مرکز_نوم__نام_مرکز": "مکتب بلاک حسینی",
    "Polling_Center_Name": "Block Hussaini School",
    "د_مرکز_ځای__موقعیت_مرکز": "قریه بلاک حسینی",
    "Polling_Center_Location": "Block Hussaini Village",
    "Map_Accuracy": "Building",
    "Map_Accuracy_Dari": "تعمیر",
    "Status": "Open",
    "Status_Dari": null,
    "PS_Male": 2,
    "PS_Female": 1,
    "PS_Total": 3,
    "ولسوالي": "دایمیرداد",
    "Region": "Central Region"
   },
   "geometry": {
    "x": 7603446.1995096505,
    "y": 4080553.3656226187
   }
  },
  {
   "attributes": {
    "OBJECTID": 5497,
    "ولایت": "وردک",
    "Province": "WARDAK",
    "PC_Code": "0406069",
    "District": "DAYMIRDAD",
    "د_مرکز_نوم__نام_مرکز": "منزل ملک اسدالله",
    "Polling_Center_Name": "Malik Asadullah House",
    "د_مرکز_ځای__موقعیت_مرکز": "قریه نقشین",
    "Polling_Center_Location": "Naqshen Village",
    "Map_Accuracy": "Village",
    "Map_Accuracy_Dari": "قریه",
    "Status": "Open",
    "Status_Dari": null,
    "PS_Male": 3,
    "PS_Female": 2,
    "PS_Total": 5,
    "ولسوالي": "دایمیرداد",
    "Region": "Central Region"
   },
   "geometry": {
    "x": 7603846.2049491107,
    "y": 4068327.9639336145
   }
  },
  {
   "attributes": {
    "OBJECTID": 5498,
    "ولایت": "وردک",
    "Province": "WARDAK",
    "PC_Code": "0409052",
    "District": "MARKAZ-E-BEHSUD",
    "د_مرکز_نوم__نام_مرکز": "مکتب بره خانه",
    "Polling_Center_Name": "Bara Khana School",
    "د_مرکز_ځای__موقعیت_مرکز": "سبزا",
    "Polling_Center_Location": "Sabza",
    "Map_Accuracy": "Building",
    "Map_Accuracy_Dari": "تعمیر",
    "Status": "Open",
    "Status_Dari": null,
    "PS_Male": 1,
    "PS_Female": 1,
    "PS_Total": 2,
    "ولسوالي": "مرکز بهسود",
    "Region": "Central Region"
   },
   "geometry": {
    "x": 7498066.3326928606,
    "y": 4092515.2038598265
   }
  },
  {
   "attributes": {
    "OBJECTID": 5499,
    "ولایت": "وردک",
    "Province": "WARDAK",
    "PC_Code": "0409062",
    "District": "MARKAZ-E-BEHSUD",
    "د_مرکز_نوم__نام_مرکز": "مسجد کمرک",
    "Polling_Center_Name": "Kamarak Mosque",
    "د_مرکز_ځای__موقعیت_مرکز": "کمرک",
    "Polling_Center_Location": "Kamarak",
    "Map_Accuracy": "Village",
    "Map_Accuracy_Dari": "قریه",
    "Status": "Open",
    "Status_Dari": null,
    "PS_Male": 1,
    "PS_Female": 1,
    "PS_Total": 2,
    "ولسوالي": "مرکز بهسود",
    "Region": "South Eastern Region"
   },
   "geometry": {
    "x": 7522094.9219661187,
    "y": 4050077.23124291
   }
  },
  {
   "attributes": {
    "OBJECTID": 5500,
    "ولایت": "لوگر",
    "Province": "LOGAR",
    "PC_Code": "0501011",
    "District": "PULI ALAM",
    "د_مرکز_نوم__نام_مرکز": "مکتب پس کاریز",
    "Polling_Center_Name": "Pas Kariz School",
    "د_مرکز_ځای__موقعیت_مرکز": "پس کاریز",
    "Polling_Center_Location": "Pas Kariz",
    "Map_Accuracy": "Building",
    "Map_Accuracy_Dari": "تعمیر",
    "Status": "Open",
    "Status_Dari": null,
    "PS_Male": 3,
    "PS_Female": 2,
    "PS_Total": 5,
    "ولسوالي": "پل علم",
    "Region": "Central Region"
   },
   "geometry": {
    "x": 7688742.2691129874,
    "y": 4022716.8489231034
   }
  },
  {
   "attributes": {
    "OBJECTID": 5501,
    "ولایت": "لوگر",
    "Province": "LOGAR",
    "PC_Code": "0502022",
    "District": "BARAKI BARAK",
    "د_مرکز_نوم__نام_مرکز": "ليسه غازى امان الله",
    "Polling_Center_Name": "Ghazi Amanullah High School",
    "د_مرکز_ځای__موقعیت_مرکز": "برکى برک",
    "Polling_Center_Location": "Baraki Barak",
    "Map_Accuracy": "Building",
    "Map_Accuracy_Dari": "تعمیر",
    "Status": "Open",
    "Status_Dari": null,
    "PS_Male": 7,
    "PS_Female": 1,
    "PS_Total": 8,
    "ولسوالي": "برکی برک",
    "Region": "Central Region"
   },
   "geometry": {
    "x": 7674484.3952613184,
    "y": 4024452.3927659546
   }
  },
  {
   "attributes": {
    "OBJECTID": 5502,
    "ولایت": "لوگر",
    "Province": "LOGAR",
    "PC_Code": "0502033",
    "District": "BARAKI BARAK",
    "د_مرکز_نوم__نام_مرکز": "مکتب قلعه جابر",
    "Polling_Center_Name": "Qala-e-Jabir School",
    "د_مرکز_ځای__موقعیت_مرکز": "قلعه جابر",
    "Polling_Center_Location": "Qala-e-Jabir",
    "Map_Accuracy": "Building",
    "Map_Accuracy_Dari": "تعمیر",
    "Status": "Open",
    "Status_Dari": null,
    "PS_Male": 1,
    "PS_Female": 1,
    "PS_Total": 2,
    "ولسوالي": "برکی برک",
    "Region": "Central Region"
   },
   "geometry": {
    "x": 7665787.0958408155,
    "y": 4020944.0873680478
   }
  },
  {
   "attributes": {
    "OBJECTID": 5503,
    "ولایت": "لوگر",
    "Province": "LOGAR",
    "PC_Code": "0505055",
    "District": "MOHAMMAD AGHA",
    "د_مرکز_نوم__نام_مرکز": "مکتب آبازک",
    "Polling_Center_Name": "Abazak School",
    "د_مرکز_ځای__موقعیت_مرکز": "آبازک",
    "Polling_Center_Location": "Abazak",
    "Map_Accuracy": "Building",
    "Map_Accuracy_Dari": "تعمیر",
    "Status": "Open",
    "Status_Dari": null,
    "PS_Male": 2,
    "PS_Female": 1,
    "PS_Total": 3,
    "ولسوالي": "محمد آغه",
    "Region": "Central Region"
   },
   "geometry": {
    "x": 7687588.4548360575,
    "y": 4065444.0773306987
   }
  },
  {
   "attributes": {
    "OBJECTID": 5504,
    "ولایت": "ننگرهار",
    "Province": "NANGARHAR",
    "PC_Code": "0601006",
    "District": "JALALABAD",
    "د_مرکز_نوم__نام_مرکز": "عبدالوکيل لیسه",
    "Polling_Center_Name": "Abdul Wakel High School",
    "د_مرکز_ځای__موقعیت_مرکز": "اوله ناحیه",
    "Polling_Center_Location": "D01-Nahia 1",
    "Map_Accuracy": "Building",
    "Map_Accuracy_Dari": "تعمیر",
    "Status": "Open",
    "Status_Dari": null,
    "PS_Male": 6,
    "PS_Female": 0,
    "PS_Total": 6,
    "ولسوالي": "جلال آباد",
    "Region": "Eastern Region"
   },
   "geometry": {
    "x": 7844499.8048841171,
    "y": 4087112.0782043552
   }
  },
  {
   "attributes": {
    "OBJECTID": 5505,
    "ولایت": "ننگرهار",
    "Province": "NANGARHAR",
    "PC_Code": "0601018",
    "District": "JALALABAD",
    "د_مرکز_نوم__نام_مرکز": "شهيد عارف ليسه",
    "Polling_Center_Name": "Shaheed Arif High School",
    "د_مرکز_ځای__موقعیت_مرکز": "پنځمه ناحیه",
    "Polling_Center_Location": "D05-Nahia 5",
    "Map_Accuracy": "Building",
    "Map_Accuracy_Dari": "تعمیر",
    "Status": "Open",
    "Status_Dari": null,
    "PS_Male": 0,
    "PS_Female": 7,
    "PS_Total": 7,
    "ولسوالي": "جلال آباد",
    "Region": "Eastern Region"
   },
   "geometry": {
    "x": 7840658.2126714438,
    "y": 4085751.8389418381
   }
  },
  {
   "attributes": {
    "OBJECTID": 5506,
    "ولایت": "ننگرهار",
    "Province": "NANGARHAR",
    "PC_Code": "0601027",
    "District": "JALALABAD",
    "د_مرکز_نوم__نام_مرکز": "سراج العمارات باغ",
    "Polling_Center_Name": "Sirajul Amarat Bagh",
    "د_مرکز_ځای__موقعیت_مرکز": "اوله ناحیه",
    "Polling_Center_Location": "D01-Nahia 1",
    "Map_Accuracy": "Building",
    "Map_Accuracy_Dari": "تعمیر",
    "Status": "Open",
    "Status_Dari": null,
    "PS_Male": 6,
    "PS_Female": 0,
    "PS_Total": 6,
    "ولسوالي": "جلال آباد",
    "Region": "Eastern Region"
   },
   "geometry": {
    "x": 7842674.9912257288,
    "y": 4087338.9975270606
   }
  },
  {
   "attributes": {
    "OBJECTID": 5507,
    "ولایت": "ننگرهار",
    "Province": "NANGARHAR",
    "PC_Code": "0601039",
    "District": "JALALABAD",
    "د_مرکز_نوم__نام_مرکز": "مجبور آباد جامع جومات",
    "Polling_Center_Name": "Majboor Abad Jame Mosque",
    "د_مرکز_ځای__موقعیت_مرکز": "څلورمه ناحیه",
    "Polling_Center_Location": "D04-Nahia 4",
    "Map_Accuracy": "Building",
    "Map_Accuracy_Dari": "تعمیر",
    "Status": "Open",
    "Status_Dari": null,
    "PS_Male": 5,
    "PS_Female": 0,
    "PS_Total": 5,
    "ولسوالي": "جلال آباد",
    "Region": "Eastern Region"
   },
   "geometry": {
    "x": 7844712.127331893,
    "y": 4084449.3851317284
   }
  },
  {
   "attributes": {
    "OBJECTID": 5508,
    "ولایت": "ننگرهار",
    "Province": "NANGARHAR",
    "PC_Code": "0603075",
    "District": "SURKH RUD",
    "د_مرکز_نوم__نام_مرکز": "حاجی سردارباغ",
    "Polling_Center_Name": "Haji Sardar Bagh ",
    "د_مرکز_ځای__موقعیت_مرکز": "سلطان پور",
    "Polling_Center_Location": "Sultanpoor ",
    "Map_Accuracy": "Village",
    "Map_Accuracy_Dari": "قریه",
    "Status": "Open",
    "Status_Dari": null,
    "PS_Male": 0,
    "PS_Female": 2,
    "PS_Total": 2,
    "ولسوالي": "سرخرود",
    "Region": "Eastern Region"
   },
   "geometry": {
    "x": 7826173.0121744322,
    "y": 4083638.7078809515
   }
  },
  {
   "attributes": {
    "OBJECTID": 5509,
    "ولایت": "ننگرهار",
    "Province": "NANGARHAR",
    "PC_Code": "0603087",
    "District": "SURKH RUD",
    "د_مرکز_نوم__نام_مرکز": "امرخيل مکتب",
    "Polling_Center_Name": "AmarKhil School",
    "د_مرکز_ځای__موقعیت_مرکز": "امر خيل",
    "Polling_Center_Location": "AmarKhel",
    "Map_Accuracy": "Village",
    "Map_Accuracy_Dari": "قریه",
    "Status": "Open",
    "Status_Dari": null,
    "PS_Male": 4,
    "PS_Female": 0,
    "PS_Total": 4,
    "ولسوالي": "سرخرود",
    "Region": "Eastern Region"
   },
   "geometry": {
    "x": 7832842.0593407312,
    "y": 4090361.4994109692
   }
  },
  {
   "attributes": {
    "OBJECTID": 5510,
    "ولایت": "ننگرهار",
    "Province": "NANGARHAR",
    "PC_Code": "0603098",
    "District": "SURKH RUD",
    "د_مرکز_نوم__نام_مرکز": "جومات ګنده چشمه",
    "Polling_Center_Name": "Ganda Chashma Mosque",
    "د_مرکز_ځای__موقعیت_مرکز": "ګنده چشمه",
    "Polling_Center_Location": "Ganda Chashma",
    "Map_Accuracy": "Village",
    "Map_Accuracy_Dari": "قریه",
    "Status": "Open",
    "Status_Dari": null,
    "PS_Male": 1,
    "PS_Female": 1,
    "PS_Total": 2,
    "ولسوالي": "سرخرود",
    "Region": "Eastern Region"
   },
   "geometry": {
    "x": 7840014.4765464738,
    "y": 4083481.7696815678
   }
  },
  {
   "attributes": {
    "OBJECTID": 5511,
    "ولایت": "ننگرهار",
    "Province": "NANGARHAR",
    "PC_Code": "0605168",
    "District": "KAMA",
    "د_مرکز_نوم__نام_مرکز": "کوزلنده بوچ جومات",
    "Polling_Center_Name": "Koz Landabooch Mosque",
    "د_مرکز_ځای__موقعیت_مرکز": "کوزلنده بوچ",
    "Polling_Center_Location": "Koz landabooch",
    "Map_Accuracy": "Village",
    "Map_Accuracy_Dari": "قریه",
    "Status": "Open",
    "Status_Dari": null,
    "PS_Male": 2,
    "PS_Female": 0,
    "PS_Total": 2,
    "ولسوالي": "کامه",
    "Region": "Eastern Region"
   },
   "geometry": {
    "x": 7861234.8902887153,
    "y": 4086831.076383438
   }
  },
  {
   "attributes": {
    "OBJECTID": 5512,
    "ولایت": "ننگرهار",
    "Province": "NANGARHAR",
    "PC_Code": "0605180",
    "District": "KAMA",
    "د_مرکز_نوم__نام_مرکز": "حضرت عمر فاروق جومات",
    "Polling_Center_Name": "Hasrat Omar Faroq Mosque",
    "د_مرکز_ځای__موقعیت_مرکز": "کوز میدان ",
    "Polling_Center_Location": "Koz Maidan",
    "Map_Accuracy": "Village",
    "Map_Accuracy_Dari": "قریه",
    "Status": "Open",
    "Status_Dari": null,
    "PS_Male": 2,
    "PS_Female": 0,
    "PS_Total": 2,
    "ولسوالي": "کامه",
    "Region": "Eastern Region"
   },
   "geometry": {
    "x": 7860601.9143057317,
    "y": 4086778.4903753391
   }
  },
  {
   "attributes": {
    "OBJECTID": 5513,
    "ولایت": "ننگرهار",
    "Province": "NANGARHAR",
    "PC_Code": "0606192",
    "District": "KUZ KUNAR",
    "د_مرکز_نوم__نام_مرکز": "مرکزي جومات",
    "Polling_Center_Name": "Central Mosque",
    "د_مرکز_ځای__موقعیت_مرکز": "قله ټک",
    "Polling_Center_Location": "Qala Tak",
    "Map_Accuracy": "Building",
    "Map_Accuracy_Dari": "تعمیر",
    "Status": "Open",
    "Status_Dari": null,
    "PS_Male": 3,
    "PS_Female": 0,
    "PS_Total": 3,
    "ولسوالي": "کوز کنړ",
    "Region": "Eastern Region"
   },
   "geometry": {
    "x": 7856152.2171107018,
    "y": 4106090.0925747762
   }
  },
  {
   "attributes": {
    "OBJECTID": 5514,
    "ولایت": "ننگرهار",
    "Province": "NANGARHAR",
    "PC_Code": "0607128",
    "District": "RODAT",
    "د_مرکز_نوم__نام_مرکز": "حصارشاهي جومات",
    "Polling_Center_Name": "Hesar-e-Shahee Mosque",
    "د_مرکز_ځای__موقعیت_مرکز": "حصارشاهي",
    "Polling_Center_Location": "Hesar-e-Shahee",
    "Map_Accuracy": "Building",
    "Map_Accuracy_Dari": "تعمیر",
    "Status": "Open",
    "Status_Dari": null,
    "PS_Male": 5,
    "PS_Female": 0,
    "PS_Total": 5,
    "ولسوالي": "رودات",
    "Region": "Eastern Region"
   },
   "geometry": {
    "x": 7856529.5022420902,
    "y": 4063410.8467391054
   }
  },
  {
   "attributes": {
    "OBJECTID": 5515,
    "ولایت": "ننگرهار",
    "Province": "NANGARHAR",
    "PC_Code": "0607140",
    "District": "RODAT",
    "د_مرکز_نوم__نام_مرکز": "بړو د جینکو مکتب",
    "Polling_Center_Name": "Barogaray Girls School",
    "د_مرکز_ځای__موقعیت_مرکز": "بړو ګري",
    "Polling_Center_Location": "Barogaray",
    "Map_Accuracy": "Building",
    "Map_Accuracy_Dari": "تعمیر",
    "Status": "Open",
    "Status_Dari": null,
    "PS_Male": 0,
    "PS_Female": 2,
    "PS_Total": 2,
    "ولسوالي": "رودات",
    "Region": "Eastern Region"
   },
   "geometry": {
    "x": 7863098.9102264885,
    "y": 4063509.4991989816
   }
  },
  {
   "attributes": {
    "OBJECTID": 5516,
    "ولایت": "ننگرهار",
    "Province": "NANGARHAR",
    "PC_Code": "0611317",
    "District": "PACHIR WAGAM",
    "د_مرکز_نوم__نام_مرکز": "جامع جومات زمرخیل",
    "Polling_Center_Name": "Jaame Mosque",
    "د_مرکز_ځای__موقعیت_مرکز": "زمرخیل",
    "Polling_Center_Location": "ZmarKhel",
    "Map_Accuracy": "Village",
    "Map_Accuracy_Dari": "قریه",
    "Status": "Open",
    "Status_Dari": null,
    "PS_Male": 2,
    "PS_Female": 1,
    "PS_Total": 3,
    "ولسوالي": "پچیر و اګام",
    "Region": "Eastern Region"
   },
   "geometry": {
    "x": 7823293.3138705865,
    "y": 4054978.4736612998
   }
  },
  {
   "attributes": {
    "OBJECTID": 5517,
    "ولایت": "ننگرهار",
    "Province": "NANGARHAR",
    "PC_Code": "0612235",
    "District": "DARAH-E-NOOR",
    "د_مرکز_نوم__نام_مرکز": "سوتن جومات",
    "Polling_Center_Name": "Sotan Mosque",
    "د_مرکز_ځای__موقعیت_مرکز": "سوتن",
    "Polling_Center_Location": "Sotan",
    "Map_Accuracy": "Building",
    "Map_Accuracy_Dari": "تعمیر",
    "Status": "Open",
    "Status_Dari": null,
    "PS_Male": 3,
    "PS_Female": 0,
    "PS_Total": 3,
    "ولسوالي": "دره نور",
    "Region": "Eastern Region"
   },
   "geometry": {
    "x": 7861508.2408643374,
    "y": 4125239.9100311175
   }
  },
  {
   "attributes": {
    "OBJECTID": 5518,
    "ولایت": "ننگرهار",
    "Province": "NANGARHAR",
    "PC_Code": "0614491",
    "District": "GOSHTA",
    "د_مرکز_نوم__نام_مرکز": "ورسک جومات",
    "Polling_Center_Name": "Warsak Mosque",
    "د_مرکز_ځای__موقعیت_مرکز": "ورسک",
    "Polling_Center_Location": "Warsak",
    "Map_Accuracy": "Village",
    "Map_Accuracy_Dari": "قریه",
    "Status": "Open",
    "Status_Dari": null,
    "PS_Male": 0,
    "PS_Female": 2,
    "PS_Total": 2,
    "ولسوالي": "ګوشته",
    "Region": "Eastern Region"
   },
   "geometry": {
    "x": 7882838.0671944991,
    "y": 4074920.0693840175
   }
  },
  {
   "attributes": {
    "OBJECTID": 5519,
    "ولایت": "ننگرهار",
    "Province": "NANGARHAR",
    "PC_Code": "0615357",
    "District": "ACHIN",
    "د_مرکز_نوم__نام_مرکز": "خادي راغه خوږه خیل مسجد",
    "Polling_Center_Name": "Khadi Ragha Khawga Khel Mosque",
    "د_مرکز_ځای__موقعیت_مرکز": "خادي راغه",
    "Polling_Center_Location": "Khadi Ragha",
    "Map_Accuracy": "Village",
    "Map_Accuracy_Dari": "قریه",
    "Status": "Open",
    "Status_Dari": null,
    "PS_Male": 1,
    "PS_Female": 1,
    "PS_Total": 2,
    "ولسوالي": "اچین",
    "Region": "Eastern Region"
   },
   "geometry": {
    "x": 7874422.0565425009,
    "y": 4045991.6666166768
   }
  },
  {
   "attributes": {
    "OBJECTID": 5520,
    "ولایت": "ننگرهار",
    "Province": "NANGARHAR",
    "PC_Code": "0615368",
    "District": "ACHIN",
    "د_مرکز_نوم__نام_مرکز": "ګاوي کلي جومات",
    "Polling_Center_Name": "Gaawi Village Mosque",
    "د_مرکز_ځای__موقعیت_مرکز": "ګاوي کلي",
    "Polling_Center_Location": "Gaawi Village",
    "Map_Accuracy": "Village",
    "Map_Accuracy_Dari": "قریه",
    "Status": "Open",
    "Status_Dari": null,
    "PS_Male": 0,
    "PS_Female": 4,
    "PS_Total": 4,
    "ولسوالي": "اچین",
    "Region": "Eastern Region"
   },
   "geometry": {
    "x": 7864180.072283024,
    "y": 4036469.6805905583
   }
  },
  {
   "attributes": {
    "OBJECTID": 5521,
    "ولایت": "ننگرهار",
    "Province": "NANGARHAR",
    "PC_Code": "0616420",
    "District": "SHINWAR",
    "د_مرکز_نوم__نام_مرکز": "د ۲۶ ویالی لیسه",
    "Polling_Center_Name": "26 Viyalai High School",
    "د_مرکز_ځای__موقعیت_مرکز": "۲۶ ویاله",
    "Polling_Center_Location": "26 Viyala",
    "Map_Accuracy": "Village",
    "Map_Accuracy_Dari": "قریه",
    "Status": "Open",
    "Status_Dari": null,
    "PS_Male": 4,
    "PS_Female": 0,
    "PS_Total": 4,
    "ولسوالي": "شینوار",
    "Region": "Eastern Region"
   },
   "geometry": {
    "x": 7880742.2161795143,
    "y": 4058690.7846167218
   }
  },
  {
   "attributes": {
    "OBJECTID": 5522,
    "ولایت": "ننگرهار",
    "Province": "NANGARHAR",
    "PC_Code": "0620408",
    "District": "NAZYAN",
    "د_مرکز_نوم__نام_مرکز": "سپين جومات ميدان",
    "Polling_Center_Name": "Speen Mosque Maidan",
    "د_مرکز_ځای__موقعیت_مرکز": "سروبي منځ",
    "Polling_Center_Location": "Sarobay Menz",
    "Map_Accuracy": "Village",
    "Map_Accuracy_Dari": "قریه",
    "Status": "Open",
    "Status_Dari": null,
    "PS_Male": 2,
    "PS_Female": 1,
    "PS_Total": 3,
    "ولسوالي": "نازیان",
    "Region": "Eastern Region"
   },
   "geometry": {
    "x": 7881950.0237490609,
    "y": 4044329.3471026346
   }
  },
  {
   "attributes": {
    "OBJECTID": 5523,
    "ولایت": "لغمان",
    "Province": "LAGHMAN",
    "PC_Code": "0701009",
    "District": "MEHTARLAM",
    "د_مرکز_نوم__نام_مرکز": "د شمنګل جومات",
    "Polling_Center_Name": "Shamangal Mosque",
    "د_مرکز_ځای__موقعیت_مرکز": "شمنګل",
    "Polling_Center_Location": "Shamangal",
    "Map_Accuracy": "Building",
    "Map_Accuracy_Dari": "تعمیر",
    "Status": "Open",
    "Status_Dari": null,
    "PS_Male": 3,
    "PS_Female": 1,
    "PS_Total": 4,
    "ولسوالي": "مهترلام",
    "Region": "Eastern Region"
   },
   "geometry": {
    "x": 7818980.1544837933,
    "y": 4114241.0839126236
   }
  },
  {
   "attributes": {
    "OBJECTID": 5524,
    "ولایت": "لغمان",
    "Province": "LAGHMAN",
    "PC_Code": "0701018",
    "District": "MEHTARLAM",
    "د_مرکز_نوم__نام_مرکز": "دبديع آباد دکلي حجره",
    "Polling_Center_Name": "Bady Abad Village Hujra",
    "د_مرکز_ځای__موقعیت_مرکز": "کلالان",
    "Polling_Center_Location": "Kolalan",
    "Map_Accuracy": "Village",
    "Map_Accuracy_Dari": "قریه",
    "Status": "Open",
    "Status_Dari": null,
    "PS_Male": 2,
    "PS_Female": 1,
    "PS_Total": 3,
    "ولسوالي": "مهترلام",
    "Region": "Eastern Region"
   },
   "geometry": {
    "x": 7823254.0782028548,
    "y": 4128574.9899713332
   }
  },
  {
   "attributes": {
    "OBJECTID": 5525,
    "ولایت": "لغمان",
    "Province": "LAGHMAN",
    "PC_Code": "0701024",
    "District": "MEHTARLAM",
    "د_مرکز_نوم__نام_مرکز": "د خېرآباد دکلي جومات",
    "Polling_Center_Name": "Khair Abad Village Mosque",
    "د_مرکز_ځای__موقعیت_مرکز": "خیر آباد",
    "Polling_Center_Location": "Khair Abad",
    "Map_Accuracy": "Village",
    "Map_Accuracy_Dari": "قریه",
    "Status": "Open",
    "Status_Dari": null,
    "PS_Male": 2,
    "PS_Female": 1,
    "PS_Total": 3,
    "ولسوالي": "مهترلام",
    "Region": "Eastern Region"
   },
   "geometry": {
    "x": 7810701.0400887942,
    "y": 4119697.0154582784
   }
  },
  {
   "attributes": {
    "OBJECTID": 5526,
    "ولایت": "لغمان",
    "Province": "LAGHMAN",
    "PC_Code": "0702036",
    "District": "QARGHAYEE",
    "د_مرکز_نوم__نام_مرکز": " دنهرکريم ښوونځی اودکلي حجره",
    "Polling_Center_Name": "Nahr Karim School and De kaley Hojra",
    "د_مرکز_ځای__موقعیت_مرکز": "نهر کریم",
    "Polling_Center_Location": "Nahr Karim",
    "Map_Accuracy": "Building",
    "Map_Accuracy_Dari": "تعمیر",
    "Status": "Open",
    "Status_Dari": null,
    "PS_Male": 3,
    "PS_Female": 1,
    "PS_Total": 4,
    "ولسوالي": "قرغه یي",
    "Region": "Eastern Region"
   },
   "geometry": {
    "x": 7828787.1923420355,
    "y": 4100283.064976966
   }
  },
  {
   "attributes": {
    "OBJECTID": 5527,
    "ولایت": "لغمان",
    "Province": "LAGHMAN",
    "PC_Code": "0702046",
    "District": "QARGHAYEE",
    "د_مرکز_نوم__نام_مرکز": "د سرکنډو بابا هوټل ",
    "Polling_Center_Name": "Sarkando Baba Hotel Hujra",
    "د_مرکز_ځای__موقعیت_مرکز": "سرکنډو بابا",
    "Polling_Center_Location": "Sarkando Baba",
    "Map_Accuracy": "Building",
    "Map_Accuracy_Dari": "تعمیر",
    "Status": "Open",
    "Status_Dari": null,
    "PS_Male": 2,
    "PS_Female": 1,
    "PS_Total": 3,
    "ولسوالي": "قرغه یي",
    "Region": "Eastern Region"
   },
   "geometry": {
    "x": 7793159.9937784849,
    "y": 4097492.0259233122
   }
  },
  {
   "attributes": {
    "OBJECTID": 5528,
    "ولایت": "لغمان",
    "Province": "LAGHMAN",
    "PC_Code": "0703086",
    "District": "ALISHING",
    "د_مرکز_نوم__نام_مرکز": "دشکرمان ښوونځی",
    "Polling_Center_Name": "Shakarman School",
    "د_مرکز_ځای__موقعیت_مرکز": "شکرمان",
    "Polling_Center_Location": "Shakarman",
    "Map_Accuracy": "Village",
    "Map_Accuracy_Dari": "قریه",
    "Status": "Open",
    "Status_Dari": null,
    "PS_Male": 2,
    "PS_Female": 1,
    "PS_Total": 3,
    "ولسوالي": "علیشنګ",
    "Region": "Eastern Region"
   },
   "geometry": {
    "x": 7808932.2557565132,
    "y": 4126171.0381673328
   }
  },
  {
   "attributes": {
    "OBJECTID": 5529,
    "ولایت": "لغمان",
    "Province": "LAGHMAN",
    "PC_Code": "0703097",
    "District": "ALISHING",
    "د_مرکز_نوم__نام_مرکز": "داسلام آباد دهلکانو او نجونو ښوونځي",
    "Polling_Center_Name": "Islam Abad Boys & Girls School",
    "د_مرکز_ځای__موقعیت_مرکز": "اسلام آباد",
    "Polling_Center_Location": "Islam Abad",
    "Map_Accuracy": "Building",
    "Map_Accuracy_Dari": "تعمیر",
    "Status": "Open",
    "Status_Dari": null,
    "PS_Male": 3,
    "PS_Female": 1,
    "PS_Total": 4,
    "ولسوالي": "علیشنګ",
    "Region": "Eastern Region"
   },
   "geometry": {
    "x": 7803096.9982554251,
    "y": 4130244.0712089278
   }
  },
  {
   "attributes": {
    "OBJECTID": 5530,
    "ولایت": "لغمان",
    "Province": "LAGHMAN",
    "PC_Code": "0703107",
    "District": "ALISHING",
    "د_مرکز_نوم__نام_مرکز": "عبدالله ابن مسعود لیسه",
    "Polling_Center_Name": "Abdullah Ibn Masood High school",
    "د_مرکز_ځای__موقعیت_مرکز": "سلاب سفلی",
    "Polling_Center_Location": "Salab Sufla",
    "Map_Accuracy": "Village",
    "Map_Accuracy_Dari": "قریه",
    "Status": "Open",
    "Status_Dari": null,
    "PS_Male": 2,
    "PS_Female": 1,
    "PS_Total": 3,
    "ولسوالي": "علیشنګ",
    "Region": "Eastern Region"
   },
   "geometry": {
    "x": 7796344.3089633295,
    "y": 4135211.0068298504
   }
  },
  {
   "attributes": {
    "OBJECTID": 5531,
    "ولایت": "لغمان",
    "Province": "LAGHMAN",
    "PC_Code": "0704064",
    "District": "ALINGAR",
    "د_مرکز_نوم__نام_مرکز": "د ورناټا دکلي جومات ",
    "Polling_Center_Name": "Waronta Village Mosque",
    "د_مرکز_ځای__موقعیت_مرکز": "ورناټا",
    "Polling_Center_Location": "Waronta",
    "Map_Accuracy": "Building",
    "Map_Accuracy_Dari": "تعمیر",
    "Status": "Open",
    "Status_Dari": null,
    "PS_Male": 2,
    "PS_Female": 1,
    "PS_Total": 3,
    "ولسوالي": "علینګار",
    "Region": "Eastern Region"
   },
   "geometry": {
    "x": 7833714.2275135852,
    "y": 4147825.9002616233
   }
  },
  {
   "attributes": {
    "OBJECTID": 5532,
    "ولایت": "لغمان",
    "Province": "LAGHMAN",
    "PC_Code": "0704085",
    "District": "ALINGAR",
    "د_مرکز_نوم__نام_مرکز": "ادهار کلی دیره",
    "Polling_Center_Name": "Adhar Village Dera",
    "د_مرکز_ځای__موقعیت_مرکز": "ادهار",
    "Polling_Center_Location": "Adhar",
    "Map_Accuracy": "Village",
    "Map_Accuracy_Dari": "قریه",
    "Status": "Open",
    "Status_Dari": null,
    "PS_Male": 1,
    "PS_Female": 1,
    "PS_Total": 2,
    "ولسوالي": "علینګار",
    "Region": "Eastern Region"
   },
   "geometry": {
    "x": 7833744.9650513856,
    "y": 4149168.3901216504
   }
  },
  {
   "attributes": {
    "OBJECTID": 5533,
    "ولایت": "پنجشیر",
    "Province": "PANJSHIR",
    "PC_Code": "0801001",
    "District": "BAZARAK",
    "د_مرکز_نوم__نام_مرکز": "لیسه بازارک",
    "Polling_Center_Name": "Bazarak High School",
    "د_مرکز_ځای__موقعیت_مرکز": "بازارک ",
    "Polling_Center_Location": "Bazarak",
    "Map_Accuracy": "Building",
    "Map_Accuracy_Dari": "تعمیر",
    "Status": "Open",
    "Status_Dari": null,
    "PS_Male": 3,
    "PS_Female": 1,
    "PS_Total": 4,
    "ولسوالي": " بازارک",
    "Region": "Central Region"
   },
   "geometry": {
    "x": 7738351.8302412704,
    "y": 4206305.7899056384
   }
  },
  {
   "attributes": {
    "OBJECTID": 5534,
    "ولایت": "پنجشیر",
    "Province": "PANJSHIR",
    "PC_Code": "0805034",
    "District": "UNABA",
    "د_مرکز_نوم__نام_مرکز": "باغچه کلان بازار تاواخ",
    "Polling_Center_Name": "Baghcha Kalan Bazar Tawakh",
    "د_مرکز_ځای__موقعیت_مرکز": "تاواخ",
    "Polling_Center_Location": "Tawaakh",
    "Map_Accuracy": "Building",
    "Map_Accuracy_Dari": "تعمیر",
    "Status": "Open",
    "Status_Dari": null,
    "PS_Male": 2,
    "PS_Female": 1,
    "PS_Total": 3,
    "ولسوالي": "عنابه",
    "Region": "Central Region"
   },
   "geometry": {
    "x": 7725756.0855177548,
    "y": 4196445.5675196098
   }
  },
  {
   "attributes": {
    "OBJECTID": 5535,
    "ولایت": "پنجشیر",
    "Province": "PANJSHIR",
    "PC_Code": "0807071",
    "District": "PARYAN",
    "د_مرکز_نوم__نام_مرکز": "سرشخ نودانگ ",
    "Polling_Center_Name": "Sarshakh Nawdang",
    "د_مرکز_ځای__موقعیت_مرکز": "سرشخ نودانگ ",
    "Polling_Center_Location": "Sarshakh Nawdang",
    "Map_Accuracy": "Village",
    "Map_Accuracy_Dari": "قریه",
    "Status": "Open",
    "Status_Dari": null,
    "PS_Male": 1,
    "PS_Female": 1,
    "PS_Total": 2,
    "ولسوالي": "پریان",
    "Region": "Central Region"
   },
   "geometry": {
    "x": 7792747.7832700526,
    "y": 4248810.7999737207
   }
  },
  {
   "attributes": {
    "OBJECTID": 5536,
    "ولایت": "پنجشیر",
    "Province": "PANJSHIR",
    "PC_Code": "0807082",
    "District": "PARYAN",
    "د_مرکز_نوم__نام_مرکز": "مسجد شانیز ",
    "Polling_Center_Name": "Shaniz Mosque ",
    "د_مرکز_ځای__موقعیت_مرکز": "قریه شانیز",
    "Polling_Center_Location": "Shaniz Village ",
    "Map_Accuracy": "Village",
    "Map_Accuracy_Dari": "قریه",
    "Status": "Open",
    "Status_Dari": null,
    "PS_Male": 1,
    "PS_Female": 1,
    "PS_Total": 2,
    "ولسوالي": "پریان",
    "Region": "Central Region"
   },
   "geometry": {
    "x": 7789366.7687713644,
    "y": 4246574.0825268887
   }
  },
  {
   "attributes": {
    "OBJECTID": 5537,
    "ولایت": "پنجشیر",
    "Province": "PANJSHIR",
    "PC_Code": "0808058",
    "District": "ABSHAR",
    "د_مرکز_نوم__نام_مرکز": "مسجد اهل شفیع ",
    "Polling_Center_Name": "Ahlee Shafi Mosque ",
    "د_مرکز_ځای__موقعیت_مرکز": "اهل شفیع ",
    "Polling_Center_Location": "Ahlee Shafi",
    "Map_Accuracy": "Village",
    "Map_Accuracy_Dari": "قریه",
    "Status": "Open",
    "Status_Dari": null,
    "PS_Male": 1,
    "PS_Female": 1,
    "PS_Total": 2,
    "ولسوالي": "آبشار",
    "Region": "Central Region"
   },
   "geometry": {
    "x": 7778653.2028662357,
    "y": 4200229.9856627304
   }
  },
  {
   "attributes": {
    "OBJECTID": 5538,
    "ولایت": "بغلان",
    "Province": "BAGHLAN",
    "PC_Code": "0901006",
    "District": "PUL-E-KHUMRI",
    "د_مرکز_نوم__نام_مرکز": "سیلو پلخمری",
    "Polling_Center_Name": "Pol-e-Khomri Selo",
    "د_مرکز_ځای__موقعیت_مرکز": "ناحیه دوم",
    "Polling_Center_Location": "Second Nahia",
    "Map_Accuracy": "Building",
    "Map_Accuracy_Dari": "تعمیر",
    "Status": "Open",
    "Status_Dari": null,
    "PS_Male": 3,
    "PS_Female": 2,
    "PS_Total": 5,
    "ولسوالي": "پلخمری",
    "Region": "North Eastern Region"
   },
   "geometry": {
    "x": 7650312.5700860629,
    "y": 4290403.3372251866
   }
  },
  {
   "attributes": {
    "OBJECTID": 5539,
    "ولایت": "بغلان",
    "Province": "BAGHLAN",
    "PC_Code": "0901231",
    "District": "PUL-E-KHUMRI",
    "د_مرکز_نوم__نام_مرکز": "مکتب عبدالقدیر آخند زاده شاه بدالین",
    "Polling_Center_Name": "Abdul Qadeer Okhonzada School",
    "د_مرکز_ځای__موقعیت_مرکز": "ناحیه سوم",
    "Polling_Center_Location": "Third Nahia",
    "Map_Accuracy": "Building",
    "Map_Accuracy_Dari": "تعمیر",
    "Status": "Open",
    "Status_Dari": null,
    "PS_Male": 2,
    "PS_Female": 1,
    "PS_Total": 3,
    "ولسوالي": "پلخمری",
    "Region": "North Eastern Region"
   },
   "geometry": {
    "x": 7642249.5067851869,
    "y": 4303253.7255688701
   }
  },
  {
   "attributes": {
    "OBJECTID": 5540,
    "ولایت": "بغلان",
    "Province": "BAGHLAN",
    "PC_Code": "0902238",
    "District": "DAHANA-E-GHURI",
    "د_مرکز_نوم__نام_مرکز": "مسجد سرخک",
    "Polling_Center_Name": "Sorkhak Mosque",
    "د_مرکز_ځای__موقعیت_مرکز": "سرخک",
    "Polling_Center_Location": "Sorkhak",
    "Map_Accuracy": "Building",
    "Map_Accuracy_Dari": "تعمیر",
    "Status": "Open",
    "Status_Dari": null,
    "PS_Male": 2,
    "PS_Female": 1,
    "PS_Total": 3,
    "ولسوالي": "دهنه غوری",
    "Region": "North Eastern Region"
   },
   "geometry": {
    "x": 7634651.343734121,
    "y": 4258781.115815023
   }
  },
  {
   "attributes": {
    "OBJECTID": 5541,
    "ولایت": "بغلان",
    "Province": "BAGHLAN",
    "PC_Code": "0903102",
    "District": "DUSHI",
    "د_مرکز_نوم__نام_مرکز": "مکتب  قریه ظهرابی",
    "Polling_Center_Name": "Zahrabi Village School",
    "د_مرکز_ځای__موقعیت_مرکز": "قریه ظهرابی",
    "Polling_Center_Location": "Zahrabi Village",
    "Map_Accuracy": "Village",
    "Map_Accuracy_Dari": "قریه",
    "Status": "Open",
    "Status_Dari": null,
    "PS_Male": 2,
    "PS_Female": 2,
    "PS_Total": 4,
    "ولسوالي": "دوشی",
    "Region": "North Eastern Region"
   },
   "geometry": {
    "x": 7654551.2956953347,
    "y": 4271824.9384986479
   }
  },
  {
   "attributes": {
    "OBJECTID": 5542,
    "ولایت": "بغلان",
    "Province": "BAGHLAN",
    "PC_Code": "0903240",
    "District": "DUSHI",
    "د_مرکز_نوم__نام_مرکز": "مسجد قریه زارغه",
    "Polling_Center_Name": "Zargha Village Mosque",
    "د_مرکز_ځای__موقعیت_مرکز": "قریه زارغه",
    "Polling_Center_Location": "Zargha Village",
    "Map_Accuracy": "Village",
    "Map_Accuracy_Dari": "قریه",
    "Status": "Open",
    "Status_Dari": null,
    "PS_Male": 3,
    "PS_Female": 1,
    "PS_Total": 4,
    "ولسوالي": "دوشی",
    "Region": "North Eastern Region"
   },
   "geometry": {
    "x": 7634643.6515573105,
    "y": 4240470.2252783161
   }
  },
  {
   "attributes": {
    "OBJECTID": 5543,
    "ولایت": "بغلان",
    "Province": "BAGHLAN",
    "PC_Code": "0904139",
    "District": "NAHREEN",
    "د_مرکز_نوم__نام_مرکز": "لیسه نسوان بی بی آمنه ",
    "Polling_Center_Name": "Bibi Ameena Girls School",
    "د_مرکز_ځای__موقعیت_مرکز": "شهر جدید",
    "Polling_Center_Location": "Shahr-e-Jadid ",
    "Map_Accuracy": "Building",
    "Map_Accuracy_Dari": "تعمیر",
    "Status": "Open",
    "Status_Dari": null,
    "PS_Male": 2,
    "PS_Female": 1,
    "PS_Total": 3,
    "ولسوالي": "نهرین",
    "Region": "North Eastern Region"
   },
   "geometry": {
    "x": 7692716.5953468988,
    "y": 4309615.0925766779
   }
  },
  {
   "attributes": {
    "OBJECTID": 5544,
    "ولایت": "بغلان",
    "Province": "BAGHLAN",
    "PC_Code": "0904245",
    "District": "NAHREEN",
    "د_مرکز_نوم__نام_مرکز": "مسجد حافظ بچه ",
    "Polling_Center_Name": "Hafiz Bacha Mosque",
    "د_مرکز_ځای__موقعیت_مرکز": "حافظ بچه",
    "Polling_Center_Location": "Hafiz Bacha",
    "Map_Accuracy": "Building",
    "Map_Accuracy_Dari": "تعمیر",
    "Status": "Open",
    "Status_Dari": null,
    "PS_Male": 2,
    "PS_Female": 1,
    "PS_Total": 3,
    "ولسوالي": "نهرین",
    "Region": "North Eastern Region"
   },
   "geometry": {
    "x": 7689666.6672777245,
    "y": 4308716.9004897671
   }
  },
  {
   "attributes": {
    "OBJECTID": 5545,
    "ولایت": "بغلان",
    "Province": "BAGHLAN",
    "PC_Code": "0907121",
    "District": "ANDARAB",
    "د_مرکز_نوم__نام_مرکز": "خیمه در قریه سرپل ",
    "Polling_Center_Name": "Sari Pul Village Tent",
    "د_مرکز_ځای__موقعیت_مرکز": "قریه سرپل",
    "Polling_Center_Location": "Saripul Village",
    "Map_Accuracy": "Building",
    "Map_Accuracy_Dari": "تعمیر",
    "Status": "Open",
    "Status_Dari": null,
    "PS_Male": 2,
    "PS_Female": 1,
    "PS_Total": 3,
    "ولسوالي": "اندراب",
    "Region": "North Eastern Region"
   },
   "geometry": {
    "x": 7712141.1685546217,
    "y": 4249127.7825198378
   }
  },
  {
   "attributes": {
    "OBJECTID": 5546,
    "ولایت": "بغلان",
    "Province": "BAGHLAN",
    "PC_Code": "0910150",
    "District": "BURKA",
    "د_مرکز_نوم__نام_مرکز": "مکتب متوسطه سای هزاره ",
    "Polling_Center_Name": "Sai Hezada Secondary School",
    "د_مرکز_ځای__موقعیت_مرکز": "قریه حاجی حضرت شاه",
    "Polling_Center_Location": "Haji Hazrat Shah",
    "Map_Accuracy": "Building",
    "Map_Accuracy_Dari": "تعمیر",
    "Status": "Open",
    "Status_Dari": null,
    "PS_Male": 2,
    "PS_Female": 2,
    "PS_Total": 4,
    "ولسوالي": "برکه",
    "Region": "North Eastern Region"
   },
   "geometry": {
    "x": 7717008.8310304815,
    "y": 4324702.553042707
   }
  },
  {
   "attributes": {
    "OBJECTID": 5547,
    "ولایت": "بغلان",
    "Province": "BAGHLAN",
    "PC_Code": "0910162",
    "District": "BURKA",
    "د_مرکز_نوم__نام_مرکز": "مکتب متوسطه بابه عایب",
    "Polling_Center_Name": "Baba Aayeb Secondary School",
    "د_مرکز_ځای__موقعیت_مرکز": "شش گل",
    "Polling_Center_Location": "Shash Gul",
    "Map_Accuracy": "Building",
    "Map_Accuracy_Dari": "تعمیر",
    "Status": "Open",
    "Status_Dari": null,
    "PS_Male": 2,
    "PS_Female": 1,
    "PS_Total": 3,
    "ولسوالي": "برکه",
    "Region": "North Eastern Region"
   },
   "geometry": {
    "x": 7694506.0205391599,
    "y": 4331916.7109415997
   }
  },
  {
   "attributes": {
    "OBJECTID": 5548,
    "ولایت": "بغلان",
    "Province": "BAGHLAN",
    "PC_Code": "0911170",
    "District": "TALA WA BARFAK",
    "د_مرکز_نوم__نام_مرکز": "مکتب متوسطه برفک",
    "Polling_Center_Name": "Barfak Secondary School",
    "د_مرکز_ځای__موقعیت_مرکز": "سرخجوی",
    "Polling_Center_Location": "Surkhjoy",
    "Map_Accuracy": "Building",
    "Map_Accuracy_Dari": "تعمیر",
    "Status": "Open",
    "Status_Dari": null,
    "PS_Male": 2,
    "PS_Female": 1,
    "PS_Total": 3,
    "ولسوالي": "تاله و برفک",
    "Region": "North Eastern Region"
   },
   "geometry": {
    "x": 7585580.9941817336,
    "y": 4212523.4510427313
   }
  },
  {
   "attributes": {
    "OBJECTID": 5549,
    "ولایت": "بغلان",
    "Province": "BAGHLAN",
    "PC_Code": "0913256",
    "District": "KHOST WA FIRING",
    "د_مرکز_نوم__نام_مرکز": "مکتب ابتدائیه قلعه میر ",
    "Polling_Center_Name": "Qala-e-Mir Primary School",
    "د_مرکز_ځای__موقعیت_مرکز": "قلعه میر",
    "Polling_Center_Location": "Qala-e-Mir",
    "Map_Accuracy": "Building",
    "Map_Accuracy_Dari": "تعمیر",
    "Status": "Open",
    "Status_Dari": null,
    "PS_Male": 1,
    "PS_Female": 1,
    "PS_Total": 2,
    "ولسوالي": "خوست و فرنگ",
    "Region": "North Eastern Region"
   },
   "geometry": {
    "x": 7753188.1335254386,
    "y": 4294379.4966114433
   }
  },
  {
   "attributes": {
    "OBJECTID": 5550,
    "ولایت": "بغلان",
    "Province": "BAGHLAN",
    "PC_Code": "0915257",
    "District": "FIRING WA GHARU",
    "د_مرکز_نوم__نام_مرکز": "مسجد دشت شهان ",
    "Polling_Center_Name": "Dasht-e-Shehan Mosque",
    "د_مرکز_ځای__موقعیت_مرکز": "ارباب ملا مراد شهر",
    "Polling_Center_Location": "Arbab Mulla Murad Shahr",
    "Map_Accuracy": "Building",
    "Map_Accuracy_Dari": "تعمیر",
    "Status": "Open",
    "Status_Dari": null,
    "PS_Male": 1,
    "PS_Female": 1,
    "PS_Total": 2,
    "ولسوالي": "فرنگ و غارو",
    "Region": "North Eastern Region"
   },
   "geometry": {
    "x": 7754379.9467105484,
    "y": 4318633.655626867
   }
  },
  {
   "attributes": {
    "OBJECTID": 5551,
    "ولایت": "باميان",
    "Province": "BAMYAN",
    "PC_Code": "1001012",
    "District": "BAMYAN",
    "د_مرکز_نوم__نام_مرکز": "مسجد توپچی",
    "Polling_Center_Name": "Topchi Mosque",
    "د_مرکز_ځای__موقعیت_مرکز": "توپچی",
    "Polling_Center_Location": "Topchi",
    "Map_Accuracy": "Building",
    "Map_Accuracy_Dari": "تعمیر",
    "Status": "Open",
    "Status_Dari": null,
    "PS_Male": 1,
    "PS_Female": 2,
    "PS_Total": 3,
    "ولسوالي": "بامیان",
    "Region": "Central Highlands Region"
   },
   "geometry": {
    "x": 7563933.0145204943,
    "y": 4138912.3550800327
   }
  },
  {
   "attributes": {
    "OBJECTID": 5552,
    "ولایت": "باميان",
    "Province": "BAMYAN",
    "PC_Code": "1002023",
    "District": "SHEBAR",
    "د_مرکز_نوم__نام_مرکز": "مکتب ذکور شنبل",
    "Polling_Center_Name": "Shanbol Boys School",
    "د_مرکز_ځای__موقعیت_مرکز": "خاک بابه ",
    "Polling_Center_Location": "Khak Baba",
    "Map_Accuracy": "Building",
    "Map_Accuracy_Dari": "تعمیر",
    "Status": "Open",
    "Status_Dari": null,
    "PS_Male": 1,
    "PS_Female": 1,
    "PS_Total": 2,
    "ولسوالي": "شیبر",
    "Region": "Central Highlands Region"
   },
   "geometry": {
    "x": 7589893.1917681294,
    "y": 4148844.527603704
   }
  },
  {
   "attributes": {
    "OBJECTID": 5553,
    "ولایت": "باميان",
    "Province": "BAMYAN",
    "PC_Code": "1003034",
    "District": "SAIGHAN",
    "د_مرکز_نوم__نام_مرکز": "مسجد مردانه قرونه",
    "Polling_Center_Name": "Qarona Male Mosque",
    "د_مرکز_ځای__موقعیت_مرکز": "قرونه سفلی",
    "Polling_Center_Location": "Qaron-e-Sufla",
    "Map_Accuracy": "Building",
    "Map_Accuracy_Dari": "تعمیر",
    "Status": "Open",
    "Status_Dari": null,
    "PS_Male": 2,
    "PS_Female": 0,
    "PS_Total": 2,
    "ولسوالي": "سیغان",
    "Region": "Central Highlands Region"
   },
   "geometry": {
    "x": 7531299.0734997401,
    "y": 4187335.8968793675
   }
  },
  {
   "attributes": {
    "OBJECTID": 5554,
    "ولایت": "باميان",
    "Province": "BAMYAN",
    "PC_Code": "1004057",
    "District": "KAHMARD",
    "د_مرکز_نوم__نام_مرکز": "مسجد یلگاه",
    "Polling_Center_Name": "Yalgah Mosque",
    "د_مرکز_ځای__موقعیت_مرکز": "یلگاه",
    "Polling_Center_Location": "Yalgah",
    "Map_Accuracy": "Building",
    "Map_Accuracy_Dari": "تعمیر",
    "Status": "Open",
    "Status_Dari": null,
    "PS_Male": 1,
    "PS_Female": 1,
    "PS_Total": 2,
    "ولسوالي": "کهمرد",
    "Region": "Central Highlands Region"
   },
   "geometry": {
    "x": 7514684.6127821645,
    "y": 4213244.0258972179
   }
  },
  {
   "attributes": {
    "OBJECTID": 5555,
    "ولایت": "باميان",
    "Province": "BAMYAN",
    "PC_Code": "1006097",
    "District": "PANJAB",
    "د_مرکز_نوم__نام_مرکز": "منبر دهن بلدرغوتو",
    "Polling_Center_Name": "Munbar-e-Dahan Beldar Ghotu",
    "د_مرکز_ځای__موقعیت_مرکز": "بلدرغوتو، دهن سیاه دره",
    "Polling_Center_Location": "Beldar Ghotu, Dahan-e-Syah Dara",
    "Map_Accuracy": "Building",
    "Map_Accuracy_Dari": "تعمیر",
    "Status": "Open",
    "Status_Dari": null,
    "PS_Male": 2,
    "PS_Female": 1,
    "PS_Total": 3,
    "ولسوالي": "پنجاب",
    "Region": "Central Highlands Region"
   },
   "geometry": {
    "x": 7458308.3171816273,
    "y": 4074549.1949685807
   }
  },
  {
   "attributes": {
    "OBJECTID": 5556,
    "ولایت": "باميان",
    "Province": "BAMYAN",
    "PC_Code": "1006108",
    "District": "PANJAB",
    "د_مرکز_نوم__نام_مرکز": "مسجد دهن قلعچه",
    "Polling_Center_Name": "Dahan-e-Qalach Mosque",
    "د_مرکز_ځای__موقعیت_مرکز": "دهن قلعچه",
    "Polling_Center_Location": "Dahan-e-Qalacha",
    "Map_Accuracy": "Building",
    "Map_Accuracy_Dari": "تعمیر",
    "Status": "Open",
    "Status_Dari": null,
    "PS_Male": 1,
    "PS_Female": 1,
    "PS_Total": 2,
    "ولسوالي": "پنجاب",
    "Region": "Central Highlands Region"
   },
   "geometry": {
    "x": 7434499.7430895595,
    "y": 4083451.1473217681
   }
  },
  {
   "attributes": {
    "OBJECTID": 5557,
    "ولایت": "باميان",
    "Province": "BAMYAN",
    "PC_Code": "1007119",
    "District": "WARAS",
    "د_مرکز_نوم__نام_مرکز": "مسجد مرکزی ورس",
    "Polling_Center_Name": "Waras Central Mosque",
    "د_مرکز_ځای__موقعیت_مرکز": "مرکز ورس",
    "Polling_Center_Location": "Waras Center",
    "Map_Accuracy": "Building",
    "Map_Accuracy_Dari": "تعمیر",
    "Status": "Open",
    "Status_Dari": null,
    "PS_Male": 1,
    "PS_Female": 2,
    "PS_Total": 3,
    "ولسوالي": "ورس",
    "Region": "Central Highlands Region"
   },
   "geometry": {
    "x": 7444433.160852503,
    "y": 4056295.4373514941
   }
  },
  {
   "attributes": {
    "OBJECTID": 5558,
    "ولایت": "باميان",
    "Province": "BAMYAN",
    "PC_Code": "1007130",
    "District": "WARAS",
    "د_مرکز_نوم__نام_مرکز": "مسجد دهن ناوه گگ",
    "Polling_Center_Name": "Dahan-e-Nawagag Mosque",
    "د_مرکز_ځای__موقعیت_مرکز": "ناوگگ",
    "Polling_Center_Location": "Nawgag",
    "Map_Accuracy": "Building",
    "Map_Accuracy_Dari": "تعمیر",
    "Status": "Open",
    "Status_Dari": null,
    "PS_Male": 1,
    "PS_Female": 1,
    "PS_Total": 2,
    "ولسوالي": "ورس",
    "Region": "Central Highlands Region"
   },
   "geometry": {
    "x": 7411229.8529189955,
    "y": 4039690.0461801728
   }
  },
  {
   "attributes": {
    "OBJECTID": 5559,
    "ولایت": "باميان",
    "Province": "BAMYAN",
    "PC_Code": "1007141",
    "District": "WARAS",
    "د_مرکز_نوم__نام_مرکز": "مسجد پیتاب کندوک",
    "Polling_Center_Name": "Petaab-e-Kandook Mosque",
    "د_مرکز_ځای__موقعیت_مرکز": "پیتاب",
    "Polling_Center_Location": "Petaab",
    "Map_Accuracy": "Building",
    "Map_Accuracy_Dari": "تعمیر",
    "Status": "Open",
    "Status_Dari": null,
    "PS_Male": 1,
    "PS_Female": 1,
    "PS_Total": 2,
    "ولسوالي": "ورس",
    "Region": "Central Highlands Region"
   },
   "geometry": {
    "x": 7484418.3671993017,
    "y": 4026714.2925329618
   }
  },
  {
   "attributes": {
    "OBJECTID": 5560,
    "ولایت": "غزنى",
    "Province": "GHAZNI",
    "PC_Code": "1101002",
    "District": "GHAZNI",
    "د_مرکز_نوم__نام_مرکز": "ریاست شاروالی غزنی",
    "Polling_Center_Name": "Municipality Department",
    "د_مرکز_ځای__موقعیت_مرکز": "ریاست شاروالی مرکز شهر",
    "Polling_Center_Location": "Department of Municipality",
    "Map_Accuracy": "Building",
    "Map_Accuracy_Dari": "تعمیر",
    "Status": "Open",
    "Status_Dari": null,
    "PS_Male": 6,
    "PS_Female": 0,
    "PS_Total": 6,
    "ولسوالي": "غزنی",
    "Region": "South Eastern Region"
   },
   "geometry": {
    "x": 7617159.2635282315,
    "y": 3967723.8221708559
   }
  },
  {
   "attributes": {
    "OBJECTID": 5561,
    "ولایت": "غزنى",
    "Province": "GHAZNI",
    "PC_Code": "1101012",
    "District": "GHAZNI",
    "د_مرکز_نوم__نام_مرکز": "مسجد خان کلان",
    "Polling_Center_Name": "Khan Kalan Mosque",
    "د_مرکز_ځای__موقعیت_مرکز": "قلعه امیر محمد خان",
    "Polling_Center_Location": "Qala-e-Amir Mohammad Khan",
    "Map_Accuracy": "Building",
    "Map_Accuracy_Dari": "تعمیر",
    "Status": "Open",
    "Status_Dari": null,
    "PS_Male": 3,
    "PS_Female": 1,
    "PS_Total": 4,
    "ولسوالي": "غزنی",
    "Region": "South Eastern Region"
   },
   "geometry": {
    "x": 7615148.0977026699,
    "y": 3964655.5299353441
   }
  },
  {
   "attributes": {
    "OBJECTID": 5562,
    "ولایت": "غزنى",
    "Province": "GHAZNI",
    "PC_Code": "1101023",
    "District": "GHAZNI",
    "د_مرکز_نوم__نام_مرکز": "لیسه امام قایم قریه بکاول",
    "Polling_Center_Name": "Emam Qeyam High School",
    "د_مرکز_ځای__موقعیت_مرکز": "قریه بکاول",
    "Polling_Center_Location": "Bakawol Village",
    "Map_Accuracy": "Building",
    "Map_Accuracy_Dari": "تعمیر",
    "Status": "Open",
    "Status_Dari": null,
    "PS_Male": 4,
    "PS_Female": 2,
    "PS_Total": 6,
    "ولسوالي": "غزنی",
    "Region": "South Eastern Region"
   },
   "geometry": {
    "x": 7612144.1512623671,
    "y": 3975335.2819749182
   }
  },
  {
   "attributes": {
    "OBJECTID": 5563,
    "ولایت": "غزنى",
    "Province": "GHAZNI",
    "PC_Code": "1101033",
    "District": "GHAZNI",
    "د_مرکز_نوم__نام_مرکز": "مسجد حکیم",
    "Polling_Center_Name": "Hakim Mosque",
    "د_مرکز_ځای__موقعیت_مرکز": "قریه خواجه حکیم ",
    "Polling_Center_Location": "Khwaja Hakim Village",
    "Map_Accuracy": "Building",
    "Map_Accuracy_Dari": "تعمیر",
    "Status": "Open",
    "Status_Dari": null,
    "PS_Male": 0,
    "PS_Female": 4,
    "PS_Total": 4,
    "ولسوالي": "غزنی",
    "Region": "South Eastern Region"
   },
   "geometry": {
    "x": 7615968.3843136439,
    "y": 3969941.8715999066
   }
  },
  {
   "attributes": {
    "OBJECTID": 5564,
    "ولایت": "غزنى",
    "Province": "GHAZNI",
    "PC_Code": "1101045",
    "District": "GHAZNI",
    "د_مرکز_نوم__نام_مرکز": "کلینیک ارزو",
    "Polling_Center_Name": "Urzo Clinic",
    "د_مرکز_ځای__موقعیت_مرکز": "قریه ارزو ",
    "Polling_Center_Location": "Urzo Village",
    "Map_Accuracy": "Building",
    "Map_Accuracy_Dari": "تعمیر",
    "Status": "Open",
    "Status_Dari": null,
    "PS_Male": 0,
    "PS_Female": 3,
    "PS_Total": 3,
    "ولسوالي": "غزنی",
    "Region": "South Eastern Region"
   },
   "geometry": {
    "x": 7624627.0959458612,
    "y": 3956009.2933082473
   }
  },
  {
   "attributes": {
    "OBJECTID": 5565,
    "ولایت": "غزنى",
    "Province": "GHAZNI",
    "PC_Code": "1106104",
    "District": "JAGHATU",
    "د_مرکز_نوم__نام_مرکز": "مسجد قریه بلاغ",
    "Polling_Center_Name": "Balagh Village Mosque",
    "د_مرکز_ځای__موقعیت_مرکز": "قریه بلاغ ",
    "Polling_Center_Location": "Balagh Village",
    "Map_Accuracy": "Village",
    "Map_Accuracy_Dari": "قریه",
    "Status": "Open",
    "Status_Dari": null,
    "PS_Male": 3,
    "PS_Female": 1,
    "PS_Total": 4,
    "ولسوالي": "جغتو",
    "Region": "South Eastern Region"
   },
   "geometry": {
    "x": 7580442.7839323971,
    "y": 3965744.8536478383
   }
  },
  {
   "attributes": {
    "OBJECTID": 5566,
    "ولایت": "غزنى",
    "Province": "GHAZNI",
    "PC_Code": "1106105",
    "District": "JAGHATU",
    "د_مرکز_نوم__نام_مرکز": "لیسه سنایی قلعه یوسف",
    "Polling_Center_Name": "Senayee Qala-e-Yousuf High School ",
    "د_مرکز_ځای__موقعیت_مرکز": "قریه گودول خان محمد",
    "Polling_Center_Location": "Godol Khan Mohammad Village",
    "Map_Accuracy": "Building",
    "Map_Accuracy_Dari": "تعمیر",
    "Status": "Open",
    "Status_Dari": null,
    "PS_Male": 2,
    "PS_Female": 1,
    "PS_Total": 3,
    "ولسوالي": "جغتو",
    "Region": "South Eastern Region"
   },
   "geometry": {
    "x": 7580097.7812306965,
    "y": 3981249.9785601753
   }
  },
  {
   "attributes": {
    "OBJECTID": 5567,
    "ولایت": "غزنى",
    "Province": "GHAZNI",
    "PC_Code": "1106123",
    "District": "JAGHATU",
    "د_مرکز_نوم__نام_مرکز": "مکتب گلبوری",
    "Polling_Center_Name": "Gulburi School",
    "د_مرکز_ځای__موقعیت_مرکز": "ده نوری",
    "Polling_Center_Location": "Dah Noori",
    "Map_Accuracy": "Building",
    "Map_Accuracy_Dari": "تعمیر",
    "Status": "Open",
    "Status_Dari": null,
    "PS_Male": 2,
    "PS_Female": 1,
    "PS_Total": 3,
    "ولسوالي": "جغتو",
    "Region": "South Eastern Region"
   },
   "geometry": {
    "x": 7590952.7351342766,
    "y": 3971827.5437884489
   }
  },
  {
   "attributes": {
    "OBJECTID": 5568,
    "ولایت": "غزنى",
    "Province": "GHAZNI",
    "PC_Code": "1107224",
    "District": "ANDAR",
    "د_مرکز_نوم__نام_مرکز": "مکتب قاری صاحب جان قریه نانی",
    "Polling_Center_Name": "Qari Sahib Jan School",
    "د_مرکز_ځای__موقعیت_مرکز": "قریه نانی",
    "Polling_Center_Location": "Nani Village",
    "Map_Accuracy": "Village",
    "Map_Accuracy_Dari": "قریه",
    "Status": "Open",
    "Status_Dari": null,
    "PS_Male": 3,
    "PS_Female": 1,
    "PS_Total": 4,
    "ولسوالي": "اندر",
    "Region": "South Eastern Region"
   },
   "geometry": {
    "x": 7609131.1524323914,
    "y": 3948165.6037854739
   }
  },
  {
   "attributes": {
    "OBJECTID": 5569,
    "ولایت": "غزنى",
    "Province": "GHAZNI",
    "PC_Code": "1107235",
    "District": "ANDAR",
    "د_مرکز_نوم__نام_مرکز": "مسجد قریه خانی قلعه",
    "Polling_Center_Name": "Khani Qala Mosque",
    "د_مرکز_ځای__موقعیت_مرکز": "قریه خانی قلعه ",
    "Polling_Center_Location": "Khani Qala",
    "Map_Accuracy": "Village",
    "Map_Accuracy_Dari": "قریه",
    "Status": "Open",
    "Status_Dari": null,
    "PS_Male": 3,
    "PS_Female": 0,
    "PS_Total": 3,
    "ولسوالي": "اندر",
    "Region": "South Eastern Region"
   },
   "geometry": {
    "x": 7626563.4906958416,
    "y": 3938728.6213133601
   }
  },
  {
   "attributes": {
    "OBJECTID": 5570,
    "ولایت": "غزنى",
    "Province": "GHAZNI",
    "PC_Code": "1107245",
    "District": "ANDAR",
    "د_مرکز_نوم__نام_مرکز": "مسجد قریه سرده",
    "Polling_Center_Name": "Sardah Village Mosque",
    "د_مرکز_ځای__موقعیت_مرکز": "قریه سرده ",
    "Polling_Center_Location": "Sardah Village ",
    "Map_Accuracy": "Village",
    "Map_Accuracy_Dari": "قریه",
    "Status": "Open",
    "Status_Dari": null,
    "PS_Male": 3,
    "PS_Female": 0,
    "PS_Total": 3,
    "ولسوالي": "اندر",
    "Region": "South Eastern Region"
   },
   "geometry": {
    "x": 7634571.6501106638,
    "y": 3931923.5946653401
   }
  },
  {
   "attributes": {
    "OBJECTID": 5571,
    "ولایت": "غزنى",
    "Province": "GHAZNI",
    "PC_Code": "1110258",
    "District": "NAWUR",
    "د_مرکز_نوم__نام_مرکز": "لیسه شهید مراد علی ",
    "Polling_Center_Name": "Shaheed Murad Ali High School",
    "د_مرکز_ځای__موقعیت_مرکز": "قریه قلعه لنګر ",
    "Polling_Center_Location": "Qala-e-Langar ",
    "Map_Accuracy": "Building",
    "Map_Accuracy_Dari": "تعمیر",
    "Status": "Open",
    "Status_Dari": null,
    "PS_Male": 1,
    "PS_Female": 1,
    "PS_Total": 2,
    "ولسوالي": "ناور",
    "Region": "South Eastern Region"
   },
   "geometry": {
    "x": 7587864.723554112,
    "y": 4007884.2159969569
   }
  },
  {
   "attributes": {
    "OBJECTID": 5572,
    "ولایت": "غزنى",
    "Province": "GHAZNI",
    "PC_Code": "1110269",
    "District": "NAWUR",
    "د_مرکز_نوم__نام_مرکز": "مسجد قریه تاربولاق",
    "Polling_Center_Name": "Tarbolaq Village Mosque",
    "د_مرکز_ځای__موقعیت_مرکز": "قریه تاربولاق ",
    "Polling_Center_Location": "Tarbolaq Village",
    "Map_Accuracy": "Village",
    "Map_Accuracy_Dari": "قریه",
    "Status": "Open",
    "Status_Dari": null,
    "PS_Male": 1,
    "PS_Female": 1,
    "PS_Total": 2,
    "ولسوالي": "ناور",
    "Region": "South Eastern Region"
   },
   "geometry": {
    "x": 7545087.1601759419,
    "y": 4043575.2009927109
   }
  },
  {
   "attributes": {
    "OBJECTID": 5573,
    "ولایت": "غزنى",
    "Province": "GHAZNI",
    "PC_Code": "1111134",
    "District": "QARA BAGH",
    "د_مرکز_نوم__نام_مرکز": "مکتب شیر خان",
    "Polling_Center_Name": "Sheer Khan School",
    "د_مرکز_ځای__موقعیت_مرکز": "قریه پناګیر",
    "Polling_Center_Location": "Pangeer Village",
    "Map_Accuracy": "Building",
    "Map_Accuracy_Dari": "تعمیر",
    "Status": "Open",
    "Status_Dari": null,
    "PS_Male": 2,
    "PS_Female": 0,
    "PS_Total": 2,
    "ولسوالي": "قره باغ",
    "Region": "South Eastern Region"
   },
   "geometry": {
    "x": 7577142.6328023747,
    "y": 3921138.0563867185
   }
  },
  {
   "attributes": {
    "OBJECTID": 5574,
    "ولایت": "غزنى",
    "Province": "GHAZNI",
    "PC_Code": "1111145",
    "District": "QARA BAGH",
    "د_مرکز_نوم__نام_مرکز": "مسجد بښی",
    "Polling_Center_Name": "Bashi Mosque",
    "د_مرکز_ځای__موقعیت_مرکز": "قریه بښی ",
    "Polling_Center_Location": "Bashi Village",
    "Map_Accuracy": "Village",
    "Map_Accuracy_Dari": "قریه",
    "Status": "Open",
    "Status_Dari": null,
    "PS_Male": 0,
    "PS_Female": 2,
    "PS_Total": 2,
    "ولسوالي": "قره باغ",
    "Region": "South Eastern Region"
   },
   "geometry": {
    "x": 7566985.074357911,
    "y": 3937591.3156078579
   }
  },
  {
   "attributes": {
    "OBJECTID": 5575,
    "ولایت": "غزنى",
    "Province": "GHAZNI",
    "PC_Code": "1111162",
    "District": "QARA BAGH",
    "د_مرکز_نوم__نام_مرکز": "مسجد شهید عبدالسلام",
    "Polling_Center_Name": "Shaheed Abdul Salam Mosque",
    "د_مرکز_ځای__موقعیت_مرکز": "قریه موشکی",
    "Polling_Center_Location": "Moshaki Village",
    "Map_Accuracy": "Building",
    "Map_Accuracy_Dari": "تعمیر",
    "Status": "Open",
    "Status_Dari": null,
    "PS_Male": 2,
    "PS_Female": 0,
    "PS_Total": 2,
    "ولسوالي": "قره باغ",
    "Region": "South Eastern Region"
   },
   "geometry": {
    "x": 7590496.6012943611,
    "y": 3925486.8095369125
   }
  },
  {
   "attributes": {
    "OBJECTID": 5576,
    "ولایت": "غزنى",
    "Province": "GHAZNI",
    "PC_Code": "1111173",
    "District": "QARA BAGH",
    "د_مرکز_نوم__نام_مرکز": "مسجد تورمی قلوچ بالا",
    "Polling_Center_Name": "Toormi Qolooch Bala Mosque",
    "د_مرکز_ځای__موقعیت_مرکز": "قریه قلوچ بالا",
    "Polling_Center_Location": "Qolooch Bala Village",
    "Map_Accuracy": "Village",
    "Map_Accuracy_Dari": "قریه",
    "Status": "Open",
    "Status_Dari": null,
    "PS_Male": 0,
    "PS_Female": 2,
    "PS_Total": 2,
    "ولسوالي": "قره باغ",
    "Region": "South Eastern Region"
   },
   "geometry": {
    "x": 7541075.4072160302,
    "y": 3913529.7081757491
   }
  },
  {
   "attributes": {
    "OBJECTID": 5577,
    "ولایت": "غزنى",
    "Province": "GHAZNI",
    "PC_Code": "1114321",
    "District": "JAGHURI",
    "د_مرکز_نوم__نام_مرکز": "مدرسه شابیتک",
    "Polling_Center_Name": "Shabetak Madrassa",
    "د_مرکز_ځای__موقعیت_مرکز": "قریه علی سید",
    "Polling_Center_Location": "Ali Sayed Village ",
    "Map_Accuracy": "Building",
    "Map_Accuracy_Dari": "تعمیر",
    "Status": "Open",
    "Status_Dari": null,
    "PS_Male": 3,
    "PS_Female": 1,
    "PS_Total": 4,
    "ولسوالي": "جاغوری",
    "Region": "South Eastern Region"
   },
   "geometry": {
    "x": 7513550.978502525,
    "y": 3927062.7605480393
   }
  },
  {
   "attributes": {
    "OBJECTID": 5578,
    "ولایت": "غزنى",
    "Province": "GHAZNI",
    "PC_Code": "1114330",
    "District": "JAGHURI",
    "د_مرکز_نوم__نام_مرکز": "لیسه نسوان مزار بی بی ",
    "Polling_Center_Name": "Mazar Bi Bi Girls High School",
    "د_مرکز_ځای__موقعیت_مرکز": "قریه مزار بی بی",
    "Polling_Center_Location": "Mazar Bi Bi Village",
    "Map_Accuracy": "Building",
    "Map_Accuracy_Dari": "تعمیر",
    "Status": "Open",
    "Status_Dari": null,
    "PS_Male": 2,
    "PS_Female": 1,
    "PS_Total": 3,
    "ولسوالي": "جاغوری",
    "Region": "South Eastern Region"
   },
   "geometry": {
    "x": 7507154.1798488889,
    "y": 3903434.4525812999
   }
  },
  {
   "attributes": {
    "OBJECTID": 5579,
    "ولایت": "غزنى",
    "Province": "GHAZNI",
    "PC_Code": "1114341",
    "District": "JAGHURI",
    "د_مرکز_نوم__نام_مرکز": "لیسه غفور سلطانی",
    "Polling_Center_Name": "Ghafor Sultani High School",
    "د_مرکز_ځای__موقعیت_مرکز": "بازار سنګ ماشه",
    "Polling_Center_Location": "Sang-e-Masha Bazar",
    "Map_Accuracy": "Building",
    "Map_Accuracy_Dari": "تعمیر",
    "Status": "Open",
    "Status_Dari": null,
    "PS_Male": 9,
    "PS_Female": 2,
    "PS_Total": 11,
    "ولسوالي": "جاغوری",
    "Region": "South Eastern Region"
   },
   "geometry": {
    "x": 7507584.1524952697,
    "y": 3913824.0791423176
   }
  },
  {
   "attributes": {
    "OBJECTID": 5580,
    "ولایت": "غزنى",
    "Province": "GHAZNI",
    "PC_Code": "1114350",
    "District": "JAGHURI",
    "د_مرکز_نوم__نام_مرکز": "مکتب متوسطه  جاکه",
    "Polling_Center_Name": "Jaka Secondary School",
    "د_مرکز_ځای__موقعیت_مرکز": "قریه تایلم",
    "Polling_Center_Location": "Tylum Village",
    "Map_Accuracy": "Building",
    "Map_Accuracy_Dari": "تعمیر",
    "Status": "Open",
    "Status_Dari": null,
    "PS_Male": 1,
    "PS_Female": 1,
    "PS_Total": 2,
    "ولسوالي": "جاغوری",
    "Region": "South Eastern Region"
   },
   "geometry": {
    "x": 7494877.9231771417,
    "y": 3894105.1406508805
   }
  },
  {
   "attributes": {
    "OBJECTID": 5581,
    "ولایت": "غزنى",
    "Province": "GHAZNI",
    "PC_Code": "1115362",
    "District": "MUQUR",
    "د_مرکز_نوم__نام_مرکز": "مکتب قلعه یاربیگ",
    "Polling_Center_Name": "Qala-e-Yarbiq School",
    "د_مرکز_ځای__موقعیت_مرکز": " قلعه یار بیگ",
    "Polling_Center_Location": "Qal-e-Yarbig",
    "Map_Accuracy": "Village",
    "Map_Accuracy_Dari": "قریه",
    "Status": "Open",
    "Status_Dari": null,
    "PS_Male": 2,
    "PS_Female": 1,
    "PS_Total": 3,
    "ولسوالي": "مقر",
    "Region": "South Eastern Region"
   },
   "geometry": {
    "x": 7551568.5972648226,
    "y": 3873520.1117778816
   }
  },
  {
   "attributes": {
    "OBJECTID": 5582,
    "ولایت": "غزنى",
    "Province": "GHAZNI",
    "PC_Code": "1116306",
    "District": "MALISTAN",
    "د_مرکز_نوم__نام_مرکز": "مسجد خیرو",
    "Polling_Center_Name": "Khairo Mosque",
    "د_مرکز_ځای__موقعیت_مرکز": "قریه خیرو ",
    "Polling_Center_Location": "Khairo Village",
    "Map_Accuracy": "Building",
    "Map_Accuracy_Dari": "تعمیر",
    "Status": "Open",
    "Status_Dari": null,
    "PS_Male": 2,
    "PS_Female": 1,
    "PS_Total": 3,
    "ولسوالي": "مالستان",
    "Region": "South Eastern Region"
   },
   "geometry": {
    "x": 7464537.6668308284,
    "y": 3894665.5377269024
   }
  },
  {
   "attributes": {
    "OBJECTID": 5583,
    "ولایت": "غزنى",
    "Province": "GHAZNI",
    "PC_Code": "1116315",
    "District": "MALISTAN",
    "د_مرکز_نوم__نام_مرکز": "مسجد قریه پیتو قچنغتو",
    "Polling_Center_Name": "Petaw Qochanghato Village Mosque",
    "د_مرکز_ځای__موقعیت_مرکز": "قریه قچنغتو ",
    "Polling_Center_Location": "Qochanghato Village",
    "Map_Accuracy": "Village",
    "Map_Accuracy_Dari": "قریه",
    "Status": "Open",
    "Status_Dari": null,
    "PS_Male": 1,
    "PS_Female": 1,
    "PS_Total": 2,
    "ولسوالي": "مالستان",
    "Region": "South Eastern Region"
   },
   "geometry": {
    "x": 7501141.2519877115,
    "y": 3957464.3967225011
   }
  },
  {
   "attributes": {
    "OBJECTID": 5584,
    "ولایت": "پکتيکا",
    "Province": "PAKTIKA",
    "PC_Code": "1206284",
    "District": "OMNA",
    "د_مرکز_نوم__نام_مرکز": "مركز ولسوالي كلينیك سپنه",
    "Polling_Center_Name": "Speena Clinic",
    "د_مرکز_ځای__موقعیت_مرکز": "مركز ولسوالي",
    "Polling_Center_Location": "District Center",
    "Map_Accuracy": "Village",
    "Map_Accuracy_Dari": "قریه",
    "Status": "Open",
    "Status_Dari": null,
    "PS_Male": 3,
    "PS_Female": 0,
    "PS_Total": 3,
    "ولسوالي": "اومنه",
    "Region": "South Eastern Region"
   },
   "geometry": {
    "x": 7658568.1248240285,
    "y": 3882173.7857489097
   }
  },
  {
   "attributes": {
    "OBJECTID": 5585,
    "ولایت": "پکتيکا",
    "Province": "PAKTIKA",
    "PC_Code": "1207085",
    "District": "ZARGHUN SHAHR",
    "د_مرکز_نوم__نام_مرکز": "نعیم دوکان",
    "Polling_Center_Name": "Naiem Shop",
    "د_مرکز_ځای__موقعیت_مرکز": "خیر کوث",
    "Polling_Center_Location": "Khair Kot",
    "Map_Accuracy": "Village",
    "Map_Accuracy_Dari": "قریه",
    "Status": "Open",
    "Status_Dari": null,
    "PS_Male": 4,
    "PS_Female": 0,
    "PS_Total": 4,
    "ولسوالي": "زرغون شهر ",
    "Region": "South Eastern Region"
   },
   "geometry": {
    "x": 7620328.8555972194,
    "y": 3875649.3543562815
   }
  },
  {
   "attributes": {
    "OBJECTID": 5586,
    "ولایت": "پکتيکا",
    "Province": "PAKTIKA",
    "PC_Code": "1207092",
    "District": "ZARGHUN SHAHR",
    "د_مرکز_نوم__نام_مرکز": "مرکز ولسوالی خیمه ",
    "Polling_Center_Name": "District Compound (Tent)",
    "د_مرکز_ځای__موقعیت_مرکز": "زرغون شهر ",
    "Polling_Center_Location": "Zarghon Shahr",
    "Map_Accuracy": "Village",
    "Map_Accuracy_Dari": "قریه",
    "Status": "Open",
    "Status_Dari": null,
    "PS_Male": 2,
    "PS_Female": 2,
    "PS_Total": 4,
    "ولسوالي": "زرغون شهر ",
    "Region": "South Eastern Region"
   },
   "geometry": {
    "x": 7619540.8460725984,
    "y": 3875705.321891713
   }
  },
  {
   "attributes": {
    "OBJECTID": 5587,
    "ولایت": "پکتيکا",
    "Province": "PAKTIKA",
    "PC_Code": "1207093",
    "District": "ZARGHUN SHAHR",
    "د_مرکز_نوم__نام_مرکز": "ملی زی جومات ",
    "Polling_Center_Name": "Meli Zai Mosque",
    "د_مرکز_ځای__موقعیت_مرکز": "ملی زی ",
    "Polling_Center_Location": "Meli Zai",
    "Map_Accuracy": "Village",
    "Map_Accuracy_Dari": "قریه",
    "Status": "Open",
    "Status_Dari": null,
    "PS_Male": 2,
    "PS_Female": 0,
    "PS_Total": 2,
    "ولسوالي": "زرغون شهر ",
    "Region": "South Eastern Region"
   },
   "geometry": {
    "x": 7624727.5328432294,
    "y": 3868617.9362581284
   }
  },
  {
   "attributes": {
    "OBJECTID": 5588,
    "ولایت": "پکتيکا",
    "Province": "PAKTIKA",
    "PC_Code": "1209122",
    "District": "JANI KHEL",
    "د_مرکز_نوم__نام_مرکز": "ښوونځی شاه خیل آباد ",
    "Polling_Center_Name": "Shah Khel Abad Village School",
    "د_مرکز_ځای__موقعیت_مرکز": "شاه خیل ﺁباد کلی",
    "Polling_Center_Location": "Shah Khel Abad Village",
    "Map_Accuracy": "Village",
    "Map_Accuracy_Dari": "قریه",
    "Status": "Open",
    "Status_Dari": null,
    "PS_Male": 3,
    "PS_Female": 1,
    "PS_Total": 4,
    "ولسوالي": "جانی خیل",
    "Region": "South Eastern Region"
   },
   "geometry": {
    "x": 7612619.6936554983,
    "y": 3856631.0011943313
   }
  },
  {
   "attributes": {
    "OBJECTID": 5589,
    "ولایت": "پکتيکا",
    "Province": "PAKTIKA",
    "PC_Code": "1209123",
    "District": "JANI KHEL",
    "د_مرکز_نوم__نام_مرکز": "د اکبر کور",
    "Polling_Center_Name": "Akbar House",
    "د_مرکز_ځای__موقعیت_مرکز": "شهنشاه حاجی حریم خان کلی",
    "Polling_Center_Location": "Shahen Shah Haji Hareem Khan Village",
    "Map_Accuracy": "Village",
    "Map_Accuracy_Dari": "قریه",
    "Status": "Open",
    "Status_Dari": null,
    "PS_Male": 3,
    "PS_Female": 0,
    "PS_Total": 3,
    "ولسوالي": "جانی خیل",
    "Region": "South Eastern Region"
   },
   "geometry": {
    "x": 7628424.4676040122,
    "y": 3834129.6058874824
   }
  },
  {
   "attributes": {
    "OBJECTID": 5590,
    "ولایت": "پکتيکا",
    "Province": "PAKTIKA",
    "PC_Code": "1211166",
    "District": "URGOON",
    "د_مرکز_نوم__نام_مرکز": "ملک موین میلمستون",
    "Polling_Center_Name": "Malik Moyen Guest House",
    "د_مرکز_ځای__موقعیت_مرکز": "میرا گل کلی",
    "Polling_Center_Location": "Mera Gul Village",
    "Map_Accuracy": "Village",
    "Map_Accuracy_Dari": "قریه",
    "Status": "Open",
    "Status_Dari": null,
    "PS_Male": 0,
    "PS_Female": 2,
    "PS_Total": 2,
    "ولسوالي": "اورگون",
    "Region": "South Eastern Region"
   },
   "geometry": {
    "x": 7701800.6943756659,
    "y": 3894778.5863490719
   }
  },
  {
   "attributes": {
    "OBJECTID": 5591,
    "ولایت": "پکتيکا",
    "Province": "PAKTIKA",
    "PC_Code": "1211167",
    "District": "URGOON",
    "د_مرکز_نوم__نام_مرکز": "چیناخوا مدرسه",
    "Polling_Center_Name": "Chena Khwa Madrassa",
    "د_مرکز_ځای__موقعیت_مرکز": "امبرون کلی",
    "Polling_Center_Location": "Ambron Village",
    "Map_Accuracy": "Building",
    "Map_Accuracy_Dari": "تعمیر",
    "Status": "Open",
    "Status_Dari": null,
    "PS_Male": 2,
    "PS_Female": 0,
    "PS_Total": 2,
    "ولسوالي": "اورگون",
    "Region": "South Eastern Region"
   },
   "geometry": {
    "x": 7704953.3269202365,
    "y": 3900962.5185135035
   }
  },
  {
   "attributes": {
    "OBJECTID": 5592,
    "ولایت": "پکتيکا",
    "Province": "PAKTIKA",
    "PC_Code": "1211168",
    "District": "URGOON",
    "د_مرکز_نوم__نام_مرکز": "امیران میلمستون",
    "Polling_Center_Name": "Amiran Guest House",
    "د_مرکز_ځای__موقعیت_مرکز": "امبرون کلی",
    "Polling_Center_Location": "Ambron Village",
    "Map_Accuracy": "Village",
    "Map_Accuracy_Dari": "قریه",
    "Status": "Open",
    "Status_Dari": null,
    "PS_Male": 0,
    "PS_Female": 2,
    "PS_Total": 2,
    "ولسوالي": "اورگون",
    "Region": "South Eastern Region"
   },
   "geometry": {
    "x": 7705658.7451750543,
    "y": 3900431.6647343207
   }
  },
  {
   "attributes": {
    "OBJECTID": 5593,
    "ولایت": "پکتيکا",
    "Province": "PAKTIKA",
    "PC_Code": "1216206",
    "District": "DILA WA KHUSHAMAND",
    "د_مرکز_نوم__نام_مرکز": "جندر میلمستون",
    "Polling_Center_Name": "Gender Guest House",
    "د_مرکز_ځای__موقعیت_مرکز": "جندر",
    "Polling_Center_Location": "Gender",
    "Map_Accuracy": "District",
    "Map_Accuracy_Dari": "ولسوالی",
    "Status": "Open",
    "Status_Dari": null,
    "PS_Male": 4,
    "PS_Female": 1,
    "PS_Total": 5,
    "ولسوالي": "دیله و خوش امند",
    "Region": "South Eastern Region"
   },
   "geometry": {
    "x": 7592650.4508772437,
    "y": 3835463.7390438751
   }
  },
  {
   "attributes": {
    "OBJECTID": 5594,
    "ولایت": "پکتيکا",
    "Province": "PAKTIKA",
    "PC_Code": "1216208",
    "District": "DILA WA KHUSHAMAND",
    "د_مرکز_نوم__نام_مرکز": "مرکز ولسوالی خیمه ",
    "Polling_Center_Name": "District Compound Tent",
    "د_مرکز_ځای__موقعیت_مرکز": "مرکز ولسوالی",
    "Polling_Center_Location": "District Center",
    "Map_Accuracy": "Village",
    "Map_Accuracy_Dari": "قریه",
    "Status": "Open",
    "Status_Dari": null,
    "PS_Male": 2,
    "PS_Female": 2,
    "PS_Total": 4,
    "ولسوالي": "دیله و خوش امند",
    "Region": "South Eastern Region"
   },
   "geometry": {
    "x": 7574669.9530659104,
    "y": 3841947.6618157947
   }
  },
  {
   "attributes": {
    "OBJECTID": 5595,
    "ولایت": "پکتيکا",
    "Province": "PAKTIKA",
    "PC_Code": "1216216",
    "District": "DILA WA KHUSHAMAND",
    "د_مرکز_نوم__نام_مرکز": "میاری دکلی ښوونځی",
    "Polling_Center_Name": "Moonari Village School",
    "د_مرکز_ځای__موقعیت_مرکز": "مناری",
    "Polling_Center_Location": "Manari",
    "Map_Accuracy": "Village",
    "Map_Accuracy_Dari": "قریه",
    "Status": "Open",
    "Status_Dari": null,
    "PS_Male": 3,
    "PS_Female": 2,
    "PS_Total": 5,
    "ولسوالي": "دیله و خوش امند",
    "Region": "South Eastern Region"
   },
   "geometry": {
    "x": 7592710.4587619556,
    "y": 3832613.3208822338
   }
  },
  {
   "attributes": {
    "OBJECTID": 5596,
    "ولایت": "پکتيکا",
    "Province": "PAKTIKA",
    "PC_Code": "1216217",
    "District": "DILA WA KHUSHAMAND",
    "د_مرکز_نوم__نام_مرکز": "چوری کلی جومات",
    "Polling_Center_Name": "Chori Village Mosque",
    "د_مرکز_ځای__موقعیت_مرکز": "ﮀوری",
    "Polling_Center_Location": "Chori",
    "Map_Accuracy": "Building",
    "Map_Accuracy_Dari": "تعمیر",
    "Status": "Open",
    "Status_Dari": null,
    "PS_Male": 3,
    "PS_Female": 0,
    "PS_Total": 3,
    "ولسوالي": "دیله و خوش امند",
    "Region": "South Eastern Region"
   },
   "geometry": {
    "x": 7590282.5773281651,
    "y": 3847462.0317862821
   }
  },
  {
   "attributes": {
    "OBJECTID": 5597,
    "ولایت": "پکتيا",
    "Province": "PAKTYA",
    "PC_Code": "1301017",
    "District": "GARDEZ",
    "د_مرکز_نوم__نام_مرکز": "د خان دوران خیمه ",
    "Polling_Center_Name": "Khan Dawran Tent",
    "د_مرکز_ځای__موقعیت_مرکز": "نستی کوټ، ګلوخیل",
    "Polling_Center_Location": "Nasti Kot, Golo Khel",
    "Map_Accuracy": "Village",
    "Map_Accuracy_Dari": "قریه",
    "Status": "Open",
    "Status_Dari": null,
    "PS_Male": 2,
    "PS_Female": 2,
    "PS_Total": 4,
    "ولسوالي": "گردیز",
    "Region": "South Eastern Region"
   },
   "geometry": {
    "x": 7709536.7700306764,
    "y": 3982183.7101143328
   }
  },
  {
   "attributes": {
    "OBJECTID": 5598,
    "ولایت": "پکتيا",
    "Province": "PAKTYA",
    "PC_Code": "1302190",
    "District": "AHMADABA",
    "د_مرکز_نوم__نام_مرکز": "د رود لیسه",
    "Polling_Center_Name": "Rod High School",
    "د_مرکز_ځای__موقعیت_مرکز": "رود شالی خیل",
    "Polling_Center_Location": "Rod-e-Shali Khel",
    "Map_Accuracy": "Building",
    "Map_Accuracy_Dari": "تعمیر",
    "Status": "Open",
    "Status_Dari": null,
    "PS_Male": 5,
    "PS_Female": 1,
    "PS_Total": 6,
    "ولسوالي": "احمد آبا",
    "Region": "South Eastern Region"
   },
   "geometry": {
    "x": 7714948.2843240863,
    "y": 3982354.2148866868
   }
  },
  {
   "attributes": {
    "OBJECTID": 5599,
    "ولایت": "پکتيا",
    "Province": "PAKTYA",
    "PC_Code": "1303078",
    "District": "ZURMAT",
    "د_مرکز_نوم__نام_مرکز": "حبیب الله لیسه",
    "Polling_Center_Name": "Habibullah High School ",
    "د_مرکز_ځای__موقعیت_مرکز": "تعمیر",
    "Polling_Center_Location": "Tameer",
    "Map_Accuracy": "Building",
    "Map_Accuracy_Dari": "تعمیر",
    "Status": "Open",
    "Status_Dari": null,
    "PS_Male": 5,
    "PS_Female": 2,
    "PS_Total": 7,
    "ولسوالي": "زرمت",
    "Region": "South Eastern Region"
   },
   "geometry": {
    "x": 7684725.6203218726,
    "y": 3953303.2494467585
   }
  },
  {
   "attributes": {
    "OBJECTID": 5600,
    "ولایت": "پکتيا",
    "Province": "PAKTYA",
    "PC_Code": "1303105",
    "District": "ZURMAT",
    "د_مرکز_نوم__نام_مرکز": "دفضل الرحمن هجره",
    "Polling_Center_Name": "Fazel Rahman Hojra",
    "د_مرکز_ځای__موقعیت_مرکز": "ارمه نیک نام",
    "Polling_Center_Location": "Arma Nek Naam",
    "Map_Accuracy": "Village",
    "Map_Accuracy_Dari": "قریه",
    "Status": "Open",
    "Status_Dari": null,
    "PS_Male": 0,
    "PS_Female": 3,
    "PS_Total": 3,
    "ولسوالي": "زرمت",
    "Region": "South Eastern Region"
   },
   "geometry": {
    "x": 7691561.5632347427,
    "y": 3930265.7385458597
   }
  }
 ]
}