{
 "displayFieldName": "Polling_Center_Name",
 "fieldAliases": {
  "OBJECTID": "OBJECTID",
  "ولایت": "ولایت",
  "Province": "Province",
  "PC_Code": "PC_Code",
  "District": "District",
  "د_مرکز_نوم__نام_مرکز": "د_مرکز_نوم__نام_مرکز",
  "Polling_Center_Name": "Polling_Center_Name",
  "د_مرکز_ځای__موقعیت_مرکز": "د_مرکز_ځای__موقعیت_مرکز",
  "Polling_Center_Location": "Polling_Center_Location",
  "Map_Accuracy": "Map_Accuracy",
  "Map_Accuracy_Dari": "Map_Accuracy_Dari",
  "Status": "Status",
  "Status_Dari": "Status_Dari",
  "PS_Male": "PS_Male",
  "PS_Female": "PS_Female",
  "PS_Total": "PS_Total",
  "ولسوالي": "ولسوالي",
  "Region": "Region"
 },
 "geometryType": "esriGeometryPoint",
 "spatialReference": {
  "wkid": 102100,
  "latestWkid": 3857
 },
 "fields": [
  {
   "name": "OBJECTID",
   "type": "esriFieldTypeOID",
   "alias": "OBJECTID"
  },
  {
   "name": "ولایت",
   "type": "esriFieldTypeString",
   "alias": "ولایت",
   "length": 255
  },
  {
   "name": "Province",
   "type": "esriFieldTypeString",
   "alias": "Province",
   "length": 255
  },
  {
   "name": "PC_Code",
   "type": "esriFieldTypeString",
   "alias": "PC_Code",
   "length": 255
  },
  {
   "name": "District",
   "type": "esriFieldTypeString",
   "alias": "District",
   "length": 255
  },
  {
   "name": "د_مرکز_نوم__نام_مرکز",
   "type": "esriFieldTypeString",
   "alias": "د_مرکز_نوم__نام_مرکز",
   "length": 255
  },
  {
   "name": "Polling_Center_Name",
   "type": "esriFieldTypeString",
   "alias": "Polling_Center_Name",
   "length": 255
  },
  {
   "name": "د_مرکز_ځای__موقعیت_مرکز",
   "type": "esriFieldTypeString",
   "alias": "د_مرکز_ځای__موقعیت_مرکز",
   "length": 255
  },
  {
   "name": "Polling_Center_Location",
   "type": "esriFieldTypeString",
   "alias": "Polling_Center_Location",
   "length": 255
  },
  {
   "name": "Map_Accuracy",
   "type": "esriFieldTypeString",
   "alias": "Map_Accuracy",
   "length": 10
  },
  {
   "name": "Map_Accuracy_Dari",
   "type": "esriFieldTypeString",
   "alias": "Map_Accuracy_Dari",
   "length": 50
  },
  {
   "name": "Status",
   "type": "esriFieldTypeString",
   "alias": "Status",
   "length": 6
  },
  {
   "name": "Status_Dari",
   "type": "esriFieldTypeString",
   "alias": "Status_Dari",
   "length": 8
  },
  {
   "name": "PS_Male",
   "type": "esriFieldTypeSmallInteger",
   "alias": "PS_Male"
  },
  {
   "name": "PS_Female",
   "type": "esriFieldTypeSmallInteger",
   "alias": "PS_Female"
  },
  {
   "name": "PS_Total",
   "type": "esriFieldTypeSmallInteger",
   "alias": "PS_Total"
  },
  {
   "name": "ولسوالي",
   "type": "esriFieldTypeString",
   "alias": "ولسوالي",
   "length": 255
  },
  {
   "name": "Region",
   "type": "esriFieldTypeString",
   "alias": "Region",
   "length": 50
  }
 ],
 "features": [
  {
   "attributes": {
    "OBJECTID": 1401,
    "ولایت": "سمنگان",
    "Province": "SAMANGAN",
    "PC_Code": "2001014",
    "District": "AYBAK",
    "د_مرکز_نوم__نام_مرکز": "لیسه شلکتو",
    "Polling_Center_Name": "Shalkato High School",
    "د_مرکز_ځای__موقعیت_مرکز": "قریه شلکتو",
    "Polling_Center_Location": "Shalkato Village",
    "Map_Accuracy": "Building",
    "Map_Accuracy_Dari": "تعمیر",
    "Status": "Open",
    "Status_Dari": null,
    "PS_Male": 1,
    "PS_Female": 1,
    "PS_Total": 2,
    "ولسوالي": "ایبک",
    "Region": "Northern Region"
   },
   "geometry": {
    "x": 7573034.7298586816,
    "y": 4345042.650758137
   }
  },
  {
   "attributes": {
    "OBJECTID": 1402,
    "ولایت": "سمنگان",
    "Province": "SAMANGAN",
    "PC_Code": "2001015",
    "District": "AYBAK",
    "د_مرکز_نوم__نام_مرکز": "مکتب متوسطه شریکیار",
    "Polling_Center_Name": "Sherekyaar Secondary School",
    "د_مرکز_ځای__موقعیت_مرکز": "قریه شریکیار",
    "Polling_Center_Location": "Sherekyaar Village",
    "Map_Accuracy": "Building",
    "Map_Accuracy_Dari": "تعمیر",
    "Status": "Open",
    "Status_Dari": null,
    "PS_Male": 2,
    "PS_Female": 1,
    "PS_Total": 3,
    "ولسوالي": "ایبک",
    "Region": "Northern Region"
   },
   "geometry": {
    "x": 7594568.0660291314,
    "y": 4344308.7248696731
   }
  },
  {
   "attributes": {
    "OBJECTID": 1403,
    "ولایت": "سمنگان",
    "Province": "SAMANGAN",
    "PC_Code": "2003080",
    "District": "KHURAM WA SARBAGH",
    "د_مرکز_نوم__نام_مرکز": "مکتب متوسطه حضرت نعمان ",
    "Polling_Center_Name": "Hazrat Numan Secondary School",
    "د_مرکز_ځای__موقعیت_مرکز": "قریه داخل زو",
    "Polling_Center_Location": "Dakhil Zo Village",
    "Map_Accuracy": "Building",
    "Map_Accuracy_Dari": "تعمیر",
    "Status": "Open",
    "Status_Dari": null,
    "PS_Male": 2,
    "PS_Female": 1,
    "PS_Total": 3,
    "ولسوالي": "خرم و سارباغ",
    "Region": "Northern Region"
   },
   "geometry": {
    "x": 7576673.3599229641,
    "y": 4304284.9330512909
   }
  },
  {
   "attributes": {
    "OBJECTID": 1404,
    "ولایت": "سمنگان",
    "Province": "SAMANGAN",
    "PC_Code": "2003081",
    "District": "KHURAM WA SARBAGH",
    "د_مرکز_نوم__نام_مرکز": "مکتب متوسطه بابه قمبر",
    "Polling_Center_Name": "Baba Qambar Secondary School",
    "د_مرکز_ځای__موقعیت_مرکز": "قریه بابه قمبر",
    "Polling_Center_Location": "Baba Qambar Village",
    "Map_Accuracy": "Building",
    "Map_Accuracy_Dari": "تعمیر",
    "Status": "Open",
    "Status_Dari": null,
    "PS_Male": 2,
    "PS_Female": 1,
    "PS_Total": 3,
    "ولسوالي": "خرم و سارباغ",
    "Region": "Northern Region"
   },
   "geometry": {
    "x": 7590433.2961263349,
    "y": 4307441.2054064879
   }
  },
  {
   "attributes": {
    "OBJECTID": 1405,
    "ولایت": "سمنگان",
    "Province": "SAMANGAN",
    "PC_Code": "2004032",
    "District": "FEROZ NAKHCHEER",
    "د_مرکز_نوم__نام_مرکز": "مکتب ابتدائیه نو آباد",
    "Polling_Center_Name": "Naw Abad Primary School",
    "د_مرکز_ځای__موقعیت_مرکز": "قریه نو آباد",
    "Polling_Center_Location": "Naw Abad Village",
    "Map_Accuracy": "Building",
    "Map_Accuracy_Dari": "تعمیر",
    "Status": "Open",
    "Status_Dari": null,
    "PS_Male": 1,
    "PS_Female": 1,
    "PS_Total": 2,
    "ولسوالي": "فیروز نخچیر",
    "Region": "Northern Region"
   },
   "geometry": {
    "x": 7535884.95339383,
    "y": 4370486.7338991016
   }
  },
  {
   "attributes": {
    "OBJECTID": 1406,
    "ولایت": "سمنگان",
    "Province": "SAMANGAN",
    "PC_Code": "2005065",
    "District": "ROI-DO-AB",
    "د_مرکز_نوم__نام_مرکز": "لیسه عبدالعزیز ",
    "Polling_Center_Name": "Abdul Aziz High School",
    "د_مرکز_ځای__موقعیت_مرکز": "قریه روئی",
    "Polling_Center_Location": "Royee Village",
    "Map_Accuracy": "Building",
    "Map_Accuracy_Dari": "تعمیر",
    "Status": "Open",
    "Status_Dari": null,
    "PS_Male": 4,
    "PS_Female": 2,
    "PS_Total": 6,
    "ولسوالي": "روی دوآب",
    "Region": "Northern Region"
   },
   "geometry": {
    "x": 7554697.8638482755,
    "y": 4269564.1487184241
   }
  },
  {
   "attributes": {
    "OBJECTID": 1407,
    "ولایت": "سمنگان",
    "Province": "SAMANGAN",
    "PC_Code": "2005095",
    "District": "ROI-DO-AB",
    "د_مرکز_نوم__نام_مرکز": "منبر بلغلی ",
    "Polling_Center_Name": "Balghali Menbar",
    "د_مرکز_ځای__موقعیت_مرکز": "قریه بلغلی",
    "Polling_Center_Location": "Balghali Village",
    "Map_Accuracy": "Building",
    "Map_Accuracy_Dari": "تعمیر",
    "Status": "Open",
    "Status_Dari": null,
    "PS_Male": 2,
    "PS_Female": 1,
    "PS_Total": 3,
    "ولسوالي": "روی دوآب",
    "Region": "Northern Region"
   },
   "geometry": {
    "x": 7521580.1962254206,
    "y": 4246668.1072868155
   }
  },
  {
   "attributes": {
    "OBJECTID": 1408,
    "ولایت": "سمنگان",
    "Province": "SAMANGAN",
    "PC_Code": "2006048",
    "District": "DARA-E-SOOF-E-PAYIN",
    "د_مرکز_نوم__نام_مرکز": "مکتب ابتدائیه بغک",
    "Polling_Center_Name": "Baghak Primary School",
    "د_مرکز_ځای__موقعیت_مرکز": "قریه بفک",
    "Polling_Center_Location": "Bafak Village",
    "Map_Accuracy": "Building",
    "Map_Accuracy_Dari": "تعمیر",
    "Status": "Open",
    "Status_Dari": null,
    "PS_Male": 4,
    "PS_Female": 1,
    "PS_Total": 5,
    "ولسوالي": "دره صوف پائین",
    "Region": "Northern Region"
   },
   "geometry": {
    "x": 7508050.7370089833,
    "y": 4292232.9473771183
   }
  },
  {
   "attributes": {
    "OBJECTID": 1409,
    "ولایت": "سمنگان",
    "Province": "SAMANGAN",
    "PC_Code": "2006054",
    "District": "DARA-E-SOOF-E-PAYIN",
    "د_مرکز_نوم__نام_مرکز": "مدرسه بازارک",
    "Polling_Center_Name": "Bazarak Madrassa",
    "د_مرکز_ځای__موقعیت_مرکز": "قریه بازارک",
    "Polling_Center_Location": "Bazarak Village",
    "Map_Accuracy": "Building",
    "Map_Accuracy_Dari": "تعمیر",
    "Status": "Open",
    "Status_Dari": null,
    "PS_Male": 2,
    "PS_Female": 1,
    "PS_Total": 3,
    "ولسوالي": "دره صوف پائین",
    "Region": "Northern Region"
   },
   "geometry": {
    "x": 7468082.9370230464,
    "y": 4267452.4457013374
   }
  },
  {
   "attributes": {
    "OBJECTID": 1410,
    "ولایت": "سمنگان",
    "Province": "SAMANGAN",
    "PC_Code": "2001006",
    "District": "AYBAK",
    "د_مرکز_نوم__نام_مرکز": "مکتب متوسطه نسوان کارته خراسان",
    "Polling_Center_Name": "Karte Khorasan Girls Secondary School",
    "د_مرکز_ځای__موقعیت_مرکز": "شهر ایبک",
    "Polling_Center_Location": "Aibak City",
    "Map_Accuracy": "Building",
    "Map_Accuracy_Dari": "تعمیر",
    "Status": "Open",
    "Status_Dari": null,
    "PS_Male": 4,
    "PS_Female": 2,
    "PS_Total": 6,
    "ولسوالي": "ایبک",
    "Region": "Northern Region"
   },
   "geometry": {
    "x": 7570240.4358681692,
    "y": 4342128.5244034119
   }
  },
  {
   "attributes": {
    "OBJECTID": 1411,
    "ولایت": "سمنگان",
    "Province": "SAMANGAN",
    "PC_Code": "2001007",
    "District": "AYBAK",
    "د_مرکز_نوم__نام_مرکز": "لیسه نسوان اجانی ملکی ",
    "Polling_Center_Name": "Ajani Malki Girls High School",
    "د_مرکز_ځای__موقعیت_مرکز": "شهر ایبک",
    "Polling_Center_Location": "Aibak City",
    "Map_Accuracy": "Building",
    "Map_Accuracy_Dari": "تعمیر",
    "Status": "Open",
    "Status_Dari": null,
    "PS_Male": 0,
    "PS_Female": 9,
    "PS_Total": 9,
    "ولسوالي": "ایبک",
    "Region": "Northern Region"
   },
   "geometry": {
    "x": 7571324.1344506275,
    "y": 4337472.5905581815
   }
  },
  {
   "attributes": {
    "OBJECTID": 1412,
    "ولایت": "سمنگان",
    "Province": "SAMANGAN",
    "PC_Code": "2002025",
    "District": "HAZRAT-E-SULTAN",
    "د_مرکز_نوم__نام_مرکز": "مکتب ابتدایئ چوچمن",
    "Polling_Center_Name": "Chochman Primary School",
    "د_مرکز_ځای__موقعیت_مرکز": "قریه چوچمن",
    "Polling_Center_Location": "Chochman Village",
    "Map_Accuracy": "Building",
    "Map_Accuracy_Dari": "تعمیر",
    "Status": "Open",
    "Status_Dari": null,
    "PS_Male": 3,
    "PS_Female": 1,
    "PS_Total": 4,
    "ولسوالي": "حضرت سلطان",
    "Region": "Northern Region"
   },
   "geometry": {
    "x": 7516408.4674547687,
    "y": 4332668.6742842998
   }
  },
  {
   "attributes": {
    "OBJECTID": 1413,
    "ولایت": "سمنگان",
    "Province": "SAMANGAN",
    "PC_Code": "2006060",
    "District": "DARA-E-SOOF-E-PAYIN",
    "د_مرکز_نوم__نام_مرکز": "مدرسه کته قاق ",
    "Polling_Center_Name": "Kata Qaq Madrassa",
    "د_مرکز_ځای__موقعیت_مرکز": "قریه کته قاق",
    "Polling_Center_Location": "Kata Qaq Village",
    "Map_Accuracy": "Building",
    "Map_Accuracy_Dari": "تعمیر",
    "Status": "Open",
    "Status_Dari": null,
    "PS_Male": 2,
    "PS_Female": 2,
    "PS_Total": 4,
    "ولسوالي": "دره صوف پائین",
    "Region": "Northern Region"
   },
   "geometry": {
    "x": 7503474.5129675223,
    "y": 4319435.28404966
   }
  },
  {
   "attributes": {
    "OBJECTID": 1414,
    "ولایت": "سمنگان",
    "Province": "SAMANGAN",
    "PC_Code": "2006061",
    "District": "DARA-E-SOOF-E-PAYIN",
    "د_مرکز_نوم__نام_مرکز": "مدرسه لبابی",
    "Polling_Center_Name": "Lababi Madrassa",
    "د_مرکز_ځای__موقعیت_مرکز": "قریه لبابی",
    "Polling_Center_Location": "Lababi Village",
    "Map_Accuracy": "Building",
    "Map_Accuracy_Dari": "تعمیر",
    "Status": "Open",
    "Status_Dari": null,
    "PS_Male": 2,
    "PS_Female": 2,
    "PS_Total": 4,
    "ولسوالي": "دره صوف پائین",
    "Region": "Northern Region"
   },
   "geometry": {
    "x": 7503698.5746121984,
    "y": 4307065.3056716984
   }
  },
  {
   "attributes": {
    "OBJECTID": 1415,
    "ولایت": "سمنگان",
    "Province": "SAMANGAN",
    "PC_Code": "2006062",
    "District": "DARA-E-SOOF-E-PAYIN",
    "د_مرکز_نوم__نام_مرکز": "مسجد تولی غازی",
    "Polling_Center_Name": "Tolai Ghazi Mosque",
    "د_مرکز_ځای__موقعیت_مرکز": "قریه تولی غازی",
    "Polling_Center_Location": "Tolai Ghazi Village",
    "Map_Accuracy": "Building",
    "Map_Accuracy_Dari": "تعمیر",
    "Status": "Open",
    "Status_Dari": null,
    "PS_Male": 2,
    "PS_Female": 2,
    "PS_Total": 4,
    "ولسوالي": "دره صوف پائین",
    "Region": "Northern Region"
   },
   "geometry": {
    "x": 7491665.982947466,
    "y": 4305778.7670565173
   }
  },
  {
   "attributes": {
    "OBJECTID": 1416,
    "ولایت": "سمنگان",
    "Province": "SAMANGAN",
    "PC_Code": "2006063",
    "District": "DARA-E-SOOF-E-PAYIN",
    "د_مرکز_نوم__نام_مرکز": "مسجد نی زار",
    "Polling_Center_Name": "Nai Zaar Mosque",
    "د_مرکز_ځای__موقعیت_مرکز": "قریه نی زار",
    "Polling_Center_Location": "Nai Zaar Village",
    "Map_Accuracy": "Building",
    "Map_Accuracy_Dari": "تعمیر",
    "Status": "Open",
    "Status_Dari": null,
    "PS_Male": 2,
    "PS_Female": 1,
    "PS_Total": 3,
    "ولسوالي": "دره صوف پائین",
    "Region": "Northern Region"
   },
   "geometry": {
    "x": 7514433.3145976728,
    "y": 4299814.7764702784
   }
  },
  {
   "attributes": {
    "OBJECTID": 1417,
    "ولایت": "سمنگان",
    "Province": "SAMANGAN",
    "PC_Code": "2007036",
    "District": "DARA-E-SOOF-E-BALA",
    "د_مرکز_نوم__نام_مرکز": "منبر حسنی ",
    "Polling_Center_Name": "Menbar Hasani",
    "د_مرکز_ځای__موقعیت_مرکز": "قریه حسنی",
    "Polling_Center_Location": "Hasani Village",
    "Map_Accuracy": "Building",
    "Map_Accuracy_Dari": "تعمیر",
    "Status": "Open",
    "Status_Dari": null,
    "PS_Male": 2,
    "PS_Female": 1,
    "PS_Total": 3,
    "ولسوالي": "دره صوف بالا",
    "Region": "Northern Region"
   },
   "geometry": {
    "x": 7489433.5885582641,
    "y": 4264711.3572319075
   }
  },
  {
   "attributes": {
    "OBJECTID": 1418,
    "ولایت": "سمنگان",
    "Province": "SAMANGAN",
    "PC_Code": "2007037",
    "District": "DARA-E-SOOF-E-BALA",
    "د_مرکز_نوم__نام_مرکز": "منبر کته قشلاق ",
    "Polling_Center_Name": "Menbar Kata Qeshlaq",
    "د_مرکز_ځای__موقعیت_مرکز": "قریه کته قشلاق",
    "Polling_Center_Location": "Kata Qashlaq Village",
    "Map_Accuracy": "Building",
    "Map_Accuracy_Dari": "تعمیر",
    "Status": "Open",
    "Status_Dari": null,
    "PS_Male": 1,
    "PS_Female": 1,
    "PS_Total": 2,
    "ولسوالي": "دره صوف بالا",
    "Region": "Northern Region"
   },
   "geometry": {
    "x": 7503138.456122742,
    "y": 4277577.4353089035
   }
  },
  {
   "attributes": {
    "OBJECTID": 1419,
    "ولایت": "بلخ",
    "Province": "BALKH",
    "PC_Code": "2106168",
    "District": "BALKH",
    "د_مرکز_نوم__نام_مرکز": "مسجد شهاب",
    "Polling_Center_Name": "Shahab Mosque",
    "د_مرکز_ځای__موقعیت_مرکز": "قریه شهاب",
    "Polling_Center_Location": "Shahab Village",
    "Map_Accuracy": "Building",
    "Map_Accuracy_Dari": "تعمیر",
    "Status": "Open",
    "Status_Dari": null,
    "PS_Male": 2,
    "PS_Female": 1,
    "PS_Total": 3,
    "ولسوالي": "بلخ",
    "Region": "Northern Region"
   },
   "geometry": {
    "x": 7442498.5427615941,
    "y": 4422502.6591215739
   }
  },
  {
   "attributes": {
    "OBJECTID": 1420,
    "ولایت": "بلخ",
    "Province": "BALKH",
    "PC_Code": "2107237",
    "District": "SHOLGARA",
    "د_مرکز_نوم__نام_مرکز": "لیسه عالی قدیم",
    "Polling_Center_Name": "Qadeem High School",
    "د_مرکز_ځای__موقعیت_مرکز": "قریه قدیم ",
    "Polling_Center_Location": "Qadeem Village",
    "Map_Accuracy": "Building",
    "Map_Accuracy_Dari": "تعمیر",
    "Status": "Open",
    "Status_Dari": null,
    "PS_Male": 3,
    "PS_Female": 2,
    "PS_Total": 5,
    "ولسوالي": "شولگره",
    "Region": "Northern Region"
   },
   "geometry": {
    "x": 7445574.4928749315,
    "y": 4344321.3219110379
   }
  },
  {
   "attributes": {
    "OBJECTID": 1421,
    "ولایت": "بلخ",
    "Province": "BALKH",
    "PC_Code": "2107238",
    "District": "SHOLGARA",
    "د_مرکز_نوم__نام_مرکز": "تعمیر جدید ولسوالی",
    "Polling_Center_Name": "Districts New Building",
    "د_مرکز_ځای__موقعیت_مرکز": "قریه قدیم ",
    "Polling_Center_Location": "Qadeem Village",
    "Map_Accuracy": "Building",
    "Map_Accuracy_Dari": "تعمیر",
    "Status": "Open",
    "Status_Dari": null,
    "PS_Male": 2,
    "PS_Female": 1,
    "PS_Total": 3,
    "ولسوالي": "شولگره",
    "Region": "Northern Region"
   },
   "geometry": {
    "x": 7445676.0073449779,
    "y": 4344580.2041831613
   }
  },
  {
   "attributes": {
    "OBJECTID": 1422,
    "ولایت": "بلخ",
    "Province": "BALKH",
    "PC_Code": "2107240",
    "District": "SHOLGARA",
    "د_مرکز_نوم__نام_مرکز": "مکتب تبیاق",
    "Polling_Center_Name": "Tabyaq School",
    "د_مرکز_ځای__موقعیت_مرکز": "قریه تبیاق",
    "Polling_Center_Location": "Tabyaq Village",
    "Map_Accuracy": "Building",
    "Map_Accuracy_Dari": "تعمیر",
    "Status": "Open",
    "Status_Dari": null,
    "PS_Male": 1,
    "PS_Female": 1,
    "PS_Total": 2,
    "ولسوالي": "شولگره",
    "Region": "Northern Region"
   },
   "geometry": {
    "x": 7434860.2111854777,
    "y": 4347234.1844877237
   }
  },
  {
   "attributes": {
    "OBJECTID": 1423,
    "ولایت": "بلخ",
    "Province": "BALKH",
    "PC_Code": "2107241",
    "District": "SHOLGARA",
    "د_مرکز_نوم__نام_مرکز": "مکتب کاندلی",
    "Polling_Center_Name": "Kandali School",
    "د_مرکز_ځای__موقعیت_مرکز": "قریه کاندلی",
    "Polling_Center_Location": "Kandali Village",
    "Map_Accuracy": "Building",
    "Map_Accuracy_Dari": "تعمیر",
    "Status": "Open",
    "Status_Dari": null,
    "PS_Male": 2,
    "PS_Female": 1,
    "PS_Total": 3,
    "ولسوالي": "شولگره",
    "Region": "Northern Region"
   },
   "geometry": {
    "x": 7422399.2587805865,
    "y": 4316632.8526314246
   }
  },
  {
   "attributes": {
    "OBJECTID": 1424,
    "ولایت": "بلخ",
    "Province": "BALKH",
    "PC_Code": "2107261",
    "District": "SHOLGARA",
    "د_مرکز_نوم__نام_مرکز": "مکتب سیاب",
    "Polling_Center_Name": "Siyab School",
    "د_مرکز_ځای__موقعیت_مرکز": "قریه سیاب",
    "Polling_Center_Location": "Siyab Village",
    "Map_Accuracy": "Building",
    "Map_Accuracy_Dari": "تعمیر",
    "Status": "Open",
    "Status_Dari": null,
    "PS_Male": 2,
    "PS_Female": 1,
    "PS_Total": 3,
    "ولسوالي": "شولگره",
    "Region": "Northern Region"
   },
   "geometry": {
    "x": 7449286.2876745323,
    "y": 4356550.0943191815
   }
  },
  {
   "attributes": {
    "OBJECTID": 1425,
    "ولایت": "کنړ ",
    "Province": "KUNAR",
    "PC_Code": "1501001",
    "District": "ASAD ABAD",
    "د_مرکز_نوم__نام_مرکز": "لیسه عمرا خان",
    "Polling_Center_Name": "Omera Khan High School",
    "د_مرکز_ځای__موقعیت_مرکز": "دم کلی",
    "Polling_Center_Location": "Dam Village",
    "Map_Accuracy": "Village",
    "Map_Accuracy_Dari": "قریه",
    "Status": "Open",
    "Status_Dari": null,
    "PS_Male": 7,
    "PS_Female": 0,
    "PS_Total": 7,
    "ولسوالي": "اسعد آباد",
    "Region": "Eastern Region"
   },
   "geometry": {
    "x": 7920440.5210290756,
    "y": 4146500.40765103
   }
  },
  {
   "attributes": {
    "OBJECTID": 1426,
    "ولایت": "خوست",
    "Province": "KHOST",
    "PC_Code": "1402178",
    "District": "MANDUZAY",
    "د_مرکز_نوم__نام_مرکز": "شيرزاعلي جومات",
    "Polling_Center_Name": "Shiraz ali Mosque",
    "د_مرکز_ځای__موقعیت_مرکز": "کرام کلى",
    "Polling_Center_Location": "Kram village",
    "Map_Accuracy": "Building",
    "Map_Accuracy_Dari": "تعمیر",
    "Status": "Open",
    "Status_Dari": null,
    "PS_Male": 2,
    "PS_Female": 1,
    "PS_Total": 3,
    "ولسوالي": "مندوزائی",
    "Region": "South Eastern Region"
   },
   "geometry": {
    "x": 7772278.1768578384,
    "y": 3937696.9138778704
   }
  },
  {
   "attributes": {
    "OBJECTID": 1427,
    "ولایت": "خوست",
    "Province": "KHOST",
    "PC_Code": "1402179",
    "District": "MANDUZAY",
    "د_مرکز_نوم__نام_مرکز": "نورشاه حجره ورزه کلى",
    "Polling_Center_Name": "Noor sha House",
    "د_مرکز_ځای__موقعیت_مرکز": "ورزه کلى",
    "Polling_Center_Location": "Warza village",
    "Map_Accuracy": "Building",
    "Map_Accuracy_Dari": "تعمیر",
    "Status": "Open",
    "Status_Dari": null,
    "PS_Male": 2,
    "PS_Female": 1,
    "PS_Total": 3,
    "ولسوالي": "مندوزائی",
    "Region": "South Eastern Region"
   },
   "geometry": {
    "x": 7769705.886993858,
    "y": 3943648.1288609165
   }
  },
  {
   "attributes": {
    "OBJECTID": 1428,
    "ولایت": "خوست",
    "Province": "KHOST",
    "PC_Code": "1401007",
    "District": "KHOST",
    "د_مرکز_نوم__نام_مرکز": "د سرکي جان کلي جومات شمل",
    "Polling_Center_Name": "Sarkai Jan Village Mosque",
    "د_مرکز_ځای__موقعیت_مرکز": " شمل سرکى جان کلى",
    "Polling_Center_Location": "Shamal Serkai Jaan Village",
    "Map_Accuracy": "Building",
    "Map_Accuracy_Dari": "تعمیر",
    "Status": "Open",
    "Status_Dari": null,
    "PS_Male": 2,
    "PS_Female": 2,
    "PS_Total": 4,
    "ولسوالي": "خوست",
    "Region": "South Eastern Region"
   },
   "geometry": {
    "x": 7794532.0565962819,
    "y": 3941049.7732047047
   }
  },
  {
   "attributes": {
    "OBJECTID": 1429,
    "ولایت": "خوست",
    "Province": "KHOST",
    "PC_Code": "1401008",
    "District": "KHOST",
    "د_مرکز_نوم__نام_مرکز": "د سرکي جان کلي د اکبر جان هجره",
    "Polling_Center_Name": "Akber Jan Hojra",
    "د_مرکز_ځای__موقعیت_مرکز": " شمل سرکى جان کلى",
    "Polling_Center_Location": "Shamal Serkai Jaan Village",
    "Map_Accuracy": "Village",
    "Map_Accuracy_Dari": "قریه",
    "Status": "Open",
    "Status_Dari": null,
    "PS_Male": 2,
    "PS_Female": 2,
    "PS_Total": 4,
    "ولسوالي": "خوست",
    "Region": "South Eastern Region"
   },
   "geometry": {
    "x": 7793976.787183838,
    "y": 3941005.0341935153
   }
  },
  {
   "attributes": {
    "OBJECTID": 1430,
    "ولایت": "خوست",
    "Province": "KHOST",
    "PC_Code": "1401039",
    "District": "KHOST",
    "د_مرکز_نوم__نام_مرکز": "جومات",
    "Polling_Center_Name": "Mosque",
    "د_مرکز_ځای__موقعیت_مرکز": "اڅړ",
    "Polling_Center_Location": "Asarr",
    "Map_Accuracy": "Village",
    "Map_Accuracy_Dari": "قریه",
    "Status": "Open",
    "Status_Dari": null,
    "PS_Male": 2,
    "PS_Female": 1,
    "PS_Total": 3,
    "ولسوالي": "خوست",
    "Region": "South Eastern Region"
   },
   "geometry": {
    "x": 7774185.882682615,
    "y": 3947623.7431946122
   }
  },
  {
   "attributes": {
    "OBJECTID": 1431,
    "ولایت": "خوست",
    "Province": "KHOST",
    "PC_Code": "1401040",
    "District": "KHOST",
    "د_مرکز_نوم__نام_مرکز": "رحمت ګل هجره ",
    "Polling_Center_Name": "Rahmat Gul Hojra",
    "د_مرکز_ځای__موقعیت_مرکز": "حبشخيل",
    "Polling_Center_Location": "Habash Khel",
    "Map_Accuracy": "Building",
    "Map_Accuracy_Dari": "تعمیر",
    "Status": "Open",
    "Status_Dari": null,
    "PS_Male": 3,
    "PS_Female": 1,
    "PS_Total": 4,
    "ولسوالي": "خوست",
    "Region": "South Eastern Region"
   },
   "geometry": {
    "x": 7782742.7347543631,
    "y": 3944382.8843199667
   }
  },
  {
   "attributes": {
    "OBJECTID": 1432,
    "ولایت": "خوست",
    "Province": "KHOST",
    "PC_Code": "1402083",
    "District": "MANDUZAY",
    "د_مرکز_نوم__نام_مرکز": "جومات حسن محمد ",
    "Polling_Center_Name": "Hassan Mohammad Mosque",
    "د_مرکز_ځای__موقعیت_مرکز": "حسن محمد مندوزى",
    "Polling_Center_Location": "Hassan Mohammad Mandozai",
    "Map_Accuracy": "Village",
    "Map_Accuracy_Dari": "قریه",
    "Status": "Open",
    "Status_Dari": null,
    "PS_Male": 1,
    "PS_Female": 1,
    "PS_Total": 2,
    "ولسوالي": "مندوزی",
    "Region": "South Eastern Region"
   },
   "geometry": {
    "x": 7770098.8677281719,
    "y": 3938322.6517311842
   }
  },
  {
   "attributes": {
    "OBJECTID": 1433,
    "ولایت": "خوست",
    "Province": "KHOST",
    "PC_Code": "1402087",
    "District": "MANDUZAY",
    "د_مرکز_نوم__نام_مرکز": "د ژورې ګلي خانو خيل جومات",
    "Polling_Center_Name": "Zhawari Village Khano Khel Mosque",
    "د_مرکز_ځای__موقعیت_مرکز": "د ژورې کلي خانو خيل ",
    "Polling_Center_Location": "Zhawari Village Khano Khel ",
    "Map_Accuracy": "Village",
    "Map_Accuracy_Dari": "قریه",
    "Status": "Open",
    "Status_Dari": null,
    "PS_Male": 1,
    "PS_Female": 1,
    "PS_Total": 2,
    "ولسوالي": "مندوزی",
    "Region": "South Eastern Region"
   },
   "geometry": {
    "x": 7766677.315123721,
    "y": 3937217.849314726
   }
  },
  {
   "attributes": {
    "OBJECTID": 1434,
    "ولایت": "خوست",
    "Province": "KHOST",
    "PC_Code": "1402088",
    "District": "MANDUZAY",
    "د_مرکز_نوم__نام_مرکز": "شډل کلي جومات",
    "Polling_Center_Name": "Shadal Village Mosque",
    "د_مرکز_ځای__موقعیت_مرکز": "شډل",
    "Polling_Center_Location": "Shadal",
    "Map_Accuracy": "Building",
    "Map_Accuracy_Dari": "تعمیر",
    "Status": "Open",
    "Status_Dari": null,
    "PS_Male": 1,
    "PS_Female": 1,
    "PS_Total": 2,
    "ولسوالي": "مندوزی",
    "Region": "South Eastern Region"
   },
   "geometry": {
    "x": 7761365.1679473799,
    "y": 3936494.7041455936
   }
  },
  {
   "attributes": {
    "OBJECTID": 1435,
    "ولایت": "خوست",
    "Province": "KHOST",
    "PC_Code": "1402092",
    "District": "MANDUZAY",
    "د_مرکز_نوم__نام_مرکز": "د ډاډوالو د ډول کلي جومات",
    "Polling_Center_Name": "Dadwalo Village Mosque",
    "د_مرکز_ځای__موقعیت_مرکز": " ډډوال شمل خيل",
    "Polling_Center_Location": "Dadwaal Shamal Khel",
    "Map_Accuracy": "Building",
    "Map_Accuracy_Dari": "تعمیر",
    "Status": "Open",
    "Status_Dari": null,
    "PS_Male": 1,
    "PS_Female": 1,
    "PS_Total": 2,
    "ولسوالي": "مندوزی",
    "Region": "South Eastern Region"
   },
   "geometry": {
    "x": 7771529.7551044933,
    "y": 3936513.809455269
   }
  },
  {
   "attributes": {
    "OBJECTID": 1436,
    "ولایت": "خوست",
    "Province": "KHOST",
    "PC_Code": "1402093",
    "District": "MANDUZAY",
    "د_مرکز_نوم__نام_مرکز": "د دلپوريو متوسطه ښوونځی",
    "Polling_Center_Name": "Dalpowrio Secondary School",
    "د_مرکز_ځای__موقعیت_مرکز": "د دلپوريو کلی",
    "Polling_Center_Location": "Dalporayo Village",
    "Map_Accuracy": "Village",
    "Map_Accuracy_Dari": "قریه",
    "Status": "Open",
    "Status_Dari": null,
    "PS_Male": 1,
    "PS_Female": 1,
    "PS_Total": 2,
    "ولسوالي": "مندوزی",
    "Region": "South Eastern Region"
   },
   "geometry": {
    "x": 7763377.0618024068,
    "y": 3935395.9799281219
   }
  },
  {
   "attributes": {
    "OBJECTID": 1437,
    "ولایت": "خوست",
    "Province": "KHOST",
    "PC_Code": "1403147",
    "District": "GURBUZ",
    "د_مرکز_نوم__نام_مرکز": "د شهيد محمد قادر محمد ليسه",
    "Polling_Center_Name": "Shaheed Mohammad Qadir High School",
    "د_مرکز_ځای__موقعیت_مرکز": "شهيد کلى",
    "Polling_Center_Location": "Shaheed Village",
    "Map_Accuracy": "Building",
    "Map_Accuracy_Dari": "تعمیر",
    "Status": "Open",
    "Status_Dari": null,
    "PS_Male": 5,
    "PS_Female": 0,
    "PS_Total": 5,
    "ولسوالي": "گربز",
    "Region": "South Eastern Region"
   },
   "geometry": {
    "x": 7788442.8359220922,
    "y": 3932994.1608490995
   }
  },
  {
   "attributes": {
    "OBJECTID": 1438,
    "ولایت": "خوست",
    "Province": "KHOST",
    "PC_Code": "1403148",
    "District": "GURBUZ",
    "د_مرکز_نوم__نام_مرکز": "د محمد يعقوب خان جومات",
    "Polling_Center_Name": "Mohammad Yaqoob Khan Mosque",
    "د_مرکز_ځای__موقعیت_مرکز": "د مرمنډى کلى",
    "Polling_Center_Location": "Marmandi Village",
    "Map_Accuracy": "Village",
    "Map_Accuracy_Dari": "قریه",
    "Status": "Open",
    "Status_Dari": null,
    "PS_Male": 4,
    "PS_Female": 1,
    "PS_Total": 5,
    "ولسوالي": "گربز",
    "Region": "South Eastern Region"
   },
   "geometry": {
    "x": 7790206.9236850599,
    "y": 3934646.3251139838
   }
  },
  {
   "attributes": {
    "OBJECTID": 1439,
    "ولایت": "خوست",
    "Province": "KHOST",
    "PC_Code": "1403154",
    "District": "GURBUZ",
    "د_مرکز_نوم__نام_مرکز": "د بوږي خيلو کلي جومات",
    "Polling_Center_Name": "Bozhi Khel Village Mosque",
    "د_مرکز_ځای__موقعیت_مرکز": "بوږي خيل",
    "Polling_Center_Location": "Bogi Khel ",
    "Map_Accuracy": "Building",
    "Map_Accuracy_Dari": "تعمیر",
    "Status": "Open",
    "Status_Dari": null,
    "PS_Male": 2,
    "PS_Female": 2,
    "PS_Total": 4,
    "ولسوالي": "گربز",
    "Region": "South Eastern Region"
   },
   "geometry": {
    "x": 7783958.7410044065,
    "y": 3926223.3294408927
   }
  },
  {
   "attributes": {
    "OBJECTID": 1440,
    "ولایت": "سمنگان",
    "Province": "SAMANGAN",
    "PC_Code": "2007042",
    "District": "DARA-E-SOOF-E-BALA",
    "د_مرکز_نوم__نام_مرکز": "منبر بینی منگ",
    "Polling_Center_Name": "Beni Mang Menbar",
    "د_مرکز_ځای__موقعیت_مرکز": "قریه بینی منگ",
    "Polling_Center_Location": "Beni Mang Village",
    "Map_Accuracy": "Building",
    "Map_Accuracy_Dari": "تعمیر",
    "Status": "Open",
    "Status_Dari": null,
    "PS_Male": 3,
    "PS_Female": 2,
    "PS_Total": 5,
    "ولسوالي": "دره صوف بالا",
    "Region": "Northern Region"
   },
   "geometry": {
    "x": 7480259.8372643897,
    "y": 4252437.1157461824
   }
  },
  {
   "attributes": {
    "OBJECTID": 1441,
    "ولایت": "سمنگان",
    "Province": "SAMANGAN",
    "PC_Code": "2007043",
    "District": "DARA-E-SOOF-E-BALA",
    "د_مرکز_نوم__نام_مرکز": "منبر سرخ ده",
    "Polling_Center_Name": "Surkh Deh Menbar",
    "د_مرکز_ځای__موقعیت_مرکز": "قریه سرخ ده",
    "Polling_Center_Location": "Surkh Deh Village",
    "Map_Accuracy": "Building",
    "Map_Accuracy_Dari": "تعمیر",
    "Status": "Open",
    "Status_Dari": null,
    "PS_Male": 1,
    "PS_Female": 1,
    "PS_Total": 2,
    "ولسوالي": "دره صوف بالا",
    "Region": "Northern Region"
   },
   "geometry": {
    "x": 7462846.9308199296,
    "y": 4246495.1194394371
   }
  },
  {
   "attributes": {
    "OBJECTID": 1442,
    "ولایت": "سمنگان",
    "Province": "SAMANGAN",
    "PC_Code": "2007045",
    "District": "DARA-E-SOOF-E-BALA",
    "د_مرکز_نوم__نام_مرکز": "منبر چهار ده",
    "Polling_Center_Name": "Menbar Chahar Deh",
    "د_مرکز_ځای__موقعیت_مرکز": "قریه چهار ده",
    "Polling_Center_Location": "Chahar Deh Village",
    "Map_Accuracy": "Building",
    "Map_Accuracy_Dari": "تعمیر",
    "Status": "Open",
    "Status_Dari": null,
    "PS_Male": 2,
    "PS_Female": 2,
    "PS_Total": 4,
    "ولسوالي": "دره صوف بالا",
    "Region": "Northern Region"
   },
   "geometry": {
    "x": 7484144.8763611233,
    "y": 4236562.4071814138
   }
  },
  {
   "attributes": {
    "OBJECTID": 1443,
    "ولایت": "سمنگان",
    "Province": "SAMANGAN",
    "PC_Code": "2003098",
    "District": "HAZRAT-E-SULTAN",
    "د_مرکز_نوم__نام_مرکز": "ابتدایه مکتب",
    "Polling_Center_Name": "Primary School",
    "د_مرکز_ځای__موقعیت_مرکز": "سرخک چشمه",
    "Polling_Center_Location": "Surkhak chashma",
    "Map_Accuracy": "Building",
    "Map_Accuracy_Dari": "تعمیر",
    "Status": "Open",
    "Status_Dari": null,
    "PS_Male": 2,
    "PS_Female": 1,
    "PS_Total": 3,
    "ولسوالي": "خرم وسارباغ",
    "Region": "Northern Region"
   },
   "geometry": {
    "x": 7605559.1507568927,
    "y": 4312218.37091411
   }
  },
  {
   "attributes": {
    "OBJECTID": 1444,
    "ولایت": "سمنگان",
    "Province": "SAMANGAN",
    "PC_Code": "2005099",
    "District": "ROI-DO-AB",
    "د_مرکز_نوم__نام_مرکز": "مدرسه خواجه زاحد",
    "Polling_Center_Name": "Khwaja zahed Madrasa",
    "د_مرکز_ځای__موقعیت_مرکز": "خواجه زاهد",
    "Polling_Center_Location": "Khwaja zahed",
    "Map_Accuracy": "Building",
    "Map_Accuracy_Dari": "تعمیر",
    "Status": "Open",
    "Status_Dari": null,
    "PS_Male": 2,
    "PS_Female": 1,
    "PS_Total": 3,
    "ولسوالي": "روی دو آب",
    "Region": "Northern Region"
   },
   "geometry": {
    "x": 7545446.7120011337,
    "y": 4249542.1265974576
   }
  },
  {
   "attributes": {
    "OBJECTID": 1445,
    "ولایت": "بلخ",
    "Province": "BALKH",
    "PC_Code": "2101007",
    "District": "MAZAR-E-SHARIF",
    "د_مرکز_نوم__نام_مرکز": "متوسطه طبی",
    "Polling_Center_Name": "Tebi Medical School",
    "د_مرکز_ځای__موقعیت_مرکز": "ناحیه دوم کارته شفاخانه ",
    "Polling_Center_Location": "D02 - Nahia 2 Karta-e-Shafakhana",
    "Map_Accuracy": "Building",
    "Map_Accuracy_Dari": "تعمیر",
    "Status": "Open",
    "Status_Dari": null,
    "PS_Male": 4,
    "PS_Female": 4,
    "PS_Total": 8,
    "ولسوالي": "مزار شریف",
    "Region": "Northern Region"
   },
   "geometry": {
    "x": 7470400.570527453,
    "y": 4399635.1086280392
   }
  },
  {
   "attributes": {
    "OBJECTID": 1446,
    "ولایت": "بلخ",
    "Province": "BALKH",
    "PC_Code": "2101008",
    "District": "MAZAR-E-SHARIF",
    "د_مرکز_نوم__نام_مرکز": "مکتب بکتاش",
    "Polling_Center_Name": "Baktash School",
    "د_مرکز_ځای__موقعیت_مرکز": "ناحیه سوم مزار شاروالی ",
    "Polling_Center_Location": "D03 - Nahia 3",
    "Map_Accuracy": "Building",
    "Map_Accuracy_Dari": "تعمیر",
    "Status": "Open",
    "Status_Dari": null,
    "PS_Male": 5,
    "PS_Female": 3,
    "PS_Total": 8,
    "ولسوالي": "مزار شریف",
    "Region": "Northern Region"
   },
   "geometry": {
    "x": 7471397.0491756834,
    "y": 4399588.6703876816
   }
  },
  {
   "attributes": {
    "OBJECTID": 1447,
    "ولایت": "بلخ",
    "Province": "BALKH",
    "PC_Code": "2101016",
    "District": "MAZAR-E-SHARIF",
    "د_مرکز_نوم__نام_مرکز": "مکتب ابو مسلم خراسانی",
    "Polling_Center_Name": "Abu Muslim Khurasani School",
    "د_مرکز_ځای__موقعیت_مرکز": "ناحیه چهارم شهرداری مزار",
    "Polling_Center_Location": "D04 - Nahia 4",
    "Map_Accuracy": "Building",
    "Map_Accuracy_Dari": "تعمیر",
    "Status": "Open",
    "Status_Dari": null,
    "PS_Male": 2,
    "PS_Female": 3,
    "PS_Total": 5,
    "ولسوالي": "مزار شریف",
    "Region": "Northern Region"
   },
   "geometry": {
    "x": 7468775.5898265727,
    "y": 4396717.2980710603
   }
  },
  {
   "attributes": {
    "OBJECTID": 1448,
    "ولایت": "بلخ",
    "Province": "BALKH",
    "PC_Code": "2101017",
    "District": "MAZAR-E-SHARIF",
    "د_مرکز_نوم__نام_مرکز": "دار الحفاظ اسدیه",
    "Polling_Center_Name": "Asadya Darul Hefaaz",
    "د_مرکز_ځای__موقعیت_مرکز": "ناحیه دوم مزار شاروالی ",
    "Polling_Center_Location": "D02 - Nahia 2",
    "Map_Accuracy": "Building",
    "Map_Accuracy_Dari": "تعمیر",
    "Status": "Open",
    "Status_Dari": null,
    "PS_Male": 2,
    "PS_Female": 2,
    "PS_Total": 4,
    "ولسوالي": "مزار شریف",
    "Region": "Northern Region"
   },
   "geometry": {
    "x": 7468078.5750801191,
    "y": 4398773.9510077685
   }
  },
  {
   "attributes": {
    "OBJECTID": 1449,
    "ولایت": "بلخ",
    "Province": "BALKH",
    "PC_Code": "2102068",
    "District": "NAHR-E-SHAHI",
    "د_مرکز_نوم__نام_مرکز": "مکتب سیاه گرد",
    "Polling_Center_Name": "Siyah Gerd School",
    "د_مرکز_ځای__موقعیت_مرکز": "قریه سیاه گرد",
    "Polling_Center_Location": "Siyah Gerd Village",
    "Map_Accuracy": "Village",
    "Map_Accuracy_Dari": "قریه",
    "Status": "Open",
    "Status_Dari": null,
    "PS_Male": 2,
    "PS_Female": 1,
    "PS_Total": 3,
    "ولسوالي": "نهر شاهی ",
    "Region": "Northern Region"
   },
   "geometry": {
    "x": 7467658.170343969,
    "y": 4429574.0461444994
   }
  },
  {
   "attributes": {
    "OBJECTID": 1450,
    "ولایت": "بلخ",
    "Province": "BALKH",
    "PC_Code": "2102069",
    "District": "NAHR-E-SHAHI",
    "د_مرکز_نوم__نام_مرکز": "مکتب شهر ک افغانیه",
    "Polling_Center_Name": "Shahrak Afghania School",
    "د_مرکز_ځای__موقعیت_مرکز": "شهرک افغانیه",
    "Polling_Center_Location": "Shahrak Afghania",
    "Map_Accuracy": "Village",
    "Map_Accuracy_Dari": "قریه",
    "Status": "Open",
    "Status_Dari": null,
    "PS_Male": 2,
    "PS_Female": 2,
    "PS_Total": 4,
    "ولسوالي": "نهر شاهی ",
    "Region": "Northern Region"
   },
   "geometry": {
    "x": 7476831.302701476,
    "y": 4425102.6633785442
   }
  },
  {
   "attributes": {
    "OBJECTID": 1451,
    "ولایت": "بلخ",
    "Province": "BALKH",
    "PC_Code": "2104278",
    "District": "CHAR KENT",
    "د_مرکز_نوم__نام_مرکز": "مکتب تندورک",
    "Polling_Center_Name": "Tandoorak School",
    "د_مرکز_ځای__موقعیت_مرکز": "قریه تندورک",
    "Polling_Center_Location": "Tandoorak Village",
    "Map_Accuracy": "Village",
    "Map_Accuracy_Dari": "قریه",
    "Status": "Open",
    "Status_Dari": null,
    "PS_Male": 2,
    "PS_Female": 1,
    "PS_Total": 3,
    "ولسوالي": "چارکنت",
    "Region": "Northern Region"
   },
   "geometry": {
    "x": 7469645.2555372762,
    "y": 4360130.6162570128
   }
  },
  {
   "attributes": {
    "OBJECTID": 1452,
    "ولایت": "بلخ",
    "Province": "BALKH",
    "PC_Code": "2104279",
    "District": "CHAR KENT",
    "د_مرکز_نوم__نام_مرکز": "مکتب جان بلاق",
    "Polling_Center_Name": "Jaan Balaq School",
    "د_مرکز_ځای__موقعیت_مرکز": "قریه جان بلاق",
    "Polling_Center_Location": "Jaan Balaq Village",
    "Map_Accuracy": "Building",
    "Map_Accuracy_Dari": "تعمیر",
    "Status": "Open",
    "Status_Dari": null,
    "PS_Male": 1,
    "PS_Female": 1,
    "PS_Total": 2,
    "ولسوالي": "چارکنت",
    "Region": "Northern Region"
   },
   "geometry": {
    "x": 7492676.8095648568,
    "y": 4356407.5167285781
   }
  },
  {
   "attributes": {
    "OBJECTID": 1453,
    "ولایت": "بلخ",
    "Province": "BALKH",
    "PC_Code": "2106155",
    "District": "BALKH",
    "د_مرکز_نوم__نام_مرکز": "مکتب نسوان  حصارک",
    "Polling_Center_Name": "Hesarak Girls School",
    "د_مرکز_ځای__موقعیت_مرکز": "قریه حصارک",
    "Polling_Center_Location": "Hesarak Village",
    "Map_Accuracy": "Building",
    "Map_Accuracy_Dari": "تعمیر",
    "Status": "Open",
    "Status_Dari": null,
    "PS_Male": 2,
    "PS_Female": 1,
    "PS_Total": 3,
    "ولسوالي": "بلخ",
    "Region": "Northern Region"
   },
   "geometry": {
    "x": 7442671.5132127814,
    "y": 4397780.9592748713
   }
  },
  {
   "attributes": {
    "OBJECTID": 1454,
    "ولایت": "بلخ",
    "Province": "BALKH",
    "PC_Code": "2106156",
    "District": "BALKH",
    "د_مرکز_نوم__نام_مرکز": "مکتب نسوان ثمر قندیان ",
    "Polling_Center_Name": "Samar Qandiyan Girls School",
    "د_مرکز_ځای__موقعیت_مرکز": "قریه ثمر قندیان",
    "Polling_Center_Location": "Samar Qandiyan Village",
    "Map_Accuracy": "Building",
    "Map_Accuracy_Dari": "تعمیر",
    "Status": "Open",
    "Status_Dari": null,
    "PS_Male": 2,
    "PS_Female": 2,
    "PS_Total": 4,
    "ولسوالي": "بلخ",
    "Region": "Northern Region"
   },
   "geometry": {
    "x": 7440238.9296437027,
    "y": 4395438.971446028
   }
  },
  {
   "attributes": {
    "OBJECTID": 1455,
    "ولایت": "بلخ",
    "Province": "BALKH",
    "PC_Code": "2106167",
    "District": "BALKH",
    "د_مرکز_نوم__نام_مرکز": "مکتب مهمندان ",
    "Polling_Center_Name": "Muhmandan School",
    "د_مرکز_ځای__موقعیت_مرکز": "قریه مهمندان",
    "Polling_Center_Location": "Muhmandan Village",
    "Map_Accuracy": "Building",
    "Map_Accuracy_Dari": "تعمیر",
    "Status": "Open",
    "Status_Dari": null,
    "PS_Male": 3,
    "PS_Female": 2,
    "PS_Total": 5,
    "ولسوالي": "بلخ",
    "Region": "Northern Region"
   },
   "geometry": {
    "x": 7442375.5525353886,
    "y": 4416757.8458209969
   }
  },
  {
   "attributes": {
    "OBJECTID": 1456,
    "ولایت": "پکتيا",
    "Province": "PAKTYA",
    "PC_Code": "1307214",
    "District": "JAJI ARYOB",
    "د_مرکز_نوم__نام_مرکز": "دشګي مكتب",
    "Polling_Center_Name": "Shagay School",
    "د_مرکز_ځای__موقعیت_مرکز": " شګه",
    "Polling_Center_Location": "Shaga",
    "Map_Accuracy": "Building",
    "Map_Accuracy_Dari": "تعمیر",
    "Status": "Open",
    "Status_Dari": null,
    "PS_Male": 1,
    "PS_Female": 2,
    "PS_Total": 3,
    "ولسوالي": "ځاځی اریوب",
    "Region": "South Eastern Region"
   },
   "geometry": {
    "x": 7758079.5965537094,
    "y": 4020982.3604957238
   }
  },
  {
   "attributes": {
    "OBJECTID": 1457,
    "ولایت": "پکتيا",
    "Province": "PAKTYA",
    "PC_Code": "1307215",
    "District": "JAJI ARYOB",
    "د_مرکز_نوم__نام_مرکز": "د علی سنګیو کلینیک",
    "Polling_Center_Name": "Ali Sangayo Cilnic",
    "د_مرکز_ځای__موقعیت_مرکز": "علی سنګی پایان",
    "Polling_Center_Location": "Ali Sangi",
    "Map_Accuracy": "Village",
    "Map_Accuracy_Dari": "قریه",
    "Status": "Open",
    "Status_Dari": null,
    "PS_Male": 2,
    "PS_Female": 1,
    "PS_Total": 3,
    "ولسوالي": "ځاځی اریوب",
    "Region": "South Eastern Region"
   },
   "geometry": {
    "x": 7767200.6759173172,
    "y": 4024618.2121014507
   }
  },
  {
   "attributes": {
    "OBJECTID": 1458,
    "ولایت": "پکتيا",
    "Province": "PAKTYA",
    "PC_Code": "1310168",
    "District": "SAMKANI",
    "د_مرکز_نوم__نام_مرکز": "بابلو خیلو مکتب",
    "Polling_Center_Name": "Bablo Khel School",
    "د_مرکز_ځای__موقعیت_مرکز": "توشی کلی",
    "Polling_Center_Location": "Toshi Village",
    "Map_Accuracy": "Building",
    "Map_Accuracy_Dari": "تعمیر",
    "Status": "Open",
    "Status_Dari": null,
    "PS_Male": 4,
    "PS_Female": 0,
    "PS_Total": 4,
    "ولسوالي": "څمکنی",
    "Region": "South Eastern Region"
   },
   "geometry": {
    "x": 7779188.0585104497,
    "y": 4002024.369584559
   }
  },
  {
   "attributes": {
    "OBJECTID": 1459,
    "ولایت": "پکتيا",
    "Province": "PAKTYA",
    "PC_Code": "1310169",
    "District": "SAMKANI",
    "د_مرکز_نوم__نام_مرکز": " بابو خیلو مکتب",
    "Polling_Center_Name": "Babo Khel School",
    "د_مرکز_ځای__موقعیت_مرکز": "بابو خیل ",
    "Polling_Center_Location": "Babo Khel",
    "Map_Accuracy": "Village",
    "Map_Accuracy_Dari": "قریه",
    "Status": "Open",
    "Status_Dari": null,
    "PS_Male": 0,
    "PS_Female": 4,
    "PS_Total": 4,
    "ولسوالي": "څمکنی",
    "Region": "South Eastern Region"
   },
   "geometry": {
    "x": 7776172.9111029888,
    "y": 4001531.8277933104
   }
  },
  {
   "attributes": {
    "OBJECTID": 1460,
    "ولایت": "پکتيا",
    "Province": "PAKTYA",
    "PC_Code": "1312144",
    "District": "LAJA MANGAL",
    "د_مرکز_نوم__نام_مرکز": "ولسوالی تعمیر ",
    "Polling_Center_Name": "District Compound",
    "د_مرکز_ځای__موقعیت_مرکز": "لجه خوله، لجه منګل",
    "Polling_Center_Location": "Laja Khola, Laja Mangal ",
    "Map_Accuracy": "Village",
    "Map_Accuracy_Dari": "قریه",
    "Status": "Open",
    "Status_Dari": null,
    "PS_Male": 3,
    "PS_Female": 0,
    "PS_Total": 3,
    "ولسوالي": "لجه منګل",
    "Region": "South Eastern Region"
   },
   "geometry": {
    "x": 7757716.0415683119,
    "y": 4001380.8298377534
   }
  },
  {
   "attributes": {
    "OBJECTID": 1461,
    "ولایت": "پکتيا",
    "Province": "PAKTYA",
    "PC_Code": "1312145",
    "District": "LAJA MANGAL",
    "د_مرکز_نوم__نام_مرکز": "د ارام مسجد ",
    "Polling_Center_Name": "Araam Mosque",
    "د_مرکز_ځای__موقعیت_مرکز": "ارام کلی، لجه منګل",
    "Polling_Center_Location": "Araam Village, Laja Mangal ",
    "Map_Accuracy": "Village",
    "Map_Accuracy_Dari": "قریه",
    "Status": "Open",
    "Status_Dari": null,
    "PS_Male": 0,
    "PS_Female": 2,
    "PS_Total": 2,
    "ولسوالي": "لجه منګل",
    "Region": "South Eastern Region"
   },
   "geometry": {
    "x": 7752002.3697754173,
    "y": 3988850.4547396689
   }
  },
  {
   "attributes": {
    "OBJECTID": 1462,
    "ولایت": "پکتيا",
    "Province": "PAKTYA",
    "PC_Code": "1313205",
    "District": "MEERZAKA",
    "د_مرکز_نوم__نام_مرکز": "دغونزي مسجد",
    "Polling_Center_Name": "Ghonzai Mosque",
    "د_مرکز_ځای__موقعیت_مرکز": "غونزی، میرزکه",
    "Polling_Center_Location": "Ghonzai, Merzaka",
    "Map_Accuracy": "Village",
    "Map_Accuracy_Dari": "قریه",
    "Status": "Open",
    "Status_Dari": null,
    "PS_Male": 2,
    "PS_Female": 1,
    "PS_Total": 3,
    "ولسوالي": "میرزکه",
    "Region": "South Eastern Region"
   },
   "geometry": {
    "x": 7738401.4831869425,
    "y": 4001995.3709724802
   }
  },
  {
   "attributes": {
    "OBJECTID": 1463,
    "ولایت": "خوست",
    "Province": "KHOST",
    "PC_Code": "1401001",
    "District": "KHOST",
    "د_مرکز_نوم__نام_مرکز": "د شمل زوړ کلي جومات (نورزى)",
    "Polling_Center_Name": "Shamul Old Village Mosque (Noorzai)",
    "د_مرکز_ځای__موقعیت_مرکز": "شمل زوړ کلى",
    "Polling_Center_Location": "Shamal Old Village",
    "Map_Accuracy": "Building",
    "Map_Accuracy_Dari": "تعمیر",
    "Status": "Open",
    "Status_Dari": null,
    "PS_Male": 4,
    "PS_Female": 2,
    "PS_Total": 6,
    "ولسوالي": "خوست",
    "Region": "South Eastern Region"
   },
   "geometry": {
    "x": 7790419.4615360498,
    "y": 3937859.7705761702
   }
  },
  {
   "attributes": {
    "OBJECTID": 1464,
    "ولایت": "پکتيا",
    "Province": "PAKTYA",
    "PC_Code": "1303099",
    "District": "ZURMAT",
    "د_مرکز_نوم__نام_مرکز": "د زوړ کوهی مدرسه",
    "Polling_Center_Name": "Zor Kohi Madrassa",
    "د_مرکز_ځای__موقعیت_مرکز": "زوړ کوهئ",
    "Polling_Center_Location": "Zor Kohi",
    "Map_Accuracy": "Village",
    "Map_Accuracy_Dari": "قریه",
    "Status": "Open",
    "Status_Dari": null,
    "PS_Male": 0,
    "PS_Female": 2,
    "PS_Total": 2,
    "ولسوالي": "زرمت",
    "Region": "South Eastern Region"
   },
   "geometry": {
    "x": 7682961.5637283633,
    "y": 3956540.2022393281
   }
  },
  {
   "attributes": {
    "OBJECTID": 1465,
    "ولایت": "کندز",
    "Province": "KUNDUZ",
    "PC_Code": "1904165",
    "District": "KHAN ABAD",
    "د_مرکز_نوم__نام_مرکز": "مکتب لغمانی",
    "Polling_Center_Name": "Laghmani School",
    "د_مرکز_ځای__موقعیت_مرکز": "قریه لغمانی",
    "Polling_Center_Location": "Laghmani Village",
    "Map_Accuracy": "Village",
    "Map_Accuracy_Dari": "قریه",
    "Status": "Open",
    "Status_Dari": null,
    "PS_Male": 1,
    "PS_Female": 1,
    "PS_Total": 2,
    "ولسوالي": "خان آباد",
    "Region": "North Eastern Region"
   },
   "geometry": {
    "x": 7685319.5331823463,
    "y": 4408371.8599342238
   }
  },
  {
   "attributes": {
    "OBJECTID": 1466,
    "ولایت": "کندز",
    "Province": "KUNDUZ",
    "PC_Code": "1905202",
    "District": "HAZRAT-E-IMAM SAHIB",
    "د_مرکز_نوم__نام_مرکز": "مسجد استامنگ",
    "Polling_Center_Name": "Astaamang Mosque",
    "د_مرکز_ځای__موقعیت_مرکز": "قریه استا مینگ",
    "Polling_Center_Location": "Astameng Village",
    "Map_Accuracy": "Village",
    "Map_Accuracy_Dari": "قریه",
    "Status": "Open",
    "Status_Dari": null,
    "PS_Male": 3,
    "PS_Female": 1,
    "PS_Total": 4,
    "ولسوالي": "حضرت امام صاحب",
    "Region": "North Eastern Region"
   },
   "geometry": {
    "x": 7670158.0411752807,
    "y": 4464345.7124862615
   }
  },
  {
   "attributes": {
    "OBJECTID": 1467,
    "ولایت": "نورستان",
    "Province": "NOORISTAN",
    "PC_Code": "1603042",
    "District": "WAMA",
    "د_مرکز_نوم__نام_مرکز": "مکتب واما قدیم",
    "Polling_Center_Name": "Wama Qadeem School",
    "د_مرکز_ځای__موقعیت_مرکز": "واما قدیم",
    "Polling_Center_Location": "Wama Wadeem",
    "Map_Accuracy": "Village",
    "Map_Accuracy_Dari": "قریه",
    "Status": "Open",
    "Status_Dari": null,
    "PS_Male": 2,
    "PS_Female": 1,
    "PS_Total": 3,
    "ولسوالي": "واما",
    "Region": "Eastern Region"
   },
   "geometry": {
    "x": 7875236.0391307157,
    "y": 4180090.4088413846
   }
  },
  {
   "attributes": {
    "OBJECTID": 1468,
    "ولایت": "پکتيا",
    "Province": "PAKTYA",
    "PC_Code": "1301014",
    "District": "GARDEZ",
    "د_مرکز_نوم__نام_مرکز": "د رمضان خیمه",
    "Polling_Center_Name": "Ramazan Tent",
    "د_مرکز_ځای__موقعیت_مرکز": "ممړی ",
    "Polling_Center_Location": "Mamri",
    "Map_Accuracy": "Building",
    "Map_Accuracy_Dari": "تعمیر",
    "Status": "Open",
    "Status_Dari": null,
    "PS_Male": 2,
    "PS_Female": 1,
    "PS_Total": 3,
    "ولسوالي": "گردیز",
    "Region": "South Eastern Region"
   },
   "geometry": {
    "x": 7710235.308740966,
    "y": 3974883.3104034369
   }
  },
  {
   "attributes": {
    "OBJECTID": 1469,
    "ولایت": "پکتيا",
    "Province": "PAKTYA",
    "PC_Code": "1301015",
    "District": "GARDEZ",
    "د_مرکز_نوم__نام_مرکز": "د مرجان خیمه ",
    "Polling_Center_Name": "Marjaan Tent",
    "د_مرکز_ځای__موقعیت_مرکز": "گلوال تیره",
    "Polling_Center_Location": "Glowal Tera",
    "Map_Accuracy": "Village",
    "Map_Accuracy_Dari": "قریه",
    "Status": "Open",
    "Status_Dari": null,
    "PS_Male": 2,
    "PS_Female": 1,
    "PS_Total": 3,
    "ولسوالي": "گردیز",
    "Region": "South Eastern Region"
   },
   "geometry": {
    "x": 7709170.1404009461,
    "y": 3980892.0090198731
   }
  },
  {
   "attributes": {
    "OBJECTID": 1470,
    "ولایت": "پکتيا",
    "Province": "PAKTYA",
    "PC_Code": "1301018",
    "District": "GARDEZ",
    "د_مرکز_نوم__نام_مرکز": "د مالداری خیمه",
    "Polling_Center_Name": "Maldaari Tent",
    "د_مرکز_ځای__موقعیت_مرکز": "لکړئ",
    "Polling_Center_Location": "Lakri",
    "Map_Accuracy": "Village",
    "Map_Accuracy_Dari": "قریه",
    "Status": "Open",
    "Status_Dari": null,
    "PS_Male": 3,
    "PS_Female": 1,
    "PS_Total": 4,
    "ولسوالي": "گردیز",
    "Region": "South Eastern Region"
   },
   "geometry": {
    "x": 7708003.2238199478,
    "y": 3970886.4092937252
   }
  },
  {
   "attributes": {
    "OBJECTID": 1471,
    "ولایت": "پکتيا",
    "Province": "PAKTYA",
    "PC_Code": "1301201",
    "District": "GARDEZ",
    "د_مرکز_نوم__نام_مرکز": "دبنوزو ابتدائيه مكتب",
    "Polling_Center_Name": "Banozo Primary School",
    "د_مرکز_ځای__موقعیت_مرکز": "بنوزي",
    "Polling_Center_Location": "Banozai",
    "Map_Accuracy": "Building",
    "Map_Accuracy_Dari": "تعمیر",
    "Status": "Open",
    "Status_Dari": null,
    "PS_Male": 3,
    "PS_Female": 2,
    "PS_Total": 5,
    "ولسوالي": "گردیز",
    "Region": "South Eastern Region"
   },
   "geometry": {
    "x": 7711469.3008811362,
    "y": 3968831.7016156558
   }
  },
  {
   "attributes": {
    "OBJECTID": 1472,
    "ولایت": "پکتيا",
    "Province": "PAKTYA",
    "PC_Code": "1302191",
    "District": "AHMADABA",
    "د_مرکز_نوم__نام_مرکز": "سلام خیل مکتب",
    "Polling_Center_Name": "Salam Khel School",
    "د_مرکز_ځای__موقعیت_مرکز": "سلام خیل",
    "Polling_Center_Location": "Salam Khel",
    "Map_Accuracy": "Village",
    "Map_Accuracy_Dari": "قریه",
    "Status": "Open",
    "Status_Dari": null,
    "PS_Male": 5,
    "PS_Female": 0,
    "PS_Total": 5,
    "ولسوالي": "احمد آبا",
    "Region": "South Eastern Region"
   },
   "geometry": {
    "x": 7718292.8160860529,
    "y": 3984880.9432245316
   }
  },
  {
   "attributes": {
    "OBJECTID": 1473,
    "ولایت": "پکتيا",
    "Province": "PAKTYA",
    "PC_Code": "1302192",
    "District": "AHMADABA",
    "د_مرکز_نوم__نام_مرکز": "سرکی ملنګ کلینیک",
    "Polling_Center_Name": "Sarkay Malang Clinic",
    "د_مرکز_ځای__موقعیت_مرکز": "سلام خیل",
    "Polling_Center_Location": "Salam Khel",
    "Map_Accuracy": "Building",
    "Map_Accuracy_Dari": "تعمیر",
    "Status": "Open",
    "Status_Dari": null,
    "PS_Male": 0,
    "PS_Female": 4,
    "PS_Total": 4,
    "ولسوالي": "احمد آبا",
    "Region": "South Eastern Region"
   },
   "geometry": {
    "x": 7721159.0313731804,
    "y": 3996381.4878442041
   }
  },
  {
   "attributes": {
    "OBJECTID": 1474,
    "ولایت": "پکتيا",
    "Province": "PAKTYA",
    "PC_Code": "1303079",
    "District": "ZURMAT",
    "د_مرکز_نوم__نام_مرکز": "د باتور لیسه",
    "Polling_Center_Name": "Batoor High School",
    "د_مرکز_ځای__موقعیت_مرکز": "باتور",
    "Polling_Center_Location": "Batoor",
    "Map_Accuracy": "Village",
    "Map_Accuracy_Dari": "قریه",
    "Status": "Open",
    "Status_Dari": null,
    "PS_Male": 4,
    "PS_Female": 0,
    "PS_Total": 4,
    "ولسوالي": "زرمت",
    "Region": "South Eastern Region"
   },
   "geometry": {
    "x": 7689233.9962468846,
    "y": 3958368.44400706
   }
  },
  {
   "attributes": {
    "OBJECTID": 1475,
    "ولایت": "پکتيا",
    "Province": "PAKTYA",
    "PC_Code": "1303080",
    "District": "ZURMAT",
    "د_مرکز_نوم__نام_مرکز": "د مقرب خیلو مدرسه",
    "Polling_Center_Name": "Maqarab Khel Madrassa",
    "د_مرکز_ځای__موقعیت_مرکز": "مقرب خیل، باتور",
    "Polling_Center_Location": "Maqarab Khel, Batoor",
    "Map_Accuracy": "Building",
    "Map_Accuracy_Dari": "تعمیر",
    "Status": "Open",
    "Status_Dari": null,
    "PS_Male": 0,
    "PS_Female": 2,
    "PS_Total": 2,
    "ولسوالي": "زرمت",
    "Region": "South Eastern Region"
   },
   "geometry": {
    "x": 7689046.5620542634,
    "y": 3959512.2022030992
   }
  },
  {
   "attributes": {
    "OBJECTID": 1476,
    "ولایت": "پکتيا",
    "Province": "PAKTYA",
    "PC_Code": "1303106",
    "District": "ZURMAT",
    "د_مرکز_نوم__نام_مرکز": "د مامو زیو کلینیک",
    "Polling_Center_Name": "Mamozo Clinic",
    "د_مرکز_ځای__موقعیت_مرکز": " ارمه جانیک خیل",
    "Polling_Center_Location": "Arma Janik Khel",
    "Map_Accuracy": "Village",
    "Map_Accuracy_Dari": "قریه",
    "Status": "Open",
    "Status_Dari": null,
    "PS_Male": 0,
    "PS_Female": 2,
    "PS_Total": 2,
    "ولسوالي": "زرمت",
    "Region": "South Eastern Region"
   },
   "geometry": {
    "x": 7696465.1433895845,
    "y": 3958942.126036589
   }
  },
  {
   "attributes": {
    "OBJECTID": 1477,
    "ولایت": "پکتيا",
    "Province": "PAKTYA",
    "PC_Code": "1303107",
    "District": "ZURMAT",
    "د_مرکز_نوم__نام_مرکز": "د جانیک خیلو مسجد",
    "Polling_Center_Name": "Janik Khel Mosque",
    "د_مرکز_ځای__موقعیت_مرکز": "ارمه جانیک خیل",
    "Polling_Center_Location": "Arma Janik Khel",
    "Map_Accuracy": "Village",
    "Map_Accuracy_Dari": "قریه",
    "Status": "Open",
    "Status_Dari": null,
    "PS_Male": 2,
    "PS_Female": 0,
    "PS_Total": 2,
    "ولسوالي": "زرمت",
    "Region": "South Eastern Region"
   },
   "geometry": {
    "x": 7695504.5964465961,
    "y": 3959870.7222077278
   }
  },
  {
   "attributes": {
    "OBJECTID": 1478,
    "ولایت": "پکتيا",
    "Province": "PAKTYA",
    "PC_Code": "1305117",
    "District": "WUZA ZADRAN",
    "د_مرکز_نوم__نام_مرکز": "د گل ولی خیمه",
    "Polling_Center_Name": "Gul Wali Tent",
    "د_مرکز_ځای__موقعیت_مرکز": "لوټه",
    "Polling_Center_Location": "Lotta",
    "Map_Accuracy": "Village",
    "Map_Accuracy_Dari": "قریه",
    "Status": "Open",
    "Status_Dari": null,
    "PS_Male": 0,
    "PS_Female": 2,
    "PS_Total": 2,
    "ولسوالي": "وزه ځدراڼ",
    "Region": "South Eastern Region"
   },
   "geometry": {
    "x": 7731134.9843135579,
    "y": 3944354.134283829
   }
  },
  {
   "attributes": {
    "OBJECTID": 1479,
    "ولایت": "پکتيا",
    "Province": "PAKTYA",
    "PC_Code": "1305118",
    "District": "WUZA ZADRAN",
    "د_مرکز_نوم__نام_مرکز": "د مکتب خیمه",
    "Polling_Center_Name": "School Tent",
    "د_مرکز_ځای__موقعیت_مرکز": "تنگه بیری",
    "Polling_Center_Location": "Tanga Berai",
    "Map_Accuracy": "Village",
    "Map_Accuracy_Dari": "قریه",
    "Status": "Open",
    "Status_Dari": null,
    "PS_Male": 2,
    "PS_Female": 1,
    "PS_Total": 3,
    "ولسوالي": "وزه ځدراڼ",
    "Region": "South Eastern Region"
   },
   "geometry": {
    "x": 7732196.7574091107,
    "y": 3940940.8216078859
   }
  },
  {
   "attributes": {
    "OBJECTID": 1480,
    "ولایت": "پکتيا",
    "Province": "PAKTYA",
    "PC_Code": "1305124",
    "District": "WUZA ZADRAN",
    "د_مرکز_نوم__نام_مرکز": "ابتدائیه مکتب",
    "Polling_Center_Name": "Primary School",
    "د_مرکز_ځای__موقعیت_مرکز": "علی احمد خیل",
    "Polling_Center_Location": "Ali Ahmad Khel",
    "Map_Accuracy": "Village",
    "Map_Accuracy_Dari": "قریه",
    "Status": "Open",
    "Status_Dari": null,
    "PS_Male": 2,
    "PS_Female": 1,
    "PS_Total": 3,
    "ولسوالي": "وزه ځدراڼ",
    "Region": "South Eastern Region"
   },
   "geometry": {
    "x": 7727265.5577754043,
    "y": 3964086.078556722
   }
  },
  {
   "attributes": {
    "OBJECTID": 1481,
    "ولایت": "پکتيا",
    "Province": "PAKTYA",
    "PC_Code": "1305125",
    "District": "WUZA ZADRAN",
    "د_مرکز_نوم__نام_مرکز": "مکتب نصری بابا",
    "Polling_Center_Name": "Nasri Baba School",
    "د_مرکز_ځای__موقعیت_مرکز": "کلیژه خوله",
    "Polling_Center_Location": "Klazai Khola",
    "Map_Accuracy": "Village",
    "Map_Accuracy_Dari": "قریه",
    "Status": "Open",
    "Status_Dari": null,
    "PS_Male": 3,
    "PS_Female": 0,
    "PS_Total": 3,
    "ولسوالي": "وزه ځدراڼ",
    "Region": "South Eastern Region"
   },
   "geometry": {
    "x": 7719189.2418891527,
    "y": 3933434.0058563477
   }
  },
  {
   "attributes": {
    "OBJECTID": 1482,
    "ولایت": "پکتيا",
    "Province": "PAKTYA",
    "PC_Code": "1305130",
    "District": "WUZA ZADRAN",
    "د_مرکز_نوم__نام_مرکز": "ولسوالی تعمیر",
    "Polling_Center_Name": "District Compound",
    "د_مرکز_ځای__موقعیت_مرکز": "د ولسوالی مرکز",
    "Polling_Center_Location": "District Center",
    "Map_Accuracy": "Building",
    "Map_Accuracy_Dari": "تعمیر",
    "Status": "Open",
    "Status_Dari": null,
    "PS_Male": 2,
    "PS_Female": 1,
    "PS_Total": 3,
    "ولسوالي": "وزه ځدراڼ",
    "Region": "South Eastern Region"
   },
   "geometry": {
    "x": 7729893.2465632185,
    "y": 3944133.9347503227
   }
  },
  {
   "attributes": {
    "OBJECTID": 1483,
    "ولایت": "پکتيا",
    "Province": "PAKTYA",
    "PC_Code": "1305131",
    "District": "WUZA ZADRAN",
    "د_مرکز_نوم__نام_مرکز": "گرده څيړي مسجد",
    "Polling_Center_Name": "Garda Seri Mosque",
    "د_مرکز_ځای__موقعیت_مرکز": "خړخیل، ګرده څیړی",
    "Polling_Center_Location": "Khar Khil, Garda Seri",
    "Map_Accuracy": "Building",
    "Map_Accuracy_Dari": "تعمیر",
    "Status": "Open",
    "Status_Dari": null,
    "PS_Male": 3,
    "PS_Female": 1,
    "PS_Total": 4,
    "ولسوالي": "وزه ځدراڼ",
    "Region": "South Eastern Region"
   },
   "geometry": {
    "x": 7723785.2661057999,
    "y": 3946660.2624102482
   }
  },
  {
   "attributes": {
    "OBJECTID": 1484,
    "ولایت": "پکتيا",
    "Province": "PAKTYA",
    "PC_Code": "1306023",
    "District": "SAYYID KARAM",
    "د_مرکز_نوم__نام_مرکز": "د خنډخیلو مسجد",
    "Polling_Center_Name": "Khandh Khel Mosque",
    "د_مرکز_ځای__موقعیت_مرکز": "خنډخیل",
    "Polling_Center_Location": "Khandh Khel",
    "Map_Accuracy": "Building",
    "Map_Accuracy_Dari": "تعمیر",
    "Status": "Open",
    "Status_Dari": null,
    "PS_Male": 3,
    "PS_Female": 0,
    "PS_Total": 3,
    "ولسوالي": "سید کرم",
    "Region": "South Eastern Region"
   },
   "geometry": {
    "x": 7726908.6006962266,
    "y": 3990079.3428951558
   }
  },
  {
   "attributes": {
    "OBJECTID": 1485,
    "ولایت": "پکتيا",
    "Province": "PAKTYA",
    "PC_Code": "1307058",
    "District": "JAJI ARYOB",
    "د_مرکز_نوم__نام_مرکز": "د خرلوټی شفاخانه",
    "Polling_Center_Name": "Kharlooti Hospital",
    "د_مرکز_ځای__موقعیت_مرکز": "خرلوټی",
    "Polling_Center_Location": "Kharlooti",
    "Map_Accuracy": "Village",
    "Map_Accuracy_Dari": "قریه",
    "Status": "Open",
    "Status_Dari": null,
    "PS_Male": 3,
    "PS_Female": 1,
    "PS_Total": 4,
    "ولسوالي": "ځاځی اریوب",
    "Region": "South Eastern Region"
   },
   "geometry": {
    "x": 7749903.1335347155,
    "y": 4032549.9137506355
   }
  },
  {
   "attributes": {
    "OBJECTID": 1486,
    "ولایت": "پکتيا",
    "Province": "PAKTYA",
    "PC_Code": "1307059",
    "District": "JAJI ARYOB",
    "د_مرکز_نوم__نام_مرکز": "د محمد انور دکان",
    "Polling_Center_Name": "Mohammad Anwer Shop",
    "د_مرکز_ځای__موقعیت_مرکز": "شیشته کلی ",
    "Polling_Center_Location": "Shishta Village",
    "Map_Accuracy": "Building",
    "Map_Accuracy_Dari": "تعمیر",
    "Status": "Open",
    "Status_Dari": null,
    "PS_Male": 4,
    "PS_Female": 0,
    "PS_Total": 4,
    "ولسوالي": "ځاځی اریوب",
    "Region": "South Eastern Region"
   },
   "geometry": {
    "x": 7759287.1180321649,
    "y": 4020548.012374064
   }
  },
  {
   "attributes": {
    "OBJECTID": 1487,
    "ولایت": "پکتيا",
    "Province": "PAKTYA",
    "PC_Code": "1307063",
    "District": "JAJI ARYOB",
    "د_مرکز_نوم__نام_مرکز": "د رحمت الله دکان",
    "Polling_Center_Name": "Rahmatullah Shop",
    "د_مرکز_ځای__موقعیت_مرکز": "حسن لګاډه",
    "Polling_Center_Location": "Hassan Lagada",
    "Map_Accuracy": "Village",
    "Map_Accuracy_Dari": "قریه",
    "Status": "Open",
    "Status_Dari": null,
    "PS_Male": 4,
    "PS_Female": 0,
    "PS_Total": 4,
    "ولسوالي": "ځاځی اریوب",
    "Region": "South Eastern Region"
   },
   "geometry": {
    "x": 7751188.7853770182,
    "y": 4030370.8499779771
   }
  },
  {
   "attributes": {
    "OBJECTID": 1488,
    "ولایت": "پکتيا",
    "Province": "PAKTYA",
    "PC_Code": "1308134",
    "District": "LAJA AHMAD KHEL",
    "د_مرکز_نوم__نام_مرکز": "میرازی مکتب ",
    "Polling_Center_Name": "Mirzai School",
    "د_مرکز_ځای__موقعیت_مرکز": "میرازی کلی، احمدخیل",
    "Polling_Center_Location": "Mirzai Village, Ahmad Khel",
    "Map_Accuracy": "Village",
    "Map_Accuracy_Dari": "قریه",
    "Status": "Open",
    "Status_Dari": null,
    "PS_Male": 3,
    "PS_Female": 0,
    "PS_Total": 3,
    "ولسوالي": " لجه احمد خیل",
    "Region": "South Eastern Region"
   },
   "geometry": {
    "x": 7752386.1200088728,
    "y": 4006830.7159860176
   }
  },
  {
   "attributes": {
    "OBJECTID": 1489,
    "ولایت": "پکتيا",
    "Province": "PAKTYA",
    "PC_Code": "1308135",
    "District": "LAJA AHMAD KHEL",
    "د_مرکز_نوم__نام_مرکز": "میرازی لیسه  ",
    "Polling_Center_Name": "Mirzai High School",
    "د_مرکز_ځای__موقعیت_مرکز": "میرازی کلی، احمدخیل",
    "Polling_Center_Location": "Mirzai Village, Ahmad Khel",
    "Map_Accuracy": "Village",
    "Map_Accuracy_Dari": "قریه",
    "Status": "Open",
    "Status_Dari": null,
    "PS_Male": 0,
    "PS_Female": 2,
    "PS_Total": 2,
    "ولسوالي": " لجه احمد خیل",
    "Region": "South Eastern Region"
   },
   "geometry": {
    "x": 7753065.1410728423,
    "y": 4007464.5072872452
   }
  },
  {
   "attributes": {
    "OBJECTID": 1490,
    "ولایت": "پکتيا",
    "Province": "PAKTYA",
    "PC_Code": "1308137",
    "District": "LAJA AHMAD KHEL",
    "د_مرکز_نوم__نام_مرکز": "کلینیک موشکه",
    "Polling_Center_Name": "Moshaka Clinic",
    "د_مرکز_ځای__موقعیت_مرکز": "موشکه، احمدخیل",
    "Polling_Center_Location": "Moshaka, Ahmad Khel",
    "Map_Accuracy": "Village",
    "Map_Accuracy_Dari": "قریه",
    "Status": "Open",
    "Status_Dari": null,
    "PS_Male": 0,
    "PS_Female": 2,
    "PS_Total": 2,
    "ولسوالي": " لجه احمد خیل",
    "Region": "South Eastern Region"
   },
   "geometry": {
    "x": 7752473.2186048599,
    "y": 4004849.0388713065
   }
  },
  {
   "attributes": {
    "OBJECTID": 1491,
    "ولایت": "پکتيا",
    "Province": "PAKTYA",
    "PC_Code": "1308140",
    "District": "LAJA AHMAD KHEL",
    "د_مرکز_نوم__نام_مرکز": "د جنازی باغ کلینیک",
    "Polling_Center_Name": "Janaz Bagh Clinic",
    "د_مرکز_ځای__موقعیت_مرکز": "ثبت خیل کلی",
    "Polling_Center_Location": "Sabt Khel Village ",
    "Map_Accuracy": "District",
    "Map_Accuracy_Dari": "ولسوالی",
    "Status": "Open",
    "Status_Dari": null,
    "PS_Male": 3,
    "PS_Female": 0,
    "PS_Total": 3,
    "ولسوالي": " لجه احمد خیل",
    "Region": "South Eastern Region"
   },
   "geometry": {
    "x": 7751426.3010953553,
    "y": 4010742.6225569458
   }
  },
  {
   "attributes": {
    "OBJECTID": 1492,
    "ولایت": "پکتيا",
    "Province": "PAKTYA",
    "PC_Code": "1308141",
    "District": "LAJA AHMAD KHEL",
    "د_مرکز_نوم__نام_مرکز": "د دولت خیلو مسجد",
    "Polling_Center_Name": "Dawlat Khel Mosque",
    "د_مرکز_ځای__موقعیت_مرکز": "ثبت خیل، احمد خیل",
    "Polling_Center_Location": "Sabt Khel Village, Ahmad Khel",
    "Map_Accuracy": "Village",
    "Map_Accuracy_Dari": "قریه",
    "Status": "Open",
    "Status_Dari": null,
    "PS_Male": 0,
    "PS_Female": 2,
    "PS_Total": 2,
    "ولسوالي": " لجه احمد خیل",
    "Region": "South Eastern Region"
   },
   "geometry": {
    "x": 7751555.2402351536,
    "y": 4007334.6765442179
   }
  },
  {
   "attributes": {
    "OBJECTID": 1493,
    "ولایت": "پکتيا",
    "Province": "PAKTYA",
    "PC_Code": "1309173",
    "District": "JANI KHEL",
    "د_مرکز_نوم__نام_مرکز": "جانی خیلو کلینیک",
    "Polling_Center_Name": "Jani Khel Clinic",
    "د_مرکز_ځای__موقعیت_مرکز": "میدان خوله",
    "Polling_Center_Location": "Maidan Khola",
    "Map_Accuracy": "Building",
    "Map_Accuracy_Dari": "تعمیر",
    "Status": "Open",
    "Status_Dari": null,
    "PS_Male": 0,
    "PS_Female": 6,
    "PS_Total": 6,
    "ولسوالي": "جانی خیل",
    "Region": "South Eastern Region"
   },
   "geometry": {
    "x": 7767973.3233522102,
    "y": 3982194.8832897004
   }
  },
  {
   "attributes": {
    "OBJECTID": 1494,
    "ولایت": "پکتيا",
    "Province": "PAKTYA",
    "PC_Code": "1309174",
    "District": "JANI KHEL",
    "د_مرکز_نوم__نام_مرکز": "اسدالله دوکان",
    "Polling_Center_Name": "Asadullah Shop",
    "د_مرکز_ځای__موقعیت_مرکز": "اورگوړ",
    "Polling_Center_Location": "Orgur",
    "Map_Accuracy": "Village",
    "Map_Accuracy_Dari": "قریه",
    "Status": "Open",
    "Status_Dari": null,
    "PS_Male": 3,
    "PS_Female": 0,
    "PS_Total": 3,
    "ولسوالي": "جانی خیل",
    "Region": "South Eastern Region"
   },
   "geometry": {
    "x": 7763981.732578476,
    "y": 3989285.3859242476
   }
  },
  {
   "attributes": {
    "OBJECTID": 1495,
    "ولایت": "پکتيا",
    "Province": "PAKTYA",
    "PC_Code": "1311179",
    "District": "DAND PATAN",
    "د_مرکز_نوم__نام_مرکز": "تعمیر ولسوالی",
    "Polling_Center_Name": "District Compound",
    "د_مرکز_ځای__موقعیت_مرکز": "د ولسوالی مرکز، سپرئ",
    "Polling_Center_Location": "Dand Patan District Center, Sperai",
    "Map_Accuracy": "Building",
    "Map_Accuracy_Dari": "تعمیر",
    "Status": "Open",
    "Status_Dari": null,
    "PS_Male": 4,
    "PS_Female": 0,
    "PS_Total": 4,
    "ولسوالي": "ډنډ پټان",
    "Region": "South Eastern Region"
   },
   "geometry": {
    "x": 7783796.5284688128,
    "y": 4005109.9988699211
   }
  },
  {
   "attributes": {
    "OBJECTID": 1496,
    "ولایت": "پکتيا",
    "Province": "PAKTYA",
    "PC_Code": "1311180",
    "District": "DAND PATAN",
    "د_مرکز_نوم__نام_مرکز": "سپیری کلینیک",
    "Polling_Center_Name": "Spera Clinic",
    "د_مرکز_ځای__موقعیت_مرکز": "د ولسوالی مرکز، سپرئ",
    "Polling_Center_Location": "Dand Patan District Center, Sperai",
    "Map_Accuracy": "Building",
    "Map_Accuracy_Dari": "تعمیر",
    "Status": "Open",
    "Status_Dari": null,
    "PS_Male": 0,
    "PS_Female": 3,
    "PS_Total": 3,
    "ولسوالي": "ډنډ پټان",
    "Region": "South Eastern Region"
   },
   "geometry": {
    "x": 7783765.6517816521,
    "y": 4005237.5183780799
   }
  },
  {
   "attributes": {
    "OBJECTID": 1497,
    "ولایت": "پکتيا",
    "Province": "PAKTYA",
    "PC_Code": "1311183",
    "District": "DAND PATAN",
    "د_مرکز_نوم__نام_مرکز": "شیروانه الګاډه مکتب",
    "Polling_Center_Name": "Shirwana Algada School",
    "د_مرکز_ځای__موقعیت_مرکز": "حسن لگاده",
    "Polling_Center_Location": "Hassan Lagada",
    "Map_Accuracy": "Building",
    "Map_Accuracy_Dari": "تعمیر",
    "Status": "Open",
    "Status_Dari": null,
    "PS_Male": 2,
    "PS_Female": 0,
    "PS_Total": 2,
    "ولسوالي": "ډنډ پټان",
    "Region": "South Eastern Region"
   },
   "geometry": {
    "x": 7782158.4220867697,
    "y": 3999904.8201254541
   }
  },
  {
   "attributes": {
    "OBJECTID": 1498,
    "ولایت": "پکتيا",
    "Province": "PAKTYA",
    "PC_Code": "1311184",
    "District": "DAND PATAN",
    "د_مرکز_نوم__نام_مرکز": "سپین جومات",
    "Polling_Center_Name": "Speen Mosque",
    "د_مرکز_ځای__موقعیت_مرکز": "شیروانه الګاډه",
    "Polling_Center_Location": "Sherwana Alagada",
    "Map_Accuracy": "Village",
    "Map_Accuracy_Dari": "قریه",
    "Status": "Open",
    "Status_Dari": null,
    "PS_Male": 0,
    "PS_Female": 2,
    "PS_Total": 2,
    "ولسوالي": "ډنډ پټان",
    "Region": "South Eastern Region"
   },
   "geometry": {
    "x": 7780595.168043538,
    "y": 4000156.5570198791
   }
  },
  {
   "attributes": {
    "OBJECTID": 1499,
    "ولایت": "پکتيا",
    "Province": "PAKTYA",
    "PC_Code": "1311189",
    "District": "DAND PATAN",
    "د_مرکز_نوم__نام_مرکز": "مسجد شپولی خوله",
    "Polling_Center_Name": "Shpoli Khola Mosque",
    "د_مرکز_ځای__موقعیت_مرکز": "شپولی خوله، ډنډه",
    "Polling_Center_Location": "Shpoli Khola, Danda",
    "Map_Accuracy": "Village",
    "Map_Accuracy_Dari": "قریه",
    "Status": "Open",
    "Status_Dari": null,
    "PS_Male": 3,
    "PS_Female": 1,
    "PS_Total": 4,
    "ولسوالي": "ډنډ پټان",
    "Region": "South Eastern Region"
   },
   "geometry": {
    "x": 7785508.7647261601,
    "y": 4002975.013290592
   }
  },
  {
   "attributes": {
    "OBJECTID": 1500,
    "ولایت": "پکتيا",
    "Province": "PAKTYA",
    "PC_Code": "1313044",
    "District": "MEERZAKA",
    "د_مرکز_نوم__نام_مرکز": "نائب الدین مسجد",
    "Polling_Center_Name": "Naibuddin Mosque",
    "د_مرکز_ځای__موقعیت_مرکز": "شمازلی خوړ",
    "Polling_Center_Location": "Shamazali Khwar",
    "Map_Accuracy": "District",
    "Map_Accuracy_Dari": "ولسوالی",
    "Status": "Open",
    "Status_Dari": null,
    "PS_Male": 4,
    "PS_Female": 1,
    "PS_Total": 5,
    "ولسوالي": "میرزکه",
    "Region": "South Eastern Region"
   },
   "geometry": {
    "x": 7734028.2440030538,
    "y": 4003458.2607149445
   }
  },
  {
   "attributes": {
    "OBJECTID": 1501,
    "ولایت": "پکتيا",
    "Province": "PAKTYA",
    "PC_Code": "1313046",
    "District": "MEERZAKA",
    "د_مرکز_نوم__نام_مرکز": "د خلیلانو عالی لیسه",
    "Polling_Center_Name": "Khalilan High School",
    "د_مرکز_ځای__موقعیت_مرکز": "خلیلان، میرزکه",
    "Polling_Center_Location": "Khalilan, Merzaka",
    "Map_Accuracy": "Village",
    "Map_Accuracy_Dari": "قریه",
    "Status": "Open",
    "Status_Dari": null,
    "PS_Male": 3,
    "PS_Female": 1,
    "PS_Total": 4,
    "ولسوالي": "میرزکه",
    "Region": "South Eastern Region"
   },
   "geometry": {
    "x": 7735278.7744346932,
    "y": 3997731.9730474837
   }
  },
  {
   "attributes": {
    "OBJECTID": 1502,
    "ولایت": "پکتيا",
    "Province": "PAKTYA",
    "PC_Code": "1313047",
    "District": "MEERZAKA",
    "د_مرکز_نوم__نام_مرکز": "انډوام متوسطه مکتب",
    "Polling_Center_Name": "Andwam Secondary School",
    "د_مرکز_ځای__موقعیت_مرکز": "انډوام، میرزکه",
    "Polling_Center_Location": "Andwam, Merzaka",
    "Map_Accuracy": "Village",
    "Map_Accuracy_Dari": "قریه",
    "Status": "Open",
    "Status_Dari": null,
    "PS_Male": 3,
    "PS_Female": 0,
    "PS_Total": 3,
    "ولسوالي": "میرزکه",
    "Region": "South Eastern Region"
   },
   "geometry": {
    "x": 7741013.9757510684,
    "y": 4001879.8876445373
   }
  },
  {
   "attributes": {
    "OBJECTID": 1503,
    "ولایت": "پکتيا",
    "Province": "PAKTYA",
    "PC_Code": "1301008",
    "District": "GARDEZ",
    "د_مرکز_نوم__نام_مرکز": "مکتب اناث رباط",
    "Polling_Center_Name": "Robaat Girls School",
    "د_مرکز_ځای__موقعیت_مرکز": "رباط کلی ",
    "Polling_Center_Location": "Robaat Village",
    "Map_Accuracy": "Building",
    "Map_Accuracy_Dari": "تعمیر",
    "Status": "Open",
    "Status_Dari": null,
    "PS_Male": 0,
    "PS_Female": 4,
    "PS_Total": 4,
    "ولسوالي": "گردیز",
    "Region": "South Eastern Region"
   },
   "geometry": {
    "x": 7700353.4998071436,
    "y": 3979266.2041697134
   }
  },
  {
   "attributes": {
    "OBJECTID": 1504,
    "ولایت": "پکتيا",
    "Province": "PAKTYA",
    "PC_Code": "1301009",
    "District": "GARDEZ",
    "د_مرکز_نوم__نام_مرکز": "د زاهو ابتدائیه مکتب",
    "Polling_Center_Name": "Zahoo Primary School",
    "د_مرکز_ځای__موقعیت_مرکز": "زاهو",
    "Polling_Center_Location": "Zahoo Village",
    "Map_Accuracy": "Building",
    "Map_Accuracy_Dari": "تعمیر",
    "Status": "Open",
    "Status_Dari": null,
    "PS_Male": 4,
    "PS_Female": 2,
    "PS_Total": 6,
    "ولسوالي": "گردیز",
    "Region": "South Eastern Region"
   },
   "geometry": {
    "x": 7718521.4941500174,
    "y": 3969660.5446424526
   }
  },
  {
   "attributes": {
    "OBJECTID": 1505,
    "ولایت": "پکتيا",
    "Province": "PAKTYA",
    "PC_Code": "1303098",
    "District": "ZURMAT",
    "د_مرکز_نوم__نام_مرکز": "ایمنی خیل مدرسه",
    "Polling_Center_Name": "Emani Khel Madrassa",
    "د_مرکز_ځای__موقعیت_مرکز": "زوړ کوهئ",
    "Polling_Center_Location": "Zor Kohi",
    "Map_Accuracy": "District",
    "Map_Accuracy_Dari": "ولسوالی",
    "Status": "Open",
    "Status_Dari": null,
    "PS_Male": 2,
    "PS_Female": 0,
    "PS_Total": 2,
    "ولسوالي": "زرمت",
    "Region": "South Eastern Region"
   },
   "geometry": {
    "x": 7692691.7800060101,
    "y": 3950168.3760655788
   }
  },
  {
   "attributes": {
    "OBJECTID": 1506,
    "ولایت": "پکتيا",
    "Province": "PAKTYA",
    "PC_Code": "1303110",
    "District": "ZURMAT",
    "د_مرکز_نوم__نام_مرکز": "د رحمن خیلو مدرسه ",
    "Polling_Center_Name": "Rahman Khel Madrassa",
    "د_مرکز_ځای__موقعیت_مرکز": "ارمه رحمان خیل",
    "Polling_Center_Location": "Arma Rahman Khel",
    "Map_Accuracy": "Village",
    "Map_Accuracy_Dari": "قریه",
    "Status": "Open",
    "Status_Dari": null,
    "PS_Male": 2,
    "PS_Female": 0,
    "PS_Total": 2,
    "ولسوالي": "زرمت",
    "Region": "South Eastern Region"
   },
   "geometry": {
    "x": 7694237.0771021824,
    "y": 3955767.0985185872
   }
  },
  {
   "attributes": {
    "OBJECTID": 1507,
    "ولایت": "پکتيا",
    "Province": "PAKTYA",
    "PC_Code": "1303111",
    "District": "ZURMAT",
    "د_مرکز_نوم__نام_مرکز": "د رحمن خیلو مسجد",
    "Polling_Center_Name": "Rahman Khel Mosque",
    "د_مرکز_ځای__موقعیت_مرکز": "ارمه رحمان خیل",
    "Polling_Center_Location": "Arma Rahman Khel",
    "Map_Accuracy": "Village",
    "Map_Accuracy_Dari": "قریه",
    "Status": "Open",
    "Status_Dari": null,
    "PS_Male": 0,
    "PS_Female": 2,
    "PS_Total": 2,
    "ولسوالي": "زرمت",
    "Region": "South Eastern Region"
   },
   "geometry": {
    "x": 7694131.0419476172,
    "y": 3956125.2596016736
   }
  },
  {
   "attributes": {
    "OBJECTID": 1508,
    "ولایت": "پکتيا",
    "Province": "PAKTYA",
    "PC_Code": "1306020",
    "District": "SAYYID KARAM",
    "د_مرکز_نوم__نام_مرکز": "د ولسوالی کلینیک",
    "Polling_Center_Name": "Sayed Karam District Clinic",
    "د_مرکز_ځای__موقعیت_مرکز": " ولسوالی مرکز",
    "Polling_Center_Location": "District Center",
    "Map_Accuracy": "Building",
    "Map_Accuracy_Dari": "تعمیر",
    "Status": "Open",
    "Status_Dari": null,
    "PS_Male": 0,
    "PS_Female": 3,
    "PS_Total": 3,
    "ولسوالي": "سید کرم",
    "Region": "South Eastern Region"
   },
   "geometry": {
    "x": 7723432.9445928568,
    "y": 3987762.4426906542
   }
  },
  {
   "attributes": {
    "OBJECTID": 1509,
    "ولایت": "پکتيا",
    "Province": "PAKTYA",
    "PC_Code": "1307061",
    "District": "JAJI ARYOB",
    "د_مرکز_نوم__نام_مرکز": "د سپری مکتب",
    "Polling_Center_Name": "Speri School",
    "د_مرکز_ځای__موقعیت_مرکز": "شیشته کلی ",
    "Polling_Center_Location": "Shishta Village",
    "Map_Accuracy": "District",
    "Map_Accuracy_Dari": "ولسوالی",
    "Status": "Open",
    "Status_Dari": null,
    "PS_Male": 3,
    "PS_Female": 1,
    "PS_Total": 4,
    "ولسوالي": "ځاځی اریوب",
    "Region": "South Eastern Region"
   },
   "geometry": {
    "x": 7763233.9071636386,
    "y": 4025460.4772378993
   }
  },
  {
   "attributes": {
    "OBJECTID": 1510,
    "ولایت": "پکتيا",
    "Province": "PAKTYA",
    "PC_Code": "1307076",
    "District": "JAJI ARYOB",
    "د_مرکز_نوم__نام_مرکز": "ګل غونډی مسجد",
    "Polling_Center_Name": "Gul Ghundi School",
    "د_مرکز_ځای__موقعیت_مرکز": "ګل غونډي",
    "Polling_Center_Location": "Gul Ghundi",
    "Map_Accuracy": "Building",
    "Map_Accuracy_Dari": "تعمیر",
    "Status": "Open",
    "Status_Dari": null,
    "PS_Male": 4,
    "PS_Female": 1,
    "PS_Total": 5,
    "ولسوالي": "ځاځی اریوب",
    "Region": "South Eastern Region"
   },
   "geometry": {
    "x": 7775861.8722005654,
    "y": 4027546.8509322242
   }
  },
  {
   "attributes": {
    "OBJECTID": 1511,
    "ولایت": "پکتيا",
    "Province": "PAKTYA",
    "PC_Code": "1309177",
    "District": "JANI KHEL",
    "د_مرکز_نوم__نام_مرکز": "موله ګل مسجد",
    "Polling_Center_Name": "Mowla Gul Mosque",
    "د_مرکز_ځای__موقعیت_مرکز": "بل خیل",
    "Polling_Center_Location": "Bal Khel",
    "Map_Accuracy": "Village",
    "Map_Accuracy_Dari": "قریه",
    "Status": "Open",
    "Status_Dari": null,
    "PS_Male": 3,
    "PS_Female": 0,
    "PS_Total": 3,
    "ولسوالي": "جانی خیل",
    "Region": "South Eastern Region"
   },
   "geometry": {
    "x": 7772318.4744021865,
    "y": 3970525.7716672621
   }
  },
  {
   "attributes": {
    "OBJECTID": 1512,
    "ولایت": "پکتيا",
    "Province": "PAKTYA",
    "PC_Code": "1309178",
    "District": "JANI KHEL",
    "د_مرکز_نوم__نام_مرکز": "د چیناری مدرسه",
    "Polling_Center_Name": "Chenari Madrassa",
    "د_مرکز_ځای__موقعیت_مرکز": "تنگه پاروخیل",
    "Polling_Center_Location": "Tanga Paaro Khel",
    "Map_Accuracy": "Village",
    "Map_Accuracy_Dari": "قریه",
    "Status": "Open",
    "Status_Dari": null,
    "PS_Male": 3,
    "PS_Female": 1,
    "PS_Total": 4,
    "ولسوالي": "جانی خیل",
    "Region": "South Eastern Region"
   },
   "geometry": {
    "x": 7769184.9224636173,
    "y": 3969651.9390939362
   }
  },
  {
   "attributes": {
    "OBJECTID": 1513,
    "ولایت": "پکتيا",
    "Province": "PAKTYA",
    "PC_Code": "1311187",
    "District": "DAND PATAN",
    "د_مرکز_نوم__نام_مرکز": "سلتک مقبل متوسطه مکتب",
    "Polling_Center_Name": "Saltak Maqbol Secondary School",
    "د_مرکز_ځای__موقعیت_مرکز": "سلتک مقبل",
    "Polling_Center_Location": "Saltak Moqbol",
    "Map_Accuracy": "Village",
    "Map_Accuracy_Dari": "قریه",
    "Status": "Open",
    "Status_Dari": null,
    "PS_Male": 3,
    "PS_Female": 0,
    "PS_Total": 3,
    "ولسوالي": "ډنډ پټان",
    "Region": "South Eastern Region"
   },
   "geometry": {
    "x": 7782196.9497625344,
    "y": 3993097.5258080587
   }
  },
  {
   "attributes": {
    "OBJECTID": 1514,
    "ولایت": "پکتيا",
    "Province": "PAKTYA",
    "PC_Code": "1312148",
    "District": "LAJA MANGAL",
    "د_مرکز_نوم__نام_مرکز": "لجه ابتدائیه مکتب",
    "Polling_Center_Name": "Laja Primary School",
    "د_مرکز_ځای__موقعیت_مرکز": "لجه منګل پتکه ",
    "Polling_Center_Location": "Laja Mangal Patka",
    "Map_Accuracy": "Village",
    "Map_Accuracy_Dari": "قریه",
    "Status": "Open",
    "Status_Dari": null,
    "PS_Male": 3,
    "PS_Female": 0,
    "PS_Total": 3,
    "ولسوالي": "لجه منګل",
    "Region": "South Eastern Region"
   },
   "geometry": {
    "x": 7755290.5100889746,
    "y": 3999925.2267476721
   }
  },
  {
   "attributes": {
    "OBJECTID": 1515,
    "ولایت": "پکتيا",
    "Province": "PAKTYA",
    "PC_Code": "1312149",
    "District": "LAJA MANGAL",
    "د_مرکز_نوم__نام_مرکز": "پتکه مسجد ",
    "Polling_Center_Name": "Patka Mosque",
    "د_مرکز_ځای__موقعیت_مرکز": "لجه منګل پتکه ",
    "Polling_Center_Location": "Laja Mangal Patka",
    "Map_Accuracy": "Village",
    "Map_Accuracy_Dari": "قریه",
    "Status": "Open",
    "Status_Dari": null,
    "PS_Male": 0,
    "PS_Female": 2,
    "PS_Total": 2,
    "ولسوالي": "لجه منګل",
    "Region": "South Eastern Region"
   },
   "geometry": {
    "x": 7755283.7006757259,
    "y": 3999985.722229179
   }
  },
  {
   "attributes": {
    "OBJECTID": 1516,
    "ولایت": "پکتيا",
    "Province": "PAKTYA",
    "PC_Code": "1312150",
    "District": "LAJA MANGAL",
    "د_مرکز_نوم__نام_مرکز": "خیرانی مکتب ",
    "Polling_Center_Name": "Khairani School",
    "د_مرکز_ځای__موقعیت_مرکز": "خیرانی، لجه منګل",
    "Polling_Center_Location": "Khairani, Laja Mangal",
    "Map_Accuracy": "Village",
    "Map_Accuracy_Dari": "قریه",
    "Status": "Open",
    "Status_Dari": null,
    "PS_Male": 3,
    "PS_Female": 0,
    "PS_Total": 3,
    "ولسوالي": "لجه منګل",
    "Region": "South Eastern Region"
   },
   "geometry": {
    "x": 7753096.654507488,
    "y": 3996946.0592785394
   }
  },
  {
   "attributes": {
    "OBJECTID": 1517,
    "ولایت": "پکتيا",
    "Province": "PAKTYA",
    "PC_Code": "1308220",
    "District": "AHMADABA",
    "د_مرکز_نوم__نام_مرکز": "د مخکی کلی جامع مسجد",
    "Polling_Center_Name": "Makh ki Mosque",
    "د_مرکز_ځای__موقعیت_مرکز": "مخی کلی",
    "Polling_Center_Location": "Makhi village",
    "Map_Accuracy": "Building",
    "Map_Accuracy_Dari": "تعمیر",
    "Status": "Open",
    "Status_Dari": null,
    "PS_Male": 2,
    "PS_Female": 1,
    "PS_Total": 3,
    "ولسوالي": "لجه احمد خیل",
    "Region": "South Eastern Region"
   },
   "geometry": {
    "x": 7743553.210294134,
    "y": 4004289.0710548256
   }
  },
  {
   "attributes": {
    "OBJECTID": 1518,
    "ولایت": "پکتيا",
    "Province": "PAKTYA",
    "PC_Code": "1311221",
    "District": "DAND PATAN",
    "د_مرکز_نوم__نام_مرکز": "د نجونو منزنی خونزی",
    "Polling_Center_Name": "Femal Secondary school",
    "د_مرکز_ځای__موقعیت_مرکز": "د پټان کلی",
    "Polling_Center_Location": "Patan village",
    "Map_Accuracy": "Building",
    "Map_Accuracy_Dari": "تعمیر",
    "Status": "Open",
    "Status_Dari": null,
    "PS_Male": 2,
    "PS_Female": 1,
    "PS_Total": 3,
    "ولسوالي": "دند وپټان",
    "Region": "South Eastern Region"
   },
   "geometry": {
    "x": 7783930.0045457771,
    "y": 4005026.9694452384
   }
  },
  {
   "attributes": {
    "OBJECTID": 1519,
    "ولایت": "پکتيا",
    "Province": "PAKTYA",
    "PC_Code": "1302194",
    "District": "AHMADABA",
    "د_مرکز_نوم__نام_مرکز": "د مالی خیلو مکتب",
    "Polling_Center_Name": "Mali Khel School",
    "د_مرکز_ځای__موقعیت_مرکز": "عیسی خیل",
    "Polling_Center_Location": "Esa Khel",
    "Map_Accuracy": "Village",
    "Map_Accuracy_Dari": "قریه",
    "Status": "Open",
    "Status_Dari": null,
    "PS_Male": 0,
    "PS_Female": 3,
    "PS_Total": 3,
    "ولسوالي": "احمد آبا",
    "Region": "South Eastern Region"
   },
   "geometry": {
    "x": 7714371.8452840792,
    "y": 3979333.8694820455
   }
  },
  {
   "attributes": {
    "OBJECTID": 1520,
    "ولایت": "پکتيا",
    "Province": "PAKTYA",
    "PC_Code": "1303089",
    "District": "ZURMAT",
    "د_مرکز_نوم__نام_مرکز": "د اتفاق مکتب",
    "Polling_Center_Name": "Ettifaq School",
    "د_مرکز_ځای__موقعیت_مرکز": " جیغاتیان کولالگو",
    "Polling_Center_Location": "Jaighatian Kolalgo",
    "Map_Accuracy": "Village",
    "Map_Accuracy_Dari": "قریه",
    "Status": "Open",
    "Status_Dari": null,
    "PS_Male": 0,
    "PS_Female": 2,
    "PS_Total": 2,
    "ولسوالي": "زرمت",
    "Region": "South Eastern Region"
   },
   "geometry": {
    "x": 7667896.163818948,
    "y": 3957559.4413633603
   }
  },
  {
   "attributes": {
    "OBJECTID": 1521,
    "ولایت": "پکتيا",
    "Province": "PAKTYA",
    "PC_Code": "1303108",
    "District": "ZURMAT",
    "د_مرکز_نوم__نام_مرکز": "د خر مست خیلو مسجد",
    "Polling_Center_Name": "Khar Mast Khel Mosque",
    "د_مرکز_ځای__موقعیت_مرکز": "ارمه خرمست خیل",
    "Polling_Center_Location": "Arma Khar Mast Khel",
    "Map_Accuracy": "Village",
    "Map_Accuracy_Dari": "قریه",
    "Status": "Open",
    "Status_Dari": null,
    "PS_Male": 2,
    "PS_Female": 0,
    "PS_Total": 2,
    "ولسوالي": "زرمت",
    "Region": "South Eastern Region"
   },
   "geometry": {
    "x": 7698190.751344162,
    "y": 3959001.5751408213
   }
  },
  {
   "attributes": {
    "OBJECTID": 1522,
    "ولایت": "پکتيا",
    "Province": "PAKTYA",
    "PC_Code": "1303109",
    "District": "ZURMAT",
    "د_مرکز_نوم__نام_مرکز": "د محمد طلا هجره",
    "Polling_Center_Name": "Mohammad Telaa Hojra",
    "د_مرکز_ځای__موقعیت_مرکز": " ارمه خرمست خیل",
    "Polling_Center_Location": "Arma Khar Mast Khel",
    "Map_Accuracy": "Village",
    "Map_Accuracy_Dari": "قریه",
    "Status": "Open",
    "Status_Dari": null,
    "PS_Male": 0,
    "PS_Female": 2,
    "PS_Total": 2,
    "ولسوالي": "زرمت",
    "Region": "South Eastern Region"
   },
   "geometry": {
    "x": 7698299.3858088376,
    "y": 3958931.1235015239
   }
  },
  {
   "attributes": {
    "OBJECTID": 1523,
    "ولایت": "پکتيا",
    "Province": "PAKTYA",
    "PC_Code": "1305127",
    "District": "WUZA ZADRAN",
    "د_مرکز_نوم__نام_مرکز": "د ابراهیم دکانونه",
    "Polling_Center_Name": "Ibrahim Shops",
    "د_مرکز_ځای__موقعیت_مرکز": "زرغون راغه، ګرده څیړی",
    "Polling_Center_Location": "Garda Seri,  Zarghon Ragha",
    "Map_Accuracy": "Village",
    "Map_Accuracy_Dari": "قریه",
    "Status": "Open",
    "Status_Dari": null,
    "PS_Male": 3,
    "PS_Female": 1,
    "PS_Total": 4,
    "ولسوالي": "وزه ځدراڼ",
    "Region": "South Eastern Region"
   },
   "geometry": {
    "x": 7716445.1083498709,
    "y": 3946659.8108565286
   }
  },
  {
   "attributes": {
    "OBJECTID": 1524,
    "ولایت": "پکتيا",
    "Province": "PAKTYA",
    "PC_Code": "1305128",
    "District": "WUZA ZADRAN",
    "د_مرکز_نوم__نام_مرکز": "فخری دوکانونه",
    "Polling_Center_Name": "Fakhri Shops ",
    "د_مرکز_ځای__موقعیت_مرکز": "فخری، ګرده څیړی",
    "Polling_Center_Location": "Garda Seri, Fakhri",
    "Map_Accuracy": "Village",
    "Map_Accuracy_Dari": "قریه",
    "Status": "Open",
    "Status_Dari": null,
    "PS_Male": 2,
    "PS_Female": 1,
    "PS_Total": 3,
    "ولسوالي": "وزه ځدراڼ",
    "Region": "South Eastern Region"
   },
   "geometry": {
    "x": 7724977.5158859547,
    "y": 3944543.4974170132
   }
  },
  {
   "attributes": {
    "OBJECTID": 1525,
    "ولایت": "پکتيا",
    "Province": "PAKTYA",
    "PC_Code": "1306026",
    "District": "SAYYID KARAM",
    "د_مرکز_نوم__نام_مرکز": "عثمان خیل مسجد",
    "Polling_Center_Name": "Usman Khel Mosque",
    "د_مرکز_ځای__موقعیت_مرکز": "عثمان خیل",
    "Polling_Center_Location": "Usman Khel ",
    "Map_Accuracy": "Building",
    "Map_Accuracy_Dari": "تعمیر",
    "Status": "Open",
    "Status_Dari": null,
    "PS_Male": 0,
    "PS_Female": 2,
    "PS_Total": 2,
    "ولسوالي": "سید کرم",
    "Region": "South Eastern Region"
   },
   "geometry": {
    "x": 7728864.3706035865,
    "y": 3982330.7047685748
   }
  },
  {
   "attributes": {
    "OBJECTID": 1526,
    "ولایت": "پکتيا",
    "Province": "PAKTYA",
    "PC_Code": "1309208",
    "District": "JANI KHEL",
    "د_مرکز_نوم__نام_مرکز": "چلم مكتب",
    "Polling_Center_Name": "Chalam School",
    "د_مرکز_ځای__موقعیت_مرکز": "دچلم كلي",
    "Polling_Center_Location": "Chalam Village",
    "Map_Accuracy": "Building",
    "Map_Accuracy_Dari": "تعمیر",
    "Status": "Open",
    "Status_Dari": null,
    "PS_Male": 1,
    "PS_Female": 1,
    "PS_Total": 2,
    "ولسوالي": "جانی خیل",
    "Region": "South Eastern Region"
   },
   "geometry": {
    "x": 7770958.1796130361,
    "y": 3986397.9128651861
   }
  },
  {
   "attributes": {
    "OBJECTID": 1527,
    "ولایت": "پکتيا",
    "Province": "PAKTYA",
    "PC_Code": "1309209",
    "District": "JANI KHEL",
    "د_مرکز_نوم__نام_مرکز": "د درندي مسجد ",
    "Polling_Center_Name": "Darandy Mosque",
    "د_مرکز_ځای__موقعیت_مرکز": "درندی، بل خیل",
    "Polling_Center_Location": "Darandi, Bal Khel",
    "Map_Accuracy": "Building",
    "Map_Accuracy_Dari": "تعمیر",
    "Status": "Open",
    "Status_Dari": null,
    "PS_Male": 1,
    "PS_Female": 1,
    "PS_Total": 2,
    "ولسوالي": "جانی خیل",
    "Region": "South Eastern Region"
   },
   "geometry": {
    "x": 7772247.8493097285,
    "y": 3979274.1551007209
   }
  },
  {
   "attributes": {
    "OBJECTID": 1528,
    "ولایت": "پکتيا",
    "Province": "PAKTYA",
    "PC_Code": "1312153",
    "District": "LAJA MANGAL",
    "د_مرکز_نوم__نام_مرکز": "توسنک مسجد",
    "Polling_Center_Name": "Toshnak Mosque",
    "د_مرکز_ځای__موقعیت_مرکز": "توشنک، لجه منګل",
    "Polling_Center_Location": "Toshnak, Laja Mangal ",
    "Map_Accuracy": "Village",
    "Map_Accuracy_Dari": "قریه",
    "Status": "Open",
    "Status_Dari": null,
    "PS_Male": 3,
    "PS_Female": 1,
    "PS_Total": 4,
    "ولسوالي": "لجه منګل",
    "Region": "South Eastern Region"
   },
   "geometry": {
    "x": 7750862.3732529208,
    "y": 3990573.4624803928
   }
  },
  {
   "attributes": {
    "OBJECTID": 1529,
    "ولایت": "پکتيا",
    "Province": "PAKTYA",
    "PC_Code": "1313050",
    "District": "MEERZAKA",
    "د_مرکز_نوم__نام_مرکز": "د وچی الګاډې مکتب",
    "Polling_Center_Name": "Wacha Alagadi School",
    "د_مرکز_ځای__موقعیت_مرکز": "کړکین، میرزکه",
    "Polling_Center_Location": "Karkeen, Merzaka",
    "Map_Accuracy": "Village",
    "Map_Accuracy_Dari": "قریه",
    "Status": "Open",
    "Status_Dari": null,
    "PS_Male": 0,
    "PS_Female": 2,
    "PS_Total": 2,
    "ولسوالي": "میرزکه",
    "Region": "South Eastern Region"
   },
   "geometry": {
    "x": 7738173.3828711379,
    "y": 4005931.052909594
   }
  },
  {
   "attributes": {
    "OBJECTID": 1530,
    "ولایت": "پکتيا",
    "Province": "PAKTYA",
    "PC_Code": "1302198",
    "District": "AHMADABA",
    "د_مرکز_نوم__نام_مرکز": "اخند خیلو منځنئ ښوونځی",
    "Polling_Center_Name": "Akhond Khel Secondary School",
    "د_مرکز_ځای__موقعیت_مرکز": "مچلغو",
    "Polling_Center_Location": "Machalgho",
    "Map_Accuracy": "Village",
    "Map_Accuracy_Dari": "قریه",
    "Status": "Open",
    "Status_Dari": null,
    "PS_Male": 3,
    "PS_Female": 2,
    "PS_Total": 5,
    "ولسوالي": "احمد آبا",
    "Region": "South Eastern Region"
   },
   "geometry": {
    "x": 7723615.1078075906,
    "y": 3998956.260312221
   }
  },
  {
   "attributes": {
    "OBJECTID": 1531,
    "ولایت": "پکتيا",
    "Province": "PAKTYA",
    "PC_Code": "1302200",
    "District": "AHMADABA",
    "د_مرکز_نوم__نام_مرکز": "د فاضل خیلو جامع جومات",
    "Polling_Center_Name": "Fazel Khel Mosque",
    "د_مرکز_ځای__موقعیت_مرکز": "غړک",
    "Polling_Center_Location": "Gharak",
    "Map_Accuracy": "Village",
    "Map_Accuracy_Dari": "قریه",
    "Status": "Open",
    "Status_Dari": null,
    "PS_Male": 0,
    "PS_Female": 4,
    "PS_Total": 4,
    "ولسوالي": "احمد آبا",
    "Region": "South Eastern Region"
   },
   "geometry": {
    "x": 7718526.1372859795,
    "y": 3995135.0594743043
   }
  },
  {
   "attributes": {
    "OBJECTID": 1532,
    "ولایت": "خوست",
    "Province": "KHOST",
    "PC_Code": "1401022",
    "District": "KHOST",
    "د_مرکز_نوم__نام_مرکز": "د غازي ببرک ځدران پارک",
    "Polling_Center_Name": "Ghazi Babrak Zadran Park ",
    "د_مرکز_ځای__موقعیت_مرکز": "خوست ښآر",
    "Polling_Center_Location": "Khost City ",
    "Map_Accuracy": "Building",
    "Map_Accuracy_Dari": "تعمیر",
    "Status": "Open",
    "Status_Dari": null,
    "PS_Male": 2,
    "PS_Female": 1,
    "PS_Total": 3,
    "ولسوالي": "خوست",
    "Region": "South Eastern Region"
   },
   "geometry": {
    "x": 7783231.4807522986,
    "y": 3940155.0310811042
   }
  },
  {
   "attributes": {
    "OBJECTID": 1533,
    "ولایت": "خوست",
    "Province": "KHOST",
    "PC_Code": "1401023",
    "District": "KHOST",
    "د_مرکز_نوم__نام_مرکز": "د ګمرکاتو د کور جومات",
    "Polling_Center_Name": "Customs House Mosque ",
    "د_مرکز_ځای__موقعیت_مرکز": "مټه چينه ",
    "Polling_Center_Location": "Mata Cheena",
    "Map_Accuracy": "Village",
    "Map_Accuracy_Dari": "قریه",
    "Status": "Open",
    "Status_Dari": null,
    "PS_Male": 3,
    "PS_Female": 2,
    "PS_Total": 5,
    "ولسوالي": "خوست",
    "Region": "South Eastern Region"
   },
   "geometry": {
    "x": 7778797.5886985734,
    "y": 3939470.1151269455
   }
  },
  {
   "attributes": {
    "OBJECTID": 1534,
    "ولایت": "خوست",
    "Province": "KHOST",
    "PC_Code": "1401044",
    "District": "KHOST",
    "د_مرکز_نوم__نام_مرکز": "امين رحمان کور ",
    "Polling_Center_Name": "Amin Rahman House",
    "د_مرکز_ځای__موقعیت_مرکز": "کجيرې کلى",
    "Polling_Center_Location": "Kajery Village",
    "Map_Accuracy": "Building",
    "Map_Accuracy_Dari": "تعمیر",
    "Status": "Open",
    "Status_Dari": null,
    "PS_Male": 3,
    "PS_Female": 1,
    "PS_Total": 4,
    "ولسوالي": "خوست",
    "Region": "South Eastern Region"
   },
   "geometry": {
    "x": 7788123.7118850565,
    "y": 3942661.6240054579
   }
  },
  {
   "attributes": {
    "OBJECTID": 1535,
    "ولایت": "خوست",
    "Province": "KHOST",
    "PC_Code": "1401045",
    "District": "KHOST",
    "د_مرکز_نوم__نام_مرکز": "د کوټولي کلي جومات",
    "Polling_Center_Name": "Mosque",
    "د_مرکز_ځای__موقعیت_مرکز": " کوټولى کلى",
    "Polling_Center_Location": "Kotoli Village ",
    "Map_Accuracy": "Building",
    "Map_Accuracy_Dari": "تعمیر",
    "Status": "Open",
    "Status_Dari": null,
    "PS_Male": 3,
    "PS_Female": 1,
    "PS_Total": 4,
    "ولسوالي": "خوست",
    "Region": "South Eastern Region"
   },
   "geometry": {
    "x": 7785781.4696487291,
    "y": 3942416.3590020039
   }
  },
  {
   "attributes": {
    "OBJECTID": 1536,
    "ولایت": "خوست",
    "Province": "KHOST",
    "PC_Code": "1402090",
    "District": "MANDUZAY",
    "د_مرکز_نوم__نام_مرکز": "د چنداړ کلي جومات",
    "Polling_Center_Name": "Chandarr Village Mosque",
    "د_مرکز_ځای__موقعیت_مرکز": "د چنداړ کلي  مندوزی ",
    "Polling_Center_Location": "Chandarr Village Mandozay",
    "Map_Accuracy": "Village",
    "Map_Accuracy_Dari": "قریه",
    "Status": "Open",
    "Status_Dari": null,
    "PS_Male": 2,
    "PS_Female": 1,
    "PS_Total": 3,
    "ولسوالي": "مندوزی",
    "Region": "South Eastern Region"
   },
   "geometry": {
    "x": 7768750.2098333156,
    "y": 3937442.8825256499
   }
  },
  {
   "attributes": {
    "OBJECTID": 1537,
    "ولایت": "خوست",
    "Province": "KHOST",
    "PC_Code": "1402091",
    "District": "MANDUZAY",
    "د_مرکز_نوم__نام_مرکز": " دحسن زيو د نجونو ليسه",
    "Polling_Center_Name": "Hassanzayo Girls High School",
    "د_مرکز_ځای__موقعیت_مرکز": "حسن زي- مندوزی  کلی",
    "Polling_Center_Location": "Hassanzai -Mandozi Village",
    "Map_Accuracy": "Village",
    "Map_Accuracy_Dari": "قریه",
    "Status": "Open",
    "Status_Dari": null,
    "PS_Male": 2,
    "PS_Female": 1,
    "PS_Total": 3,
    "ولسوالي": "مندوزی",
    "Region": "South Eastern Region"
   },
   "geometry": {
    "x": 7763469.2621706603,
    "y": 3936656.9397678892
   }
  },
  {
   "attributes": {
    "OBJECTID": 1538,
    "ولایت": "خوست",
    "Province": "KHOST",
    "PC_Code": "1402095",
    "District": "MANDUZAY",
    "د_مرکز_نوم__نام_مرکز": "د بهرام خيلو جومات",
    "Polling_Center_Name": "Bahram Khel Mosque",
    "د_مرکز_ځای__موقعیت_مرکز": "بهرام خيل",
    "Polling_Center_Location": "Bahram Khel",
    "Map_Accuracy": "Village",
    "Map_Accuracy_Dari": "قریه",
    "Status": "Open",
    "Status_Dari": null,
    "PS_Male": 2,
    "PS_Female": 1,
    "PS_Total": 3,
    "ولسوالي": "مندوزی",
    "Region": "South Eastern Region"
   },
   "geometry": {
    "x": 7773553.1671872316,
    "y": 3936245.5201312662
   }
  },
  {
   "attributes": {
    "OBJECTID": 1539,
    "ولایت": "خوست",
    "Province": "KHOST",
    "PC_Code": "1402096",
    "District": "MANDUZAY",
    "د_مرکز_نوم__نام_مرکز": "دحيدرخيلو دسموات ښوونځی",
    "Polling_Center_Name": "Haider Khel Samawat School",
    "د_مرکز_ځای__موقعیت_مرکز": " حيدرحيل",
    "Polling_Center_Location": "Haider Khel",
    "Map_Accuracy": "Village",
    "Map_Accuracy_Dari": "قریه",
    "Status": "Open",
    "Status_Dari": null,
    "PS_Male": 1,
    "PS_Female": 1,
    "PS_Total": 2,
    "ولسوالي": "مندوزی",
    "Region": "South Eastern Region"
   },
   "geometry": {
    "x": 7776171.4294405617,
    "y": 3938370.4245820902
   }
  },
  {
   "attributes": {
    "OBJECTID": 1540,
    "ولایت": "خوست",
    "Province": "KHOST",
    "PC_Code": "1406119",
    "District": "NADIRSHAH KOT",
    "د_مرکز_نوم__نام_مرکز": "سرکاري هجره ",
    "Polling_Center_Name": "Sarkary Hojra",
    "د_مرکز_ځای__موقعیت_مرکز": "غوړشتى",
    "Polling_Center_Location": "Ghorashti",
    "Map_Accuracy": "Village",
    "Map_Accuracy_Dari": "قریه",
    "Status": "Open",
    "Status_Dari": null,
    "PS_Male": 1,
    "PS_Female": 1,
    "PS_Total": 2,
    "ولسوالي": "نادرشاه کوت",
    "Region": "South Eastern Region"
   },
   "geometry": {
    "x": 7753573.0306836087,
    "y": 3935127.3714660737
   }
  },
  {
   "attributes": {
    "OBJECTID": 1541,
    "ولایت": "خوست",
    "Province": "KHOST",
    "PC_Code": "1406120",
    "District": "NADIRSHAH KOT",
    "د_مرکز_نوم__نام_مرکز": "شازغر کلى جومات ",
    "Polling_Center_Name": "Shaz Ghar Village Mosque",
    "د_مرکز_ځای__موقعیت_مرکز": "ايم توى",
    "Polling_Center_Location": "Aim Toy",
    "Map_Accuracy": "Building",
    "Map_Accuracy_Dari": "تعمیر",
    "Status": "Open",
    "Status_Dari": null,
    "PS_Male": 1,
    "PS_Female": 1,
    "PS_Total": 2,
    "ولسوالي": "نادرشاه کوت",
    "Region": "South Eastern Region"
   },
   "geometry": {
    "x": 7766400.7463016249,
    "y": 3944426.2074493868
   }
  },
  {
   "attributes": {
    "OBJECTID": 1542,
    "ولایت": "خوست",
    "Province": "KHOST",
    "PC_Code": "1406122",
    "District": "NADIRSHAH KOT",
    "د_مرکز_نوم__نام_مرکز": "د المارې ښوونځی",
    "Polling_Center_Name": "Almara School ",
    "د_مرکز_ځای__موقعیت_مرکز": " الماره",
    "Polling_Center_Location": "Almara",
    "Map_Accuracy": "Building",
    "Map_Accuracy_Dari": "تعمیر",
    "Status": "Open",
    "Status_Dari": null,
    "PS_Male": 1,
    "PS_Female": 1,
    "PS_Total": 2,
    "ولسوالي": "نادرشاه کوت",
    "Region": "South Eastern Region"
   },
   "geometry": {
    "x": 7753856.7595753511,
    "y": 3935712.1607237109
   }
  },
  {
   "attributes": {
    "OBJECTID": 1543,
    "ولایت": "خوست",
    "Province": "KHOST",
    "PC_Code": "1406123",
    "District": "NADIRSHAH KOT",
    "د_مرکز_نوم__نام_مرکز": "د جهانمير جومات",
    "Polling_Center_Name": "Jahanmer Mosque",
    "د_مرکز_ځای__موقعیت_مرکز": " نوى کوټ",
    "Polling_Center_Location": "Nawi Kot ",
    "Map_Accuracy": "Building",
    "Map_Accuracy_Dari": "تعمیر",
    "Status": "Open",
    "Status_Dari": null,
    "PS_Male": 2,
    "PS_Female": 1,
    "PS_Total": 3,
    "ولسوالي": "نادرشاه کوت",
    "Region": "South Eastern Region"
   },
   "geometry": {
    "x": 7758839.6531975921,
    "y": 3936232.0444225906
   }
  },
  {
   "attributes": {
    "OBJECTID": 1544,
    "ولایت": "خوست",
    "Province": "KHOST",
    "PC_Code": "1408056",
    "District": "ALI SHER",
    "د_مرکز_نوم__نام_مرکز": "ميرام ګل کلي زمان خيل جومات",
    "Polling_Center_Name": "Miram Gul Mosque",
    "د_مرکز_ځای__موقعیت_مرکز": "زمان خيل",
    "Polling_Center_Location": "Zaman Khel",
    "Map_Accuracy": "District",
    "Map_Accuracy_Dari": "ولسوالی",
    "Status": "Open",
    "Status_Dari": null,
    "PS_Male": 1,
    "PS_Female": 1,
    "PS_Total": 2,
    "ولسوالي": "علی شیر",
    "Region": "South Eastern Region"
   },
   "geometry": {
    "x": 7814739.2548048636,
    "y": 3954195.9135628343
   }
  },
  {
   "attributes": {
    "OBJECTID": 1545,
    "ولایت": "خوست",
    "Province": "KHOST",
    "PC_Code": "1410106",
    "District": "QALANDAR",
    "د_مرکز_نوم__نام_مرکز": "د حاجي داود هجره لنډرې کلى",
    "Polling_Center_Name": "Haji Dawood Hojra",
    "د_مرکز_ځای__موقعیت_مرکز": " لنډرۍ کلى",
    "Polling_Center_Location": "Landari Village",
    "Map_Accuracy": "Village",
    "Map_Accuracy_Dari": "قریه",
    "Status": "Open",
    "Status_Dari": null,
    "PS_Male": 1,
    "PS_Female": 1,
    "PS_Total": 2,
    "ولسوالي": "قلندر",
    "Region": "South Eastern Region"
   },
   "geometry": {
    "x": 7756070.060445494,
    "y": 3963560.1875798102
   }
  },
  {
   "attributes": {
    "OBJECTID": 1546,
    "ولایت": "خوست",
    "Province": "KHOST",
    "PC_Code": "1410107",
    "District": "QALANDAR",
    "د_مرکز_نوم__نام_مرکز": "د حاجي قادر کور بيګالي",
    "Polling_Center_Name": "Haji Qader House",
    "د_مرکز_ځای__موقعیت_مرکز": "بيګالى",
    "Polling_Center_Location": "Begali",
    "Map_Accuracy": "Village",
    "Map_Accuracy_Dari": "قریه",
    "Status": "Open",
    "Status_Dari": null,
    "PS_Male": 2,
    "PS_Female": 1,
    "PS_Total": 3,
    "ولسوالي": "قلندر",
    "Region": "South Eastern Region"
   },
   "geometry": {
    "x": 7747111.1969570592,
    "y": 3965380.9151301039
   }
  },
  {
   "attributes": {
    "OBJECTID": 1547,
    "ولایت": "خوست",
    "Province": "KHOST",
    "PC_Code": "1410111",
    "District": "QALANDAR",
    "د_مرکز_نوم__نام_مرکز": "جومات ستر کوټ ماڼه",
    "Polling_Center_Name": "Ster Kot Mana Mosque",
    "د_مرکز_ځای__موقعیت_مرکز": "ستر کوټ مانه",
    "Polling_Center_Location": "Ster Kot Mana",
    "Map_Accuracy": "Building",
    "Map_Accuracy_Dari": "تعمیر",
    "Status": "Open",
    "Status_Dari": null,
    "PS_Male": 2,
    "PS_Female": 1,
    "PS_Total": 3,
    "ولسوالي": "قلندر",
    "Region": "South Eastern Region"
   },
   "geometry": {
    "x": 7755915.9441764606,
    "y": 3957292.146981921
   }
  },
  {
   "attributes": {
    "OBJECTID": 1548,
    "ولایت": "خوست",
    "Province": "KHOST",
    "PC_Code": "1410112",
    "District": "QALANDAR",
    "د_مرکز_نوم__نام_مرکز": "جومات شينکې",
    "Polling_Center_Name": "Shenkai Village Mosque",
    "د_مرکز_ځای__موقعیت_مرکز": " شينکۍ",
    "Polling_Center_Location": "Shenkai",
    "Map_Accuracy": "Village",
    "Map_Accuracy_Dari": "قریه",
    "Status": "Open",
    "Status_Dari": null,
    "PS_Male": 1,
    "PS_Female": 1,
    "PS_Total": 2,
    "ولسوالي": "قلندر",
    "Region": "South Eastern Region"
   },
   "geometry": {
    "x": 7752486.2262873566,
    "y": 3960749.3397660218
   }
  },
  {
   "attributes": {
    "OBJECTID": 1549,
    "ولایت": "خوست",
    "Province": "KHOST",
    "PC_Code": "1411132",
    "District": "SPERA",
    "د_مرکز_نوم__نام_مرکز": "د کلي د لمنې خيمې",
    "Polling_Center_Name": "Kali da lamani Khaima",
    "د_مرکز_ځای__موقعیت_مرکز": "مندته کلی",
    "Polling_Center_Location": "Mandata Village",
    "Map_Accuracy": "Village",
    "Map_Accuracy_Dari": "قریه",
    "Status": "Open",
    "Status_Dari": null,
    "PS_Male": 2,
    "PS_Female": 1,
    "PS_Total": 3,
    "ولسوالي": "سپیره",
    "Region": "South Eastern Region"
   },
   "geometry": {
    "x": 7729220.382580284,
    "y": 3910588.3419640115
   }
  },
  {
   "attributes": {
    "OBJECTID": 1550,
    "ولایت": "خوست",
    "Province": "KHOST",
    "PC_Code": "1411168",
    "District": "SPERA",
    "د_مرکز_نوم__نام_مرکز": "د ډنډکي کلى جومات",
    "Polling_Center_Name": "Dandaki Village Mosque",
    "د_مرکز_ځای__موقعیت_مرکز": "د ډنډکي لوی کلی",
    "Polling_Center_Location": "Dandoki big Village",
    "Map_Accuracy": "Village",
    "Map_Accuracy_Dari": "قریه",
    "Status": "Open",
    "Status_Dari": null,
    "PS_Male": 0,
    "PS_Female": 2,
    "PS_Total": 2,
    "ولسوالي": "سپیره",
    "Region": "South Eastern Region"
   },
   "geometry": {
    "x": 7741034.9338715961,
    "y": 3924872.7678307318
   }
  },
  {
   "attributes": {
    "OBJECTID": 1551,
    "ولایت": "خوست",
    "Province": "KHOST",
    "PC_Code": "1412157",
    "District": "SHAMUL",
    "د_مرکز_نوم__نام_مرکز": "جومات کمال خيل تازه کلى",
    "Polling_Center_Name": "Kamal Khel Taza Village Mosque",
    "د_مرکز_ځای__موقعیت_مرکز": "کمال خيل تازه کلى",
    "Polling_Center_Location": "Kamal Khail Taza Village",
    "Map_Accuracy": "Village",
    "Map_Accuracy_Dari": "قریه",
    "Status": "Open",
    "Status_Dari": null,
    "PS_Male": 1,
    "PS_Female": 1,
    "PS_Total": 2,
    "ولسوالي": "شمل",
    "Region": "South Eastern Region"
   },
   "geometry": {
    "x": 7737349.704355279,
    "y": 3934800.8901880812
   }
  },
  {
   "attributes": {
    "OBJECTID": 1552,
    "ولایت": "خوست",
    "Province": "KHOST",
    "PC_Code": "1413100",
    "District": "JAJI MAIDAN",
    "د_مرکز_نوم__نام_مرکز": "د اسکندرې ښوونځی",
    "Polling_Center_Name": "Askandary School ",
    "د_مرکز_ځای__موقعیت_مرکز": "اسکندره",
    "Polling_Center_Location": "Askandary ",
    "Map_Accuracy": "Building",
    "Map_Accuracy_Dari": "تعمیر",
    "Status": "Open",
    "Status_Dari": null,
    "PS_Male": 4,
    "PS_Female": 1,
    "PS_Total": 5,
    "ولسوالي": "ځاځي میدان",
    "Region": "South Eastern Region"
   },
   "geometry": {
    "x": 7793219.4005379388,
    "y": 3985540.8634178108
   }
  },
  {
   "attributes": {
    "OBJECTID": 1553,
    "ولایت": "خوست",
    "Province": "KHOST",
    "PC_Code": "1401011",
    "District": "KHOST",
    "د_مرکز_نوم__نام_مرکز": "د پاستې پالې جومات",
    "Polling_Center_Name": "Pasti Pali Mosque",
    "د_مرکز_ځای__موقعیت_مرکز": "شمل خرسين",
    "Polling_Center_Location": "Shamal Khar Seen",
    "Map_Accuracy": "Building",
    "Map_Accuracy_Dari": "تعمیر",
    "Status": "Open",
    "Status_Dari": null,
    "PS_Male": 2,
    "PS_Female": 1,
    "PS_Total": 3,
    "ولسوالي": "خوست",
    "Region": "South Eastern Region"
   },
   "geometry": {
    "x": 7798446.0721564721,
    "y": 3933855.6654583099
   }
  },
  {
   "attributes": {
    "OBJECTID": 1554,
    "ولایت": "خوست",
    "Province": "KHOST",
    "PC_Code": "1401012",
    "District": "KHOST",
    "د_مرکز_نوم__نام_مرکز": "د ظاهر خان هجره ( خرسين)",
    "Polling_Center_Name": "Zahir Khan Hojra",
    "د_مرکز_ځای__موقعیت_مرکز": "شمل خرسين",
    "Polling_Center_Location": "Shamal Khar Seen",
    "Map_Accuracy": "Village",
    "Map_Accuracy_Dari": "قریه",
    "Status": "Open",
    "Status_Dari": null,
    "PS_Male": 2,
    "PS_Female": 1,
    "PS_Total": 3,
    "ولسوالي": "خوست",
    "Region": "South Eastern Region"
   },
   "geometry": {
    "x": 7798241.7652686294,
    "y": 3933538.6669174782
   }
  },
  {
   "attributes": {
    "OBJECTID": 1555,
    "ولایت": "خوست",
    "Province": "KHOST",
    "PC_Code": "1401017",
    "District": "KHOST",
    "د_مرکز_نوم__نام_مرکز": "مرکزي جومات",
    "Polling_Center_Name": "Central Mosque",
    "د_مرکز_ځای__موقعیت_مرکز": "مرکز خوست ښار",
    "Polling_Center_Location": "Khost City",
    "Map_Accuracy": "Building",
    "Map_Accuracy_Dari": "تعمیر",
    "Status": "Open",
    "Status_Dari": null,
    "PS_Male": 3,
    "PS_Female": 3,
    "PS_Total": 6,
    "ولسوالي": "خوست",
    "Region": "South Eastern Region"
   },
   "geometry": {
    "x": 7783859.1935497653,
    "y": 3940710.8115988448
   }
  },
  {
   "attributes": {
    "OBJECTID": 1556,
    "ولایت": "خوست",
    "Province": "KHOST",
    "PC_Code": "1401018",
    "District": "KHOST",
    "د_مرکز_نوم__نام_مرکز": "د ښځو چارو رياست",
    "Polling_Center_Name": "Women's Affairs Department",
    "د_مرکز_ځای__موقعیت_مرکز": "خوست ښار د ښځوچارو رياست",
    "Polling_Center_Location": "Khost City",
    "Map_Accuracy": "Building",
    "Map_Accuracy_Dari": "تعمیر",
    "Status": "Open",
    "Status_Dari": null,
    "PS_Male": 4,
    "PS_Female": 2,
    "PS_Total": 6,
    "ولسوالي": "خوست",
    "Region": "South Eastern Region"
   },
   "geometry": {
    "x": 7783194.5560772019,
    "y": 3939746.6879002284
   }
  },
  {
   "attributes": {
    "OBJECTID": 1557,
    "ولایت": "خوست",
    "Province": "KHOST",
    "PC_Code": "1401028",
    "District": "KHOST",
    "د_مرکز_نوم__نام_مرکز": "د سروکي کلي جومات (لکڼ)",
    "Polling_Center_Name": "Sroki Village Mosque ",
    "د_مرکز_ځای__موقعیت_مرکز": "لکڼ ببرو کلى",
    "Polling_Center_Location": "Lakan Babro Village ",
    "Map_Accuracy": "Building",
    "Map_Accuracy_Dari": "تعمیر",
    "Status": "Open",
    "Status_Dari": null,
    "PS_Male": 3,
    "PS_Female": 2,
    "PS_Total": 5,
    "ولسوالي": "خوست",
    "Region": "South Eastern Region"
   },
   "geometry": {
    "x": 7800076.1089886231,
    "y": 3946236.7276839972
   }
  },
  {
   "attributes": {
    "OBJECTID": 1558,
    "ولایت": "خوست",
    "Province": "KHOST",
    "PC_Code": "1401029",
    "District": "KHOST",
    "د_مرکز_نوم__نام_مرکز": "د مديخيل کلی مدرسه",
    "Polling_Center_Name": "Madikhel Village Madrassa",
    "د_مرکز_ځای__موقعیت_مرکز": "مديخيل کلی",
    "Polling_Center_Location": "Madikhel Village ",
    "Map_Accuracy": "Village",
    "Map_Accuracy_Dari": "قریه",
    "Status": "Open",
    "Status_Dari": null,
    "PS_Male": 2,
    "PS_Female": 2,
    "PS_Total": 4,
    "ولسوالي": "خوست",
    "Region": "South Eastern Region"
   },
   "geometry": {
    "x": 7796136.848394312,
    "y": 3945185.3801895804
   }
  },
  {
   "attributes": {
    "OBJECTID": 1559,
    "ولایت": "خوست",
    "Province": "KHOST",
    "PC_Code": "1401032",
    "District": "KHOST",
    "د_مرکز_نوم__نام_مرکز": "د ايوب خيل کلی جومات",
    "Polling_Center_Name": "Ayoub Khel Village Mosque",
    "د_مرکز_ځای__موقعیت_مرکز": "ايوب خيل کلی",
    "Polling_Center_Location": "Ayoub Village",
    "Map_Accuracy": "Building",
    "Map_Accuracy_Dari": "تعمیر",
    "Status": "Open",
    "Status_Dari": null,
    "PS_Male": 3,
    "PS_Female": 1,
    "PS_Total": 4,
    "ولسوالي": "خوست",
    "Region": "South Eastern Region"
   },
   "geometry": {
    "x": 7799985.6229405338,
    "y": 3946042.6429570396
   }
  },
  {
   "attributes": {
    "OBJECTID": 1560,
    "ولایت": "خوست",
    "Province": "KHOST",
    "PC_Code": "1401033",
    "District": "KHOST",
    "د_مرکز_نوم__نام_مرکز": "مدرسه",
    "Polling_Center_Name": "Madrassa",
    "د_مرکز_ځای__موقعیت_مرکز": "لکڼ چنار کلى",
    "Polling_Center_Location": "Lakan Chinar Village",
    "Map_Accuracy": "Village",
    "Map_Accuracy_Dari": "قریه",
    "Status": "Open",
    "Status_Dari": null,
    "PS_Male": 3,
    "PS_Female": 1,
    "PS_Total": 4,
    "ولسوالي": "خوست",
    "Region": "South Eastern Region"
   },
   "geometry": {
    "x": 7799032.5711388569,
    "y": 3942234.4936449332
   }
  },
  {
   "attributes": {
    "OBJECTID": 1561,
    "ولایت": "خوست",
    "Province": "KHOST",
    "PC_Code": "1401035",
    "District": "KHOST",
    "د_مرکز_نوم__نام_مرکز": "لوى مارکېټ عازي آباد",
    "Polling_Center_Name": "Loy Market",
    "د_مرکز_ځای__موقعیت_مرکز": "غازي آباد",
    "Polling_Center_Location": "Ghazi Abad",
    "Map_Accuracy": "Village",
    "Map_Accuracy_Dari": "قریه",
    "Status": "Open",
    "Status_Dari": null,
    "PS_Male": 3,
    "PS_Female": 1,
    "PS_Total": 4,
    "ولسوالي": "خوست",
    "Region": "South Eastern Region"
   },
   "geometry": {
    "x": 7795972.1534340717,
    "y": 3934495.9612606387
   }
  },
  {
   "attributes": {
    "OBJECTID": 1562,
    "ولایت": "خوست",
    "Province": "KHOST",
    "PC_Code": "1401036",
    "District": "KHOST",
    "د_مرکز_نوم__نام_مرکز": "د خليل کور ",
    "Polling_Center_Name": "Khalil House ",
    "د_مرکز_ځای__موقعیت_مرکز": "ماڼۍ کلى",
    "Polling_Center_Location": "Mani Village",
    "Map_Accuracy": "Village",
    "Map_Accuracy_Dari": "قریه",
    "Status": "Open",
    "Status_Dari": null,
    "PS_Male": 2,
    "PS_Female": 2,
    "PS_Total": 4,
    "ولسوالي": "خوست",
    "Region": "South Eastern Region"
   },
   "geometry": {
    "x": 7783504.3047867278,
    "y": 3942326.522777929
   }
  },
  {
   "attributes": {
    "OBJECTID": 1563,
    "ولایت": "خوست",
    "Province": "KHOST",
    "PC_Code": "1402080",
    "District": "MANDUZAY",
    "د_مرکز_نوم__نام_مرکز": "د ډاډوالو ښکلى جومات ",
    "Polling_Center_Name": "Dadwalow Nice Mosque",
    "د_مرکز_ځای__موقعیت_مرکز": "د ډاډوالو کلى ",
    "Polling_Center_Location": "Dadwalow Village",
    "Map_Accuracy": "Village",
    "Map_Accuracy_Dari": "قریه",
    "Status": "Open",
    "Status_Dari": null,
    "PS_Male": 1,
    "PS_Female": 1,
    "PS_Total": 2,
    "ولسوالي": "مندوزی",
    "Region": "South Eastern Region"
   },
   "geometry": {
    "x": 7770013.8485802775,
    "y": 3936481.7062125057
   }
  },
  {
   "attributes": {
    "OBJECTID": 1564,
    "ولایت": "خوست",
    "Province": "KHOST",
    "PC_Code": "1402081",
    "District": "MANDUZAY",
    "د_مرکز_نوم__نام_مرکز": "د برهانخيلو جومات ",
    "Polling_Center_Name": "Burhani Khelo Mosque",
    "د_مرکز_ځای__موقعیت_مرکز": "د برهانخيلوکلى",
    "Polling_Center_Location": "Burhani Khel Village",
    "Map_Accuracy": "Building",
    "Map_Accuracy_Dari": "تعمیر",
    "Status": "Open",
    "Status_Dari": null,
    "PS_Male": 1,
    "PS_Female": 1,
    "PS_Total": 2,
    "ولسوالي": "مندوزی",
    "Region": "South Eastern Region"
   },
   "geometry": {
    "x": 7773556.0681731654,
    "y": 3936301.9011879396
   }
  },
  {
   "attributes": {
    "OBJECTID": 1565,
    "ولایت": "خوست",
    "Province": "KHOST",
    "PC_Code": "1403151",
    "District": "GURBUZ",
    "د_مرکز_نوم__نام_مرکز": "د زوالدين ليسه",
    "Polling_Center_Name": "Zolddin High School",
    "د_مرکز_ځای__موقعیت_مرکز": "فاطلان کلی",
    "Polling_Center_Location": "Fatlan Village",
    "Map_Accuracy": "Village",
    "Map_Accuracy_Dari": "قریه",
    "Status": "Open",
    "Status_Dari": null,
    "PS_Male": 1,
    "PS_Female": 1,
    "PS_Total": 2,
    "ولسوالي": "گربز",
    "Region": "South Eastern Region"
   },
   "geometry": {
    "x": 7779632.3679940524,
    "y": 3927829.666571781
   }
  },
  {
   "attributes": {
    "OBJECTID": 1566,
    "ولایت": "خوست",
    "Province": "KHOST",
    "PC_Code": "1403152",
    "District": "GURBUZ",
    "د_مرکز_نوم__نام_مرکز": "شيخ امير ليسه",
    "Polling_Center_Name": "Shaikh Amer High School",
    "د_مرکز_ځای__موقعیت_مرکز": "د ولسوالی مرکز شیخ امیر ",
    "Polling_Center_Location": "District Center, Shaikh Amir",
    "Map_Accuracy": "Building",
    "Map_Accuracy_Dari": "تعمیر",
    "Status": "Open",
    "Status_Dari": null,
    "PS_Male": 2,
    "PS_Female": 1,
    "PS_Total": 3,
    "ولسوالي": "گربز",
    "Region": "South Eastern Region"
   },
   "geometry": {
    "x": 7783502.5492783589,
    "y": 3933502.965688203
   }
  },
  {
   "attributes": {
    "OBJECTID": 1567,
    "ولایت": "خوست",
    "Province": "KHOST",
    "PC_Code": "1404143",
    "District": "TANAY",
    "د_مرکز_نوم__نام_مرکز": "د دره ګي مدرسه ",
    "Polling_Center_Name": "Daragi Madrassa",
    "د_مرکز_ځای__موقعیت_مرکز": " دره ګى",
    "Polling_Center_Location": "Dara Gai",
    "Map_Accuracy": "Village",
    "Map_Accuracy_Dari": "قریه",
    "Status": "Open",
    "Status_Dari": null,
    "PS_Male": 3,
    "PS_Female": 1,
    "PS_Total": 4,
    "ولسوالي": "تڼي",
    "Region": "South Eastern Region"
   },
   "geometry": {
    "x": 7772354.3174971081,
    "y": 3932565.3046906255
   }
  },
  {
   "attributes": {
    "OBJECTID": 1568,
    "ولایت": "خوست",
    "Province": "KHOST",
    "PC_Code": "1404144",
    "District": "TANAY",
    "د_مرکز_نوم__نام_مرکز": "د تورخيلو جومات",
    "Polling_Center_Name": "Toor Khel Village Mosque",
    "د_مرکز_ځای__موقعیت_مرکز": " تور خيل",
    "Polling_Center_Location": "Tora Khel",
    "Map_Accuracy": "Building",
    "Map_Accuracy_Dari": "تعمیر",
    "Status": "Open",
    "Status_Dari": null,
    "PS_Male": 3,
    "PS_Female": 1,
    "PS_Total": 4,
    "ولسوالي": "تڼي",
    "Region": "South Eastern Region"
   },
   "geometry": {
    "x": 7759694.018600882,
    "y": 3921768.360186676
   }
  },
  {
   "attributes": {
    "OBJECTID": 1569,
    "ولایت": "خوست",
    "Province": "KHOST",
    "PC_Code": "1405074",
    "District": "MUSA KHEL",
    "د_مرکز_نوم__نام_مرکز": "د زوړ کوټ جومات",
    "Polling_Center_Name": "Zoor Kot Mosque",
    "د_مرکز_ځای__موقعیت_مرکز": " زوړ کوټ",
    "Polling_Center_Location": "Zor Kot",
    "Map_Accuracy": "Village",
    "Map_Accuracy_Dari": "قریه",
    "Status": "Open",
    "Status_Dari": null,
    "PS_Male": 3,
    "PS_Female": 2,
    "PS_Total": 5,
    "ولسوالي": "موسی خیل",
    "Region": "South Eastern Region"
   },
   "geometry": {
    "x": 7762134.1340467082,
    "y": 3968187.7120328471
   }
  },
  {
   "attributes": {
    "OBJECTID": 1570,
    "ولایت": "خوست",
    "Province": "KHOST",
    "PC_Code": "1405075",
    "District": "MUSA KHEL",
    "د_مرکز_نوم__نام_مرکز": "آزداه فضا په عوزک کی",
    "Polling_Center_Name": "Open Space",
    "د_مرکز_ځای__موقعیت_مرکز": "عوزک کلی",
    "Polling_Center_Location": "Owzak Village",
    "Map_Accuracy": "Village",
    "Map_Accuracy_Dari": "قریه",
    "Status": "Open",
    "Status_Dari": null,
    "PS_Male": 2,
    "PS_Female": 1,
    "PS_Total": 3,
    "ولسوالي": "موسی خیل",
    "Region": "South Eastern Region"
   },
   "geometry": {
    "x": 7760090.5686833542,
    "y": 3974372.1874339283
   }
  },
  {
   "attributes": {
    "OBJECTID": 1571,
    "ولایت": "خوست",
    "Province": "KHOST",
    "PC_Code": "1406114",
    "District": "NADIRSHAH KOT",
    "د_مرکز_نوم__نام_مرکز": "د ډاکټر عبدالبادشاه کور",
    "Polling_Center_Name": "Dr. Abdul Badsha House",
    "د_مرکز_ځای__موقعیت_مرکز": " لاټکې",
    "Polling_Center_Location": "Latkai",
    "Map_Accuracy": "Village",
    "Map_Accuracy_Dari": "قریه",
    "Status": "Open",
    "Status_Dari": null,
    "PS_Male": 1,
    "PS_Female": 1,
    "PS_Total": 2,
    "ولسوالي": "نادرشاه کوت",
    "Region": "South Eastern Region"
   },
   "geometry": {
    "x": 7762944.8238043869,
    "y": 3943654.6329061282
   }
  },
  {
   "attributes": {
    "OBJECTID": 1572,
    "ولایت": "خوست",
    "Province": "KHOST",
    "PC_Code": "1406115",
    "District": "NADIRSHAH KOT",
    "د_مرکز_نوم__نام_مرکز": "ماکوش جومات ",
    "Polling_Center_Name": "Makosh Mosque",
    "د_مرکز_ځای__موقعیت_مرکز": " ليړه",
    "Polling_Center_Location": "lera",
    "Map_Accuracy": "Village",
    "Map_Accuracy_Dari": "قریه",
    "Status": "Open",
    "Status_Dari": null,
    "PS_Male": 1,
    "PS_Female": 1,
    "PS_Total": 2,
    "ولسوالي": "نادرشاه کوت",
    "Region": "South Eastern Region"
   },
   "geometry": {
    "x": 7755717.9279530467,
    "y": 3935126.2433702438
   }
  },
  {
   "attributes": {
    "OBJECTID": 1573,
    "ولایت": "خوست",
    "Province": "KHOST",
    "PC_Code": "1406126",
    "District": "NADIRSHAH KOT",
    "د_مرکز_نوم__نام_مرکز": "د اووم کلي مدرسه",
    "Polling_Center_Name": "Owm Village Madrassa",
    "د_مرکز_ځای__موقعیت_مرکز": "اوم کلى",
    "Polling_Center_Location": "Owm Village",
    "Map_Accuracy": "Building",
    "Map_Accuracy_Dari": "تعمیر",
    "Status": "Open",
    "Status_Dari": null,
    "PS_Male": 1,
    "PS_Female": 1,
    "PS_Total": 2,
    "ولسوالي": "نادرشاه کوت",
    "Region": "South Eastern Region"
   },
   "geometry": {
    "x": 7767139.584893967,
    "y": 3946332.8533860547
   }
  },
  {
   "attributes": {
    "OBJECTID": 1574,
    "ولایت": "خوست",
    "Province": "KHOST",
    "PC_Code": "1407064",
    "District": "SABARI",
    "د_مرکز_نوم__نام_مرکز": "د موچي کلي ښوونځی",
    "Polling_Center_Name": "Mochi Village School",
    "د_مرکز_ځای__موقعیت_مرکز": " موچي کلى",
    "Polling_Center_Location": "Mochi Village",
    "Map_Accuracy": "Village",
    "Map_Accuracy_Dari": "قریه",
    "Status": "Open",
    "Status_Dari": null,
    "PS_Male": 6,
    "PS_Female": 3,
    "PS_Total": 9,
    "ولسوالي": "صبری",
    "Region": "South Eastern Region"
   },
   "geometry": {
    "x": 7782985.0093809292,
    "y": 3961345.6928952932
   }
  },
  {
   "attributes": {
    "OBJECTID": 1575,
    "ولایت": "خوست",
    "Province": "KHOST",
    "PC_Code": "1407167",
    "District": "SABARI",
    "د_مرکز_نوم__نام_مرکز": "د ولسوالى مرکز",
    "Polling_Center_Name": "District Center",
    "د_مرکز_ځای__موقعیت_مرکز": "حلبسات",
    "Polling_Center_Location": "Halbasat",
    "Map_Accuracy": "Village",
    "Map_Accuracy_Dari": "قریه",
    "Status": "Open",
    "Status_Dari": null,
    "PS_Male": 5,
    "PS_Female": 0,
    "PS_Total": 5,
    "ولسوالي": "صبری",
    "Region": "South Eastern Region"
   },
   "geometry": {
    "x": 7779748.1358116996,
    "y": 3971297.2330860994
   }
  },
  {
   "attributes": {
    "OBJECTID": 1576,
    "ولایت": "خوست",
    "Province": "KHOST",
    "PC_Code": "1408048",
    "District": "ALI SHER",
    "د_مرکز_نوم__نام_مرکز": "د نظام الدين هجره ",
    "Polling_Center_Name": "Nizamuddin Hojra",
    "د_مرکز_ځای__موقعیت_مرکز": " صدق",
    "Polling_Center_Location": "Sedeeq",
    "Map_Accuracy": "Village",
    "Map_Accuracy_Dari": "قریه",
    "Status": "Open",
    "Status_Dari": null,
    "PS_Male": 3,
    "PS_Female": 1,
    "PS_Total": 4,
    "ولسوالي": "علی شیر",
    "Region": "South Eastern Region"
   },
   "geometry": {
    "x": 7815486.4579437403,
    "y": 3938221.5179244885
   }
  },
  {
   "attributes": {
    "OBJECTID": 1577,
    "ولایت": "خوست",
    "Province": "KHOST",
    "PC_Code": "1409058",
    "District": "BAAK",
    "د_مرکز_نوم__نام_مرکز": "سپرکۍ جومات ",
    "Polling_Center_Name": "Spearkai Mosque",
    "د_مرکز_ځای__موقعیت_مرکز": "شګو کلی",
    "Polling_Center_Location": "Shaga Village ",
    "Map_Accuracy": "Building",
    "Map_Accuracy_Dari": "تعمیر",
    "Status": "Open",
    "Status_Dari": null,
    "PS_Male": 2,
    "PS_Female": 1,
    "PS_Total": 3,
    "ولسوالي": "باک",
    "Region": "South Eastern Region"
   },
   "geometry": {
    "x": 7794407.8992965305,
    "y": 3967573.2616868671
   }
  },
  {
   "attributes": {
    "OBJECTID": 1578,
    "ولایت": "خوست",
    "Province": "KHOST",
    "PC_Code": "1409059",
    "District": "BAAK",
    "د_مرکز_نوم__نام_مرکز": "ښوونځى کوټکي عوازي کلى",
    "Polling_Center_Name": "School ",
    "د_مرکز_ځای__موقعیت_مرکز": " کوټکي عوازي کلى",
    "Polling_Center_Location": "Kotaki Awazi Village",
    "Map_Accuracy": "Village",
    "Map_Accuracy_Dari": "قریه",
    "Status": "Open",
    "Status_Dari": null,
    "PS_Male": 2,
    "PS_Female": 1,
    "PS_Total": 3,
    "ولسوالي": "باک",
    "Region": "South Eastern Region"
   },
   "geometry": {
    "x": 7798979.7455876991,
    "y": 3962226.5065127406
   }
  },
  {
   "attributes": {
    "OBJECTID": 1579,
    "ولایت": "خوست",
    "Province": "KHOST",
    "PC_Code": "1411129",
    "District": "SPERA",
    "د_مرکز_نوم__نام_مرکز": "هوار ميدان (غورمه)",
    "Polling_Center_Name": "Open Space",
    "د_مرکز_ځای__موقعیت_مرکز": "غورمه",
    "Polling_Center_Location": "Ghorma",
    "Map_Accuracy": "Village",
    "Map_Accuracy_Dari": "قریه",
    "Status": "Open",
    "Status_Dari": null,
    "PS_Male": 2,
    "PS_Female": 2,
    "PS_Total": 4,
    "ولسوالي": "سپیره",
    "Region": "South Eastern Region"
   },
   "geometry": {
    "x": 7733532.3241318492,
    "y": 3921263.4537983821
   }
  },
  {
   "attributes": {
    "OBJECTID": 1580,
    "ولایت": "خوست",
    "Province": "KHOST",
    "PC_Code": "1411130",
    "District": "SPERA",
    "د_مرکز_نوم__نام_مرکز": "خیمه په تورمنده کلی کی ",
    "Polling_Center_Name": "Tormanda Village Tent ",
    "د_مرکز_ځای__موقعیت_مرکز": "تورمنده کلی",
    "Polling_Center_Location": "Tormanda Village",
    "Map_Accuracy": "Village",
    "Map_Accuracy_Dari": "قریه",
    "Status": "Open",
    "Status_Dari": null,
    "PS_Male": 2,
    "PS_Female": 1,
    "PS_Total": 3,
    "ولسوالي": "سپیره",
    "Region": "South Eastern Region"
   },
   "geometry": {
    "x": 7735550.7635729387,
    "y": 3913264.2239139085
   }
  },
  {
   "attributes": {
    "OBJECTID": 1581,
    "ولایت": "خوست",
    "Province": "KHOST",
    "PC_Code": "1411171",
    "District": "SPERA",
    "د_مرکز_نوم__نام_مرکز": "د پړوند اڅړخيلو کلى جومات",
    "Polling_Center_Name": "Parwand Asar Khel Village Mosque",
    "د_مرکز_ځای__موقعیت_مرکز": "اڅړ خيل",
    "Polling_Center_Location": "Asar Khel",
    "Map_Accuracy": "Village",
    "Map_Accuracy_Dari": "قریه",
    "Status": "Open",
    "Status_Dari": null,
    "PS_Male": 1,
    "PS_Female": 1,
    "PS_Total": 2,
    "ولسوالي": "سپیره",
    "Region": "South Eastern Region"
   },
   "geometry": {
    "x": 7737226.4669997981,
    "y": 3913720.7052014689
   }
  },
  {
   "attributes": {
    "OBJECTID": 1582,
    "ولایت": "خوست",
    "Province": "KHOST",
    "PC_Code": "1411172",
    "District": "SPERA",
    "د_مرکز_نوم__نام_مرکز": "د برخيلو منديي",
    "Polling_Center_Name": "Bar Khel Mandaye",
    "د_مرکز_ځای__موقعیت_مرکز": "برخيل",
    "Polling_Center_Location": "Bar Khel",
    "Map_Accuracy": "District",
    "Map_Accuracy_Dari": "ولسوالی",
    "Status": "Open",
    "Status_Dari": null,
    "PS_Male": 1,
    "PS_Female": 1,
    "PS_Total": 2,
    "ولسوالي": "سپیره",
    "Region": "South Eastern Region"
   },
   "geometry": {
    "x": 7735986.3033070602,
    "y": 3917941.0764129641
   }
  },
  {
   "attributes": {
    "OBJECTID": 1583,
    "ولایت": "خوست",
    "Province": "KHOST",
    "PC_Code": "1413104",
    "District": "JAJI MAIDAN",
    "د_مرکز_نوم__نام_مرکز": "هوار ميدان کوچي خيل",
    "Polling_Center_Name": "Open Space",
    "د_مرکز_ځای__موقعیت_مرکز": "کوچي خيل",
    "Polling_Center_Location": "Kuchi Khel",
    "Map_Accuracy": "Village",
    "Map_Accuracy_Dari": "قریه",
    "Status": "Open",
    "Status_Dari": null,
    "PS_Male": 2,
    "PS_Female": 3,
    "PS_Total": 5,
    "ولسوالي": "ځاځي میدان",
    "Region": "South Eastern Region"
   },
   "geometry": {
    "x": 7797597.0539849186,
    "y": 3981764.2177165956
   }
  },
  {
   "attributes": {
    "OBJECTID": 1584,
    "ولایت": "کندز",
    "Province": "KUNDUZ",
    "PC_Code": "1901054",
    "District": "KUNDUZ",
    "د_مرکز_نوم__نام_مرکز": "مسجد زرخرید ذاخیل",
    "Polling_Center_Name": "Zarkhareed Zakhil Mosque",
    "د_مرکز_ځای__موقعیت_مرکز": "زرخرید ذاخیل",
    "Polling_Center_Location": "Zarkhareed Zakhil",
    "Map_Accuracy": "Building",
    "Map_Accuracy_Dari": "تعمیر",
    "Status": "Open",
    "Status_Dari": null,
    "PS_Male": 2,
    "PS_Female": 1,
    "PS_Total": 3,
    "ولسوالي": "کندز",
    "Region": "North Eastern Region"
   },
   "geometry": {
    "x": 7662247.421011487,
    "y": 4405270.8333369996
   }
  },
  {
   "attributes": {
    "OBJECTID": 1585,
    "ولایت": "کندز",
    "Province": "KUNDUZ",
    "PC_Code": "1901055",
    "District": "KUNDUZ",
    "د_مرکز_نوم__نام_مرکز": "مسجد حاجی نصرالدین",
    "Polling_Center_Name": "Haji Nasruddin Mosque",
    "د_مرکز_ځای__موقعیت_مرکز": "قریه عسقلان",
    "Polling_Center_Location": "Asqalan Village",
    "Map_Accuracy": "Building",
    "Map_Accuracy_Dari": "تعمیر",
    "Status": "Open",
    "Status_Dari": null,
    "PS_Male": 2,
    "PS_Female": 1,
    "PS_Total": 3,
    "ولسوالي": "کندز",
    "Region": "North Eastern Region"
   },
   "geometry": {
    "x": 7665400.6090403153,
    "y": 4413153.1657845145
   }
  },
  {
   "attributes": {
    "OBJECTID": 1586,
    "ولایت": "کندز",
    "Province": "KUNDUZ",
    "PC_Code": "1901197",
    "District": "KUNDUZ",
    "د_مرکز_نوم__نام_مرکز": "مکتب متوسطه رستاق آباد",
    "Polling_Center_Name": "Rostaq Abad Secondary School",
    "د_مرکز_ځای__موقعیت_مرکز": "ناحیه پنجم",
    "Polling_Center_Location": "D05 - Nahia 5",
    "Map_Accuracy": "Building",
    "Map_Accuracy_Dari": "تعمیر",
    "Status": "Open",
    "Status_Dari": null,
    "PS_Male": 2,
    "PS_Female": 1,
    "PS_Total": 3,
    "ولسوالي": "کندز",
    "Region": "North Eastern Region"
   },
   "geometry": {
    "x": 7669165.7882149257,
    "y": 4396500.1937471461
   }
  },
  {
   "attributes": {
    "OBJECTID": 1587,
    "ولایت": "کندز",
    "Province": "KUNDUZ",
    "PC_Code": "1901198",
    "District": "KUNDUZ",
    "د_مرکز_نوم__نام_مرکز": "مکتب متوسطه قوچی خورد",
    "Polling_Center_Name": "Qochi Khord Secondary School",
    "د_مرکز_ځای__موقعیت_مرکز": "قریه قوچی خورد",
    "Polling_Center_Location": "Qochi Khord Village",
    "Map_Accuracy": "Building",
    "Map_Accuracy_Dari": "تعمیر",
    "Status": "Open",
    "Status_Dari": null,
    "PS_Male": 2,
    "PS_Female": 1,
    "PS_Total": 3,
    "ولسوالي": "کندز",
    "Region": "North Eastern Region"
   },
   "geometry": {
    "x": 7674623.9297902463,
    "y": 4404493.0042813933
   }
  },
  {
   "attributes": {
    "OBJECTID": 1588,
    "ولایت": "کندز",
    "Province": "KUNDUZ",
    "PC_Code": "1903129",
    "District": "ALI ABAD",
    "د_مرکز_نوم__نام_مرکز": "لیسه ذکور مرکزعلی آباد",
    "Polling_Center_Name": "Ali Abad Boys High School",
    "د_مرکز_ځای__موقعیت_مرکز": "لقی ها",
    "Polling_Center_Location": "Laqi Ha",
    "Map_Accuracy": "Building",
    "Map_Accuracy_Dari": "تعمیر",
    "Status": "Open",
    "Status_Dari": null,
    "PS_Male": 3,
    "PS_Female": 2,
    "PS_Total": 5,
    "ولسوالي": "علی آباد",
    "Region": "North Eastern Region"
   },
   "geometry": {
    "x": 7670689.2644645153,
    "y": 4370157.3687835326
   }
  },
  {
   "attributes": {
    "OBJECTID": 1589,
    "ولایت": "کندز",
    "Province": "KUNDUZ",
    "PC_Code": "1903137",
    "District": "ALI ABAD",
    "د_مرکز_نوم__نام_مرکز": "لیسه شنه تیپه",
    "Polling_Center_Name": "Shana Tipa High School",
    "د_مرکز_ځای__موقعیت_مرکز": "شین تیپه",
    "Polling_Center_Location": "Sheen Tipa",
    "Map_Accuracy": "Building",
    "Map_Accuracy_Dari": "تعمیر",
    "Status": "Open",
    "Status_Dari": null,
    "PS_Male": 3,
    "PS_Female": 1,
    "PS_Total": 4,
    "ولسوالي": "علی آباد",
    "Region": "North Eastern Region"
   },
   "geometry": {
    "x": 7669088.6682980927,
    "y": 4386545.1829028185
   }
  },
  {
   "attributes": {
    "OBJECTID": 1590,
    "ولایت": "کندز",
    "Province": "KUNDUZ",
    "PC_Code": "1903138",
    "District": "ALI ABAD",
    "د_مرکز_نوم__نام_مرکز": "مسجد خیل گدا",
    "Polling_Center_Name": "Khel Gada Mosque",
    "د_مرکز_ځای__موقعیت_مرکز": "قریه خیل گدا",
    "Polling_Center_Location": "Khel Gada Village",
    "Map_Accuracy": "Building",
    "Map_Accuracy_Dari": "تعمیر",
    "Status": "Open",
    "Status_Dari": null,
    "PS_Male": 3,
    "PS_Female": 2,
    "PS_Total": 5,
    "ولسوالي": "علی آباد",
    "Region": "North Eastern Region"
   },
   "geometry": {
    "x": 7669984.6777662961,
    "y": 4372281.6881323671
   }
  },
  {
   "attributes": {
    "OBJECTID": 1591,
    "ولایت": "کندز",
    "Province": "KUNDUZ",
    "PC_Code": "1904145",
    "District": "KHAN ABAD",
    "د_مرکز_نوم__نام_مرکز": "مسجد قریه نیک پای",
    "Polling_Center_Name": "Nikpay Village Mosque",
    "د_مرکز_ځای__موقعیت_مرکز": "قریه نیک پای",
    "Polling_Center_Location": "Nekpay Village",
    "Map_Accuracy": "Building",
    "Map_Accuracy_Dari": "تعمیر",
    "Status": "Open",
    "Status_Dari": null,
    "PS_Male": 2,
    "PS_Female": 1,
    "PS_Total": 3,
    "ولسوالي": "خان آباد",
    "Region": "North Eastern Region"
   },
   "geometry": {
    "x": 7683208.5994895492,
    "y": 4397770.1570219686
   }
  },
  {
   "attributes": {
    "OBJECTID": 1592,
    "ولایت": "کندز",
    "Province": "KUNDUZ",
    "PC_Code": "1904210",
    "District": "KHAN ABAD",
    "د_مرکز_نوم__نام_مرکز": "مسجد میالی",
    "Polling_Center_Name": "Miyali Mosque",
    "د_مرکز_ځای__موقعیت_مرکز": "قریه دره میالی اول",
    "Polling_Center_Location": "Dara-e-Miyali Awal Village",
    "Map_Accuracy": "Building",
    "Map_Accuracy_Dari": "تعمیر",
    "Status": "Open",
    "Status_Dari": null,
    "PS_Male": 1,
    "PS_Female": 1,
    "PS_Total": 2,
    "ولسوالي": "خان آباد",
    "Region": "North Eastern Region"
   },
   "geometry": {
    "x": 7694525.7552584885,
    "y": 4381638.4330854844
   }
  },
  {
   "attributes": {
    "OBJECTID": 1593,
    "ولایت": "کندز",
    "Province": "KUNDUZ",
    "PC_Code": "1904211",
    "District": "KHAN ABAD",
    "د_مرکز_نوم__نام_مرکز": "مکتب سجانی",
    "Polling_Center_Name": "Sajjani School",
    "د_مرکز_ځای__موقعیت_مرکز": "قریه سجانی",
    "Polling_Center_Location": "Sajjani Village",
    "Map_Accuracy": "Building",
    "Map_Accuracy_Dari": "تعمیر",
    "Status": "Open",
    "Status_Dari": null,
    "PS_Male": 2,
    "PS_Female": 1,
    "PS_Total": 3,
    "ولسوالي": "خان آباد",
    "Region": "North Eastern Region"
   },
   "geometry": {
    "x": 7687156.8001521649,
    "y": 4406491.8588596582
   }
  },
  {
   "attributes": {
    "OBJECTID": 1594,
    "ولایت": "کندز",
    "Province": "KUNDUZ",
    "PC_Code": "1905060",
    "District": "HAZRAT-E-IMAM SAHIB",
    "د_مرکز_نوم__نام_مرکز": "لیسه اجغن",
    "Polling_Center_Name": "Ajghan high School",
    "د_مرکز_ځای__موقعیت_مرکز": "قریه اجغن",
    "Polling_Center_Location": "Ajghan Village",
    "Map_Accuracy": "Building",
    "Map_Accuracy_Dari": "تعمیر",
    "Status": "Open",
    "Status_Dari": null,
    "PS_Male": 3,
    "PS_Female": 1,
    "PS_Total": 4,
    "ولسوالي": "حضرت امام صاحب",
    "Region": "North Eastern Region"
   },
   "geometry": {
    "x": 7664821.9736667583,
    "y": 4461282.2509145979
   }
  },
  {
   "attributes": {
    "OBJECTID": 1595,
    "ولایت": "کندز",
    "Province": "KUNDUZ",
    "PC_Code": "1905061",
    "District": "HAZRAT-E-IMAM SAHIB",
    "د_مرکز_نوم__نام_مرکز": "مکتب قطر بلاق",
    "Polling_Center_Name": "Qotr Blaaq School",
    "د_مرکز_ځای__موقعیت_مرکز": "قطر بلاق",
    "Polling_Center_Location": "Qotr Blaaq",
    "Map_Accuracy": "Building",
    "Map_Accuracy_Dari": "تعمیر",
    "Status": "Open",
    "Status_Dari": null,
    "PS_Male": 1,
    "PS_Female": 1,
    "PS_Total": 2,
    "ولسوالي": "حضرت امام صاحب",
    "Region": "North Eastern Region"
   },
   "geometry": {
    "x": 7688550.3676692005,
    "y": 4455701.6425516084
   }
  },
  {
   "attributes": {
    "OBJECTID": 1596,
    "ولایت": "کندز",
    "Province": "KUNDUZ",
    "PC_Code": "1905064",
    "District": "HAZRAT-E-IMAM SAHIB",
    "د_مرکز_نوم__نام_مرکز": "مکتب باسوس",
    "Polling_Center_Name": "Basoos School",
    "د_مرکز_ځای__موقعیت_مرکز": "باسوس",
    "Polling_Center_Location": "Basoos",
    "Map_Accuracy": "Building",
    "Map_Accuracy_Dari": "تعمیر",
    "Status": "Open",
    "Status_Dari": null,
    "PS_Male": 3,
    "PS_Female": 2,
    "PS_Total": 5,
    "ولسوالي": "حضرت امام صاحب",
    "Region": "North Eastern Region"
   },
   "geometry": {
    "x": 7658497.1174604362,
    "y": 4463291.4984490899
   }
  },
  {
   "attributes": {
    "OBJECTID": 1597,
    "ولایت": "کندز",
    "Province": "KUNDUZ",
    "PC_Code": "1905065",
    "District": "HAZRAT-E-IMAM SAHIB",
    "د_مرکز_نوم__نام_مرکز": "مکتب ابتدائیه ایشان توپ",
    "Polling_Center_Name": "Eshantop Primary School",
    "د_مرکز_ځای__موقعیت_مرکز": "ایشان توپ",
    "Polling_Center_Location": "Eshantop ",
    "Map_Accuracy": "Building",
    "Map_Accuracy_Dari": "تعمیر",
    "Status": "Open",
    "Status_Dari": null,
    "PS_Male": 3,
    "PS_Female": 3,
    "PS_Total": 6,
    "ولسوالي": "حضرت امام صاحب",
    "Region": "North Eastern Region"
   },
   "geometry": {
    "x": 7681470.2287553465,
    "y": 4464935.367503304
   }
  },
  {
   "attributes": {
    "OBJECTID": 1598,
    "ولایت": "کندز",
    "Province": "KUNDUZ",
    "PC_Code": "1905089",
    "District": "HAZRAT-E-IMAM SAHIB",
    "د_مرکز_نوم__نام_مرکز": "مکتب قره ول",
    "Polling_Center_Name": "Qara Wol School",
    "د_مرکز_ځای__موقعیت_مرکز": "قره ول",
    "Polling_Center_Location": "Qara Wol",
    "Map_Accuracy": "Building",
    "Map_Accuracy_Dari": "تعمیر",
    "Status": "Open",
    "Status_Dari": null,
    "PS_Male": 3,
    "PS_Female": 1,
    "PS_Total": 4,
    "ولسوالي": "حضرت امام صاحب",
    "Region": "North Eastern Region"
   },
   "geometry": {
    "x": 7656505.2533213831,
    "y": 4469743.9288659636
   }
  },
  {
   "attributes": {
    "OBJECTID": 1599,
    "ولایت": "کندز",
    "Province": "KUNDUZ",
    "PC_Code": "1905090",
    "District": "HAZRAT-E-IMAM SAHIB",
    "د_مرکز_نوم__نام_مرکز": "مکتب ابتدائیه نوری",
    "Polling_Center_Name": "Noori Primary School",
    "د_مرکز_ځای__موقعیت_مرکز": "عرب قشلاق",
    "Polling_Center_Location": "Arab Qashlaq",
    "Map_Accuracy": "Building",
    "Map_Accuracy_Dari": "تعمیر",
    "Status": "Open",
    "Status_Dari": null,
    "PS_Male": 3,
    "PS_Female": 1,
    "PS_Total": 4,
    "ولسوالي": "حضرت امام صاحب",
    "Region": "North Eastern Region"
   },
   "geometry": {
    "x": 7659527.7756451126,
    "y": 4466787.0020786375
   }
  },
  {
   "attributes": {
    "OBJECTID": 1600,
    "ولایت": "کندز",
    "Province": "KUNDUZ",
    "PC_Code": "1906216",
    "District": "DASHT-E-ARCHI",
    "د_مرکز_نوم__نام_مرکز": "مسجد شیرین",
    "Polling_Center_Name": "Shereen Mosque",
    "د_مرکز_ځای__موقعیت_مرکز": "قریه قزم بلاق",
    "Polling_Center_Location": "Qozm Blaq Village",
    "Map_Accuracy": "Building",
    "Map_Accuracy_Dari": "تعمیر",
    "Status": "Open",
    "Status_Dari": null,
    "PS_Male": 3,
    "PS_Female": 2,
    "PS_Total": 5,
    "ولسوالي": "دشت ارچی",
    "Region": "North Eastern Region"
   },
   "geometry": {
    "x": 7710441.1484981971,
    "y": 4421731.0050635943
   }
  }
 ]
}