{
 "displayFieldName": "Polling_Center_Name",
 "fieldAliases": {
  "OBJECTID": "OBJECTID",
  "ولایت": "ولایت",
  "Province": "Province",
  "PC_Code": "PC_Code",
  "District": "District",
  "د_مرکز_نوم__نام_مرکز": "د_مرکز_نوم__نام_مرکز",
  "Polling_Center_Name": "Polling_Center_Name",
  "د_مرکز_ځای__موقعیت_مرکز": "د_مرکز_ځای__موقعیت_مرکز",
  "Polling_Center_Location": "Polling_Center_Location",
  "Map_Accuracy": "Map_Accuracy",
  "Map_Accuracy_Dari": "Map_Accuracy_Dari",
  "Status": "Status",
  "Status_Dari": "Status_Dari",
  "PS_Male": "PS_Male",
  "PS_Female": "PS_Female",
  "PS_Total": "PS_Total",
  "ولسوالي": "ولسوالي",
  "Region": "Region"
 },
 "geometryType": "esriGeometryPoint",
 "spatialReference": {
  "wkid": 102100,
  "latestWkid": 3857
 },
 "fields": [
  {
   "name": "OBJECTID",
   "type": "esriFieldTypeOID",
   "alias": "OBJECTID"
  },
  {
   "name": "ولایت",
   "type": "esriFieldTypeString",
   "alias": "ولایت",
   "length": 255
  },
  {
   "name": "Province",
   "type": "esriFieldTypeString",
   "alias": "Province",
   "length": 255
  },
  {
   "name": "PC_Code",
   "type": "esriFieldTypeString",
   "alias": "PC_Code",
   "length": 255
  },
  {
   "name": "District",
   "type": "esriFieldTypeString",
   "alias": "District",
   "length": 255
  },
  {
   "name": "د_مرکز_نوم__نام_مرکز",
   "type": "esriFieldTypeString",
   "alias": "د_مرکز_نوم__نام_مرکز",
   "length": 255
  },
  {
   "name": "Polling_Center_Name",
   "type": "esriFieldTypeString",
   "alias": "Polling_Center_Name",
   "length": 255
  },
  {
   "name": "د_مرکز_ځای__موقعیت_مرکز",
   "type": "esriFieldTypeString",
   "alias": "د_مرکز_ځای__موقعیت_مرکز",
   "length": 255
  },
  {
   "name": "Polling_Center_Location",
   "type": "esriFieldTypeString",
   "alias": "Polling_Center_Location",
   "length": 255
  },
  {
   "name": "Map_Accuracy",
   "type": "esriFieldTypeString",
   "alias": "Map_Accuracy",
   "length": 10
  },
  {
   "name": "Map_Accuracy_Dari",
   "type": "esriFieldTypeString",
   "alias": "Map_Accuracy_Dari",
   "length": 50
  },
  {
   "name": "Status",
   "type": "esriFieldTypeString",
   "alias": "Status",
   "length": 6
  },
  {
   "name": "Status_Dari",
   "type": "esriFieldTypeString",
   "alias": "Status_Dari",
   "length": 8
  },
  {
   "name": "PS_Male",
   "type": "esriFieldTypeSmallInteger",
   "alias": "PS_Male"
  },
  {
   "name": "PS_Female",
   "type": "esriFieldTypeSmallInteger",
   "alias": "PS_Female"
  },
  {
   "name": "PS_Total",
   "type": "esriFieldTypeSmallInteger",
   "alias": "PS_Total"
  },
  {
   "name": "ولسوالي",
   "type": "esriFieldTypeString",
   "alias": "ولسوالي",
   "length": 255
  },
  {
   "name": "Region",
   "type": "esriFieldTypeString",
   "alias": "Region",
   "length": 50
  }
 ],
 "features": [
  {
   "attributes": {
    "OBJECTID": 1801,
    "ولایت": "بدخشان",
    "Province": "BADAKHSHAN",
    "PC_Code": "1728211",
    "District": "WAKHAN",
    "د_مرکز_نوم__نام_مرکز": "مکتب متوسطه سست ",
    "Polling_Center_Name": "Khana Qala Panja Mosque",
    "د_مرکز_ځای__موقعیت_مرکز": "سست",
    "Polling_Center_Location": "Sast",
    "Map_Accuracy": "Building",
    "Map_Accuracy_Dari": "تعمیر",
    "Status": "Open",
    "Status_Dari": null,
    "PS_Male": 1,
    "PS_Female": 1,
    "PS_Total": 2,
    "ولسوالي": "واخان",
    "Region": "North Eastern Region"
   },
   "geometry": {
    "x": 8103414.787531849,
    "y": 4435888.793106705
   }
  },
  {
   "attributes": {
    "OBJECTID": 1802,
    "ولایت": "بدخشان",
    "Province": "BADAKHSHAN",
    "PC_Code": "1701008",
    "District": "FAIZ ABAD",
    "د_مرکز_نوم__نام_مرکز": "مسجد جامع اتفاق",
    "Polling_Center_Name": "Itifaq Mosque",
    "د_مرکز_ځای__موقعیت_مرکز": "ناحیه اول",
    "Polling_Center_Location": "D01 - Zone One",
    "Map_Accuracy": "Building",
    "Map_Accuracy_Dari": "تعمیر",
    "Status": "Open",
    "Status_Dari": null,
    "PS_Male": 4,
    "PS_Female": 2,
    "PS_Total": 6,
    "ولسوالي": "فیض آباد",
    "Region": "North Eastern Region"
   },
   "geometry": {
    "x": 7856617.8431635927,
    "y": 4455737.5366678787
   }
  },
  {
   "attributes": {
    "OBJECTID": 1803,
    "ولایت": "بدخشان",
    "Province": "BADAKHSHAN",
    "PC_Code": "1701009",
    "District": "FAIZ ABAD",
    "د_مرکز_نوم__نام_مرکز": "مکتب ضیاوالدین شهید",
    "Polling_Center_Name": "Ziauddin Shaheed School",
    "د_مرکز_ځای__موقعیت_مرکز": "قریه آس",
    "Polling_Center_Location": "Aas Village",
    "Map_Accuracy": "Building",
    "Map_Accuracy_Dari": "تعمیر",
    "Status": "Open",
    "Status_Dari": null,
    "PS_Male": 3,
    "PS_Female": 1,
    "PS_Total": 4,
    "ولسوالي": "فیض آباد",
    "Region": "North Eastern Region"
   },
   "geometry": {
    "x": 7851310.6953455862,
    "y": 4460983.9232517369
   }
  },
  {
   "attributes": {
    "OBJECTID": 1804,
    "ولایت": "کندز",
    "Province": "KUNDUZ",
    "PC_Code": "1906185",
    "District": "DASHT-E-ARCHI",
    "د_مرکز_نوم__نام_مرکز": "لیسه ملاقلی",
    "Polling_Center_Name": "Mula Qali High School",
    "د_مرکز_ځای__موقعیت_مرکز": "قریه ملا قلی",
    "Polling_Center_Location": "Mula Qali Village",
    "Map_Accuracy": "Building",
    "Map_Accuracy_Dari": "تعمیر",
    "Status": "Open",
    "Status_Dari": null,
    "PS_Male": 2,
    "PS_Female": 1,
    "PS_Total": 3,
    "ولسوالي": "دشت ارچی",
    "Region": "North Eastern Region"
   },
   "geometry": {
    "x": 7700474.2948129959,
    "y": 4451303.6991894199
   }
  },
  {
   "attributes": {
    "OBJECTID": 1805,
    "ولایت": "کندز",
    "Province": "KUNDUZ",
    "PC_Code": "1905067",
    "District": "HAZRAT-E-IMAM SAHIB",
    "د_مرکز_نوم__نام_مرکز": "مکتب متوسطه قرغان تیپه",
    "Polling_Center_Name": "Qarghan Tapa Secondary School",
    "د_مرکز_ځای__موقعیت_مرکز": "قورغان تپه",
    "Polling_Center_Location": "Qorghan Tapa",
    "Map_Accuracy": "Building",
    "Map_Accuracy_Dari": "تعمیر",
    "Status": "Open",
    "Status_Dari": null,
    "PS_Male": 3,
    "PS_Female": 1,
    "PS_Total": 4,
    "ولسوالي": "حضرت امام صاحب",
    "Region": "North Eastern Region"
   },
   "geometry": {
    "x": 7674860.448085946,
    "y": 4469505.8286250765
   }
  },
  {
   "attributes": {
    "OBJECTID": 1806,
    "ولایت": "بدخشان",
    "Province": "BADAKHSHAN",
    "PC_Code": "1701019",
    "District": "FAIZ ABAD",
    "د_مرکز_نوم__نام_مرکز": "تعمیر کهنه لیسه عالی مخفی ",
    "Polling_Center_Name": "Makhfi High School Old Building",
    "د_مرکز_ځای__موقعیت_مرکز": "ناحیه اول شهر کهنه",
    "Polling_Center_Location": "Nahia 1 Shahr Kuhna",
    "Map_Accuracy": "Building",
    "Map_Accuracy_Dari": "تعمیر",
    "Status": "Open",
    "Status_Dari": null,
    "PS_Male": 3,
    "PS_Female": 2,
    "PS_Total": 5,
    "ولسوالي": "فیض آباد",
    "Region": "North Eastern Region"
   },
   "geometry": {
    "x": 7857023.3834081413,
    "y": 4455497.5310245473
   }
  },
  {
   "attributes": {
    "OBJECTID": 1807,
    "ولایت": "بدخشان",
    "Province": "BADAKHSHAN",
    "PC_Code": "1702056",
    "District": "ARGO",
    "د_مرکز_نوم__نام_مرکز": "لیسه نسوان شهر وحدت ",
    "Polling_Center_Name": "Shahr-e-Wahdat Girls High School",
    "د_مرکز_ځای__موقعیت_مرکز": " شهر وحدت",
    "Polling_Center_Location": "Shahr-e-Wahdat",
    "Map_Accuracy": "Building",
    "Map_Accuracy_Dari": "تعمیر",
    "Status": "Open",
    "Status_Dari": null,
    "PS_Male": 3,
    "PS_Female": 1,
    "PS_Total": 4,
    "ولسوالي": "ارگو",
    "Region": "North Eastern Region"
   },
   "geometry": {
    "x": 7839259.4365154356,
    "y": 4446338.211482631
   }
  },
  {
   "attributes": {
    "OBJECTID": 1808,
    "ولایت": "بدخشان",
    "Province": "BADAKHSHAN",
    "PC_Code": "1702057",
    "District": "ARGO",
    "د_مرکز_نوم__نام_مرکز": "مکتب برلاس چنار",
    "Polling_Center_Name": "Barlaas Chenar School",
    "د_مرکز_ځای__موقعیت_مرکز": "برلاس چنار",
    "Polling_Center_Location": "Barlaas Chenar",
    "Map_Accuracy": "Building",
    "Map_Accuracy_Dari": "تعمیر",
    "Status": "Open",
    "Status_Dari": null,
    "PS_Male": 2,
    "PS_Female": 1,
    "PS_Total": 3,
    "ولسوالي": "ارگو",
    "Region": "North Eastern Region"
   },
   "geometry": {
    "x": 7829044.121066371,
    "y": 4445778.7976248171
   }
  },
  {
   "attributes": {
    "OBJECTID": 1809,
    "ولایت": "بدخشان",
    "Province": "BADAKHSHAN",
    "PC_Code": "1704025",
    "District": "YAFTAL-E-SUFLA",
    "د_مرکز_نوم__نام_مرکز": "کلینیک نالند مرکز ولسوالی",
    "Polling_Center_Name": "Naland Clinic - District Office",
    "د_مرکز_ځای__موقعیت_مرکز": "نالند",
    "Polling_Center_Location": "Naland",
    "Map_Accuracy": "Building",
    "Map_Accuracy_Dari": "تعمیر",
    "Status": "Open",
    "Status_Dari": null,
    "PS_Male": 2,
    "PS_Female": 2,
    "PS_Total": 4,
    "ولسوالي": "یفتل سفلا",
    "Region": "North Eastern Region"
   },
   "geometry": {
    "x": 7838461.0041468935,
    "y": 4478464.6202829806
   }
  },
  {
   "attributes": {
    "OBJECTID": 1810,
    "ولایت": "بدخشان",
    "Province": "BADAKHSHAN",
    "PC_Code": "1704026",
    "District": "YAFTAL-E-SUFLA",
    "د_مرکز_نوم__نام_مرکز": "مکتب اناردره ",
    "Polling_Center_Name": "Anar Dara School",
    "د_مرکز_ځای__موقعیت_مرکز": "انار دره",
    "Polling_Center_Location": "Anar Dara",
    "Map_Accuracy": "Building",
    "Map_Accuracy_Dari": "تعمیر",
    "Status": "Open",
    "Status_Dari": null,
    "PS_Male": 3,
    "PS_Female": 1,
    "PS_Total": 4,
    "ولسوالي": "یفتل سفلا",
    "Region": "North Eastern Region"
   },
   "geometry": {
    "x": 7822562.9578234386,
    "y": 4469780.125180833
   }
  },
  {
   "attributes": {
    "OBJECTID": 1811,
    "ولایت": "بدخشان",
    "Province": "BADAKHSHAN",
    "PC_Code": "1704031",
    "District": "YAFTAL-E-SUFLA",
    "د_مرکز_نوم__نام_مرکز": "مکتب کشت گاه ",
    "Polling_Center_Name": "Keshtgaah School",
    "د_مرکز_ځای__موقعیت_مرکز": "دشت شیبر",
    "Polling_Center_Location": "Dasht Shebar",
    "Map_Accuracy": "Building",
    "Map_Accuracy_Dari": "تعمیر",
    "Status": "Open",
    "Status_Dari": null,
    "PS_Male": 1,
    "PS_Female": 2,
    "PS_Total": 3,
    "ولسوالي": "یفتل سفلا",
    "Region": "North Eastern Region"
   },
   "geometry": {
    "x": 7829730.5626875926,
    "y": 4486549.6686342712
   }
  },
  {
   "attributes": {
    "OBJECTID": 1812,
    "ولایت": "بدخشان",
    "Province": "BADAKHSHAN",
    "PC_Code": "1704032",
    "District": "YAFTAL-E-SUFLA",
    "د_مرکز_نوم__نام_مرکز": "مکتب شلخزار ",
    "Polling_Center_Name": "Shalakhzar School",
    "د_مرکز_ځای__موقعیت_مرکز": "شلخزار ",
    "Polling_Center_Location": "Shalakhzar",
    "Map_Accuracy": "Building",
    "Map_Accuracy_Dari": "تعمیر",
    "Status": "Open",
    "Status_Dari": null,
    "PS_Male": 2,
    "PS_Female": 1,
    "PS_Total": 3,
    "ولسوالي": "یفتل سفلا",
    "Region": "North Eastern Region"
   },
   "geometry": {
    "x": 7831277.4583316548,
    "y": 4494754.4212858761
   }
  },
  {
   "attributes": {
    "OBJECTID": 1813,
    "ولایت": "بدخشان",
    "Province": "BADAKHSHAN",
    "PC_Code": "1705077",
    "District": "KHASH",
    "د_مرکز_نوم__نام_مرکز": "لیسه نسوان تاجکان ",
    "Polling_Center_Name": "Tajekan Girls High School",
    "د_مرکز_ځای__موقعیت_مرکز": "تاجکان",
    "Polling_Center_Location": "Tajekan",
    "Map_Accuracy": "Building",
    "Map_Accuracy_Dari": "تعمیر",
    "Status": "Open",
    "Status_Dari": null,
    "PS_Male": 2,
    "PS_Female": 2,
    "PS_Total": 4,
    "ولسوالي": "خاش",
    "Region": "North Eastern Region"
   },
   "geometry": {
    "x": 7872184.9800555231,
    "y": 4437885.8251552386
   }
  },
  {
   "attributes": {
    "OBJECTID": 1814,
    "ولایت": "بدخشان",
    "Province": "BADAKHSHAN",
    "PC_Code": "1705078",
    "District": "KHASH",
    "د_مرکز_نوم__نام_مرکز": "مکتب متوسطه درخان ",
    "Polling_Center_Name": "Durkhaan Secondary School",
    "د_مرکز_ځای__موقعیت_مرکز": "درخان",
    "Polling_Center_Location": "Durkhaan",
    "Map_Accuracy": "Building",
    "Map_Accuracy_Dari": "تعمیر",
    "Status": "Open",
    "Status_Dari": null,
    "PS_Male": 2,
    "PS_Female": 2,
    "PS_Total": 4,
    "ولسوالي": "خاش",
    "Region": "North Eastern Region"
   },
   "geometry": {
    "x": 7875793.2043140857,
    "y": 4442763.8472602665
   }
  },
  {
   "attributes": {
    "OBJECTID": 1815,
    "ولایت": "بدخشان",
    "Province": "BADAKHSHAN",
    "PC_Code": "1707063",
    "District": "DARAYIM",
    "د_مرکز_نوم__نام_مرکز": "لیسه عالی مدینه ",
    "Polling_Center_Name": "Madina High School",
    "د_مرکز_ځای__موقعیت_مرکز": "قریه فاضلان",
    "Polling_Center_Location": "Fazlan Village",
    "Map_Accuracy": "Building",
    "Map_Accuracy_Dari": "تعمیر",
    "Status": "Open",
    "Status_Dari": null,
    "PS_Male": 3,
    "PS_Female": 1,
    "PS_Total": 4,
    "ولسوالي": "درایم",
    "Region": "North Eastern Region"
   },
   "geometry": {
    "x": 7831123.5980974576,
    "y": 4429420.1238843268
   }
  },
  {
   "attributes": {
    "OBJECTID": 1816,
    "ولایت": "بدخشان",
    "Province": "BADAKHSHAN",
    "PC_Code": "1707068",
    "District": "DARAYIM",
    "د_مرکز_نوم__نام_مرکز": "مسجد جامع نو آباد روی دشت ",
    "Polling_Center_Name": "Naw Abaad Roy Dasht Mosque",
    "د_مرکز_ځای__موقعیت_مرکز": "حویلی صاحب الدین",
    "Polling_Center_Location": "Sahibuddin House",
    "Map_Accuracy": "Building",
    "Map_Accuracy_Dari": "تعمیر",
    "Status": "Open",
    "Status_Dari": null,
    "PS_Male": 2,
    "PS_Female": 1,
    "PS_Total": 3,
    "ولسوالي": "درایم",
    "Region": "North Eastern Region"
   },
   "geometry": {
    "x": 7833803.5101979803,
    "y": 4425612.4588206382
   }
  },
  {
   "attributes": {
    "OBJECTID": 1817,
    "ولایت": "بدخشان",
    "Province": "BADAKHSHAN",
    "PC_Code": "1707071",
    "District": "DARAYIM",
    "د_مرکز_نوم__نام_مرکز": "لیسه عارفان ",
    "Polling_Center_Name": "Aarifan High School",
    "د_مرکز_ځای__موقعیت_مرکز": " باغ صوفی",
    "Polling_Center_Location": "Bagh Sufi",
    "Map_Accuracy": "Building",
    "Map_Accuracy_Dari": "تعمیر",
    "Status": "Open",
    "Status_Dari": null,
    "PS_Male": 2,
    "PS_Female": 1,
    "PS_Total": 3,
    "ولسوالي": "درایم",
    "Region": "North Eastern Region"
   },
   "geometry": {
    "x": 7845714.3973766267,
    "y": 4419474.728321624
   }
  },
  {
   "attributes": {
    "OBJECTID": 1818,
    "ولایت": "بدخشان",
    "Province": "BADAKHSHAN",
    "PC_Code": "1707072",
    "District": "DARAYIM",
    "د_مرکز_نوم__نام_مرکز": "لیسه دو آب منجی ",
    "Polling_Center_Name": "Do-Aab Manji High School",
    "د_مرکز_ځای__موقعیت_مرکز": "دو آب",
    "Polling_Center_Location": "Do-Aab",
    "Map_Accuracy": "Building",
    "Map_Accuracy_Dari": "تعمیر",
    "Status": "Open",
    "Status_Dari": null,
    "PS_Male": 2,
    "PS_Female": 1,
    "PS_Total": 3,
    "ولسوالي": "درایم",
    "Region": "North Eastern Region"
   },
   "geometry": {
    "x": 7851300.7400435247,
    "y": 4417412.6399723217
   }
  },
  {
   "attributes": {
    "OBJECTID": 1819,
    "ولایت": "بدخشان",
    "Province": "BADAKHSHAN",
    "PC_Code": "1709134",
    "District": "YAWAN",
    "د_مرکز_نوم__نام_مرکز": "مکتب زو ",
    "Polling_Center_Name": "Zo School",
    "د_مرکز_ځای__موقعیت_مرکز": "زو",
    "Polling_Center_Location": "Zo",
    "Map_Accuracy": "Building",
    "Map_Accuracy_Dari": "تعمیر",
    "Status": "Open",
    "Status_Dari": null,
    "PS_Male": 2,
    "PS_Female": 1,
    "PS_Total": 3,
    "ولسوالي": "یاوان",
    "Region": "North Eastern Region"
   },
   "geometry": {
    "x": 7846444.1445061564,
    "y": 4509966.0978210391
   }
  },
  {
   "attributes": {
    "OBJECTID": 1820,
    "ولایت": "بدخشان",
    "Province": "BADAKHSHAN",
    "PC_Code": "1709135",
    "District": "YAWAN",
    "د_مرکز_نوم__نام_مرکز": "مکتب پیتاو ",
    "Polling_Center_Name": "Petaaw School",
    "د_مرکز_ځای__موقعیت_مرکز": "پیتاو",
    "Polling_Center_Location": "Petaaw",
    "Map_Accuracy": "Building",
    "Map_Accuracy_Dari": "تعمیر",
    "Status": "Open",
    "Status_Dari": null,
    "PS_Male": 1,
    "PS_Female": 1,
    "PS_Total": 2,
    "ولسوالي": "یاوان",
    "Region": "North Eastern Region"
   },
   "geometry": {
    "x": 7849126.0058109723,
    "y": 4512051.7780605154
   }
  },
  {
   "attributes": {
    "OBJECTID": 1821,
    "ولایت": "بدخشان",
    "Province": "BADAKHSHAN",
    "PC_Code": "1710084",
    "District": "JURM",
    "د_مرکز_نوم__نام_مرکز": "لیسه غلام محمد خر انداب",
    "Polling_Center_Name": "Ghulam Mohammad Khar Andab High School",
    "د_مرکز_ځای__موقعیت_مرکز": "خر انداب",
    "Polling_Center_Location": "Khar Andab",
    "Map_Accuracy": "Building",
    "Map_Accuracy_Dari": "تعمیر",
    "Status": "Open",
    "Status_Dari": null,
    "PS_Male": 2,
    "PS_Female": 2,
    "PS_Total": 4,
    "ولسوالي": "جرم",
    "Region": "North Eastern Region"
   },
   "geometry": {
    "x": 7885768.0095505146,
    "y": 4418675.3087736312
   }
  },
  {
   "attributes": {
    "OBJECTID": 1822,
    "ولایت": "بدخشان",
    "Province": "BADAKHSHAN",
    "PC_Code": "1713137",
    "District": "SHAHR-E-BUZURG",
    "د_مرکز_نوم__نام_مرکز": "لیسه خوردکان",
    "Polling_Center_Name": "Khordakan High School",
    "د_مرکز_ځای__موقعیت_مرکز": "خورده کان",
    "Polling_Center_Location": "Khordakan",
    "Map_Accuracy": "Building",
    "Map_Accuracy_Dari": "تعمیر",
    "Status": "Open",
    "Status_Dari": null,
    "PS_Male": 2,
    "PS_Female": 2,
    "PS_Total": 4,
    "ولسوالي": "شهر بزرگ",
    "Region": "North Eastern Region"
   },
   "geometry": {
    "x": 7811083.0574117368,
    "y": 4482555.3810400879
   }
  },
  {
   "attributes": {
    "OBJECTID": 1823,
    "ولایت": "بدخشان",
    "Province": "BADAKHSHAN",
    "PC_Code": "1713138",
    "District": "SHAHR-E-BUZURG",
    "د_مرکز_نوم__نام_مرکز": "مکتب کره مابین ",
    "Polling_Center_Name": "Kura Been School",
    "د_مرکز_ځای__موقعیت_مرکز": "کره بین",
    "Polling_Center_Location": "Kura Been",
    "Map_Accuracy": "Building",
    "Map_Accuracy_Dari": "تعمیر",
    "Status": "Open",
    "Status_Dari": null,
    "PS_Male": 2,
    "PS_Female": 1,
    "PS_Total": 3,
    "ولسوالي": "شهر بزرگ",
    "Region": "North Eastern Region"
   },
   "geometry": {
    "x": 7811747.0926458519,
    "y": 4492461.6943849064
   }
  },
  {
   "attributes": {
    "OBJECTID": 1824,
    "ولایت": "بدخشان",
    "Province": "BADAKHSHAN",
    "PC_Code": "1713143",
    "District": "SHAHR-E-BUZURG",
    "د_مرکز_نوم__نام_مرکز": "باری خم ",
    "Polling_Center_Name": "Baari Kham ",
    "د_مرکز_ځای__موقعیت_مرکز": "بری خم ",
    "Polling_Center_Location": "Baari Kham",
    "Map_Accuracy": "Building",
    "Map_Accuracy_Dari": "تعمیر",
    "Status": "Open",
    "Status_Dari": null,
    "PS_Male": 1,
    "PS_Female": 1,
    "PS_Total": 2,
    "ولسوالي": "شهر بزرگ",
    "Region": "North Eastern Region"
   },
   "geometry": {
    "x": 7797847.2656911789,
    "y": 4488817.4144311836
   }
  },
  {
   "attributes": {
    "OBJECTID": 1825,
    "ولایت": "بدخشان",
    "Province": "BADAKHSHAN",
    "PC_Code": "1713144",
    "District": "SHAHR-E-BUZURG",
    "د_مرکز_نوم__نام_مرکز": "لیسه چوگانی ",
    "Polling_Center_Name": "Chawgani High School",
    "د_مرکز_ځای__موقعیت_مرکز": "چوگانی ",
    "Polling_Center_Location": "Chawgani",
    "Map_Accuracy": "Building",
    "Map_Accuracy_Dari": "تعمیر",
    "Status": "Open",
    "Status_Dari": null,
    "PS_Male": 2,
    "PS_Female": 1,
    "PS_Total": 3,
    "ولسوالي": "شهر بزرگ",
    "Region": "North Eastern Region"
   },
   "geometry": {
    "x": 7807653.9940812383,
    "y": 4496493.0817548577
   }
  },
  {
   "attributes": {
    "OBJECTID": 1826,
    "ولایت": "بدخشان",
    "Province": "BADAKHSHAN",
    "PC_Code": "1715162",
    "District": "KISHM",
    "د_مرکز_نوم__نام_مرکز": "مکتب وخشی",
    "Polling_Center_Name": "Wakhshi School",
    "د_مرکز_ځای__موقعیت_مرکز": "وخشی",
    "Polling_Center_Location": "Wakhshi",
    "Map_Accuracy": "Building",
    "Map_Accuracy_Dari": "تعمیر",
    "Status": "Open",
    "Status_Dari": null,
    "PS_Male": 1,
    "PS_Female": 1,
    "PS_Total": 2,
    "ولسوالي": "کشم",
    "Region": "North Eastern Region"
   },
   "geometry": {
    "x": 7812245.7661159802,
    "y": 4414946.8622211814
   }
  },
  {
   "attributes": {
    "OBJECTID": 1827,
    "ولایت": "بدخشان",
    "Province": "BADAKHSHAN",
    "PC_Code": "1715163",
    "District": "KISHM",
    "د_مرکز_نوم__نام_مرکز": "مکتب خمبک",
    "Polling_Center_Name": "Khumbak School",
    "د_مرکز_ځای__موقعیت_مرکز": "خمبک",
    "Polling_Center_Location": "Khumbak",
    "Map_Accuracy": "Building",
    "Map_Accuracy_Dari": "تعمیر",
    "Status": "Open",
    "Status_Dari": null,
    "PS_Male": 1,
    "PS_Female": 1,
    "PS_Total": 2,
    "ولسوالي": "کشم",
    "Region": "North Eastern Region"
   },
   "geometry": {
    "x": 7811392.845083084,
    "y": 4415639.0142312516
   }
  },
  {
   "attributes": {
    "OBJECTID": 1828,
    "ولایت": "بدخشان",
    "Province": "BADAKHSHAN",
    "PC_Code": "1716098",
    "District": "WARDOOJ",
    "د_مرکز_نوم__نام_مرکز": "لیسه نسوان تیر گران ",
    "Polling_Center_Name": "Teer Garan Girls High School",
    "د_مرکز_ځای__موقعیت_مرکز": "تیر گران",
    "Polling_Center_Location": "Teer Garan",
    "Map_Accuracy": "Building",
    "Map_Accuracy_Dari": "تعمیر",
    "Status": "Open",
    "Status_Dari": null,
    "PS_Male": 1,
    "PS_Female": 1,
    "PS_Total": 2,
    "ولسوالي": "وردوج",
    "Region": "North Eastern Region"
   },
   "geometry": {
    "x": 7919283.0605935445,
    "y": 4395826.893552117
   }
  },
  {
   "attributes": {
    "OBJECTID": 1829,
    "ولایت": "بدخشان",
    "Province": "BADAKHSHAN",
    "PC_Code": "1719221",
    "District": "SHIGHNAN",
    "د_مرکز_نوم__نام_مرکز": "لیسه چاسنور علیا ",
    "Polling_Center_Name": "Chansoor Ulya High School",
    "د_مرکز_ځای__موقعیت_مرکز": "چاسنور علیا",
    "Polling_Center_Location": "Chansor Ulya",
    "Map_Accuracy": "Building",
    "Map_Accuracy_Dari": "تعمیر",
    "Status": "Open",
    "Status_Dari": null,
    "PS_Male": 1,
    "PS_Female": 1,
    "PS_Total": 2,
    "ولسوالي": "شغنان",
    "Region": "North Eastern Region"
   },
   "geometry": {
    "x": 7964087.7734950427,
    "y": 4547621.6286439626
   }
  },
  {
   "attributes": {
    "OBJECTID": 1830,
    "ولایت": "بدخشان",
    "Province": "BADAKHSHAN",
    "PC_Code": "1720238",
    "District": "KHWAHAN",
    "د_مرکز_نوم__نام_مرکز": "مسجد جامع سنگ آب ",
    "Polling_Center_Name": "Sang Aab Mosque",
    "د_مرکز_ځای__موقعیت_مرکز": "سنگ آب ",
    "Polling_Center_Location": "Sang Aab",
    "Map_Accuracy": "Building",
    "Map_Accuracy_Dari": "تعمیر",
    "Status": "Open",
    "Status_Dari": null,
    "PS_Male": 2,
    "PS_Female": 1,
    "PS_Total": 3,
    "ولسوالي": "خواهان",
    "Region": "North Eastern Region"
   },
   "geometry": {
    "x": 7817009.2083902499,
    "y": 4563144.2227304466
   }
  },
  {
   "attributes": {
    "OBJECTID": 1831,
    "ولایت": "بدخشان",
    "Province": "BADAKHSHAN",
    "PC_Code": "1723199",
    "District": "ESHKASHIM",
    "د_مرکز_نوم__نام_مرکز": "مکتب یخدرو ",
    "Polling_Center_Name": "Yakhdaro School",
    "د_مرکز_ځای__موقعیت_مرکز": "یخدرو",
    "Polling_Center_Location": "Yakhdaro",
    "Map_Accuracy": "Building",
    "Map_Accuracy_Dari": "تعمیر",
    "Status": "Open",
    "Status_Dari": null,
    "PS_Male": 1,
    "PS_Female": 1,
    "PS_Total": 2,
    "ولسوالي": "اشکاشم",
    "Region": "North Eastern Region"
   },
   "geometry": {
    "x": 7961869.4309651675,
    "y": 4418923.2302536648
   }
  },
  {
   "attributes": {
    "OBJECTID": 1832,
    "ولایت": "بدخشان",
    "Province": "BADAKHSHAN",
    "PC_Code": "1723200",
    "District": "ESHKASHIM",
    "د_مرکز_نوم__نام_مرکز": "مکتب زیچ",
    "Polling_Center_Name": "Zeech School",
    "د_مرکز_ځای__موقعیت_مرکز": "زیچ",
    "Polling_Center_Location": "Zeech",
    "Map_Accuracy": "Building",
    "Map_Accuracy_Dari": "تعمیر",
    "Status": "Open",
    "Status_Dari": null,
    "PS_Male": 1,
    "PS_Female": 1,
    "PS_Total": 2,
    "ولسوالي": "اشکاشم",
    "Region": "North Eastern Region"
   },
   "geometry": {
    "x": 7951493.3968880717,
    "y": 4447475.5861648675
   }
  },
  {
   "attributes": {
    "OBJECTID": 1833,
    "ولایت": "بدخشان",
    "Province": "BADAKHSHAN",
    "PC_Code": "1725193",
    "District": "ZEBAK",
    "د_مرکز_نوم__نام_مرکز": "مکتب عاشور بیک ",
    "Polling_Center_Name": "Aashor Bek School",
    "د_مرکز_ځای__موقعیت_مرکز": "زرخان",
    "Polling_Center_Location": "Zarkhan",
    "Map_Accuracy": "Building",
    "Map_Accuracy_Dari": "تعمیر",
    "Status": "Open",
    "Status_Dari": null,
    "PS_Male": 1,
    "PS_Female": 1,
    "PS_Total": 2,
    "ولسوالي": "زیباک",
    "Region": "North Eastern Region"
   },
   "geometry": {
    "x": 7947006.3642490208,
    "y": 4383864.1116612274
   }
  },
  {
   "attributes": {
    "OBJECTID": 1834,
    "ولایت": "بدخشان",
    "Province": "BADAKHSHAN",
    "PC_Code": "1725194",
    "District": "ZEBAK",
    "د_مرکز_نوم__نام_مرکز": "مکتب دند قریه دند",
    "Polling_Center_Name": "Dand School",
    "د_مرکز_ځای__موقعیت_مرکز": "دند",
    "Polling_Center_Location": "Dand Village",
    "Map_Accuracy": "Building",
    "Map_Accuracy_Dari": "تعمیر",
    "Status": "Open",
    "Status_Dari": null,
    "PS_Male": 1,
    "PS_Female": 1,
    "PS_Total": 2,
    "ولسوالي": "زیباک",
    "Region": "North Eastern Region"
   },
   "geometry": {
    "x": 7947298.9563986203,
    "y": 4379761.0600283481
   }
  },
  {
   "attributes": {
    "OBJECTID": 1835,
    "ولایت": "بدخشان",
    "Province": "BADAKHSHAN",
    "PC_Code": "1726191",
    "District": "KIRAN WA MENJAN",
    "د_مرکز_نوم__نام_مرکز": "کلینیک شهران",
    "Polling_Center_Name": "Shahran Clinic",
    "د_مرکز_ځای__موقعیت_مرکز": "شهران",
    "Polling_Center_Location": "Shahran",
    "Map_Accuracy": "Building",
    "Map_Accuracy_Dari": "تعمیر",
    "Status": "Open",
    "Status_Dari": null,
    "PS_Male": 1,
    "PS_Female": 1,
    "PS_Total": 2,
    "ولسوالي": "کران و منجان ",
    "Region": "North Eastern Region"
   },
   "geometry": {
    "x": 7892636.1449469309,
    "y": 4298135.3118446246
   }
  },
  {
   "attributes": {
    "OBJECTID": 1836,
    "ولایت": "بدخشان",
    "Province": "BADAKHSHAN",
    "PC_Code": "1727268",
    "District": "DARWAZ-E-BALA",
    "د_مرکز_نوم__نام_مرکز": "مدرسه خرکد",
    "Polling_Center_Name": "Khurkad Madrassa",
    "د_مرکز_ځای__موقعیت_مرکز": "خرکد",
    "Polling_Center_Location": "Khurkad",
    "Map_Accuracy": "Village",
    "Map_Accuracy_Dari": "قریه",
    "Status": "Open",
    "Status_Dari": null,
    "PS_Male": 3,
    "PS_Female": 1,
    "PS_Total": 4,
    "ولسوالي": "درواز بالا (نسی) ",
    "Region": "North Eastern Region"
   },
   "geometry": {
    "x": 7895680.8588111522,
    "y": 4618187.2835380565
   }
  },
  {
   "attributes": {
    "OBJECTID": 1837,
    "ولایت": "بدخشان",
    "Province": "BADAKHSHAN",
    "PC_Code": "1708296",
    "District": "KOHISTAN",
    "د_مرکز_نوم__نام_مرکز": "مسجد زرنود ",
    "Polling_Center_Name": "Zard noor Mosque",
    "د_مرکز_ځای__موقعیت_مرکز": "زرنود بالا",
    "Polling_Center_Location": "Zarnod bala",
    "Map_Accuracy": "Building",
    "Map_Accuracy_Dari": "تعمیر",
    "Status": "Open",
    "Status_Dari": null,
    "PS_Male": 2,
    "PS_Female": 1,
    "PS_Total": 3,
    "ولسوالي": "کوهستان",
    "Region": "North Eastern Region"
   },
   "geometry": {
    "x": 7855536.3813236626,
    "y": 4502444.7770994259
   }
  },
  {
   "attributes": {
    "OBJECTID": 1838,
    "ولایت": "بدخشان",
    "Province": "BADAKHSHAN",
    "PC_Code": "1701285",
    "District": "FAIZ ABAD",
    "د_مرکز_نوم__نام_مرکز": "لیسه عالی مخفی",
    "Polling_Center_Name": "Makhfi High school",
    "د_مرکز_ځای__موقعیت_مرکز": "گذر محکمه",
    "Polling_Center_Location": "Gozar mahkama",
    "Map_Accuracy": "Building",
    "Map_Accuracy_Dari": "تعمیر",
    "Status": "Open",
    "Status_Dari": null,
    "PS_Male": 2,
    "PS_Female": 1,
    "PS_Total": 3,
    "ولسوالي": "فیض آباد",
    "Region": "North Eastern Region"
   },
   "geometry": {
    "x": 7857532.785516832,
    "y": 4456504.8857331565
   }
  },
  {
   "attributes": {
    "OBJECTID": 1839,
    "ولایت": "بدخشان",
    "Province": "BADAKHSHAN",
    "PC_Code": "1702286",
    "District": "ARGO",
    "د_مرکز_نوم__نام_مرکز": "مکتب متوسطه گنده چشمه",
    "Polling_Center_Name": "Gnda chasma Secondary High school",
    "د_مرکز_ځای__موقعیت_مرکز": "گنده چشمه",
    "Polling_Center_Location": "Ganda cheshma",
    "Map_Accuracy": "Building",
    "Map_Accuracy_Dari": "تعمیر",
    "Status": "Open",
    "Status_Dari": null,
    "PS_Male": 2,
    "PS_Female": 1,
    "PS_Total": 3,
    "ولسوالي": "ارگو",
    "Region": "North Eastern Region"
   },
   "geometry": {
    "x": 7842379.6406904673,
    "y": 4445959.9554908434
   }
  },
  {
   "attributes": {
    "OBJECTID": 1840,
    "ولایت": "بدخشان",
    "Province": "BADAKHSHAN",
    "PC_Code": "1711303",
    "District": "TASHKAN",
    "د_مرکز_نوم__نام_مرکز": " مکتب پسته خور",
    "Polling_Center_Name": "Pista khor School",
    "د_مرکز_ځای__موقعیت_مرکز": "پسته خور",
    "Polling_Center_Location": "Pista khor",
    "Map_Accuracy": "Building",
    "Map_Accuracy_Dari": "تعمیر",
    "Status": "Open",
    "Status_Dari": null,
    "PS_Male": 2,
    "PS_Female": 1,
    "PS_Total": 3,
    "ولسوالي": "تشکان",
    "Region": "North Eastern Region"
   },
   "geometry": {
    "x": 7812352.9830382597,
    "y": 4435035.1943991007
   }
  },
  {
   "attributes": {
    "OBJECTID": 1841,
    "ولایت": "بدخشان",
    "Province": "BADAKHSHAN",
    "PC_Code": "1711304",
    "District": "TASHKAN",
    "د_مرکز_نوم__نام_مرکز": "مکتب حضرت عباس",
    "Polling_Center_Name": "Hazrat abas School",
    "د_مرکز_ځای__موقعیت_مرکز": "توتک",
    "Polling_Center_Location": "Totak",
    "Map_Accuracy": "Village",
    "Map_Accuracy_Dari": "قریه",
    "Status": "Open",
    "Status_Dari": null,
    "PS_Male": 2,
    "PS_Female": 1,
    "PS_Total": 3,
    "ولسوالي": "تشکان",
    "Region": "North Eastern Region"
   },
   "geometry": {
    "x": 7821195.0352001414,
    "y": 4428680.147816292
   }
  },
  {
   "attributes": {
    "OBJECTID": 1842,
    "ولایت": "بدخشان",
    "Province": "BADAKHSHAN",
    "PC_Code": "1713306",
    "District": "SHAHR-E-BUZURG",
    "د_مرکز_نوم__نام_مرکز": "مکتب",
    "Polling_Center_Name": "School",
    "د_مرکز_ځای__موقعیت_مرکز": "اسپا خواه",
    "Polling_Center_Location": "Aspa khwa",
    "Map_Accuracy": "Building",
    "Map_Accuracy_Dari": "تعمیر",
    "Status": "Open",
    "Status_Dari": null,
    "PS_Male": 2,
    "PS_Female": 1,
    "PS_Total": 3,
    "ولسوالي": "شهر بزرگ",
    "Region": "North Eastern Region"
   },
   "geometry": {
    "x": 7796396.8530988172,
    "y": 4505682.7972585745
   }
  },
  {
   "attributes": {
    "OBJECTID": 1843,
    "ولایت": "بدخشان",
    "Province": "BADAKHSHAN",
    "PC_Code": "1713307",
    "District": "SHAHR-E-BUZURG",
    "د_مرکز_نوم__نام_مرکز": "مسجد بلبل دره",
    "Polling_Center_Name": "Bul bul dara Mowque",
    "د_مرکز_ځای__موقعیت_مرکز": "بل بل دره",
    "Polling_Center_Location": "Bul bul dara!",
    "Map_Accuracy": "Building",
    "Map_Accuracy_Dari": "تعمیر",
    "Status": "Open",
    "Status_Dari": null,
    "PS_Male": 2,
    "PS_Female": 1,
    "PS_Total": 3,
    "ولسوالي": "شهر بزرگ",
    "Region": "North Eastern Region"
   },
   "geometry": {
    "x": 7806212.6798534999,
    "y": 4488061.1879432146
   }
  },
  {
   "attributes": {
    "OBJECTID": 1844,
    "ولایت": "بدخشان",
    "Province": "BADAKHSHAN",
    "PC_Code": "1716311",
    "District": "WARDOOJ",
    "د_مرکز_نوم__نام_مرکز": "مسجد سر قلات",
    "Polling_Center_Name": "Sar qalat Mosque",
    "د_مرکز_ځای__موقعیت_مرکز": "قلات",
    "Polling_Center_Location": "Qalat",
    "Map_Accuracy": "Building",
    "Map_Accuracy_Dari": "تعمیر",
    "Status": "Open",
    "Status_Dari": null,
    "PS_Male": 2,
    "PS_Female": 1,
    "PS_Total": 3,
    "ولسوالي": "وردوج",
    "Region": "North Eastern Region"
   },
   "geometry": {
    "x": 7910143.6370023685,
    "y": 4421869.4664813615
   }
  },
  {
   "attributes": {
    "OBJECTID": 1845,
    "ولایت": "بدخشان",
    "Province": "BADAKHSHAN",
    "PC_Code": "1718314",
    "District": "YAMGAN",
    "د_مرکز_نوم__نام_مرکز": "مکتب ابتدایه",
    "Polling_Center_Name": "Primary School",
    "د_مرکز_ځای__موقعیت_مرکز": "ته لولیچ",
    "Polling_Center_Location": "Ta lolich",
    "Map_Accuracy": "Building",
    "Map_Accuracy_Dari": "تعمیر",
    "Status": "Open",
    "Status_Dari": null,
    "PS_Male": 2,
    "PS_Female": 1,
    "PS_Total": 3,
    "ولسوالي": "یمگان",
    "Region": "North Eastern Region"
   },
   "geometry": {
    "x": 7885649.2631572578,
    "y": 4372871.6371605005
   }
  },
  {
   "attributes": {
    "OBJECTID": 1846,
    "ولایت": "بدخشان",
    "Province": "BADAKHSHAN",
    "PC_Code": "1723315",
    "District": "ESHKASHIM",
    "د_مرکز_نوم__نام_مرکز": "مکتب لیسه غاران بلا",
    "Polling_Center_Name": "Gharan bala High school",
    "د_مرکز_ځای__موقعیت_مرکز": "قاض ده",
    "Polling_Center_Location": "Qaz deh",
    "Map_Accuracy": "Village",
    "Map_Accuracy_Dari": "قریه",
    "Status": "Open",
    "Status_Dari": null,
    "PS_Male": 2,
    "PS_Female": 1,
    "PS_Total": 3,
    "ولسوالي": "اشکاشم",
    "Region": "North Eastern Region"
   },
   "geometry": {
    "x": 7952597.466269427,
    "y": 4469751.193001925
   }
  },
  {
   "attributes": {
    "OBJECTID": 1847,
    "ولایت": "تخار",
    "Province": "TAKHAR",
    "PC_Code": "1801002",
    "District": "TALUQAN",
    "د_مرکز_نوم__نام_مرکز": "لیسه  خطايان",
    "Polling_Center_Name": "Khatayan High School",
    "د_مرکز_ځای__موقعیت_مرکز": "خطايان",
    "Polling_Center_Location": "Khatayan",
    "Map_Accuracy": "Building",
    "Map_Accuracy_Dari": "تعمیر",
    "Status": "Open",
    "Status_Dari": null,
    "PS_Male": 4,
    "PS_Female": 2,
    "PS_Total": 6,
    "ولسوالي": "تالقان",
    "Region": "North Eastern Region"
   },
   "geometry": {
    "x": 7753281.8422727883,
    "y": 4393488.9922822183
   }
  },
  {
   "attributes": {
    "OBJECTID": 1848,
    "ولایت": "تخار",
    "Province": "TAKHAR",
    "PC_Code": "1801003",
    "District": "TALUQAN",
    "د_مرکز_نوم__نام_مرکز": "مکتب الفاروق",
    "Polling_Center_Name": "Alfarooq School",
    "د_مرکز_ځای__موقعیت_مرکز": "الفاروق",
    "Polling_Center_Location": "Alfarooq",
    "Map_Accuracy": "Building",
    "Map_Accuracy_Dari": "تعمیر",
    "Status": "Open",
    "Status_Dari": null,
    "PS_Male": 5,
    "PS_Female": 2,
    "PS_Total": 7,
    "ولسوالي": "تالقان",
    "Region": "North Eastern Region"
   },
   "geometry": {
    "x": 7749400.3976824097,
    "y": 4398779.9455710417
   }
  },
  {
   "attributes": {
    "OBJECTID": 1849,
    "ولایت": "تخار",
    "Province": "TAKHAR",
    "PC_Code": "1801005",
    "District": "TALUQAN",
    "د_مرکز_نوم__نام_مرکز": "مکتب خواجه خلیل",
    "Polling_Center_Name": "Khwaja Khalil School",
    "د_مرکز_ځای__موقعیت_مرکز": " خواجه خلیل",
    "Polling_Center_Location": "Khwaja Khalil",
    "Map_Accuracy": "Building",
    "Map_Accuracy_Dari": "تعمیر",
    "Status": "Open",
    "Status_Dari": null,
    "PS_Male": 3,
    "PS_Female": 1,
    "PS_Total": 4,
    "ولسوالي": "تالقان",
    "Region": "North Eastern Region"
   },
   "geometry": {
    "x": 7755606.7264609085,
    "y": 4410716.3416177537
   }
  },
  {
   "attributes": {
    "OBJECTID": 1850,
    "ولایت": "تخار",
    "Province": "TAKHAR",
    "PC_Code": "1801006",
    "District": "TALUQAN",
    "د_مرکز_نوم__نام_مرکز": "لیسه ذکور سید عبدالله",
    "Polling_Center_Name": "Sayed Abdullah Boys High School",
    "د_مرکز_ځای__موقعیت_مرکز": "ناحیه سوم",
    "Polling_Center_Location": "D03 - Nahia 3",
    "Map_Accuracy": "Building",
    "Map_Accuracy_Dari": "تعمیر",
    "Status": "Open",
    "Status_Dari": null,
    "PS_Male": 5,
    "PS_Female": 2,
    "PS_Total": 7,
    "ولسوالي": "تالقان",
    "Region": "North Eastern Region"
   },
   "geometry": {
    "x": 7741095.5195044624,
    "y": 4402813.0477378303
   }
  },
  {
   "attributes": {
    "OBJECTID": 1851,
    "ولایت": "تخار",
    "Province": "TAKHAR",
    "PC_Code": "1801010",
    "District": "TALUQAN",
    "د_مرکز_نوم__نام_مرکز": "لیسه داکتر سید حسین",
    "Polling_Center_Name": "Doctar Sayed Hussain High School",
    "د_مرکز_ځای__موقعیت_مرکز": "ناحیه سوم",
    "Polling_Center_Location": "D03 - Nahia 3",
    "Map_Accuracy": "Building",
    "Map_Accuracy_Dari": "تعمیر",
    "Status": "Open",
    "Status_Dari": null,
    "PS_Male": 5,
    "PS_Female": 2,
    "PS_Total": 7,
    "ولسوالي": "تالقان",
    "Region": "North Eastern Region"
   },
   "geometry": {
    "x": 7740507.3351449855,
    "y": 4402403.8304951638
   }
  },
  {
   "attributes": {
    "OBJECTID": 1852,
    "ولایت": "تخار",
    "Province": "TAKHAR",
    "PC_Code": "1801011",
    "District": "TALUQAN",
    "د_مرکز_نوم__نام_مرکز": "لیسه ذکور ابو عثمان",
    "Polling_Center_Name": "Abu Usman Boys High School",
    "د_مرکز_ځای__موقعیت_مرکز": "ناحیه اول",
    "Polling_Center_Location": "D01 - Nahia 1",
    "Map_Accuracy": "Building",
    "Map_Accuracy_Dari": "تعمیر",
    "Status": "Open",
    "Status_Dari": null,
    "PS_Male": 6,
    "PS_Female": 3,
    "PS_Total": 9,
    "ولسوالي": "تالقان",
    "Region": "North Eastern Region"
   },
   "geometry": {
    "x": 7742180.4715443868,
    "y": 4401635.1388449837
   }
  },
  {
   "attributes": {
    "OBJECTID": 1853,
    "ولایت": "تخار",
    "Province": "TAKHAR",
    "PC_Code": "1801021",
    "District": "TALUQAN",
    "د_مرکز_نوم__نام_مرکز": "لیسه گل نظر",
    "Polling_Center_Name": "Gul Nazar High School",
    "د_مرکز_ځای__موقعیت_مرکز": "شهدا قلبرس",
    "Polling_Center_Location": "Shuhada Qalbaras",
    "Map_Accuracy": "Building",
    "Map_Accuracy_Dari": "تعمیر",
    "Status": "Open",
    "Status_Dari": null,
    "PS_Male": 4,
    "PS_Female": 2,
    "PS_Total": 6,
    "ولسوالي": "تالقان",
    "Region": "North Eastern Region"
   },
   "geometry": {
    "x": 7721555.385533344,
    "y": 4403047.8949897578
   }
  },
  {
   "attributes": {
    "OBJECTID": 1854,
    "ولایت": "تخار",
    "Province": "TAKHAR",
    "PC_Code": "1801022",
    "District": "TALUQAN",
    "د_مرکز_نوم__نام_مرکز": "لیسه آق مسجد",
    "Polling_Center_Name": "Aaq Masjid High School",
    "د_مرکز_ځای__موقعیت_مرکز": "آق مسجد",
    "Polling_Center_Location": "Aaq Masjid",
    "Map_Accuracy": "Building",
    "Map_Accuracy_Dari": "تعمیر",
    "Status": "Open",
    "Status_Dari": null,
    "PS_Male": 5,
    "PS_Female": 3,
    "PS_Total": 8,
    "ولسوالي": "تالقان",
    "Region": "North Eastern Region"
   },
   "geometry": {
    "x": 7728871.5284468411,
    "y": 4400931.9781398633
   }
  },
  {
   "attributes": {
    "OBJECTID": 1855,
    "ولایت": "تخار",
    "Province": "TAKHAR",
    "PC_Code": "1801032",
    "District": "TALUQAN",
    "د_مرکز_نوم__نام_مرکز": "ليسه گنج علی بیگ",
    "Polling_Center_Name": "Ganj Ali Beg High School",
    "د_مرکز_ځای__موقعیت_مرکز": "گنج علی بیگ",
    "Polling_Center_Location": "Ganj Ali Beg",
    "Map_Accuracy": "Building",
    "Map_Accuracy_Dari": "تعمیر",
    "Status": "Open",
    "Status_Dari": null,
    "PS_Male": 2,
    "PS_Female": 2,
    "PS_Total": 4,
    "ولسوالي": "تالقان",
    "Region": "North Eastern Region"
   },
   "geometry": {
    "x": 7746809.0558215389,
    "y": 4403356.9646903761
   }
  },
  {
   "attributes": {
    "OBJECTID": 1856,
    "ولایت": "بلخ",
    "Province": "BALKH",
    "PC_Code": "2101023",
    "District": "MAZAR-E-SHARIF",
    "د_مرکز_نوم__نام_مرکز": "مکتب سید اسماعیل بلخی ",
    "Polling_Center_Name": "Sayed Ismail Balkhi School",
    "د_مرکز_ځای__موقعیت_مرکز": "ناحیه 5",
    "Polling_Center_Location": "D05 - Nahia 5",
    "Map_Accuracy": "Building",
    "Map_Accuracy_Dari": "تعمیر",
    "Status": "Open",
    "Status_Dari": null,
    "PS_Male": 4,
    "PS_Female": 3,
    "PS_Total": 7,
    "ولسوالي": "مزار شریف",
    "Region": "Northern Region"
   },
   "geometry": {
    "x": 7468936.9084666539,
    "y": 4395007.3039110415
   }
  },
  {
   "attributes": {
    "OBJECTID": 1857,
    "ولایت": "بلخ",
    "Province": "BALKH",
    "PC_Code": "2101024",
    "District": "MAZAR-E-SHARIF",
    "د_مرکز_نوم__نام_مرکز": "نساجی",
    "Polling_Center_Name": "Nasaji",
    "د_مرکز_ځای__موقعیت_مرکز": "ناحیه پنجم مزار شاروالی ",
    "Polling_Center_Location": "D05 - Nahia 5",
    "Map_Accuracy": "Building",
    "Map_Accuracy_Dari": "تعمیر",
    "Status": "Open",
    "Status_Dari": null,
    "PS_Male": 3,
    "PS_Female": 2,
    "PS_Total": 5,
    "ولسوالي": "مزار شریف",
    "Region": "Northern Region"
   },
   "geometry": {
    "x": 7467646.8658496765,
    "y": 4394428.8604084244
   }
  },
  {
   "attributes": {
    "OBJECTID": 1858,
    "ولایت": "بلخ",
    "Province": "BALKH",
    "PC_Code": "2101029",
    "District": "MAZAR-E-SHARIF",
    "د_مرکز_نوم__نام_مرکز": "مکتب اناث خراسان ",
    "Polling_Center_Name": "Khurasan Girls School",
    "د_مرکز_ځای__موقعیت_مرکز": "کارته خراسان ناحیه هفتم مزار شاروالی ",
    "Polling_Center_Location": "D07 - Nahia 7 Karta-e-Khurasan",
    "Map_Accuracy": "Building",
    "Map_Accuracy_Dari": "تعمیر",
    "Status": "Open",
    "Status_Dari": null,
    "PS_Male": 4,
    "PS_Female": 4,
    "PS_Total": 8,
    "ولسوالي": "مزار شریف",
    "Region": "Northern Region"
   },
   "geometry": {
    "x": 7472052.7766361972,
    "y": 4396154.5505063571
   }
  },
  {
   "attributes": {
    "OBJECTID": 1859,
    "ولایت": "بلخ",
    "Province": "BALKH",
    "PC_Code": "2101030",
    "District": "MAZAR-E-SHARIF",
    "د_مرکز_نوم__نام_مرکز": "مکتب استاد جاهد",
    "Polling_Center_Name": "Ustad Jaahed School",
    "د_مرکز_ځای__موقعیت_مرکز": "کارته صلح ناحیه هفتم ",
    "Polling_Center_Location": "D07 - Nahia 7 Karta-e-Sulh",
    "Map_Accuracy": "Building",
    "Map_Accuracy_Dari": "تعمیر",
    "Status": "Open",
    "Status_Dari": null,
    "PS_Male": 1,
    "PS_Female": 2,
    "PS_Total": 3,
    "ولسوالي": "مزار شریف",
    "Region": "Northern Region"
   },
   "geometry": {
    "x": 7473840.3594908928,
    "y": 4399585.3791683922
   }
  },
  {
   "attributes": {
    "OBJECTID": 1860,
    "ولایت": "بلخ",
    "Province": "BALKH",
    "PC_Code": "2101041",
    "District": "MAZAR-E-SHARIF",
    "د_مرکز_نوم__نام_مرکز": "مکتب شهید عبد العلی مزاری  2",
    "Polling_Center_Name": "Shaheed Abdul Ali Mazari Number 2 School",
    "د_مرکز_ځای__موقعیت_مرکز": "گذر علی چوپان ناحیه دهم مزار شاروالی ",
    "Polling_Center_Location": "D10 - Nahia 10 Guzar Ali Chopan",
    "Map_Accuracy": "Building",
    "Map_Accuracy_Dari": "تعمیر",
    "Status": "Open",
    "Status_Dari": null,
    "PS_Male": 4,
    "PS_Female": 4,
    "PS_Total": 8,
    "ولسوالي": "مزار شریف",
    "Region": "Northern Region"
   },
   "geometry": {
    "x": 7475873.3397065056,
    "y": 4400039.5114798378
   }
  },
  {
   "attributes": {
    "OBJECTID": 1861,
    "ولایت": "بلخ",
    "Province": "BALKH",
    "PC_Code": "2101042",
    "District": "MAZAR-E-SHARIF",
    "د_مرکز_نوم__نام_مرکز": "انستیتیوت نفت وگاز ",
    "Polling_Center_Name": "Neft o Gas Institute",
    "د_مرکز_ځای__موقعیت_مرکز": "انستیتیوت نفت و گازناحیه ششم ",
    "Polling_Center_Location": "D06 - Nahia 6 Gas Institute",
    "Map_Accuracy": "Building",
    "Map_Accuracy_Dari": "تعمیر",
    "Status": "Open",
    "Status_Dari": null,
    "PS_Male": 3,
    "PS_Female": 3,
    "PS_Total": 6,
    "ولسوالي": "مزار شریف",
    "Region": "Northern Region"
   },
   "geometry": {
    "x": 7472539.1760192728,
    "y": 4398820.4065311495
   }
  },
  {
   "attributes": {
    "OBJECTID": 1862,
    "ولایت": "بلخ",
    "Province": "BALKH",
    "PC_Code": "2103052",
    "District": "DEHDADI",
    "د_مرکز_نوم__نام_مرکز": "مکتب بی بی زینب",
    "Polling_Center_Name": "Bibi Zainab School",
    "د_مرکز_ځای__موقعیت_مرکز": "کود و برق فامیلی ها",
    "Polling_Center_Location": "Kod Wa Barq Familiha",
    "Map_Accuracy": "Village",
    "Map_Accuracy_Dari": "قریه",
    "Status": "Open",
    "Status_Dari": null,
    "PS_Male": 4,
    "PS_Female": 3,
    "PS_Total": 7,
    "ولسوالي": "دهدادی ",
    "Region": "Northern Region"
   },
   "geometry": {
    "x": 7450784.8339241631,
    "y": 4392907.2863418069
   }
  },
  {
   "attributes": {
    "OBJECTID": 1863,
    "ولایت": "بلخ",
    "Province": "BALKH",
    "PC_Code": "2103053",
    "District": "DEHDADI",
    "د_مرکز_نوم__نام_مرکز": "مکتب کاکا کوت",
    "Polling_Center_Name": "Kaka Kot School",
    "د_مرکز_ځای__موقعیت_مرکز": "قریه کاکا کوت",
    "Polling_Center_Location": "Kaka Kot Village",
    "Map_Accuracy": "Building",
    "Map_Accuracy_Dari": "تعمیر",
    "Status": "Open",
    "Status_Dari": null,
    "PS_Male": 2,
    "PS_Female": 1,
    "PS_Total": 3,
    "ولسوالي": "دهدادی ",
    "Region": "Northern Region"
   },
   "geometry": {
    "x": 7452959.8687193375,
    "y": 4397962.3679456981
   }
  },
  {
   "attributes": {
    "OBJECTID": 1864,
    "ولایت": "بلخ",
    "Province": "BALKH",
    "PC_Code": "2103056",
    "District": "DEHDADI",
    "د_مرکز_نوم__نام_مرکز": "مکتب غلام محمد شهید",
    "Polling_Center_Name": "Ghulam Mohammad Shaheed School",
    "د_مرکز_ځای__موقعیت_مرکز": "قریه پل بابو ",
    "Polling_Center_Location": "Pul Baboo Village",
    "Map_Accuracy": "Building",
    "Map_Accuracy_Dari": "تعمیر",
    "Status": "Open",
    "Status_Dari": null,
    "PS_Male": 3,
    "PS_Female": 1,
    "PS_Total": 4,
    "ولسوالي": "دهدادی ",
    "Region": "Northern Region"
   },
   "geometry": {
    "x": 7458977.6000165436,
    "y": 4392621.3511036849
   }
  },
  {
   "attributes": {
    "OBJECTID": 1865,
    "ولایت": "بلخ",
    "Province": "BALKH",
    "PC_Code": "2103057",
    "District": "DEHDADI",
    "د_مرکز_نوم__نام_مرکز": "مکتب صالح محمد",
    "Polling_Center_Name": "Saleh Mohammad School",
    "د_مرکز_ځای__موقعیت_مرکز": "پشت باغ ",
    "Polling_Center_Location": "Pusht Bagh ",
    "Map_Accuracy": "Building",
    "Map_Accuracy_Dari": "تعمیر",
    "Status": "Open",
    "Status_Dari": null,
    "PS_Male": 2,
    "PS_Female": 2,
    "PS_Total": 4,
    "ولسوالي": "دهدادی ",
    "Region": "Northern Region"
   },
   "geometry": {
    "x": 7454634.1027289229,
    "y": 4391443.1912593683
   }
  },
  {
   "attributes": {
    "OBJECTID": 1866,
    "ولایت": "بلخ",
    "Province": "BALKH",
    "PC_Code": "2103062",
    "District": "DEHDADI",
    "د_مرکز_نوم__نام_مرکز": "مکتب شیخ آباد",
    "Polling_Center_Name": "Shaikh Abad School",
    "د_مرکز_ځای__موقعیت_مرکز": "قریه شیخ آباد",
    "Polling_Center_Location": "Shekh Abad Village",
    "Map_Accuracy": "Building",
    "Map_Accuracy_Dari": "تعمیر",
    "Status": "Open",
    "Status_Dari": null,
    "PS_Male": 2,
    "PS_Female": 2,
    "PS_Total": 4,
    "ولسوالي": "دهدادی ",
    "Region": "Northern Region"
   },
   "geometry": {
    "x": 7456806.6161376312,
    "y": 4393099.1488161478
   }
  },
  {
   "attributes": {
    "OBJECTID": 1867,
    "ولایت": "بلخ",
    "Province": "BALKH",
    "PC_Code": "2104274",
    "District": "CHAR KENT",
    "د_مرکز_نوم__نام_مرکز": "مکتب شرشر سفلی ",
    "Polling_Center_Name": "Shar Shar Sufla School",
    "د_مرکز_ځای__موقعیت_مرکز": "قریه شرشر",
    "Polling_Center_Location": "Shar Shar Village",
    "Map_Accuracy": "Building",
    "Map_Accuracy_Dari": "تعمیر",
    "Status": "Open",
    "Status_Dari": null,
    "PS_Male": 2,
    "PS_Female": 1,
    "PS_Total": 3,
    "ولسوالي": "چارکنت",
    "Region": "Northern Region"
   },
   "geometry": {
    "x": 7479425.5032468671,
    "y": 4357975.8276484227
   }
  },
  {
   "attributes": {
    "OBJECTID": 1868,
    "ولایت": "بلخ",
    "Province": "BALKH",
    "PC_Code": "2106149",
    "District": "BALKH",
    "د_مرکز_نوم__نام_مرکز": "مکتب امیر محمد توخی",
    "Polling_Center_Name": "Amir Mohammad Tokhi School",
    "د_مرکز_ځای__موقعیت_مرکز": "قریه رباط",
    "Polling_Center_Location": "Rabat Village",
    "Map_Accuracy": "Building",
    "Map_Accuracy_Dari": "تعمیر",
    "Status": "Open",
    "Status_Dari": null,
    "PS_Male": 2,
    "PS_Female": 1,
    "PS_Total": 3,
    "ولسوالي": "بلخ",
    "Region": "Northern Region"
   },
   "geometry": {
    "x": 7446480.9841863867,
    "y": 4402743.009915106
   }
  },
  {
   "attributes": {
    "OBJECTID": 1869,
    "ولایت": "بلخ",
    "Province": "BALKH",
    "PC_Code": "2106151",
    "District": "BALKH",
    "د_مرکز_نوم__نام_مرکز": "کلینیک صحت عامه",
    "Polling_Center_Name": "Sehat Aama Clinic",
    "د_مرکز_ځای__موقعیت_مرکز": "مرکز ولسوالی",
    "Polling_Center_Location": "District Compound",
    "Map_Accuracy": "Building",
    "Map_Accuracy_Dari": "تعمیر",
    "Status": "Open",
    "Status_Dari": null,
    "PS_Male": 2,
    "PS_Female": 1,
    "PS_Total": 3,
    "ولسوالي": "بلخ",
    "Region": "Northern Region"
   },
   "geometry": {
    "x": 7447084.223393796,
    "y": 4404477.6256975709
   }
  },
  {
   "attributes": {
    "OBJECTID": 1870,
    "ولایت": "بلخ",
    "Province": "BALKH",
    "PC_Code": "2106162",
    "District": "BALKH",
    "د_مرکز_نوم__نام_مرکز": "مکتب کولمبو",
    "Polling_Center_Name": "Colombo School",
    "د_مرکز_ځای__موقعیت_مرکز": "قریه کولمبو",
    "Polling_Center_Location": "Colombo Village",
    "Map_Accuracy": "Building",
    "Map_Accuracy_Dari": "تعمیر",
    "Status": "Open",
    "Status_Dari": null,
    "PS_Male": 1,
    "PS_Female": 1,
    "PS_Total": 2,
    "ولسوالي": "بلخ",
    "Region": "Northern Region"
   },
   "geometry": {
    "x": 7451747.4146742476,
    "y": 4415877.6521210913
   }
  },
  {
   "attributes": {
    "OBJECTID": 1871,
    "ولایت": "بلخ",
    "Province": "BALKH",
    "PC_Code": "2106163",
    "District": "BALKH",
    "د_مرکز_نوم__نام_مرکز": "مکتب دیوالی میدان",
    "Polling_Center_Name": "Dewali Maidan School",
    "د_مرکز_ځای__موقعیت_مرکز": "قریه دیوالی میدان ",
    "Polling_Center_Location": "Dewali Maidan Village",
    "Map_Accuracy": "Building",
    "Map_Accuracy_Dari": "تعمیر",
    "Status": "Open",
    "Status_Dari": null,
    "PS_Male": 2,
    "PS_Female": 1,
    "PS_Total": 3,
    "ولسوالي": "بلخ",
    "Region": "Northern Region"
   },
   "geometry": {
    "x": 7448445.8878579596,
    "y": 4426034.2802699767
   }
  },
  {
   "attributes": {
    "OBJECTID": 1872,
    "ولایت": "بلخ",
    "Province": "BALKH",
    "PC_Code": "2106173",
    "District": "BALKH",
    "د_مرکز_نوم__نام_مرکز": "مسجد ارغنداب",
    "Polling_Center_Name": "Arghandab Mosque",
    "د_مرکز_ځای__موقعیت_مرکز": "قریه ارغنداب",
    "Polling_Center_Location": "Arghandab Village",
    "Map_Accuracy": "Building",
    "Map_Accuracy_Dari": "تعمیر",
    "Status": "Open",
    "Status_Dari": null,
    "PS_Male": 1,
    "PS_Female": 1,
    "PS_Total": 2,
    "ولسوالي": "بلخ",
    "Region": "Northern Region"
   },
   "geometry": {
    "x": 7434845.1596771218,
    "y": 4414874.9769991487
   }
  },
  {
   "attributes": {
    "OBJECTID": 1873,
    "ولایت": "بلخ",
    "Province": "BALKH",
    "PC_Code": "2106174",
    "District": "BALKH",
    "د_مرکز_نوم__نام_مرکز": "مکتب اوف ملیک",
    "Polling_Center_Name": "Oof Maleek School",
    "د_مرکز_ځای__موقعیت_مرکز": "قریه اوف ملیک",
    "Polling_Center_Location": "Oof Maleek Village",
    "Map_Accuracy": "Building",
    "Map_Accuracy_Dari": "تعمیر",
    "Status": "Open",
    "Status_Dari": null,
    "PS_Male": 2,
    "PS_Female": 1,
    "PS_Total": 3,
    "ولسوالي": "بلخ",
    "Region": "Northern Region"
   },
   "geometry": {
    "x": 7445033.0382113,
    "y": 4395653.4318995113
   }
  },
  {
   "attributes": {
    "OBJECTID": 1874,
    "ولایت": "بلخ",
    "Province": "BALKH",
    "PC_Code": "2107244",
    "District": "SHOLGARA",
    "د_مرکز_نوم__نام_مرکز": "مکتب بی بی آمنه",
    "Polling_Center_Name": "Bibi Amena School",
    "د_مرکز_ځای__موقعیت_مرکز": "قریه قور بقه خانه",
    "Polling_Center_Location": "Qor Baqa Khana Village",
    "Map_Accuracy": "Building",
    "Map_Accuracy_Dari": "تعمیر",
    "Status": "Open",
    "Status_Dari": null,
    "PS_Male": 2,
    "PS_Female": 1,
    "PS_Total": 3,
    "ولسوالي": "شولگره",
    "Region": "Northern Region"
   },
   "geometry": {
    "x": 7445698.6530689886,
    "y": 4353909.4751187311
   }
  },
  {
   "attributes": {
    "OBJECTID": 1875,
    "ولایت": "بلخ",
    "Province": "BALKH",
    "PC_Code": "2107245",
    "District": "SHOLGARA",
    "د_مرکز_نوم__نام_مرکز": "مکتب آغا جان",
    "Polling_Center_Name": "Agha Jan School",
    "د_مرکز_ځای__موقعیت_مرکز": "قریه آغا جان",
    "Polling_Center_Location": "Agha Jan Village",
    "Map_Accuracy": "Building",
    "Map_Accuracy_Dari": "تعمیر",
    "Status": "Open",
    "Status_Dari": null,
    "PS_Male": 1,
    "PS_Female": 1,
    "PS_Total": 2,
    "ولسوالي": "شولگره",
    "Region": "Northern Region"
   },
   "geometry": {
    "x": 7445763.5155966859,
    "y": 4355722.2262936346
   }
  },
  {
   "attributes": {
    "OBJECTID": 1876,
    "ولایت": "بلخ",
    "Province": "BALKH",
    "PC_Code": "2107250",
    "District": "SHOLGARA",
    "د_مرکز_نوم__نام_مرکز": "مکتب احمد الخضرویه",
    "Polling_Center_Name": "Ahmad Alkhadroya School",
    "د_مرکز_ځای__موقعیت_مرکز": "قریه بابه عوض",
    "Polling_Center_Location": "Baba Ewaz Village",
    "Map_Accuracy": "Building",
    "Map_Accuracy_Dari": "تعمیر",
    "Status": "Open",
    "Status_Dari": null,
    "PS_Male": 2,
    "PS_Female": 2,
    "PS_Total": 4,
    "ولسوالي": "شولگره",
    "Region": "Northern Region"
   },
   "geometry": {
    "x": 7445105.6953297434,
    "y": 4350830.3211867455
   }
  },
  {
   "attributes": {
    "OBJECTID": 1877,
    "ولایت": "بلخ",
    "Province": "BALKH",
    "PC_Code": "2107251",
    "District": "SHOLGARA",
    "د_مرکز_نوم__نام_مرکز": "مکتب بی بی مریم ",
    "Polling_Center_Name": "Bibi Maryam School",
    "د_مرکز_ځای__موقعیت_مرکز": "قریه سر آسیاب",
    "Polling_Center_Location": "Sar Asyab Village",
    "Map_Accuracy": "Building",
    "Map_Accuracy_Dari": "تعمیر",
    "Status": "Open",
    "Status_Dari": null,
    "PS_Male": 2,
    "PS_Female": 1,
    "PS_Total": 3,
    "ولسوالي": "شولگره",
    "Region": "Northern Region"
   },
   "geometry": {
    "x": 7445105.0552426707,
    "y": 4348754.8138733869
   }
  },
  {
   "attributes": {
    "OBJECTID": 1878,
    "ولایت": "بلخ",
    "Province": "BALKH",
    "PC_Code": "2107256",
    "District": "SHOLGARA",
    "د_مرکز_نوم__نام_مرکز": "مکتب قلند خلیلی",
    "Polling_Center_Name": "Qaland Khalili School",
    "د_مرکز_ځای__موقعیت_مرکز": "قریه قلند خلیلی",
    "Polling_Center_Location": "Qaland Khalili Village",
    "Map_Accuracy": "Building",
    "Map_Accuracy_Dari": "تعمیر",
    "Status": "Open",
    "Status_Dari": null,
    "PS_Male": 2,
    "PS_Female": 1,
    "PS_Total": 3,
    "ولسوالي": "شولگره",
    "Region": "Northern Region"
   },
   "geometry": {
    "x": 7450947.1878355071,
    "y": 4357616.6812846847
   }
  },
  {
   "attributes": {
    "OBJECTID": 1879,
    "ولایت": "بلخ",
    "Province": "BALKH",
    "PC_Code": "2107257",
    "District": "SHOLGARA",
    "د_مرکز_نوم__نام_مرکز": "مکتب ای لاتان",
    "Polling_Center_Name": "Ai Latan School",
    "د_مرکز_ځای__موقعیت_مرکز": "قریه ای لاتان",
    "Polling_Center_Location": "Ai Latan Village",
    "Map_Accuracy": "Building",
    "Map_Accuracy_Dari": "تعمیر",
    "Status": "Open",
    "Status_Dari": null,
    "PS_Male": 2,
    "PS_Female": 1,
    "PS_Total": 3,
    "ولسوالي": "شولگره",
    "Region": "Northern Region"
   },
   "geometry": {
    "x": 7448871.1873121178,
    "y": 4344193.6901653809
   }
  },
  {
   "attributes": {
    "OBJECTID": 1880,
    "ولایت": "بلخ",
    "Province": "BALKH",
    "PC_Code": "2107273",
    "District": "SHOLGARA",
    "د_مرکز_نوم__نام_مرکز": "منزل لعل محمد",
    "Polling_Center_Name": "Lal Mohammad Private House",
    "د_مرکز_ځای__موقعیت_مرکز": "قور بقه خانه",
    "Polling_Center_Location": "Qor Baqa Khana",
    "Map_Accuracy": "Building",
    "Map_Accuracy_Dari": "تعمیر",
    "Status": "Open",
    "Status_Dari": null,
    "PS_Male": 1,
    "PS_Female": 1,
    "PS_Total": 2,
    "ولسوالي": "شولگره",
    "Region": "Northern Region"
   },
   "geometry": {
    "x": 7445891.339315189,
    "y": 4354792.8472837564
   }
  },
  {
   "attributes": {
    "OBJECTID": 1881,
    "ولایت": "بلخ",
    "Province": "BALKH",
    "PC_Code": "2108211",
    "District": "CHIMTAL",
    "د_مرکز_نوم__نام_مرکز": "مکتب مبر قاسم جان",
    "Polling_Center_Name": "Mir Qasim Jan School",
    "د_مرکز_ځای__موقعیت_مرکز": "قریه میر قاسم جان",
    "Polling_Center_Location": "Mir Qasim Jan Village",
    "Map_Accuracy": "Building",
    "Map_Accuracy_Dari": "تعمیر",
    "Status": "Open",
    "Status_Dari": null,
    "PS_Male": 2,
    "PS_Female": 1,
    "PS_Total": 3,
    "ولسوالي": "چمتال",
    "Region": "Northern Region"
   },
   "geometry": {
    "x": 7448211.9399293046,
    "y": 4389243.4832920954
   }
  },
  {
   "attributes": {
    "OBJECTID": 1882,
    "ولایت": "بلخ",
    "Province": "BALKH",
    "PC_Code": "2108232",
    "District": "CHIMTAL",
    "د_مرکز_نوم__نام_مرکز": "مکتب رباط",
    "Polling_Center_Name": "Rabat School",
    "د_مرکز_ځای__موقعیت_مرکز": "قریه رباط",
    "Polling_Center_Location": "Rabat Village",
    "Map_Accuracy": "Building",
    "Map_Accuracy_Dari": "تعمیر",
    "Status": "Open",
    "Status_Dari": null,
    "PS_Male": 1,
    "PS_Female": 1,
    "PS_Total": 2,
    "ولسوالي": "چمتال",
    "Region": "Northern Region"
   },
   "geometry": {
    "x": 7452168.9838122725,
    "y": 4382981.6180811133
   }
  },
  {
   "attributes": {
    "OBJECTID": 1883,
    "ولایت": "بلخ",
    "Province": "BALKH",
    "PC_Code": "2108233",
    "District": "CHIMTAL",
    "د_مرکز_نوم__نام_مرکز": "مسجد نوشهری علی زایئ",
    "Polling_Center_Name": "Nawshahr Alizai Mosque",
    "د_مرکز_ځای__موقعیت_مرکز": "قریه نوشهرعلی زائ",
    "Polling_Center_Location": "Nawshahr Alizai Village",
    "Map_Accuracy": "Village",
    "Map_Accuracy_Dari": "قریه",
    "Status": "Open",
    "Status_Dari": null,
    "PS_Male": 2,
    "PS_Female": 1,
    "PS_Total": 3,
    "ولسوالي": "چمتال",
    "Region": "Northern Region"
   },
   "geometry": {
    "x": 7411390.4880574048,
    "y": 4401108.2792513324
   }
  },
  {
   "attributes": {
    "OBJECTID": 1884,
    "ولایت": "بلخ",
    "Province": "BALKH",
    "PC_Code": "2109133",
    "District": "DAWLAT ABAD",
    "د_مرکز_نوم__نام_مرکز": "مکتب تالی گک",
    "Polling_Center_Name": "Tali Gag School",
    "د_مرکز_ځای__موقعیت_مرکز": "قریه تالی گگ",
    "Polling_Center_Location": "Tali Gag Village",
    "Map_Accuracy": "Building",
    "Map_Accuracy_Dari": "تعمیر",
    "Status": "Open",
    "Status_Dari": null,
    "PS_Male": 2,
    "PS_Female": 1,
    "PS_Total": 3,
    "ولسوالي": "دولت آباد",
    "Region": "Northern Region"
   },
   "geometry": {
    "x": 7433171.3731718976,
    "y": 4442707.2450765055
   }
  },
  {
   "attributes": {
    "OBJECTID": 1885,
    "ولایت": "بلخ",
    "Province": "BALKH",
    "PC_Code": "2109134",
    "District": "DAWLAT ABAD",
    "د_مرکز_نوم__نام_مرکز": "مسجد هاشم آباد",
    "Polling_Center_Name": "Hashim Abad Mosque",
    "د_مرکز_ځای__موقعیت_مرکز": "قریه هاشم آباد وطنی ",
    "Polling_Center_Location": "Hashim Abad Watani Village",
    "Map_Accuracy": "Building",
    "Map_Accuracy_Dari": "تعمیر",
    "Status": "Open",
    "Status_Dari": null,
    "PS_Male": 1,
    "PS_Female": 1,
    "PS_Total": 2,
    "ولسوالي": "دولت آباد",
    "Region": "Northern Region"
   },
   "geometry": {
    "x": 7444357.4647119604,
    "y": 4434185.5925850254
   }
  },
  {
   "attributes": {
    "OBJECTID": 1886,
    "ولایت": "بلخ",
    "Province": "BALKH",
    "PC_Code": "2109139",
    "District": "DAWLAT ABAD",
    "د_مرکز_نوم__نام_مرکز": "مکتب زادیان ",
    "Polling_Center_Name": "Zadiyan School",
    "د_مرکز_ځای__موقعیت_مرکز": "قریه زادیان ",
    "Polling_Center_Location": "Zadiyan Village",
    "Map_Accuracy": "Building",
    "Map_Accuracy_Dari": "تعمیر",
    "Status": "Open",
    "Status_Dari": null,
    "PS_Male": 1,
    "PS_Female": 1,
    "PS_Total": 2,
    "ولسوالي": "دولت آباد",
    "Region": "Northern Region"
   },
   "geometry": {
    "x": 7452095.3760253768,
    "y": 4443110.0663980804
   }
  },
  {
   "attributes": {
    "OBJECTID": 1887,
    "ولایت": "بلخ",
    "Province": "BALKH",
    "PC_Code": "2109140",
    "District": "DAWLAT ABAD",
    "د_مرکز_نوم__نام_مرکز": "مکتب بای مشهد ",
    "Polling_Center_Name": "Bay Mashhad School",
    "د_مرکز_ځای__موقعیت_مرکز": "قریه بای مشهد ",
    "Polling_Center_Location": "Bay Mashhad Village",
    "Map_Accuracy": "Building",
    "Map_Accuracy_Dari": "تعمیر",
    "Status": "Open",
    "Status_Dari": null,
    "PS_Male": 1,
    "PS_Female": 1,
    "PS_Total": 2,
    "ولسوالي": "دولت آباد",
    "Region": "Northern Region"
   },
   "geometry": {
    "x": 7438973.8303850209,
    "y": 4431492.1940202843
   }
  },
  {
   "attributes": {
    "OBJECTID": 1888,
    "ولایت": "بلخ",
    "Province": "BALKH",
    "PC_Code": "2110079",
    "District": "KHULM",
    "د_مرکز_نوم__نام_مرکز": "مکتب نسوان خواجه برهان ",
    "Polling_Center_Name": "Khwaja Burhan Girls School",
    "د_مرکز_ځای__موقعیت_مرکز": "سرهنگ ",
    "Polling_Center_Location": "Sarhang",
    "Map_Accuracy": "Building",
    "Map_Accuracy_Dari": "تعمیر",
    "Status": "Open",
    "Status_Dari": null,
    "PS_Male": 1,
    "PS_Female": 2,
    "PS_Total": 3,
    "ولسوالي": "خلم",
    "Region": "Northern Region"
   },
   "geometry": {
    "x": 7539421.4923531013,
    "y": 4397980.0184285156
   }
  },
  {
   "attributes": {
    "OBJECTID": 1889,
    "ولایت": "بلخ",
    "Province": "BALKH",
    "PC_Code": "2110080",
    "District": "KHULM",
    "د_مرکز_نوم__نام_مرکز": "لیسه نسوان امین حسین ",
    "Polling_Center_Name": "Amin Hussain Girls School",
    "د_مرکز_ځای__موقعیت_مرکز": "خانقاه میزا خیرالدین ",
    "Polling_Center_Location": "Khanqah Mirza Khairuddin",
    "Map_Accuracy": "Building",
    "Map_Accuracy_Dari": "تعمیر",
    "Status": "Open",
    "Status_Dari": null,
    "PS_Male": 1,
    "PS_Female": 2,
    "PS_Total": 3,
    "ولسوالي": "خلم",
    "Region": "Northern Region"
   },
   "geometry": {
    "x": 7534871.6610497171,
    "y": 4398973.9854458822
   }
  },
  {
   "attributes": {
    "OBJECTID": 1890,
    "ولایت": "بلخ",
    "Province": "BALKH",
    "PC_Code": "2111180",
    "District": "CHAR BOLAK",
    "د_مرکز_نوم__نام_مرکز": "مکتب ابو شکور بلخی",
    "Polling_Center_Name": "Abu Shakoor Balkhi School",
    "د_مرکز_ځای__موقعیت_مرکز": "آق تپه",
    "Polling_Center_Location": "Aaq Tapa ",
    "Map_Accuracy": "Building",
    "Map_Accuracy_Dari": "تعمیر",
    "Status": "Open",
    "Status_Dari": null,
    "PS_Male": 1,
    "PS_Female": 1,
    "PS_Total": 2,
    "ولسوالي": "چار بولک",
    "Region": "Northern Region"
   },
   "geometry": {
    "x": 7421733.2698894022,
    "y": 4404846.3315839758
   }
  },
  {
   "attributes": {
    "OBJECTID": 1891,
    "ولایت": "بلخ",
    "Province": "BALKH",
    "PC_Code": "2111181",
    "District": "CHAR BOLAK",
    "د_مرکز_نوم__نام_مرکز": "مکتب احمد آباد",
    "Polling_Center_Name": "Ahmad Abad School",
    "د_مرکز_ځای__موقعیت_مرکز": "قریه احمد آباد",
    "Polling_Center_Location": "Ahmad Abad Village",
    "Map_Accuracy": "Building",
    "Map_Accuracy_Dari": "تعمیر",
    "Status": "Open",
    "Status_Dari": null,
    "PS_Male": 2,
    "PS_Female": 1,
    "PS_Total": 3,
    "ولسوالي": "چار بولک",
    "Region": "Northern Region"
   },
   "geometry": {
    "x": 7416498.6879078615,
    "y": 4424605.6873575589
   }
  },
  {
   "attributes": {
    "OBJECTID": 1892,
    "ولایت": "بلخ",
    "Province": "BALKH",
    "PC_Code": "2111184",
    "District": "CHAR BOLAK",
    "د_مرکز_نوم__نام_مرکز": "مکتب ارناغه",
    "Polling_Center_Name": "Arnagha School",
    "د_مرکز_ځای__موقعیت_مرکز": "قریه ارناغه",
    "Polling_Center_Location": "Arnagha Village",
    "Map_Accuracy": "Building",
    "Map_Accuracy_Dari": "تعمیر",
    "Status": "Open",
    "Status_Dari": null,
    "PS_Male": 2,
    "PS_Female": 1,
    "PS_Total": 3,
    "ولسوالي": "چار بولک",
    "Region": "Northern Region"
   },
   "geometry": {
    "x": 7422822.3340713196,
    "y": 4414806.5258638803
   }
  },
  {
   "attributes": {
    "OBJECTID": 1893,
    "ولایت": "بلخ",
    "Province": "BALKH",
    "PC_Code": "2111185",
    "District": "CHAR BOLAK",
    "د_مرکز_نوم__نام_مرکز": "مسجد جامع آدینه",
    "Polling_Center_Name": "Adeena Mosque",
    "د_مرکز_ځای__موقعیت_مرکز": "قریه آ دینه مسجد",
    "Polling_Center_Location": "Aadina Mosque Village",
    "Map_Accuracy": "Building",
    "Map_Accuracy_Dari": "تعمیر",
    "Status": "Open",
    "Status_Dari": null,
    "PS_Male": 1,
    "PS_Female": 1,
    "PS_Total": 2,
    "ولسوالي": "چار بولک",
    "Region": "Northern Region"
   },
   "geometry": {
    "x": 7425292.8887187038,
    "y": 4424393.2599360598
   }
  },
  {
   "attributes": {
    "OBJECTID": 1894,
    "ولایت": "بلخ",
    "Province": "BALKH",
    "PC_Code": "2111190",
    "District": "CHAR BOLAK",
    "د_مرکز_نوم__نام_مرکز": "مکتب بورلوک",
    "Polling_Center_Name": "Borolok School",
    "د_مرکز_ځای__موقعیت_مرکز": "قریه بورلوک",
    "Polling_Center_Location": "Borolok Village",
    "Map_Accuracy": "Building",
    "Map_Accuracy_Dari": "تعمیر",
    "Status": "Open",
    "Status_Dari": null,
    "PS_Male": 1,
    "PS_Female": 1,
    "PS_Total": 2,
    "ولسوالي": "چار بولک",
    "Region": "Northern Region"
   },
   "geometry": {
    "x": 7409965.471671029,
    "y": 4428689.0375501681
   }
  },
  {
   "attributes": {
    "OBJECTID": 1895,
    "ولایت": "بلخ",
    "Province": "BALKH",
    "PC_Code": "2111191",
    "District": "CHAR BOLAK",
    "د_مرکز_نوم__نام_مرکز": "مکتب بدایع بلخی",
    "Polling_Center_Name": "Badaye Bakhli School",
    "د_مرکز_ځای__موقعیت_مرکز": "قریه تیمورک",
    "Polling_Center_Location": "Taimorak Village",
    "Map_Accuracy": "Building",
    "Map_Accuracy_Dari": "تعمیر",
    "Status": "Open",
    "Status_Dari": null,
    "PS_Male": 1,
    "PS_Female": 1,
    "PS_Total": 2,
    "ولسوالي": "چار بولک",
    "Region": "Northern Region"
   },
   "geometry": {
    "x": 7413250.9618014721,
    "y": 4407450.2685948415
   }
  },
  {
   "attributes": {
    "OBJECTID": 1896,
    "ولایت": "بلخ",
    "Province": "BALKH",
    "PC_Code": "2111201",
    "District": "CHAR BOLAK",
    "د_مرکز_نوم__نام_مرکز": "تعمیر ولسوالی",
    "Polling_Center_Name": "Districts Building",
    "د_مرکز_ځای__موقعیت_مرکز": "مرکز ولسوالی چهاربولک",
    "Polling_Center_Location": "Chahar Bolak District Office",
    "Map_Accuracy": "Building",
    "Map_Accuracy_Dari": "تعمیر",
    "Status": "Open",
    "Status_Dari": null,
    "PS_Male": 1,
    "PS_Female": 1,
    "PS_Total": 2,
    "ولسوالي": "چار بولک",
    "Region": "Northern Region"
   },
   "geometry": {
    "x": 7425631.0661997879,
    "y": 4406740.897495524
   }
  },
  {
   "attributes": {
    "OBJECTID": 1897,
    "ولایت": "بلخ",
    "Province": "BALKH",
    "PC_Code": "2111202",
    "District": "CHAR BOLAK",
    "د_مرکز_نوم__نام_مرکز": "مکتب منگولی",
    "Polling_Center_Name": "Mangoli School",
    "د_مرکز_ځای__موقعیت_مرکز": "قریه منگولی",
    "Polling_Center_Location": "Mangoli Village",
    "Map_Accuracy": "Building",
    "Map_Accuracy_Dari": "تعمیر",
    "Status": "Open",
    "Status_Dari": null,
    "PS_Male": 1,
    "PS_Female": 1,
    "PS_Total": 2,
    "ولسوالي": "چار بولک",
    "Region": "Northern Region"
   },
   "geometry": {
    "x": 7413115.0507219704,
    "y": 4422090.2475540116
   }
  },
  {
   "attributes": {
    "OBJECTID": 1898,
    "ولایت": "بلخ",
    "Province": "BALKH",
    "PC_Code": "2111206",
    "District": "CHAR BOLAK",
    "د_مرکز_نوم__نام_مرکز": "مسجد جامع",
    "Polling_Center_Name": "Jame Mosque",
    "د_مرکز_ځای__موقعیت_مرکز": "قریه شیخ تاش تیمور",
    "Polling_Center_Location": "Shekh Tash Taimor Village",
    "Map_Accuracy": "Building",
    "Map_Accuracy_Dari": "تعمیر",
    "Status": "Open",
    "Status_Dari": null,
    "PS_Male": 1,
    "PS_Female": 1,
    "PS_Total": 2,
    "ولسوالي": "چار بولک",
    "Region": "Northern Region"
   },
   "geometry": {
    "x": 7429852.9903583117,
    "y": 4417174.681227468
   }
  },
  {
   "attributes": {
    "OBJECTID": 1899,
    "ولایت": "بلخ",
    "Province": "BALKH",
    "PC_Code": "2111207",
    "District": "CHAR BOLAK",
    "د_مرکز_نوم__نام_مرکز": "منزل ملا شاهین",
    "Polling_Center_Name": "Mula Shaheen Private House",
    "د_مرکز_ځای__موقعیت_مرکز": "قریه ملا شاهین",
    "Polling_Center_Location": "Mula Shaheen Village",
    "Map_Accuracy": "Building",
    "Map_Accuracy_Dari": "تعمیر",
    "Status": "Open",
    "Status_Dari": null,
    "PS_Male": 1,
    "PS_Female": 1,
    "PS_Total": 2,
    "ولسوالي": "چار بولک",
    "Region": "Northern Region"
   },
   "geometry": {
    "x": 7430479.0411557853,
    "y": 4409282.3084361982
   }
  },
  {
   "attributes": {
    "OBJECTID": 1900,
    "ولایت": "بلخ",
    "Province": "BALKH",
    "PC_Code": "2112109",
    "District": "SHORTEPA",
    "د_مرکز_نوم__نام_مرکز": "مکتب جیرتان",
    "Polling_Center_Name": "Jirtan School",
    "د_مرکز_ځای__موقعیت_مرکز": "قریه جیرتان",
    "Polling_Center_Location": "Jirtan Village",
    "Map_Accuracy": "Building",
    "Map_Accuracy_Dari": "تعمیر",
    "Status": "Open",
    "Status_Dari": null,
    "PS_Male": 2,
    "PS_Female": 1,
    "PS_Total": 3,
    "ولسوالي": "شور تیپه",
    "Region": "Northern Region"
   },
   "geometry": {
    "x": 7494631.0644139471,
    "y": 4463502.5141755976
   }
  },
  {
   "attributes": {
    "OBJECTID": 1901,
    "ولایت": "بلخ",
    "Province": "BALKH",
    "PC_Code": "2112110",
    "District": "SHORTEPA",
    "د_مرکز_نوم__نام_مرکز": "مکتب تاشگذر",
    "Polling_Center_Name": "Tashguzar School",
    "د_مرکز_ځای__موقعیت_مرکز": "قره هزاره توقی",
    "Polling_Center_Location": "Hazara Toqi Village",
    "Map_Accuracy": "Building",
    "Map_Accuracy_Dari": "تعمیر",
    "Status": "Open",
    "Status_Dari": null,
    "PS_Male": 2,
    "PS_Female": 1,
    "PS_Total": 3,
    "ولسوالي": "شور تیپه",
    "Region": "Northern Region"
   },
   "geometry": {
    "x": 7481784.2419185359,
    "y": 4467325.5463692276
   }
  },
  {
   "attributes": {
    "OBJECTID": 1902,
    "ولایت": "بلخ",
    "Province": "BALKH",
    "PC_Code": "2113101",
    "District": "KALDAR",
    "د_مرکز_نوم__نام_مرکز": "مکتب متوسطه تزلاق",
    "Polling_Center_Name": "Tazlaq Secondary School",
    "د_مرکز_ځای__موقعیت_مرکز": "قریه تزلاق",
    "Polling_Center_Location": "Tazlaq Village",
    "Map_Accuracy": "Building",
    "Map_Accuracy_Dari": "تعمیر",
    "Status": "Open",
    "Status_Dari": null,
    "PS_Male": 2,
    "PS_Female": 1,
    "PS_Total": 3,
    "ولسوالي": "کلدار",
    "Region": "Northern Region"
   },
   "geometry": {
    "x": 7514677.1621686453,
    "y": 4471697.4241869859
   }
  },
  {
   "attributes": {
    "OBJECTID": 1903,
    "ولایت": "بلخ",
    "Province": "BALKH",
    "PC_Code": "2113102",
    "District": "KALDAR",
    "د_مرکز_نوم__نام_مرکز": "منزل حاجی ولی",
    "Polling_Center_Name": "Haji Wali Private House",
    "د_مرکز_ځای__موقعیت_مرکز": "قریه تازه آریخ",
    "Polling_Center_Location": "Taza Areekh Village",
    "Map_Accuracy": "Building",
    "Map_Accuracy_Dari": "تعمیر",
    "Status": "Open",
    "Status_Dari": null,
    "PS_Male": 1,
    "PS_Female": 1,
    "PS_Total": 2,
    "ولسوالي": "کلدار",
    "Region": "Northern Region"
   },
   "geometry": {
    "x": 7541192.2448139852,
    "y": 4464929.2921339981
   }
  },
  {
   "attributes": {
    "OBJECTID": 1904,
    "ولایت": "بلخ",
    "Province": "BALKH",
    "PC_Code": "2113105",
    "District": "KALDAR",
    "د_مرکز_نوم__نام_مرکز": "مکتب متوسطه بوزآریخ",
    "Polling_Center_Name": "Bozareekh Secondary School",
    "د_مرکز_ځای__موقعیت_مرکز": "قریه بوز آریخ",
    "Polling_Center_Location": "Boz Areekh Village",
    "Map_Accuracy": "Building",
    "Map_Accuracy_Dari": "تعمیر",
    "Status": "Open",
    "Status_Dari": null,
    "PS_Male": 1,
    "PS_Female": 1,
    "PS_Total": 2,
    "ولسوالي": "کلدار",
    "Region": "Northern Region"
   },
   "geometry": {
    "x": 7538560.2245847834,
    "y": 4466364.0455206269
   }
  },
  {
   "attributes": {
    "OBJECTID": 1905,
    "ولایت": "بلخ",
    "Province": "BALKH",
    "PC_Code": "2113106",
    "District": "KALDAR",
    "د_مرکز_نوم__نام_مرکز": "منزل کریم قریه دار",
    "Polling_Center_Name": "Kareem Qaryadar Private House",
    "د_مرکز_ځای__موقعیت_مرکز": "قریه قره جه",
    "Polling_Center_Location": "Qaraja Village",
    "Map_Accuracy": "Building",
    "Map_Accuracy_Dari": "تعمیر",
    "Status": "Open",
    "Status_Dari": null,
    "PS_Male": 1,
    "PS_Female": 1,
    "PS_Total": 2,
    "ولسوالي": "کلدار",
    "Region": "Northern Region"
   },
   "geometry": {
    "x": 7533899.5725019248,
    "y": 4466851.3009874932
   }
  },
  {
   "attributes": {
    "OBJECTID": 1906,
    "ولایت": "بلخ",
    "Province": "BALKH",
    "PC_Code": "2114290",
    "District": "KISHINDEH",
    "د_مرکز_نوم__نام_مرکز": "مکتب کشنده بالا",
    "Polling_Center_Name": "Kushenda Bala School",
    "د_مرکز_ځای__موقعیت_مرکز": "قریه کشنده بالا",
    "Polling_Center_Location": "Kushenda Bala Village",
    "Map_Accuracy": "Building",
    "Map_Accuracy_Dari": "تعمیر",
    "Status": "Open",
    "Status_Dari": null,
    "PS_Male": 2,
    "PS_Female": 1,
    "PS_Total": 3,
    "ولسوالي": "کشنده",
    "Region": "Northern Region"
   },
   "geometry": {
    "x": 7447360.2044489821,
    "y": 4311592.0800734255
   }
  },
  {
   "attributes": {
    "OBJECTID": 1907,
    "ولایت": "بلخ",
    "Province": "BALKH",
    "PC_Code": "2114291",
    "District": "KISHINDEH",
    "د_مرکز_نوم__نام_مرکز": "مکتب کشنده پایان ",
    "Polling_Center_Name": "Kushenda Payan School",
    "د_مرکز_ځای__موقعیت_مرکز": "قریه کشنده پایان",
    "Polling_Center_Location": "Kushenda Payan Village",
    "Map_Accuracy": "Building",
    "Map_Accuracy_Dari": "تعمیر",
    "Status": "Open",
    "Status_Dari": null,
    "PS_Male": 2,
    "PS_Female": 1,
    "PS_Total": 3,
    "ولسوالي": "کشنده",
    "Region": "Northern Region"
   },
   "geometry": {
    "x": 7449671.5054328376,
    "y": 4321706.0693070497
   }
  },
  {
   "attributes": {
    "OBJECTID": 1908,
    "ولایت": "بلخ",
    "Province": "BALKH",
    "PC_Code": "2115313",
    "District": "ZARI",
    "د_مرکز_نوم__نام_مرکز": "مکتب متوسطه عبدالگان ",
    "Polling_Center_Name": "Abdaalgan Secondary School",
    "د_مرکز_ځای__موقعیت_مرکز": "قریه بنی گو",
    "Polling_Center_Location": "Banigo Village",
    "Map_Accuracy": "Building",
    "Map_Accuracy_Dari": "تعمیر",
    "Status": "Open",
    "Status_Dari": null,
    "PS_Male": 3,
    "PS_Female": 1,
    "PS_Total": 4,
    "ولسوالي": "زاری",
    "Region": "Northern Region"
   },
   "geometry": {
    "x": 7428681.3671892481,
    "y": 4277489.6359817069
   }
  },
  {
   "attributes": {
    "OBJECTID": 1909,
    "ولایت": "تخار",
    "Province": "TAKHAR",
    "PC_Code": "1801033",
    "District": "TALUQAN",
    "د_مرکز_نوم__نام_مرکز": "اوچقدق",
    "Polling_Center_Name": "Ochqadaq ",
    "د_مرکز_ځای__موقعیت_مرکز": "اوچقدق",
    "Polling_Center_Location": "Ochqadaq",
    "Map_Accuracy": "Building",
    "Map_Accuracy_Dari": "تعمیر",
    "Status": "Open",
    "Status_Dari": null,
    "PS_Male": 2,
    "PS_Female": 1,
    "PS_Total": 3,
    "ولسوالي": "تالقان",
    "Region": "North Eastern Region"
   },
   "geometry": {
    "x": 7750682.2249209685,
    "y": 4409146.1039794767
   }
  },
  {
   "attributes": {
    "OBJECTID": 1910,
    "ولایت": "تخار",
    "Province": "TAKHAR",
    "PC_Code": "1802038",
    "District": "HAZAR SUMUCH",
    "د_مرکز_نوم__نام_مرکز": "مسجد خواجه لمتو",
    "Polling_Center_Name": "Khwaja Lamtoo Mosque",
    "د_مرکز_ځای__موقعیت_مرکز": "خواجه لمتو",
    "Polling_Center_Location": "Khwaja Lamtoo",
    "Map_Accuracy": "Building",
    "Map_Accuracy_Dari": "تعمیر",
    "Status": "Open",
    "Status_Dari": null,
    "PS_Male": 1,
    "PS_Female": 1,
    "PS_Total": 2,
    "ولسوالي": "هزارسموچ",
    "Region": "North Eastern Region"
   },
   "geometry": {
    "x": 7757341.3023136714,
    "y": 4425576.3046690952
   }
  },
  {
   "attributes": {
    "OBJECTID": 1911,
    "ولایت": "تخار",
    "Province": "TAKHAR",
    "PC_Code": "1802039",
    "District": "HAZAR SUMUCH",
    "د_مرکز_نوم__نام_مرکز": "مکتب قلعه مامه یی",
    "Polling_Center_Name": "Qala Mama Ye School",
    "د_مرکز_ځای__موقعیت_مرکز": "قلعه مامه یی",
    "Polling_Center_Location": "Qala Mama Ye",
    "Map_Accuracy": "Building",
    "Map_Accuracy_Dari": "تعمیر",
    "Status": "Open",
    "Status_Dari": null,
    "PS_Male": 1,
    "PS_Female": 1,
    "PS_Total": 2,
    "ولسوالي": "هزارسموچ",
    "Region": "North Eastern Region"
   },
   "geometry": {
    "x": 7749208.9871575749,
    "y": 4437684.32440871
   }
  },
  {
   "attributes": {
    "OBJECTID": 1912,
    "ولایت": "تخار",
    "Province": "TAKHAR",
    "PC_Code": "1804062",
    "District": "BANGI",
    "د_مرکز_نوم__نام_مرکز": "لیسه اتحاد",
    "Polling_Center_Name": "Etihad High School",
    "د_مرکز_ځای__موقعیت_مرکز": "آفاقی",
    "Polling_Center_Location": "Afaqi",
    "Map_Accuracy": "Building",
    "Map_Accuracy_Dari": "تعمیر",
    "Status": "Open",
    "Status_Dari": null,
    "PS_Male": 5,
    "PS_Female": 3,
    "PS_Total": 8,
    "ولسوالي": "بنگی",
    "Region": "North Eastern Region"
   },
   "geometry": {
    "x": 7719104.5422281902,
    "y": 4392504.4370177435
   }
  },
  {
   "attributes": {
    "OBJECTID": 1913,
    "ولایت": "تخار",
    "Province": "TAKHAR",
    "PC_Code": "1804063",
    "District": "BANGI",
    "د_مرکز_نوم__نام_مرکز": "لیسه منصورشهید",
    "Polling_Center_Name": "Mansoor Shaheed High School",
    "د_مرکز_ځای__موقعیت_مرکز": "چله تاش",
    "Polling_Center_Location": "Chala Tash",
    "Map_Accuracy": "Building",
    "Map_Accuracy_Dari": "تعمیر",
    "Status": "Open",
    "Status_Dari": null,
    "PS_Male": 2,
    "PS_Female": 2,
    "PS_Total": 4,
    "ولسوالي": "بنگی",
    "Region": "North Eastern Region"
   },
   "geometry": {
    "x": 7720976.6355007095,
    "y": 4381540.3992037009
   }
  },
  {
   "attributes": {
    "OBJECTID": 1914,
    "ولایت": "کندهار",
    "Province": "کندهار",
    "PC_Code": "2703086",
    "District": "DAMAN",
    "د_مرکز_نوم__نام_مرکز": "ټي بي سي کلینیک ",
    "Polling_Center_Name": "TBC Clinic",
    "د_مرکز_ځای__موقعیت_مرکز": "حاجي عزيز کلی",
    "Polling_Center_Location": "Haji Aziz Village",
    "Map_Accuracy": "Village",
    "Map_Accuracy_Dari": "قریه",
    "Status": "Open",
    "Status_Dari": null,
    "PS_Male": 2,
    "PS_Female": 1,
    "PS_Total": 3,
    "ولسوالي": "دامان",
    "Region": "Southern Region"
   },
   "geometry": {
    "x": 7338951.8717382122,
    "y": 3688206.8858523783
   }
  },
  {
   "attributes": {
    "OBJECTID": 1915,
    "ولایت": "کندهار",
    "Province": "کندهار",
    "PC_Code": "2704175",
    "District": "PANJWAYEE",
    "د_مرکز_نوم__نام_مرکز": "كمپ ټالكان",
    "Polling_Center_Name": "Talgaan Camp",
    "د_مرکز_ځای__موقعیت_مرکز": "ټالكان",
    "Polling_Center_Location": "Talgan",
    "Map_Accuracy": "Village",
    "Map_Accuracy_Dari": "قریه",
    "Status": "Open",
    "Status_Dari": null,
    "PS_Male": 1,
    "PS_Female": 1,
    "PS_Total": 2,
    "ولسوالي": "پنجوایې",
    "Region": "Southern Region"
   },
   "geometry": {
    "x": 7271476.2294202587,
    "y": 3691299.8087897371
   }
  },
  {
   "attributes": {
    "OBJECTID": 1916,
    "ولایت": "کندهار",
    "Province": "کندهار",
    "PC_Code": "2704176",
    "District": "PANJWAYEE",
    "د_مرکز_نوم__نام_مرکز": "شرعلي كمپ",
    "Polling_Center_Name": "Shar Ali Camp",
    "د_مرکز_ځای__موقعیت_مرکز": "موشان",
    "Polling_Center_Location": "Moshan",
    "Map_Accuracy": "Village",
    "Map_Accuracy_Dari": "قریه",
    "Status": "Open",
    "Status_Dari": null,
    "PS_Male": 1,
    "PS_Female": 1,
    "PS_Total": 2,
    "ولسوالي": "پنجوایې",
    "Region": "Southern Region"
   },
   "geometry": {
    "x": 7264469.0526402621,
    "y": 3693501.4948438099
   }
  },
  {
   "attributes": {
    "OBJECTID": 1917,
    "ولایت": "کندهار",
    "Province": "کندهار",
    "PC_Code": "2704180",
    "District": "PANJWAYEE",
    "د_مرکز_نوم__نام_مرکز": "د شمس الدين كاكر مكتب",
    "Polling_Center_Name": "Shamsuddin Kakar School",
    "د_مرکز_ځای__موقعیت_مرکز": "پنجوايي مرکز",
    "Polling_Center_Location": "Panjwayee Markaz",
    "Map_Accuracy": "Building",
    "Map_Accuracy_Dari": "تعمیر",
    "Status": "Open",
    "Status_Dari": null,
    "PS_Male": 4,
    "PS_Female": 0,
    "PS_Total": 4,
    "ولسوالي": "پنجوایې",
    "Region": "Southern Region"
   },
   "geometry": {
    "x": 7286404.0139487637,
    "y": 3703455.0270864447
   }
  },
  {
   "attributes": {
    "OBJECTID": 1918,
    "ولایت": "کندهار",
    "Province": "کندهار",
    "PC_Code": "2705155",
    "District": "ZHIRE",
    "د_مرکز_نوم__نام_مرکز": "شپږم كمپ ښوونځي",
    "Polling_Center_Name": "6th Camp School",
    "د_مرکز_ځای__موقعیت_مرکز": "د ژړي دښت",
    "Polling_Center_Location": "Zharee Dasht",
    "Map_Accuracy": "Building",
    "Map_Accuracy_Dari": "تعمیر",
    "Status": "Open",
    "Status_Dari": null,
    "PS_Male": 1,
    "PS_Female": 1,
    "PS_Total": 2,
    "ولسوالي": "ژیړی",
    "Region": "Southern Region"
   },
   "geometry": {
    "x": 7280093.7127658613,
    "y": 3720299.9689370431
   }
  },
  {
   "attributes": {
    "OBJECTID": 1919,
    "ولایت": "کندهار",
    "Province": "کندهار",
    "PC_Code": "2705156",
    "District": "ZHIRE",
    "د_مرکز_نوم__نام_مرکز": "پنځم كمپ",
    "Polling_Center_Name": "5th Camp School",
    "د_مرکز_ځای__موقعیت_مرکز": "د ژړي دښت",
    "Polling_Center_Location": "Zharee Dasht",
    "Map_Accuracy": "Village",
    "Map_Accuracy_Dari": "قریه",
    "Status": "Open",
    "Status_Dari": null,
    "PS_Male": 1,
    "PS_Female": 1,
    "PS_Total": 2,
    "ولسوالي": "ژیړی",
    "Region": "Southern Region"
   },
   "geometry": {
    "x": 7291351.0231765527,
    "y": 3714496.6402363251
   }
  },
  {
   "attributes": {
    "OBJECTID": 1920,
    "ولایت": "کندهار",
    "Province": "کندهار",
    "PC_Code": "2711205",
    "District": "SPIN BOLDAK",
    "د_مرکز_نوم__نام_مرکز": "د ډاكتر محمد داود كور",
    "Polling_Center_Name": "Doctar Mohammad Dawood Private House",
    "د_مرکز_ځای__موقعیت_مرکز": "نوي كلي",
    "Polling_Center_Location": "Nawee Village",
    "Map_Accuracy": "Building",
    "Map_Accuracy_Dari": "تعمیر",
    "Status": "Open",
    "Status_Dari": null,
    "PS_Male": 5,
    "PS_Female": 1,
    "PS_Total": 6,
    "ولسوالي": "سپین بولدک",
    "Region": "Southern Region"
   },
   "geometry": {
    "x": 7395389.9576711422,
    "y": 3628345.45940651
   }
  },
  {
   "attributes": {
    "OBJECTID": 1921,
    "ولایت": "کندهار",
    "Province": "کندهار",
    "PC_Code": "2711227",
    "District": "SPIN BOLDAK",
    "د_مرکز_نوم__نام_مرکز": "د حاجي كمال الدين كور",
    "Polling_Center_Name": "Haji Kamaluddin Private House",
    "د_مرکز_ځای__موقعیت_مرکز": "بلال آباد",
    "Polling_Center_Location": "Bilal Abad",
    "Map_Accuracy": "Building",
    "Map_Accuracy_Dari": "تعمیر",
    "Status": "Open",
    "Status_Dari": null,
    "PS_Male": 4,
    "PS_Female": 2,
    "PS_Total": 6,
    "ولسوالي": "سپین بولدک",
    "Region": "Southern Region"
   },
   "geometry": {
    "x": 7393232.0159837715,
    "y": 3630805.5512270825
   }
  },
  {
   "attributes": {
    "OBJECTID": 1922,
    "ولایت": "کندهار",
    "Province": "کندهار",
    "PC_Code": "2716196",
    "District": "REG",
    "د_مرکز_نوم__نام_مرکز": "مكتب شيرشاه",
    "Polling_Center_Name": "Sher Shah School",
    "د_مرکز_ځای__موقعیت_مرکز": "شيرشاه",
    "Polling_Center_Location": "Sher Shah ",
    "Map_Accuracy": "Village",
    "Map_Accuracy_Dari": "قریه",
    "Status": "Open",
    "Status_Dari": null,
    "PS_Male": 4,
    "PS_Female": 3,
    "PS_Total": 7,
    "ولسوالي": "ریګ",
    "Region": "Southern Region"
   },
   "geometry": {
    "x": 7307661.5961557897,
    "y": 3476296.7458090861
   }
  },
  {
   "attributes": {
    "OBJECTID": 1923,
    "ولایت": "کندهار",
    "Province": "کندهار",
    "PC_Code": "2716197",
    "District": "REG",
    "د_مرکز_نوم__نام_مرکز": "مكتب كامي",
    "Polling_Center_Name": "Kaami School",
    "د_مرکز_ځای__موقعیت_مرکز": "كامي",
    "Polling_Center_Location": "Kaami",
    "Map_Accuracy": "Village",
    "Map_Accuracy_Dari": "قریه",
    "Status": "Open",
    "Status_Dari": null,
    "PS_Male": 4,
    "PS_Female": 2,
    "PS_Total": 6,
    "ولسوالي": "ریګ",
    "Region": "Southern Region"
   },
   "geometry": {
    "x": 7243599.2207099516,
    "y": 3449907.942089403
   }
  },
  {
   "attributes": {
    "OBJECTID": 1924,
    "ولایت": "کندهار",
    "Province": "کندهار",
    "PC_Code": "2717064",
    "District": "DAND",
    "د_مرکز_نوم__نام_مرکز": "د ذاكر شریف مكتب",
    "Polling_Center_Name": "Zakir Sharif School",
    "د_مرکز_ځای__موقعیت_مرکز": "شپږمه ناحيه",
    "Polling_Center_Location": "D06 - Nahia 6",
    "Map_Accuracy": "District",
    "Map_Accuracy_Dari": "ولسوالی",
    "Status": "Open",
    "Status_Dari": null,
    "PS_Male": 4,
    "PS_Female": 2,
    "PS_Total": 6,
    "ولسوالي": "ډند",
    "Region": "Southern Region"
   },
   "geometry": {
    "x": 7308169.5135964332,
    "y": 3708478.9702991354
   }
  },
  {
   "attributes": {
    "OBJECTID": 1925,
    "ولایت": "کندهار",
    "Province": "کندهار",
    "PC_Code": "2718237",
    "District": "TAKHTA PUL",
    "د_مرکز_نوم__نام_مرکز": "د پيرمحمد كور",
    "Polling_Center_Name": "Peer Mohammad Private House",
    "د_مرکز_ځای__موقعیت_مرکز": "ميراڼو كلي",
    "Polling_Center_Location": "Mirano Village",
    "Map_Accuracy": "Village",
    "Map_Accuracy_Dari": "قریه",
    "Status": "Open",
    "Status_Dari": null,
    "PS_Male": 4,
    "PS_Female": 4,
    "PS_Total": 8,
    "ولسوالي": "تخته پل",
    "Region": "Southern Region"
   },
   "geometry": {
    "x": 7328906.6128413379,
    "y": 3683961.6049648165
   }
  },
  {
   "attributes": {
    "OBJECTID": 1926,
    "ولایت": "کندهار",
    "Province": "کندهار",
    "PC_Code": "2718238",
    "District": "TAKHTA PUL",
    "د_مرکز_نوم__نام_مرکز": "د كمپ مكتب",
    "Polling_Center_Name": "Camp School",
    "د_مرکز_ځای__موقعیت_مرکز": "تاجو خان كلي",
    "Polling_Center_Location": "Tajo Khan Village",
    "Map_Accuracy": "Village",
    "Map_Accuracy_Dari": "قریه",
    "Status": "Open",
    "Status_Dari": null,
    "PS_Male": 4,
    "PS_Female": 4,
    "PS_Total": 8,
    "ولسوالي": "تخته پل",
    "Region": "Southern Region"
   },
   "geometry": {
    "x": 7315073.817474639,
    "y": 3694876.0351136266
   }
  },
  {
   "attributes": {
    "OBJECTID": 1927,
    "ولایت": "جوزجان",
    "Province": "JAWZJAN",
    "PC_Code": "2801025",
    "District": "SHEBERGHAN",
    "د_مرکز_نوم__نام_مرکز": "لیسه افغان تپه",
    "Polling_Center_Name": "Afghan Tapa High School",
    "د_مرکز_ځای__موقعیت_مرکز": "ناحیه اول",
    "Polling_Center_Location": "D01 - Nahia 1",
    "Map_Accuracy": "Building",
    "Map_Accuracy_Dari": "تعمیر",
    "Status": "Open",
    "Status_Dari": null,
    "PS_Male": 4,
    "PS_Female": 2,
    "PS_Total": 6,
    "ولسوالي": "شبرغان",
    "Region": "Northern Region"
   },
   "geometry": {
    "x": 7324417.1031209817,
    "y": 4373999.6911477167
   }
  },
  {
   "attributes": {
    "OBJECTID": 1928,
    "ولایت": "جوزجان",
    "Province": "JAWZJAN",
    "PC_Code": "2801026",
    "District": "SHEBERGHAN",
    "د_مرکز_نوم__نام_مرکز": "مکتب متوسطه چهار شنبه",
    "Polling_Center_Name": "Chaharshanba Secondary School",
    "د_مرکز_ځای__موقعیت_مرکز": "ناحیه چهارم",
    "Polling_Center_Location": "D04 - Nahia 4",
    "Map_Accuracy": "Building",
    "Map_Accuracy_Dari": "تعمیر",
    "Status": "Open",
    "Status_Dari": null,
    "PS_Male": 3,
    "PS_Female": 2,
    "PS_Total": 5,
    "ولسوالي": "شبرغان",
    "Region": "Northern Region"
   },
   "geometry": {
    "x": 7328862.9675859408,
    "y": 4401970.2601288827
   }
  },
  {
   "attributes": {
    "OBJECTID": 1929,
    "ولایت": "جوزجان",
    "Province": "JAWZJAN",
    "PC_Code": "2801027",
    "District": "SHEBERGHAN",
    "د_مرکز_نوم__نام_مرکز": "مکتب متوسطه لب جرخراسان",
    "Polling_Center_Name": "Lab Jar Khurasan Secondary School",
    "د_مرکز_ځای__موقعیت_مرکز": "ناحیه دوم",
    "Polling_Center_Location": "D02 - Nahia 2",
    "Map_Accuracy": "Building",
    "Map_Accuracy_Dari": "تعمیر",
    "Status": "Open",
    "Status_Dari": null,
    "PS_Male": 2,
    "PS_Female": 1,
    "PS_Total": 3,
    "ولسوالي": "شبرغان",
    "Region": "Northern Region"
   },
   "geometry": {
    "x": 7314550.1998669738,
    "y": 4392113.7760324739
   }
  },
  {
   "attributes": {
    "OBJECTID": 1930,
    "ولایت": "جوزجان",
    "Province": "JAWZJAN",
    "PC_Code": "2801028",
    "District": "SHEBERGHAN",
    "د_مرکز_نوم__نام_مرکز": "مکتب متوسطه چوباش کلان",
    "Polling_Center_Name": "Chobash Kalan Secondary School",
    "د_مرکز_ځای__موقعیت_مرکز": "ناحیه چهارم",
    "Polling_Center_Location": "D04 - Nahia 4",
    "Map_Accuracy": "Building",
    "Map_Accuracy_Dari": "تعمیر",
    "Status": "Open",
    "Status_Dari": null,
    "PS_Male": 2,
    "PS_Female": 1,
    "PS_Total": 3,
    "ولسوالي": "شبرغان",
    "Region": "Northern Region"
   },
   "geometry": {
    "x": 7319476.3760973355,
    "y": 4394829.3427823987
   }
  },
  {
   "attributes": {
    "OBJECTID": 1931,
    "ولایت": "جوزجان",
    "Province": "JAWZJAN",
    "PC_Code": "2801031",
    "District": "SHEBERGHAN",
    "د_مرکز_نوم__نام_مرکز": "مکتب متوسطه شکرک",
    "Polling_Center_Name": "Shakarak Secondary School",
    "د_مرکز_ځای__موقعیت_مرکز": "ناحیه سوم",
    "Polling_Center_Location": "D03 - Nahia 3",
    "Map_Accuracy": "Building",
    "Map_Accuracy_Dari": "تعمیر",
    "Status": "Open",
    "Status_Dari": null,
    "PS_Male": 2,
    "PS_Female": 1,
    "PS_Total": 3,
    "ولسوالي": "شبرغان",
    "Region": "Northern Region"
   },
   "geometry": {
    "x": 7319405.9226595312,
    "y": 4383743.7282625102
   }
  },
  {
   "attributes": {
    "OBJECTID": 1932,
    "ولایت": "جوزجان",
    "Province": "JAWZJAN",
    "PC_Code": "2801032",
    "District": "SHEBERGHAN",
    "د_مرکز_نوم__نام_مرکز": "لیسه حسن تابین",
    "Polling_Center_Name": "Hassan Tabeen High School",
    "د_مرکز_ځای__موقعیت_مرکز": "ناحیه سوم",
    "Polling_Center_Location": "D03 - Nahia 3",
    "Map_Accuracy": "Building",
    "Map_Accuracy_Dari": "تعمیر",
    "Status": "Open",
    "Status_Dari": null,
    "PS_Male": 2,
    "PS_Female": 1,
    "PS_Total": 3,
    "ولسوالي": "شبرغان",
    "Region": "Northern Region"
   },
   "geometry": {
    "x": 7321421.3141729627,
    "y": 4385632.3504013652
   }
  },
  {
   "attributes": {
    "OBJECTID": 1933,
    "ولایت": "جوزجان",
    "Province": "JAWZJAN",
    "PC_Code": "2803118",
    "District": "KHANAQA",
    "د_مرکز_نوم__نام_مرکز": "مسجد بکاول ترکمنیه",
    "Polling_Center_Name": "Bakawal Turkmania Mosque",
    "د_مرکز_ځای__موقعیت_مرکز": "بکاول ترکمنیه",
    "Polling_Center_Location": "Bakawal Turkmania",
    "Map_Accuracy": "Building",
    "Map_Accuracy_Dari": "تعمیر",
    "Status": "Open",
    "Status_Dari": null,
    "PS_Male": 1,
    "PS_Female": 1,
    "PS_Total": 2,
    "ولسوالي": "خانقاه",
    "Region": "Northern Region"
   },
   "geometry": {
    "x": 7358330.5871043466,
    "y": 4422784.1534288796
   }
  },
  {
   "attributes": {
    "OBJECTID": 1934,
    "ولایت": "جوزجان",
    "Province": "JAWZJAN",
    "PC_Code": "2803119",
    "District": "KHANAQA",
    "د_مرکز_نوم__نام_مرکز": "مکتب متوسطه الیک رباط",
    "Polling_Center_Name": "Aleek Rabat Secondary School",
    "د_مرکز_ځای__موقعیت_مرکز": "الیک رباط",
    "Polling_Center_Location": "Aleek Rabat",
    "Map_Accuracy": "Building",
    "Map_Accuracy_Dari": "تعمیر",
    "Status": "Open",
    "Status_Dari": null,
    "PS_Male": 2,
    "PS_Female": 1,
    "PS_Total": 3,
    "ولسوالي": "خانقاه",
    "Region": "Northern Region"
   },
   "geometry": {
    "x": 7359149.8284253078,
    "y": 4417164.6340770349
   }
  },
  {
   "attributes": {
    "OBJECTID": 1935,
    "ولایت": "جوزجان",
    "Province": "JAWZJAN",
    "PC_Code": "2805090",
    "District": "QUSH TEPA",
    "د_مرکز_نوم__نام_مرکز": "مکتب چقمه چقور",
    "Polling_Center_Name": "Choqma Chaqoor School",
    "د_مرکز_ځای__موقعیت_مرکز": "قوش تبه ",
    "Polling_Center_Location": "Qosh Taba",
    "Map_Accuracy": "Building",
    "Map_Accuracy_Dari": "تعمیر",
    "Status": "Open",
    "Status_Dari": null,
    "PS_Male": 2,
    "PS_Female": 2,
    "PS_Total": 4,
    "ولسوالي": "قوش تیپه",
    "Region": "Northern Region"
   },
   "geometry": {
    "x": 7287198.3942878414,
    "y": 4323902.8531034458
   }
  },
  {
   "attributes": {
    "OBJECTID": 1936,
    "ولایت": "جوزجان",
    "Province": "JAWZJAN",
    "PC_Code": "2805091",
    "District": "QUSH TEPA",
    "د_مرکز_نوم__نام_مرکز": "مکتب جرقدوق",
    "Polling_Center_Name": "Jarqadoq School",
    "د_مرکز_ځای__موقعیت_مرکز": "قوش تبه ",
    "Polling_Center_Location": "Qosh Taba",
    "Map_Accuracy": "Building",
    "Map_Accuracy_Dari": "تعمیر",
    "Status": "Open",
    "Status_Dari": null,
    "PS_Male": 3,
    "PS_Female": 1,
    "PS_Total": 4,
    "ولسوالي": "قوش تیپه",
    "Region": "Northern Region"
   },
   "geometry": {
    "x": 7289670.2469204925,
    "y": 4342611.9628944872
   }
  },
  {
   "attributes": {
    "OBJECTID": 1937,
    "ولایت": "جوزجان",
    "Province": "JAWZJAN",
    "PC_Code": "2807038",
    "District": "AQCHAH",
    "د_مرکز_نوم__نام_مرکز": "لیسه نسوان آقچه",
    "Polling_Center_Name": "Aaqcha Girls High School",
    "د_مرکز_ځای__موقعیت_مرکز": "ناحیه اول ",
    "Polling_Center_Location": "D01 - Nahia 1",
    "Map_Accuracy": "Building",
    "Map_Accuracy_Dari": "تعمیر",
    "Status": "Open",
    "Status_Dari": null,
    "PS_Male": 2,
    "PS_Female": 2,
    "PS_Total": 4,
    "ولسوالي": "آقچه",
    "Region": "Northern Region"
   },
   "geometry": {
    "x": 7367471.7073158855,
    "y": 4426928.7759196218
   }
  },
  {
   "attributes": {
    "OBJECTID": 1938,
    "ولایت": "جوزجان",
    "Province": "JAWZJAN",
    "PC_Code": "2807039",
    "District": "AQCHAH",
    "د_مرکز_نوم__نام_مرکز": "مسجد ابوبکر صدیق ",
    "Polling_Center_Name": "Abu Bakr Sediq Mosque",
    "د_مرکز_ځای__موقعیت_مرکز": "ناحیه اول ",
    "Polling_Center_Location": "D01 - Nahia 1",
    "Map_Accuracy": "Building",
    "Map_Accuracy_Dari": "تعمیر",
    "Status": "Open",
    "Status_Dari": null,
    "PS_Male": 2,
    "PS_Female": 2,
    "PS_Total": 4,
    "ولسوالي": "آقچه",
    "Region": "Northern Region"
   },
   "geometry": {
    "x": 7368132.6033403631,
    "y": 4426088.4839503272
   }
  },
  {
   "attributes": {
    "OBJECTID": 1939,
    "ولایت": "جوزجان",
    "Province": "JAWZJAN",
    "PC_Code": "2808052",
    "District": "FAIZABAD",
    "د_مرکز_نوم__نام_مرکز": "لیسه ذکور بالا مردیان",
    "Polling_Center_Name": "Bala Mardiyan Boys High School",
    "د_مرکز_ځای__موقعیت_مرکز": "قریه بالا مردیان",
    "Polling_Center_Location": "Bala Mardiyan Village",
    "Map_Accuracy": "Building",
    "Map_Accuracy_Dari": "تعمیر",
    "Status": "Open",
    "Status_Dari": null,
    "PS_Male": 2,
    "PS_Female": 1,
    "PS_Total": 3,
    "ولسوالي": "فیض آباد",
    "Region": "Northern Region"
   },
   "geometry": {
    "x": 7401908.0044009592,
    "y": 4428476.1998150041
   }
  },
  {
   "attributes": {
    "OBJECTID": 1940,
    "ولایت": "جوزجان",
    "Province": "JAWZJAN",
    "PC_Code": "2808053",
    "District": "FAIZABAD",
    "د_مرکز_نوم__نام_مرکز": "مکتب متوسطه نور آباد",
    "Polling_Center_Name": "Noor Abad Secondary School",
    "د_مرکز_ځای__موقعیت_مرکز": "قریه نور آباد",
    "Polling_Center_Location": "Noor Abad Village",
    "Map_Accuracy": "Building",
    "Map_Accuracy_Dari": "تعمیر",
    "Status": "Open",
    "Status_Dari": null,
    "PS_Male": 1,
    "PS_Female": 1,
    "PS_Total": 2,
    "ولسوالي": "فیض آباد",
    "Region": "Northern Region"
   },
   "geometry": {
    "x": 7390033.2916040411,
    "y": 4414438.0604706081
   }
  },
  {
   "attributes": {
    "OBJECTID": 1941,
    "ولایت": "جوزجان",
    "Province": "JAWZJAN",
    "PC_Code": "2809063",
    "District": "MARDYAN",
    "د_مرکز_نوم__نام_مرکز": "مکتب ابتدائیه هندوکش",
    "Polling_Center_Name": "Hindukush Primary School",
    "د_مرکز_ځای__موقعیت_مرکز": "هندوکش",
    "Polling_Center_Location": "Hindukush",
    "Map_Accuracy": "Building",
    "Map_Accuracy_Dari": "تعمیر",
    "Status": "Open",
    "Status_Dari": null,
    "PS_Male": 2,
    "PS_Female": 1,
    "PS_Total": 3,
    "ولسوالي": "مردیان",
    "Region": "Northern Region"
   },
   "geometry": {
    "x": 7376859.7875913614,
    "y": 4424963.0030604051
   }
  },
  {
   "attributes": {
    "OBJECTID": 1942,
    "ولایت": "جوزجان",
    "Province": "JAWZJAN",
    "PC_Code": "2809064",
    "District": "MARDYAN",
    "د_مرکز_نوم__نام_مرکز": "مکتب متوسطه فروک قلعه",
    "Polling_Center_Name": "Farok Qala Secondary School",
    "د_مرکز_ځای__موقعیت_مرکز": "فروک قلعه",
    "Polling_Center_Location": "Farok Qala",
    "Map_Accuracy": "Building",
    "Map_Accuracy_Dari": "تعمیر",
    "Status": "Open",
    "Status_Dari": null,
    "PS_Male": 1,
    "PS_Female": 1,
    "PS_Total": 2,
    "ولسوالي": "مردیان",
    "Region": "Northern Region"
   },
   "geometry": {
    "x": 7386713.7544073388,
    "y": 4442574.3285987489
   }
  },
  {
   "attributes": {
    "OBJECTID": 1943,
    "ولایت": "جوزجان",
    "Province": "JAWZJAN",
    "PC_Code": "2809068",
    "District": "MARDYAN",
    "د_مرکز_نوم__نام_مرکز": "مکتب سالتق",
    "Polling_Center_Name": "Saltaq School",
    "د_مرکز_ځای__موقعیت_مرکز": "قریه سالتق",
    "Polling_Center_Location": "Saltaq Village",
    "Map_Accuracy": "Building",
    "Map_Accuracy_Dari": "تعمیر",
    "Status": "Open",
    "Status_Dari": null,
    "PS_Male": 1,
    "PS_Female": 1,
    "PS_Total": 2,
    "ولسوالي": "مردیان",
    "Region": "Northern Region"
   },
   "geometry": {
    "x": 7381778.9569276962,
    "y": 4419745.399983664
   }
  },
  {
   "attributes": {
    "OBJECTID": 1944,
    "ولایت": "جوزجان",
    "Province": "JAWZJAN",
    "PC_Code": "2810080",
    "District": "QARQIN",
    "د_مرکز_نوم__نام_مرکز": "لیسه مخدوم قلی فراغی",
    "Polling_Center_Name": "Makhdoom Qali Faraghi High School",
    "د_مرکز_ځای__موقعیت_مرکز": "مخدوم قلی فراغی",
    "Polling_Center_Location": "Makhdoom Qali Faraghi",
    "Map_Accuracy": "Building",
    "Map_Accuracy_Dari": "تعمیر",
    "Status": "Open",
    "Status_Dari": null,
    "PS_Male": 6,
    "PS_Female": 3,
    "PS_Total": 9,
    "ولسوالي": "قرقین",
    "Region": "Northern Region"
   },
   "geometry": {
    "x": 7350858.2918883283,
    "y": 4496858.1625309363
   }
  },
  {
   "attributes": {
    "OBJECTID": 1945,
    "ولایت": "جوزجان",
    "Province": "JAWZJAN",
    "PC_Code": "2810081",
    "District": "QARQIN",
    "د_مرکز_نوم__نام_مرکز": "مکتب متوسطه جوی سرای",
    "Polling_Center_Name": "Joy Sarai Secondary School",
    "د_مرکز_ځای__موقعیت_مرکز": "جوی سرای",
    "Polling_Center_Location": "Joy Sarai",
    "Map_Accuracy": "Building",
    "Map_Accuracy_Dari": "تعمیر",
    "Status": "Open",
    "Status_Dari": null,
    "PS_Male": 3,
    "PS_Female": 1,
    "PS_Total": 4,
    "ولسوالي": "قرقین",
    "Region": "Northern Region"
   },
   "geometry": {
    "x": 7354759.7751002451,
    "y": 4495632.9883296425
   }
  },
  {
   "attributes": {
    "OBJECTID": 1946,
    "ولایت": "جوزجان",
    "Province": "JAWZJAN",
    "PC_Code": "2810082",
    "District": "QARQIN",
    "د_مرکز_نوم__نام_مرکز": "مکتب متوسطه کوک",
    "Polling_Center_Name": "Kok Secondary School",
    "د_مرکز_ځای__موقعیت_مرکز": "قریه شهاب ",
    "Polling_Center_Location": "Shahab Village",
    "Map_Accuracy": "Building",
    "Map_Accuracy_Dari": "تعمیر",
    "Status": "Open",
    "Status_Dari": null,
    "PS_Male": 1,
    "PS_Female": 1,
    "PS_Total": 2,
    "ولسوالي": "قرقین",
    "Region": "Northern Region"
   },
   "geometry": {
    "x": 7368551.1439203173,
    "y": 4487379.3140722141
   }
  },
  {
   "attributes": {
    "OBJECTID": 1947,
    "ولایت": "جوزجان",
    "Province": "JAWZJAN",
    "PC_Code": "2811096",
    "District": "DARZAB",
    "د_مرکز_نوم__نام_مرکز": "لیسه ذکور درزاب",
    "Polling_Center_Name": "Darzaab Boys High School",
    "د_مرکز_ځای__موقعیت_مرکز": "مرکز ولسوالی ",
    "Polling_Center_Location": "District Compound",
    "Map_Accuracy": "Building",
    "Map_Accuracy_Dari": "تعمیر",
    "Status": "Open",
    "Status_Dari": null,
    "PS_Male": 3,
    "PS_Female": 1,
    "PS_Total": 4,
    "ولسوالي": "درز آب",
    "Region": "Northern Region"
   },
   "geometry": {
    "x": 7278708.9250170691,
    "y": 4297604.3329355102
   }
  },
  {
   "attributes": {
    "OBJECTID": 1948,
    "ولایت": "جوزجان",
    "Province": "JAWZJAN",
    "PC_Code": "2811097",
    "District": "DARZAB",
    "د_مرکز_نوم__نام_مرکز": "مکتب ابوذر غفاری",
    "Polling_Center_Name": "Abu Zar Ghaffari School",
    "د_مرکز_ځای__موقعیت_مرکز": "مفل ",
    "Polling_Center_Location": "Mafal",
    "Map_Accuracy": "Building",
    "Map_Accuracy_Dari": "تعمیر",
    "Status": "Open",
    "Status_Dari": null,
    "PS_Male": 2,
    "PS_Female": 1,
    "PS_Total": 3,
    "ولسوالي": "درز آب",
    "Region": "Northern Region"
   },
   "geometry": {
    "x": 7279858.2553449087,
    "y": 4297689.8572095437
   }
  },
  {
   "attributes": {
    "OBJECTID": 1949,
    "ولایت": "جوزجان",
    "Province": "JAWZJAN",
    "PC_Code": "2811102",
    "District": "DARZAB",
    "د_مرکز_نوم__نام_مرکز": "مکتب تاش جواز",
    "Polling_Center_Name": "Tash Jawaz School",
    "د_مرکز_ځای__موقعیت_مرکز": "قریه تاش جواز",
    "Polling_Center_Location": "Tash Jawaz Village",
    "Map_Accuracy": "Building",
    "Map_Accuracy_Dari": "تعمیر",
    "Status": "Open",
    "Status_Dari": null,
    "PS_Male": 2,
    "PS_Female": 1,
    "PS_Total": 3,
    "ولسوالي": "درز آب",
    "Region": "Northern Region"
   },
   "geometry": {
    "x": 7289211.2621884197,
    "y": 4304416.2526216749
   }
  },
  {
   "attributes": {
    "OBJECTID": 1950,
    "ولایت": "جوزجان",
    "Province": "JAWZJAN",
    "PC_Code": "2801011",
    "District": "SHEBERGHAN",
    "د_مرکز_نوم__نام_مرکز": "لیسه نسوان کوک گنبد",
    "Polling_Center_Name": "Kok Gunbad Girls High School",
    "د_مرکز_ځای__موقعیت_مرکز": "ناحیه سوم",
    "Polling_Center_Location": "D03 - Nahia 3",
    "Map_Accuracy": "Building",
    "Map_Accuracy_Dari": "تعمیر",
    "Status": "Open",
    "Status_Dari": null,
    "PS_Male": 4,
    "PS_Female": 2,
    "PS_Total": 6,
    "ولسوالي": "شبرغان",
    "Region": "Northern Region"
   },
   "geometry": {
    "x": 7321069.7416175548,
    "y": 4389516.8776857033
   }
  },
  {
   "attributes": {
    "OBJECTID": 1951,
    "ولایت": "جوزجان",
    "Province": "JAWZJAN",
    "PC_Code": "2801012",
    "District": "SHEBERGHAN",
    "د_مرکز_نوم__نام_مرکز": "لیسه عرب خانه",
    "Polling_Center_Name": "Arab Khana High School",
    "د_مرکز_ځای__موقعیت_مرکز": "ناحیه اول ",
    "Polling_Center_Location": "D01 - Nahia 1",
    "Map_Accuracy": "Building",
    "Map_Accuracy_Dari": "تعمیر",
    "Status": "Open",
    "Status_Dari": null,
    "PS_Male": 5,
    "PS_Female": 3,
    "PS_Total": 8,
    "ولسوالي": "شبرغان",
    "Region": "Northern Region"
   },
   "geometry": {
    "x": 7322289.332355204,
    "y": 4391273.0095246052
   }
  },
  {
   "attributes": {
    "OBJECTID": 1952,
    "ولایت": "جوزجان",
    "Province": "JAWZJAN",
    "PC_Code": "2801020",
    "District": "SHEBERGHAN",
    "د_مرکز_نوم__نام_مرکز": "لیسه آلتی خواجه",
    "Polling_Center_Name": "Aalti Khwaja High School",
    "د_مرکز_ځای__موقعیت_مرکز": "ناحیه اول",
    "Polling_Center_Location": "D01 - Nahia 1",
    "Map_Accuracy": "Building",
    "Map_Accuracy_Dari": "تعمیر",
    "Status": "Open",
    "Status_Dari": null,
    "PS_Male": 4,
    "PS_Female": 2,
    "PS_Total": 6,
    "ولسوالي": "شبرغان",
    "Region": "Northern Region"
   },
   "geometry": {
    "x": 7324678.3265512688,
    "y": 4390504.3669726448
   }
  },
  {
   "attributes": {
    "OBJECTID": 1953,
    "ولایت": "جوزجان",
    "Province": "JAWZJAN",
    "PC_Code": "2801021",
    "District": "SHEBERGHAN",
    "د_مرکز_نوم__نام_مرکز": "لیسه ذکور قره کینت",
    "Polling_Center_Name": "Qara Kent Boys High School",
    "د_مرکز_ځای__موقعیت_مرکز": "ناحیه اول",
    "Polling_Center_Location": "D01 - Nahia 1",
    "Map_Accuracy": "Building",
    "Map_Accuracy_Dari": "تعمیر",
    "Status": "Open",
    "Status_Dari": null,
    "PS_Male": 3,
    "PS_Female": 2,
    "PS_Total": 5,
    "ولسوالي": "شبرغان",
    "Region": "Northern Region"
   },
   "geometry": {
    "x": 7326199.4339220999,
    "y": 4377919.7415303476
   }
  },
  {
   "attributes": {
    "OBJECTID": 1954,
    "ولایت": "جوزجان",
    "Province": "JAWZJAN",
    "PC_Code": "2802112",
    "District": "KHWAJA DUKOH",
    "د_مرکز_نوم__نام_مرکز": "لیسه چوب باش",
    "Polling_Center_Name": "Chob Bash High School",
    "د_مرکز_ځای__موقعیت_مرکز": "چوب باش",
    "Polling_Center_Location": "Chob Bash",
    "Map_Accuracy": "Building",
    "Map_Accuracy_Dari": "تعمیر",
    "Status": "Open",
    "Status_Dari": null,
    "PS_Male": 2,
    "PS_Female": 1,
    "PS_Total": 3,
    "ولسوالي": "خواجه دوکوه",
    "Region": "Northern Region"
   },
   "geometry": {
    "x": 7306163.3682799097,
    "y": 4405516.7518635318
   }
  },
  {
   "attributes": {
    "OBJECTID": 1955,
    "ولایت": "جوزجان",
    "Province": "JAWZJAN",
    "PC_Code": "2803120",
    "District": "KHANAQA",
    "د_مرکز_نوم__نام_مرکز": "لیسه نسوان خانقاه ازبکیه",
    "Polling_Center_Name": "Khanqah Uzbekya Girls High School",
    "د_مرکز_ځای__موقعیت_مرکز": "خانقاه ازبکیه ",
    "Polling_Center_Location": "Khanqah Uzbekya",
    "Map_Accuracy": "Building",
    "Map_Accuracy_Dari": "تعمیر",
    "Status": "Open",
    "Status_Dari": null,
    "PS_Male": 2,
    "PS_Female": 1,
    "PS_Total": 3,
    "ولسوالي": "خانقاه",
    "Region": "Northern Region"
   },
   "geometry": {
    "x": 7366010.4653408201,
    "y": 4420929.8443041574
   }
  },
  {
   "attributes": {
    "OBJECTID": 1956,
    "ولایت": "جوزجان",
    "Province": "JAWZJAN",
    "PC_Code": "2804072",
    "District": "MINGAJIK",
    "د_مرکز_نوم__نام_مرکز": "مکتب سفرولی اول ",
    "Polling_Center_Name": "Safar Wali Awal School",
    "د_مرکز_ځای__موقعیت_مرکز": "سفرولی اول",
    "Polling_Center_Location": "Safar Wali Awal",
    "Map_Accuracy": "Building",
    "Map_Accuracy_Dari": "تعمیر",
    "Status": "Open",
    "Status_Dari": null,
    "PS_Male": 2,
    "PS_Female": 1,
    "PS_Total": 3,
    "ولسوالي": "منگجیک",
    "Region": "Northern Region"
   },
   "geometry": {
    "x": 7353767.2727842284,
    "y": 4447823.803634584
   }
  },
  {
   "attributes": {
    "OBJECTID": 1957,
    "ولایت": "جوزجان",
    "Province": "JAWZJAN",
    "PC_Code": "2804075",
    "District": "MINGAJIK",
    "د_مرکز_نوم__نام_مرکز": "مکتب قوینلی مهاجر",
    "Polling_Center_Name": "Qowenli Muhajir School",
    "د_مرکز_ځای__موقعیت_مرکز": "قوینلی مهاجر",
    "Polling_Center_Location": "Qowenli Muhajir",
    "Map_Accuracy": "Building",
    "Map_Accuracy_Dari": "تعمیر",
    "Status": "Open",
    "Status_Dari": null,
    "PS_Male": 1,
    "PS_Female": 1,
    "PS_Total": 2,
    "ولسوالي": "منگجیک",
    "Region": "Northern Region"
   },
   "geometry": {
    "x": 7343538.7481643865,
    "y": 4444316.5332540302
   }
  },
  {
   "attributes": {
    "OBJECTID": 1958,
    "ولایت": "جوزجان",
    "Province": "JAWZJAN",
    "PC_Code": "2804076",
    "District": "MINGAJIK",
    "د_مرکز_نوم__نام_مرکز": "مکتب سلطان اریغ",
    "Polling_Center_Name": "Sultan Areegh School",
    "د_مرکز_ځای__موقعیت_مرکز": "سلطان اریغ",
    "Polling_Center_Location": "Sultan Areegh",
    "Map_Accuracy": "Building",
    "Map_Accuracy_Dari": "تعمیر",
    "Status": "Open",
    "Status_Dari": null,
    "PS_Male": 2,
    "PS_Female": 1,
    "PS_Total": 3,
    "ولسوالي": "منگجیک",
    "Region": "Northern Region"
   },
   "geometry": {
    "x": 7352705.5865178853,
    "y": 4427789.4826747132
   }
  },
  {
   "attributes": {
    "OBJECTID": 1959,
    "ولایت": "جوزجان",
    "Province": "JAWZJAN",
    "PC_Code": "2804079",
    "District": "MINGAJIK",
    "د_مرکز_نوم__نام_مرکز": "مسجد قره آدیک",
    "Polling_Center_Name": "Qara-e-Adeek Mosque",
    "د_مرکز_ځای__موقعیت_مرکز": "مسجد قره آدیک",
    "Polling_Center_Location": "Masjid Qara-e-Adeek",
    "Map_Accuracy": "Building",
    "Map_Accuracy_Dari": "تعمیر",
    "Status": "Open",
    "Status_Dari": null,
    "PS_Male": 1,
    "PS_Female": 1,
    "PS_Total": 2,
    "ولسوالي": "منگجیک",
    "Region": "Northern Region"
   },
   "geometry": {
    "x": 7341053.3434969271,
    "y": 4449290.6922409032
   }
  },
  {
   "attributes": {
    "OBJECTID": 1960,
    "ولایت": "جوزجان",
    "Province": "JAWZJAN",
    "PC_Code": "2805088",
    "District": "QUSH TEPA",
    "د_مرکز_نوم__نام_مرکز": "مکتب شیر بیک",
    "Polling_Center_Name": "Sher Bek School",
    "د_مرکز_ځای__موقعیت_مرکز": "قوش تبه ",
    "Polling_Center_Location": "Qosh Taba",
    "Map_Accuracy": "Building",
    "Map_Accuracy_Dari": "تعمیر",
    "Status": "Open",
    "Status_Dari": null,
    "PS_Male": 4,
    "PS_Female": 2,
    "PS_Total": 6,
    "ولسوالي": "قوش تیپه",
    "Region": "Northern Region"
   },
   "geometry": {
    "x": 7277227.681155894,
    "y": 4309241.519052851
   }
  },
  {
   "attributes": {
    "OBJECTID": 1961,
    "ولایت": "جوزجان",
    "Province": "JAWZJAN",
    "PC_Code": "2807042",
    "District": "AQCHAH",
    "د_مرکز_نوم__نام_مرکز": "مسجد لغمانی ",
    "Polling_Center_Name": "Laghmani Mosque",
    "د_مرکز_ځای__موقعیت_مرکز": "قریه لغمانی ",
    "Polling_Center_Location": "Laghmani Village",
    "Map_Accuracy": "Building",
    "Map_Accuracy_Dari": "تعمیر",
    "Status": "Open",
    "Status_Dari": null,
    "PS_Male": 2,
    "PS_Female": 1,
    "PS_Total": 3,
    "ولسوالي": "آقچه",
    "Region": "Northern Region"
   },
   "geometry": {
    "x": 7371706.8428715849,
    "y": 4423275.9642075598
   }
  },
  {
   "attributes": {
    "OBJECTID": 1962,
    "ولایت": "جوزجان",
    "Province": "JAWZJAN",
    "PC_Code": "2807043",
    "District": "AQCHAH",
    "د_مرکز_نوم__نام_مرکز": "مسجد ینداغ اریغ",
    "Polling_Center_Name": "Yandagh Areegh Mosque",
    "د_مرکز_ځای__موقعیت_مرکز": "ینداغ اریغ",
    "Polling_Center_Location": "Yandagh Areegh",
    "Map_Accuracy": "Building",
    "Map_Accuracy_Dari": "تعمیر",
    "Status": "Open",
    "Status_Dari": null,
    "PS_Male": 1,
    "PS_Female": 1,
    "PS_Total": 2,
    "ولسوالي": "آقچه",
    "Region": "Northern Region"
   },
   "geometry": {
    "x": 7374413.7098736102,
    "y": 4417770.6515466347
   }
  },
  {
   "attributes": {
    "OBJECTID": 1963,
    "ولایت": "جوزجان",
    "Province": "JAWZJAN",
    "PC_Code": "2801004",
    "District": "SHEBERGHAN",
    "د_مرکز_نوم__نام_مرکز": "لیسه جنرال عبدالرشید دوستم",
    "Polling_Center_Name": "General Abdul Rashid Dostam High School",
    "د_مرکز_ځای__موقعیت_مرکز": "ناحیه اول",
    "Polling_Center_Location": "D01 - Nahia 1",
    "Map_Accuracy": "Building",
    "Map_Accuracy_Dari": "تعمیر",
    "Status": "Open",
    "Status_Dari": null,
    "PS_Male": 5,
    "PS_Female": 3,
    "PS_Total": 8,
    "ولسوالي": "شبرغان",
    "Region": "Northern Region"
   },
   "geometry": {
    "x": 7322010.6863114061,
    "y": 4391724.0091215624
   }
  },
  {
   "attributes": {
    "OBJECTID": 1964,
    "ولایت": "جوزجان",
    "Province": "JAWZJAN",
    "PC_Code": "2801005",
    "District": "SHEBERGHAN",
    "د_مرکز_نوم__نام_مرکز": "لیسه ذکور یکه باغ",
    "Polling_Center_Name": "Zokoor Yaka Bagh Boys High School",
    "د_مرکز_ځای__موقعیت_مرکز": "ناحیه چهارم",
    "Polling_Center_Location": "D04 - Nahia 4",
    "Map_Accuracy": "Building",
    "Map_Accuracy_Dari": "تعمیر",
    "Status": "Open",
    "Status_Dari": null,
    "PS_Male": 4,
    "PS_Female": 3,
    "PS_Total": 7,
    "ولسوالي": "شبرغان",
    "Region": "Northern Region"
   },
   "geometry": {
    "x": 7320086.1058989828,
    "y": 4395013.909901672
   }
  },
  {
   "attributes": {
    "OBJECTID": 1965,
    "ولایت": "جوزجان",
    "Province": "JAWZJAN",
    "PC_Code": "2807044",
    "District": "AQCHAH",
    "د_مرکز_نوم__نام_مرکز": "لیسه ذکور ینگی اریغ ترکمنیه",
    "Polling_Center_Name": "Yangee Areegh Turkmania Boys High School",
    "د_مرکز_ځای__موقعیت_مرکز": "ینگی اریغ",
    "Polling_Center_Location": "Yangee Areegh",
    "Map_Accuracy": "Building",
    "Map_Accuracy_Dari": "تعمیر",
    "Status": "Open",
    "Status_Dari": null,
    "PS_Male": 3,
    "PS_Female": 2,
    "PS_Total": 5,
    "ولسوالي": "آقچه",
    "Region": "Northern Region"
   },
   "geometry": {
    "x": 7364713.9138732087,
    "y": 4427656.5274692001
   }
  },
  {
   "attributes": {
    "OBJECTID": 1966,
    "ولایت": "جوزجان",
    "Province": "JAWZJAN",
    "PC_Code": "2807045",
    "District": "AQCHAH",
    "د_مرکز_نوم__نام_مرکز": "مکتب بیش کپه سرخ ",
    "Polling_Center_Name": "Besh Kapa Surkh School",
    "د_مرکز_ځای__موقعیت_مرکز": "بیش کپه سرخ",
    "Polling_Center_Location": "Besh Kapa Surkh",
    "Map_Accuracy": "Building",
    "Map_Accuracy_Dari": "تعمیر",
    "Status": "Open",
    "Status_Dari": null,
    "PS_Male": 3,
    "PS_Female": 1,
    "PS_Total": 4,
    "ولسوالي": "آقچه",
    "Region": "Northern Region"
   },
   "geometry": {
    "x": 7364327.6096366718,
    "y": 4423565.1591218794
   }
  },
  {
   "attributes": {
    "OBJECTID": 1967,
    "ولایت": "جوزجان",
    "Province": "JAWZJAN",
    "PC_Code": "2808049",
    "District": "FAIZABAD",
    "د_مرکز_نوم__نام_مرکز": "لیسه نسوان شهید لطیفه حبیبی",
    "Polling_Center_Name": "Shaheed Latifa Habibi Girls High School",
    "د_مرکز_ځای__موقعیت_مرکز": "قریه سانسیز",
    "Polling_Center_Location": "Sanseez Village",
    "Map_Accuracy": "Building",
    "Map_Accuracy_Dari": "تعمیر",
    "Status": "Open",
    "Status_Dari": null,
    "PS_Male": 2,
    "PS_Female": 2,
    "PS_Total": 4,
    "ولسوالي": "فیض آباد",
    "Region": "Northern Region"
   },
   "geometry": {
    "x": 7397883.2404189631,
    "y": 4414589.831505904
   }
  },
  {
   "attributes": {
    "OBJECTID": 1968,
    "ولایت": "جوزجان",
    "Province": "JAWZJAN",
    "PC_Code": "2808054",
    "District": "FAIZABAD",
    "د_مرکز_نوم__نام_مرکز": "لیسه ذکور شیشه خانه",
    "Polling_Center_Name": "Shisha Khana Boys High School",
    "د_مرکز_ځای__موقعیت_مرکز": "قریه شیشه خانه عربیه ",
    "Polling_Center_Location": "Shisha Khana Arabia Village",
    "Map_Accuracy": "Building",
    "Map_Accuracy_Dari": "تعمیر",
    "Status": "Open",
    "Status_Dari": null,
    "PS_Male": 2,
    "PS_Female": 1,
    "PS_Total": 3,
    "ولسوالي": "فیض آباد",
    "Region": "Northern Region"
   },
   "geometry": {
    "x": 7398361.7272126274,
    "y": 4409567.6106563574
   }
  },
  {
   "attributes": {
    "OBJECTID": 1969,
    "ولایت": "جوزجان",
    "Province": "JAWZJAN",
    "PC_Code": "2808055",
    "District": "FAIZABAD",
    "د_مرکز_نوم__نام_مرکز": "مکتب متوسطه مملیک",
    "Polling_Center_Name": "Memleek Secondary School",
    "د_مرکز_ځای__موقعیت_مرکز": "قریه میملیک",
    "Polling_Center_Location": "Memleek Village",
    "Map_Accuracy": "Building",
    "Map_Accuracy_Dari": "تعمیر",
    "Status": "Open",
    "Status_Dari": null,
    "PS_Male": 1,
    "PS_Female": 1,
    "PS_Total": 2,
    "ولسوالي": "فیض آباد",
    "Region": "Northern Region"
   },
   "geometry": {
    "x": 7406005.5268021338,
    "y": 4417956.5616918998
   }
  },
  {
   "attributes": {
    "OBJECTID": 1970,
    "ولایت": "جوزجان",
    "Province": "JAWZJAN",
    "PC_Code": "2808056",
    "District": "FAIZABAD",
    "د_مرکز_نوم__نام_مرکز": "لیسه نسوان کوشگک",
    "Polling_Center_Name": "Koshgak Girls High School",
    "د_مرکز_ځای__موقعیت_مرکز": "قریه کوشگک",
    "Polling_Center_Location": "Koshgak Village",
    "Map_Accuracy": "Building",
    "Map_Accuracy_Dari": "تعمیر",
    "Status": "Open",
    "Status_Dari": null,
    "PS_Male": 1,
    "PS_Female": 1,
    "PS_Total": 2,
    "ولسوالي": "فیض آباد",
    "Region": "Northern Region"
   },
   "geometry": {
    "x": 7409960.2307494022,
    "y": 4411594.2386530088
   }
  },
  {
   "attributes": {
    "OBJECTID": 1971,
    "ولایت": "جوزجان",
    "Province": "JAWZJAN",
    "PC_Code": "2808057",
    "District": "FAIZABAD",
    "د_مرکز_نوم__نام_مرکز": "مکتب متوسطه ذکور گرجک",
    "Polling_Center_Name": "Garjak Boys Secondary School",
    "د_مرکز_ځای__موقعیت_مرکز": "قریه گرجک",
    "Polling_Center_Location": "Garjak Village",
    "Map_Accuracy": "Building",
    "Map_Accuracy_Dari": "تعمیر",
    "Status": "Open",
    "Status_Dari": null,
    "PS_Male": 2,
    "PS_Female": 1,
    "PS_Total": 3,
    "ولسوالي": "فیض آباد",
    "Region": "Northern Region"
   },
   "geometry": {
    "x": 7402858.6906634513,
    "y": 4407566.4099128526
   }
  },
  {
   "attributes": {
    "OBJECTID": 1972,
    "ولایت": "جوزجان",
    "Province": "JAWZJAN",
    "PC_Code": "2808059",
    "District": "FAIZABAD",
    "د_مرکز_نوم__نام_مرکز": "مکتب متوسطه نصرت آباد",
    "Polling_Center_Name": "Nasrat Abad Secondary School",
    "د_مرکز_ځای__موقعیت_مرکز": "قریه نصرت آباد",
    "Polling_Center_Location": "Nasrat Abad Village",
    "Map_Accuracy": "Building",
    "Map_Accuracy_Dari": "تعمیر",
    "Status": "Open",
    "Status_Dari": null,
    "PS_Male": 1,
    "PS_Female": 1,
    "PS_Total": 2,
    "ولسوالي": "فیض آباد",
    "Region": "Northern Region"
   },
   "geometry": {
    "x": 7393061.3075446403,
    "y": 4419806.3209794397
   }
  },
  {
   "attributes": {
    "OBJECTID": 1973,
    "ولایت": "جوزجان",
    "Province": "JAWZJAN",
    "PC_Code": "2809061",
    "District": "MARDYAN",
    "د_مرکز_نوم__نام_مرکز": "مکتب متوسطه جنگل اریغ",
    "Polling_Center_Name": "Jangal Areegh Secondary School",
    "د_مرکز_ځای__موقعیت_مرکز": "قریه جنگل اریغ",
    "Polling_Center_Location": "Jangal Areegh Village",
    "Map_Accuracy": "Building",
    "Map_Accuracy_Dari": "تعمیر",
    "Status": "Open",
    "Status_Dari": null,
    "PS_Male": 3,
    "PS_Female": 2,
    "PS_Total": 5,
    "ولسوالي": "مردیان",
    "Region": "Northern Region"
   },
   "geometry": {
    "x": 7376033.6333300238,
    "y": 4431712.8214391535
   }
  },
  {
   "attributes": {
    "OBJECTID": 1974,
    "ولایت": "جوزجان",
    "Province": "JAWZJAN",
    "PC_Code": "2809066",
    "District": "MARDYAN",
    "د_مرکز_نوم__نام_مرکز": "مکتب متوسطه چلیک گنج",
    "Polling_Center_Name": "Cheleek Ganj Secondary School",
    "د_مرکز_ځای__موقعیت_مرکز": "قریه  چلیک گنج",
    "Polling_Center_Location": "Cheleek Ganj Village",
    "Map_Accuracy": "Building",
    "Map_Accuracy_Dari": "تعمیر",
    "Status": "Open",
    "Status_Dari": null,
    "PS_Male": 1,
    "PS_Female": 1,
    "PS_Total": 2,
    "ولسوالي": "مردیان",
    "Region": "Northern Region"
   },
   "geometry": {
    "x": 7373290.9459422454,
    "y": 4440629.756545445
   }
  },
  {
   "attributes": {
    "OBJECTID": 1975,
    "ولایت": "جوزجان",
    "Province": "JAWZJAN",
    "PC_Code": "2811106",
    "District": "DARZAB",
    "د_مرکز_نوم__نام_مرکز": "مکتب آقسای",
    "Polling_Center_Name": "Aqsaay School",
    "د_مرکز_ځای__موقعیت_مرکز": "آقسای",
    "Polling_Center_Location": "Aqsaay",
    "Map_Accuracy": "Village",
    "Map_Accuracy_Dari": "قریه",
    "Status": "Open",
    "Status_Dari": null,
    "PS_Male": 1,
    "PS_Female": 1,
    "PS_Total": 2,
    "ولسوالي": "درز آب",
    "Region": "Northern Region"
   },
   "geometry": {
    "x": 7293813.8043838963,
    "y": 4313086.8543490404
   }
  },
  {
   "attributes": {
    "OBJECTID": 1976,
    "ولایت": "جوزجان",
    "Province": "JAWZJAN",
    "PC_Code": "2811107",
    "District": "DARZAB",
    "د_مرکز_نوم__نام_مرکز": "مکتب ترکمن قدوق",
    "Polling_Center_Name": "Turkman Qadoq School",
    "د_مرکز_ځای__موقعیت_مرکز": "درزاب ",
    "Polling_Center_Location": "Darzaab",
    "Map_Accuracy": "Building",
    "Map_Accuracy_Dari": "تعمیر",
    "Status": "Open",
    "Status_Dari": null,
    "PS_Male": 1,
    "PS_Female": 1,
    "PS_Total": 2,
    "ولسوالي": "درز آب",
    "Region": "Northern Region"
   },
   "geometry": {
    "x": 7277598.8197816079,
    "y": 4297785.8294750573
   }
  },
  {
   "attributes": {
    "OBJECTID": 1977,
    "ولایت": "جوزجان",
    "Province": "JAWZJAN",
    "PC_Code": "2808126",
    "District": "FAIZABAD",
    "د_مرکز_نوم__نام_مرکز": " لیسه چارباغ",
    "Polling_Center_Name": "Char bagh High school",
    "د_مرکز_ځای__موقعیت_مرکز": "چهار باغ",
    "Polling_Center_Location": "Chahar bagh",
    "Map_Accuracy": "Building",
    "Map_Accuracy_Dari": "تعمیر",
    "Status": "Open",
    "Status_Dari": null,
    "PS_Male": 2,
    "PS_Female": 1,
    "PS_Total": 3,
    "ولسوالي": "فیض آباد",
    "Region": "Northern Region"
   },
   "geometry": {
    "x": 7398286.267292046,
    "y": 4419015.6908111079
   }
  },
  {
   "attributes": {
    "OBJECTID": 1978,
    "ولایت": "فارياب",
    "Province": "FARYAB",
    "PC_Code": "2901008",
    "District": "MAIMANA",
    "د_مرکز_نوم__نام_مرکز": "مکتب سربلاق",
    "Polling_Center_Name": "Sar balaq School",
    "د_مرکز_ځای__موقعیت_مرکز": "ناحیه نهم",
    "Polling_Center_Location": "D09 - Nahia 9",
    "Map_Accuracy": "Building",
    "Map_Accuracy_Dari": "تعمیر",
    "Status": "Open",
    "Status_Dari": null,
    "PS_Male": 3,
    "PS_Female": 2,
    "PS_Total": 5,
    "ولسوالي": "میمنه ",
    "Region": "Northern Region"
   },
   "geometry": {
    "x": 7206801.105856101,
    "y": 4293546.9380976828
   }
  },
  {
   "attributes": {
    "OBJECTID": 1979,
    "ولایت": "فارياب",
    "Province": "FARYAB",
    "PC_Code": "2901009",
    "District": "MAIMANA",
    "د_مرکز_نوم__نام_مرکز": "مدرسه عالی ابو مسلم خراسانی",
    "Polling_Center_Name": "Abu Muslim Khurasani Madrassa",
    "د_مرکز_ځای__موقعیت_مرکز": "ناحیه سوم",
    "Polling_Center_Location": "D03 - Nahia 3",
    "Map_Accuracy": "Building",
    "Map_Accuracy_Dari": "تعمیر",
    "Status": "Open",
    "Status_Dari": null,
    "PS_Male": 5,
    "PS_Female": 0,
    "PS_Total": 5,
    "ولسوالي": "میمنه ",
    "Region": "Northern Region"
   },
   "geometry": {
    "x": 7211185.2002488216,
    "y": 4288963.3520471072
   }
  },
  {
   "attributes": {
    "OBJECTID": 1980,
    "ولایت": "فارياب",
    "Province": "FARYAB",
    "PC_Code": "2901014",
    "District": "MAIMANA",
    "د_مرکز_نوم__نام_مرکز": "لیسه مسلکی زراعت میمنه",
    "Polling_Center_Name": "Maimana Agriculture Vocational High School",
    "د_مرکز_ځای__موقعیت_مرکز": "ناحیه سوم",
    "Polling_Center_Location": "D03 - Nahia 3",
    "Map_Accuracy": "Building",
    "Map_Accuracy_Dari": "تعمیر",
    "Status": "Open",
    "Status_Dari": null,
    "PS_Male": 5,
    "PS_Female": 0,
    "PS_Total": 5,
    "ولسوالي": "میمنه ",
    "Region": "Northern Region"
   },
   "geometry": {
    "x": 7210234.0609159973,
    "y": 4290347.1798829213
   }
  },
  {
   "attributes": {
    "OBJECTID": 1981,
    "ولایت": "فارياب",
    "Province": "FARYAB",
    "PC_Code": "2901015",
    "District": "MAIMANA",
    "د_مرکز_نوم__نام_مرکز": "لیسه نسوان ده سیدان",
    "Polling_Center_Name": "Deh Sayedan Girls High School",
    "د_مرکز_ځای__موقعیت_مرکز": "ناحیه ششم",
    "Polling_Center_Location": "D06 - Nahia 6",
    "Map_Accuracy": "Building",
    "Map_Accuracy_Dari": "تعمیر",
    "Status": "Open",
    "Status_Dari": null,
    "PS_Male": 3,
    "PS_Female": 2,
    "PS_Total": 5,
    "ولسوالي": "میمنه ",
    "Region": "Northern Region"
   },
   "geometry": {
    "x": 7213894.6075616237,
    "y": 4287882.6241640998
   }
  },
  {
   "attributes": {
    "OBJECTID": 1982,
    "ولایت": "فارياب",
    "Province": "FARYAB",
    "PC_Code": "2902018",
    "District": "PASHTUN KOT",
    "د_مرکز_نوم__نام_مرکز": "مکتب ذکورخواجه ناموسی",
    "Polling_Center_Name": "Khwaja Namosi Boys School",
    "د_مرکز_ځای__موقعیت_مرکز": "خواجه ناموسی",
    "Polling_Center_Location": "Khwaja Namosi",
    "Map_Accuracy": "Village",
    "Map_Accuracy_Dari": "قریه",
    "Status": "Open",
    "Status_Dari": null,
    "PS_Male": 3,
    "PS_Female": 0,
    "PS_Total": 3,
    "ولسوالي": "پشتون کوت",
    "Region": "Northern Region"
   },
   "geometry": {
    "x": 7198471.6850700183,
    "y": 4305471.5675295023
   }
  },
  {
   "attributes": {
    "OBJECTID": 1983,
    "ولایت": "تخار",
    "Province": "TAKHAR",
    "PC_Code": "1807094",
    "District": "KALAFGAN",
    "د_مرکز_نوم__نام_مرکز": "مکتب متوسطۀ میرحسین ناوان",
    "Polling_Center_Name": "Mir Hassan Nawan Secondary School",
    "د_مرکز_ځای__موقعیت_مرکز": "ناوان",
    "Polling_Center_Location": "Nawan",
    "Map_Accuracy": "Building",
    "Map_Accuracy_Dari": "تعمیر",
    "Status": "Open",
    "Status_Dari": null,
    "PS_Male": 3,
    "PS_Female": 2,
    "PS_Total": 5,
    "ولسوالي": "کلفگان",
    "Region": "North Eastern Region"
   },
   "geometry": {
    "x": 7775238.8682175605,
    "y": 4417501.0873297378
   }
  },
  {
   "attributes": {
    "OBJECTID": 1984,
    "ولایت": "تخار",
    "Province": "TAKHAR",
    "PC_Code": "1807095",
    "District": "KALAFGAN",
    "د_مرکز_نوم__نام_مرکز": "لیسه حضرت خالد",
    "Polling_Center_Name": "Hazrat Khalid High School",
    "د_مرکز_ځای__موقعیت_مرکز": "چارتوت",
    "Polling_Center_Location": "Char Toot",
    "Map_Accuracy": "Building",
    "Map_Accuracy_Dari": "تعمیر",
    "Status": "Open",
    "Status_Dari": null,
    "PS_Male": 3,
    "PS_Female": 1,
    "PS_Total": 4,
    "ولسوالي": "کلفگان",
    "Region": "North Eastern Region"
   },
   "geometry": {
    "x": 7789080.4539278494,
    "y": 4420170.6465610052
   }
  },
  {
   "attributes": {
    "OBJECTID": 1985,
    "ولایت": "تخار",
    "Province": "TAKHAR",
    "PC_Code": "1807097",
    "District": "KALAFGAN",
    "د_مرکز_نوم__نام_مرکز": "لیسه نسوان کلفگان",
    "Polling_Center_Name": "Kalafgaan Girls High School",
    "د_مرکز_ځای__موقعیت_مرکز": "مرکزشهر",
    "Polling_Center_Location": "Markaz Shahr",
    "Map_Accuracy": "Building",
    "Map_Accuracy_Dari": "تعمیر",
    "Status": "Open",
    "Status_Dari": null,
    "PS_Male": 4,
    "PS_Female": 1,
    "PS_Total": 5,
    "ولسوالي": "کلفگان",
    "Region": "North Eastern Region"
   },
   "geometry": {
    "x": 7786239.7797846906,
    "y": 4407664.1743923472
   }
  },
  {
   "attributes": {
    "OBJECTID": 1986,
    "ولایت": "تخار",
    "Province": "TAKHAR",
    "PC_Code": "1807098",
    "District": "KALAFGAN",
    "د_مرکز_نوم__نام_مرکز": "لیسه ابوعبیده",
    "Polling_Center_Name": "Abu Ubaida High School",
    "د_مرکز_ځای__موقعیت_مرکز": "آق بلاق",
    "Polling_Center_Location": "Aaq Balaq",
    "Map_Accuracy": "Building",
    "Map_Accuracy_Dari": "تعمیر",
    "Status": "Open",
    "Status_Dari": null,
    "PS_Male": 2,
    "PS_Female": 2,
    "PS_Total": 4,
    "ولسوالي": "کلفگان",
    "Region": "North Eastern Region"
   },
   "geometry": {
    "x": 7776195.4978276677,
    "y": 4401742.2064988427
   }
  },
  {
   "attributes": {
    "OBJECTID": 1987,
    "ولایت": "تخار",
    "Province": "TAKHAR",
    "PC_Code": "1808084",
    "District": "FARKHAR",
    "د_مرکز_نوم__نام_مرکز": "چمن خسده",
    "Polling_Center_Name": "Chaman Khasdah",
    "د_مرکز_ځای__موقعیت_مرکز": "خسده",
    "Polling_Center_Location": "Khasdah",
    "Map_Accuracy": "Building",
    "Map_Accuracy_Dari": "تعمیر",
    "Status": "Open",
    "Status_Dari": null,
    "PS_Male": 3,
    "PS_Female": 2,
    "PS_Total": 5,
    "ولسوالي": "فرخار",
    "Region": "North Eastern Region"
   },
   "geometry": {
    "x": 7777334.2706150031,
    "y": 4364711.3101980519
   }
  },
  {
   "attributes": {
    "OBJECTID": 1988,
    "ولایت": "تخار",
    "Province": "TAKHAR",
    "PC_Code": "1808085",
    "District": "FARKHAR",
    "د_مرکز_نوم__نام_مرکز": "لیسه قانعت شهید",
    "Polling_Center_Name": "Qaneyat Shaheed High School",
    "د_مرکز_ځای__موقعیت_مرکز": "آردیشان",
    "Polling_Center_Location": "Aardeshan",
    "Map_Accuracy": "Building",
    "Map_Accuracy_Dari": "تعمیر",
    "Status": "Open",
    "Status_Dari": null,
    "PS_Male": 2,
    "PS_Female": 2,
    "PS_Total": 4,
    "ولسوالي": "فرخار",
    "Region": "North Eastern Region"
   },
   "geometry": {
    "x": 7784641.4656678298,
    "y": 4379990.4012091178
   }
  },
  {
   "attributes": {
    "OBJECTID": 1989,
    "ولایت": "تخار",
    "Province": "TAKHAR",
    "PC_Code": "1808087",
    "District": "FARKHAR",
    "د_مرکز_نوم__نام_مرکز": "ليسه لژده",
    "Polling_Center_Name": "Lazhdah High School",
    "د_مرکز_ځای__موقعیت_مرکز": "لژده",
    "Polling_Center_Location": "Lazhdah",
    "Map_Accuracy": "Building",
    "Map_Accuracy_Dari": "تعمیر",
    "Status": "Open",
    "Status_Dari": null,
    "PS_Male": 2,
    "PS_Female": 1,
    "PS_Total": 3,
    "ولسوالي": "فرخار",
    "Region": "North Eastern Region"
   },
   "geometry": {
    "x": 7784445.3496681191,
    "y": 4351451.6229592981
   }
  },
  {
   "attributes": {
    "OBJECTID": 1990,
    "ولایت": "تخار",
    "Province": "TAKHAR",
    "PC_Code": "1808088",
    "District": "FARKHAR",
    "د_مرکز_نوم__نام_مرکز": "مکتب مشتان",
    "Polling_Center_Name": "Mushtan School",
    "د_مرکز_ځای__موقعیت_مرکز": "مشتان",
    "Polling_Center_Location": "Mushtan",
    "Map_Accuracy": "Building",
    "Map_Accuracy_Dari": "تعمیر",
    "Status": "Open",
    "Status_Dari": null,
    "PS_Male": 2,
    "PS_Female": 1,
    "PS_Total": 3,
    "ولسوالي": "فرخار",
    "Region": "North Eastern Region"
   },
   "geometry": {
    "x": 7798721.2984655071,
    "y": 4348519.8133160835
   }
  },
  {
   "attributes": {
    "OBJECTID": 1991,
    "ولایت": "تخار",
    "Province": "TAKHAR",
    "PC_Code": "1808090",
    "District": "FARKHAR",
    "د_مرکز_نوم__نام_مرکز": "مکتب مخدوم عبدالله شهید",
    "Polling_Center_Name": "Makhdoom Abdullah Shaheed School",
    "د_مرکز_ځای__موقعیت_مرکز": "کورانی",
    "Polling_Center_Location": "Koraani",
    "Map_Accuracy": "Building",
    "Map_Accuracy_Dari": "تعمیر",
    "Status": "Open",
    "Status_Dari": null,
    "PS_Male": 1,
    "PS_Female": 1,
    "PS_Total": 2,
    "ولسوالي": "فرخار",
    "Region": "North Eastern Region"
   },
   "geometry": {
    "x": 7771520.1315345112,
    "y": 4387063.3654161636
   }
  },
  {
   "attributes": {
    "OBJECTID": 1992,
    "ولایت": "تخار",
    "Province": "TAKHAR",
    "PC_Code": "1808091",
    "District": "FARKHAR",
    "د_مرکز_نوم__نام_مرکز": "مدرسه نهر اب",
    "Polling_Center_Name": "Nahr Aab Madrassa",
    "د_مرکز_ځای__موقعیت_مرکز": "نهر اب",
    "Polling_Center_Location": "Nahr Aab",
    "Map_Accuracy": "Building",
    "Map_Accuracy_Dari": "تعمیر",
    "Status": "Open",
    "Status_Dari": null,
    "PS_Male": 2,
    "PS_Female": 1,
    "PS_Total": 3,
    "ولسوالي": "فرخار",
    "Region": "North Eastern Region"
   },
   "geometry": {
    "x": 7766603.3422088912,
    "y": 4380806.0172548601
   }
  },
  {
   "attributes": {
    "OBJECTID": 1993,
    "ولایت": "تخار",
    "Province": "TAKHAR",
    "PC_Code": "1810108",
    "District": "RUSTAQ",
    "د_مرکز_نوم__نام_مرکز": "مکتب ابتدائیه فیض آباد",
    "Polling_Center_Name": "Faiz Abad Primary School",
    "د_مرکز_ځای__موقعیت_مرکز": "سید آباد",
    "Polling_Center_Location": "Sayed Abad",
    "Map_Accuracy": "Building",
    "Map_Accuracy_Dari": "تعمیر",
    "Status": "Open",
    "Status_Dari": null,
    "PS_Male": 3,
    "PS_Female": 1,
    "PS_Total": 4,
    "ولسوالي": "رستاق",
    "Region": "North Eastern Region"
   },
   "geometry": {
    "x": 7774277.5498305028,
    "y": 4473358.5764759034
   }
  },
  {
   "attributes": {
    "OBJECTID": 1994,
    "ولایت": "تخار",
    "Province": "TAKHAR",
    "PC_Code": "1810109",
    "District": "RUSTAQ",
    "د_مرکز_نوم__نام_مرکز": "لیسه حضرت عبدالله ابن مسعود",
    "Polling_Center_Name": "Hazrat Abdullah Bin Masood High School",
    "د_مرکز_ځای__موقعیت_مرکز": "کیوان",
    "Polling_Center_Location": "Kewan",
    "Map_Accuracy": "Building",
    "Map_Accuracy_Dari": "تعمیر",
    "Status": "Open",
    "Status_Dari": null,
    "PS_Male": 3,
    "PS_Female": 1,
    "PS_Total": 4,
    "ولسوالي": "رستاق",
    "Region": "North Eastern Region"
   },
   "geometry": {
    "x": 7761323.9029253367,
    "y": 4484249.0604666285
   }
  },
  {
   "attributes": {
    "OBJECTID": 1995,
    "ولایت": "تخار",
    "Province": "TAKHAR",
    "PC_Code": "1810111",
    "District": "RUSTAQ",
    "د_مرکز_نوم__نام_مرکز": "مکتب ابتدائیه یامچی",
    "Polling_Center_Name": "Yamchi Primary School",
    "د_مرکز_ځای__موقعیت_مرکز": "یامچی",
    "Polling_Center_Location": "Yamchi",
    "Map_Accuracy": "Building",
    "Map_Accuracy_Dari": "تعمیر",
    "Status": "Open",
    "Status_Dari": null,
    "PS_Male": 3,
    "PS_Female": 1,
    "PS_Total": 4,
    "ولسوالي": "رستاق",
    "Region": "North Eastern Region"
   },
   "geometry": {
    "x": 7753005.9925746024,
    "y": 4446755.1950608697
   }
  },
  {
   "attributes": {
    "OBJECTID": 1996,
    "ولایت": "تخار",
    "Province": "TAKHAR",
    "PC_Code": "1810112",
    "District": "RUSTAQ",
    "د_مرکز_نوم__نام_مرکز": "لیسه حضرت خلالی",
    "Polling_Center_Name": "Hazrat Khelali High School",
    "د_مرکز_ځای__موقعیت_مرکز": "سر رستاق",
    "Polling_Center_Location": "Sar Rostaq",
    "Map_Accuracy": "Building",
    "Map_Accuracy_Dari": "تعمیر",
    "Status": "Open",
    "Status_Dari": null,
    "PS_Male": 4,
    "PS_Female": 2,
    "PS_Total": 6,
    "ولسوالي": "رستاق",
    "Region": "North Eastern Region"
   },
   "geometry": {
    "x": 7781879.7315151794,
    "y": 4453962.3486532588
   }
  },
  {
   "attributes": {
    "OBJECTID": 1997,
    "ولایت": "تخار",
    "Province": "TAKHAR",
    "PC_Code": "1810114",
    "District": "RUSTAQ",
    "د_مرکز_نوم__نام_مرکز": "مکتب متوسطه هرازسموج",
    "Polling_Center_Name": "Hazar Smooch Secondary School",
    "د_مرکز_ځای__موقعیت_مرکز": "هرازسموج",
    "Polling_Center_Location": "Hazar Smooch",
    "Map_Accuracy": "Building",
    "Map_Accuracy_Dari": "تعمیر",
    "Status": "Open",
    "Status_Dari": null,
    "PS_Male": 3,
    "PS_Female": 2,
    "PS_Total": 5,
    "ولسوالي": "رستاق",
    "Region": "North Eastern Region"
   },
   "geometry": {
    "x": 7781963.0975686414,
    "y": 4464945.8233506205
   }
  },
  {
   "attributes": {
    "OBJECTID": 1998,
    "ولایت": "تخار",
    "Province": "TAKHAR",
    "PC_Code": "1810115",
    "District": "RUSTAQ",
    "د_مرکز_نوم__نام_مرکز": "مکتب متوسطه سرغار",
    "Polling_Center_Name": "Sar Ghaar Secondary School",
    "د_مرکز_ځای__موقعیت_مرکز": "سرغار",
    "Polling_Center_Location": "Sar Ghaar",
    "Map_Accuracy": "Building",
    "Map_Accuracy_Dari": "تعمیر",
    "Status": "Open",
    "Status_Dari": null,
    "PS_Male": 2,
    "PS_Female": 1,
    "PS_Total": 3,
    "ولسوالي": "رستاق",
    "Region": "North Eastern Region"
   },
   "geometry": {
    "x": 7789396.1192683028,
    "y": 4462788.0582643449
   }
  },
  {
   "attributes": {
    "OBJECTID": 1999,
    "ولایت": "تخار",
    "Province": "TAKHAR",
    "PC_Code": "1810122",
    "District": "RUSTAQ",
    "د_مرکز_نوم__نام_مرکز": "مکتب توحید اسلامی",
    "Polling_Center_Name": "Tawheed Islami School",
    "د_مرکز_ځای__موقعیت_مرکز": "کیشان",
    "Polling_Center_Location": "Keshan",
    "Map_Accuracy": "Building",
    "Map_Accuracy_Dari": "تعمیر",
    "Status": "Open",
    "Status_Dari": null,
    "PS_Male": 1,
    "PS_Female": 1,
    "PS_Total": 2,
    "ولسوالي": "رستاق",
    "Region": "North Eastern Region"
   },
   "geometry": {
    "x": 7774490.7222025953,
    "y": 4476595.1099811103
   }
  },
  {
   "attributes": {
    "OBJECTID": 2000,
    "ولایت": "تخار",
    "Province": "TAKHAR",
    "PC_Code": "1810123",
    "District": "RUSTAQ",
    "د_مرکز_نوم__نام_مرکز": "مسجد قدق تاجکان",
    "Polling_Center_Name": "Qadaq Tajikan Mosque",
    "د_مرکز_ځای__موقعیت_مرکز": "قدق تاجکان",
    "Polling_Center_Location": "Qadaq Tajikan",
    "Map_Accuracy": "Building",
    "Map_Accuracy_Dari": "تعمیر",
    "Status": "Open",
    "Status_Dari": null,
    "PS_Male": 3,
    "PS_Female": 1,
    "PS_Total": 4,
    "ولسوالي": "رستاق",
    "Region": "North Eastern Region"
   },
   "geometry": {
    "x": 7754382.3189288937,
    "y": 4458825.8183163358
   }
  }
 ]
}