{
 "displayFieldName": "Polling_Center_Name",
 "fieldAliases": {
  "OBJECTID": "OBJECTID",
  "ولایت": "ولایت",
  "Province": "Province",
  "PC_Code": "PC_Code",
  "District": "District",
  "د_مرکز_نوم__نام_مرکز": "د_مرکز_نوم__نام_مرکز",
  "Polling_Center_Name": "Polling_Center_Name",
  "د_مرکز_ځای__موقعیت_مرکز": "د_مرکز_ځای__موقعیت_مرکز",
  "Polling_Center_Location": "Polling_Center_Location",
  "Map_Accuracy": "Map_Accuracy",
  "Map_Accuracy_Dari": "Map_Accuracy_Dari",
  "Status": "Status",
  "Status_Dari": "Status_Dari",
  "PS_Male": "PS_Male",
  "PS_Female": "PS_Female",
  "PS_Total": "PS_Total",
  "ولسوالي": "ولسوالي",
  "Region": "Region"
 },
 "geometryType": "esriGeometryPoint",
 "spatialReference": {
  "wkid": 102100,
  "latestWkid": 3857
 },
 "fields": [
  {
   "name": "OBJECTID",
   "type": "esriFieldTypeOID",
   "alias": "OBJECTID"
  },
  {
   "name": "ولایت",
   "type": "esriFieldTypeString",
   "alias": "ولایت",
   "length": 255
  },
  {
   "name": "Province",
   "type": "esriFieldTypeString",
   "alias": "Province",
   "length": 255
  },
  {
   "name": "PC_Code",
   "type": "esriFieldTypeString",
   "alias": "PC_Code",
   "length": 255
  },
  {
   "name": "District",
   "type": "esriFieldTypeString",
   "alias": "District",
   "length": 255
  },
  {
   "name": "د_مرکز_نوم__نام_مرکز",
   "type": "esriFieldTypeString",
   "alias": "د_مرکز_نوم__نام_مرکز",
   "length": 255
  },
  {
   "name": "Polling_Center_Name",
   "type": "esriFieldTypeString",
   "alias": "Polling_Center_Name",
   "length": 255
  },
  {
   "name": "د_مرکز_ځای__موقعیت_مرکز",
   "type": "esriFieldTypeString",
   "alias": "د_مرکز_ځای__موقعیت_مرکز",
   "length": 255
  },
  {
   "name": "Polling_Center_Location",
   "type": "esriFieldTypeString",
   "alias": "Polling_Center_Location",
   "length": 255
  },
  {
   "name": "Map_Accuracy",
   "type": "esriFieldTypeString",
   "alias": "Map_Accuracy",
   "length": 10
  },
  {
   "name": "Map_Accuracy_Dari",
   "type": "esriFieldTypeString",
   "alias": "Map_Accuracy_Dari",
   "length": 50
  },
  {
   "name": "Status",
   "type": "esriFieldTypeString",
   "alias": "Status",
   "length": 6
  },
  {
   "name": "Status_Dari",
   "type": "esriFieldTypeString",
   "alias": "Status_Dari",
   "length": 8
  },
  {
   "name": "PS_Male",
   "type": "esriFieldTypeSmallInteger",
   "alias": "PS_Male"
  },
  {
   "name": "PS_Female",
   "type": "esriFieldTypeSmallInteger",
   "alias": "PS_Female"
  },
  {
   "name": "PS_Total",
   "type": "esriFieldTypeSmallInteger",
   "alias": "PS_Total"
  },
  {
   "name": "ولسوالي",
   "type": "esriFieldTypeString",
   "alias": "ولسوالي",
   "length": 255
  },
  {
   "name": "Region",
   "type": "esriFieldTypeString",
   "alias": "Region",
   "length": 50
  }
 ],
 "features": [
  {
   "attributes": {
    "OBJECTID": 1,
    "ولایت": "کابل",
    "Province": "KABUL",
    "PC_Code": "0101001",
    "District": "KABUL-D01",
    "د_مرکز_نوم__نام_مرکز": " ليسه عاشقان و عارفان",
    "Polling_Center_Name": "Ashuqan-o-Arifan High School",
    "د_مرکز_ځای__موقعیت_مرکز": "کوچه اچکزی",
    "Polling_Center_Location": "Achekzai Street",
    "Map_Accuracy": "Building",
    "Map_Accuracy_Dari": "تعمیر",
    "Status": "Open",
    "Status_Dari": null,
    "PS_Male": 3,
    "PS_Female": 3,
    "PS_Total": 6,
    "ولسوالي": "کابل - ناحیه 01",
    "Region": "Central Region"
   },
   "geometry": {
    "x": 7701156.2268816419,
    "y": 4097310.8068457735
   }
  },
  {
   "attributes": {
    "OBJECTID": 2,
    "ولایت": "پکتيا",
    "Province": "PAKTYA",
    "PC_Code": "1308138",
    "District": "LAJA AHMAD KHEL",
    "د_مرکز_نوم__نام_مرکز": "مسجد ونس خیل  ",
    "Polling_Center_Name": "Venus Khel Mosque",
    "د_مرکز_ځای__موقعیت_مرکز": "کوندی حسن خیل کلی ",
    "Polling_Center_Location": "Kwandi Hassan Khel Village",
    "Map_Accuracy": "District",
    "Map_Accuracy_Dari": "ولسوالی",
    "Status": "Open",
    "Status_Dari": null,
    "PS_Male": 3,
    "PS_Female": 0,
    "PS_Total": 3,
    "ولسوالي": " لجه احمد خیل",
    "Region": "South Eastern Region"
   },
   "geometry": {
    "x": 7751552.426078422,
    "y": 4012138.4387822039
   }
  },
  {
   "attributes": {
    "OBJECTID": 3,
    "ولایت": "ننگرهار",
    "Province": "NANGARHAR",
    "PC_Code": "0605160",
    "District": "KAMA",
    "د_مرکز_نوم__نام_مرکز": "دار بنګ مکتب",
    "Polling_Center_Name": "Darbang School",
    "د_مرکز_ځای__موقعیت_مرکز": "داربنګ",
    "Polling_Center_Location": "Darbang ",
    "Map_Accuracy": "Village",
    "Map_Accuracy_Dari": "قریه",
    "Status": "Open",
    "Status_Dari": null,
    "PS_Male": 2,
    "PS_Female": 1,
    "PS_Total": 3,
    "ولسوالي": "کامه",
    "Region": "Eastern Region"
   },
   "geometry": {
    "x": 7858520.331666478,
    "y": 4090229.6240432006
   }
  },
  {
   "attributes": {
    "OBJECTID": 4,
    "ولایت": "ننگرهار",
    "Province": "NANGARHAR",
    "PC_Code": "0619243",
    "District": "SHER ZAD",
    "د_مرکز_نوم__نام_مرکز": "ماماخيل ليسه",
    "Polling_Center_Name": "Mama Khel High School",
    "د_مرکز_ځای__موقعیت_مرکز": "ماما خيل",
    "Polling_Center_Location": "Mama Khel ",
    "Map_Accuracy": "Village",
    "Map_Accuracy_Dari": "قریه",
    "Status": "Open",
    "Status_Dari": null,
    "PS_Male": 0,
    "PS_Female": 3,
    "PS_Total": 3,
    "ولسوالي": "شیرزاد",
    "Region": "Eastern Region"
   },
   "geometry": {
    "x": 7792028.81298042,
    "y": 4061980.1395108541
   }
  },
  {
   "attributes": {
    "OBJECTID": 5,
    "ولایت": "ننگرهار",
    "Province": "NANGARHAR",
    "PC_Code": "0614499",
    "District": "GOSHTA",
    "د_مرکز_نوم__نام_مرکز": "شخصي کور ",
    "Polling_Center_Name": "Private House",
    "د_مرکز_ځای__موقعیت_مرکز": "علي خيل کلی",
    "Polling_Center_Location": "Ali Khel Village",
    "Map_Accuracy": "Village",
    "Map_Accuracy_Dari": "قریه",
    "Status": "Open",
    "Status_Dari": null,
    "PS_Male": 0,
    "PS_Female": 2,
    "PS_Total": 2,
    "ولسوالي": "ګوشته",
    "Region": "Eastern Region"
   },
   "geometry": {
    "x": 7894788.3180582821,
    "y": 4093373.6519761533
   }
  },
  {
   "attributes": {
    "OBJECTID": 6,
    "ولایت": "هرات",
    "Province": "HERAT",
    "PC_Code": "3214301",
    "District": "SHINDAND",
    "د_مرکز_نوم__نام_مرکز": "مسجد قدیمی قندیز ",
    "Polling_Center_Name": "Qandiz Qademi Mosque ",
    "د_مرکز_ځای__موقعیت_مرکز": "قندیز ",
    "Polling_Center_Location": "Qandiz ",
    "Map_Accuracy": "Building",
    "Map_Accuracy_Dari": "تعمیر",
    "Status": "Open",
    "Status_Dari": null,
    "PS_Male": 4,
    "PS_Female": 1,
    "PS_Total": 5,
    "ولسوالي": "شیندند",
    "Region": "Western Region"
   },
   "geometry": {
    "x": 6917698.0007535918,
    "y": 3936045.4886691999
   }
  },
  {
   "attributes": {
    "OBJECTID": 7,
    "ولایت": "بلخ",
    "Province": "BALKH",
    "PC_Code": "2106177",
    "District": "BALKH",
    "د_مرکز_نوم__نام_مرکز": "مسجد جامع خواجه ولی ",
    "Polling_Center_Name": "Shamsullah Private House",
    "د_مرکز_ځای__موقعیت_مرکز": "شهاب افغانیه",
    "Polling_Center_Location": "Shahab Afghania Village",
    "Map_Accuracy": "Building",
    "Map_Accuracy_Dari": "تعمیر",
    "Status": "Open",
    "Status_Dari": null,
    "PS_Male": 1,
    "PS_Female": 1,
    "PS_Total": 2,
    "ولسوالي": "بلخ",
    "Region": "Northern Region"
   },
   "geometry": {
    "x": 7441523.933161296,
    "y": 4426660.5436408436
   }
  },
  {
   "attributes": {
    "OBJECTID": 8,
    "ولایت": "کاپيسا",
    "Province": "KAPISA",
    "PC_Code": "0206095",
    "District": "TAGAB",
    "د_مرکز_نوم__نام_مرکز": "متوسطه شهید حفیظ الله",
    "Polling_Center_Name": "Shaheed Hafizullah Secondary School",
    "د_مرکز_ځای__موقعیت_مرکز": " شکوت",
    "Polling_Center_Location": "Shokut",
    "Map_Accuracy": "Building",
    "Map_Accuracy_Dari": "تعمیر",
    "Status": "Open",
    "Status_Dari": null,
    "PS_Male": 4,
    "PS_Female": 0,
    "PS_Total": 4,
    "ولسوالي": "تگاب ",
    "Region": "Central Region"
   },
   "geometry": {
    "x": 7757335.8532245969,
    "y": 4148542.5276819798
   }
  },
  {
   "attributes": {
    "OBJECTID": 9,
    "ولایت": "پروان",
    "Province": "PARWAN",
    "PC_Code": "0310131",
    "District": "SHAYKH ALI",
    "د_مرکز_نوم__نام_مرکز": "کیلینک حیوانی ولسوالی",
    "Polling_Center_Name": "District Building ",
    "د_مرکز_ځای__موقعیت_مرکز": "بازار ولسوالی دشت گذار",
    "Polling_Center_Location": "District Bazar Dasht-e-Guzar",
    "Map_Accuracy": "Building",
    "Map_Accuracy_Dari": "تعمیر",
    "Status": "Open",
    "Status_Dari": null,
    "PS_Male": 1,
    "PS_Female": 1,
    "PS_Total": 2,
    "ولسوالي": "شیخ علی ",
    "Region": "Central Region"
   },
   "geometry": {
    "x": 7629983.9669521414,
    "y": 4156621.6600412992
   }
  },
  {
   "attributes": {
    "OBJECTID": 10,
    "ولایت": "هرات",
    "Province": "HERAT",
    "PC_Code": "3212376",
    "District": "OBE",
    "د_مرکز_نوم__نام_مرکز": "مسجد پشت پاجی",
    "Polling_Center_Name": "Posht-e- Paji Mosque",
    "د_مرکز_ځای__موقعیت_مرکز": "پشت پاجی ",
    "Polling_Center_Location": "Posht-e- Paji ",
    "Map_Accuracy": "Village",
    "Map_Accuracy_Dari": "قریه",
    "Status": "Open",
    "Status_Dari": null,
    "PS_Male": 3,
    "PS_Female": 2,
    "PS_Total": 5,
    "ولسوالي": "اوبه ",
    "Region": "Western Region"
   },
   "geometry": {
    "x": 7040008.5290751616,
    "y": 4065955.2023234298
   }
  },
  {
   "attributes": {
    "OBJECTID": 11,
    "ولایت": "هرات",
    "Province": "HERAT",
    "PC_Code": "3212377",
    "District": "OBE",
    "د_مرکز_نوم__نام_مرکز": "مکتب سیروان",
    "Polling_Center_Name": "Sarwan School ",
    "د_مرکز_ځای__موقعیت_مرکز": "قریه سیروان",
    "Polling_Center_Location": "Sarwan Village",
    "Map_Accuracy": "Building",
    "Map_Accuracy_Dari": "تعمیر",
    "Status": "Open",
    "Status_Dari": null,
    "PS_Male": 3,
    "PS_Female": 2,
    "PS_Total": 5,
    "ولسوالي": "اوبه ",
    "Region": "Western Region"
   },
   "geometry": {
    "x": 7019565.600712873,
    "y": 4067684.5687021054
   }
  },
  {
   "attributes": {
    "OBJECTID": 12,
    "ولایت": "پروان",
    "Province": "PARWAN",
    "PC_Code": "0307090",
    "District": "SYAHGIRDI GHORBAND",
    "د_مرکز_نوم__نام_مرکز": "مسجد جامع دو آب ",
    "Polling_Center_Name": "Du Aab Mosque",
    "د_مرکز_ځای__موقعیت_مرکز": "سرپل دو آب ",
    "Polling_Center_Location": "Sar-e-Pul Du Aab",
    "Map_Accuracy": "District",
    "Map_Accuracy_Dari": "ولسوالی",
    "Status": "Open",
    "Status_Dari": null,
    "PS_Male": 2,
    "PS_Female": 1,
    "PS_Total": 3,
    "ولسوالي": "سیاه گرد غوربند",
    "Region": "Central Region"
   },
   "geometry": {
    "x": 7665584.5366689786,
    "y": 4164602.4232762521
   }
  },
  {
   "attributes": {
    "OBJECTID": 13,
    "ولایت": "غور",
    "Province": "GHOR",
    "PC_Code": "2301039",
    "District": "CHIGHCHERAN",
    "د_مرکز_نوم__نام_مرکز": "مکتب جنداک",
    "Polling_Center_Name": "Jandak School",
    "د_مرکز_ځای__موقعیت_مرکز": " جنداک",
    "Polling_Center_Location": "Jandak",
    "Map_Accuracy": "Village",
    "Map_Accuracy_Dari": "قریه",
    "Status": "Open",
    "Status_Dari": null,
    "PS_Male": 3,
    "PS_Female": 2,
    "PS_Total": 5,
    "ولسوالي": "چغچران",
    "Region": "Western Region"
   },
   "geometry": {
    "x": 7314133.7224824606,
    "y": 4163278.2238062569
   }
  },
  {
   "attributes": {
    "OBJECTID": 14,
    "ولایت": "لغمان",
    "Province": "LAGHMAN",
    "PC_Code": "0704076",
    "District": "ALINGAR",
    "د_مرکز_نوم__نام_مرکز": "دپړوائي ښوونځی",
    "Polling_Center_Name": "Parwayee School",
    "د_مرکز_ځای__موقعیت_مرکز": "پړوایی",
    "Polling_Center_Location": "Parwayee",
    "Map_Accuracy": "Building",
    "Map_Accuracy_Dari": "تعمیر",
    "Status": "Open",
    "Status_Dari": null,
    "PS_Male": 2,
    "PS_Female": 2,
    "PS_Total": 4,
    "ولسوالي": "علینګار",
    "Region": "Eastern Region"
   },
   "geometry": {
    "x": 7833544.7714187261,
    "y": 4145043.0466409996
   }
  },
  {
   "attributes": {
    "OBJECTID": 15,
    "ولایت": "کنړ ",
    "Province": "KUNAR",
    "PC_Code": "1506063",
    "District": "SHIGAL WA SHILTAN",
    "د_مرکز_نوم__نام_مرکز": "مکتب ابتدائیه",
    "Polling_Center_Name": "Primary School",
    "د_مرکز_ځای__موقعیت_مرکز": "شین کوړک",
    "Polling_Center_Location": "Shenkorak",
    "Map_Accuracy": "Building",
    "Map_Accuracy_Dari": "تعمیر",
    "Status": "Open",
    "Status_Dari": null,
    "PS_Male": 4,
    "PS_Female": 2,
    "PS_Total": 6,
    "ولسوالي": "شیګل و شیلتن",
    "Region": "Eastern Region"
   },
   "geometry": {
    "x": 7929074.298208544,
    "y": 4157062.1178766931
   }
  },
  {
   "attributes": {
    "OBJECTID": 16,
    "ولایت": "کنړ ",
    "Province": "KUNAR",
    "PC_Code": "1506064",
    "District": "SHIGAL WA SHILTAN",
    "د_مرکز_نوم__نام_مرکز": "تعمیر ولسوالی",
    "Polling_Center_Name": "District Compound",
    "د_مرکز_ځای__موقعیت_مرکز": "شیگل واشیلتن",
    "Polling_Center_Location": "Shegal Washilton",
    "Map_Accuracy": "Building",
    "Map_Accuracy_Dari": "تعمیر",
    "Status": "Open",
    "Status_Dari": null,
    "PS_Male": 3,
    "PS_Female": 2,
    "PS_Total": 5,
    "ولسوالي": "شیګل و شیلتن",
    "Region": "Eastern Region"
   },
   "geometry": {
    "x": 7934278.6580615379,
    "y": 4159323.5184441912
   }
  },
  {
   "attributes": {
    "OBJECTID": 17,
    "ولایت": "کنړ ",
    "Province": "KUNAR",
    "PC_Code": "1512054",
    "District": "DANGAM",
    "د_مرکز_نوم__نام_مرکز": "مکتب ابتدائیه",
    "Polling_Center_Name": "Byadad Primary School",
    "د_مرکز_ځای__موقعیت_مرکز": "بیاداد",
    "Polling_Center_Location": "Byadad",
    "Map_Accuracy": "Village",
    "Map_Accuracy_Dari": "قریه",
    "Status": "Open",
    "Status_Dari": null,
    "PS_Male": 2,
    "PS_Female": 2,
    "PS_Total": 4,
    "ولسوالي": "دانګام",
    "Region": "Eastern Region"
   },
   "geometry": {
    "x": 7948073.3181536719,
    "y": 4166001.4570900663
   }
  },
  {
   "attributes": {
    "OBJECTID": 18,
    "ولایت": "غور",
    "Province": "GHOR",
    "PC_Code": "2305113",
    "District": "PASABAND",
    "د_مرکز_نوم__نام_مرکز": "خیمه بازار تخته ترمه",
    "Polling_Center_Name": "Takhta Tarma Bazar Tent",
    "د_مرکز_ځای__موقعیت_مرکز": "قریه تخته ترمه",
    "Polling_Center_Location": "Takhta Tarma Village",
    "Map_Accuracy": "Building",
    "Map_Accuracy_Dari": "تعمیر",
    "Status": "Open",
    "Status_Dari": null,
    "PS_Male": 2,
    "PS_Female": 1,
    "PS_Total": 3,
    "ولسوالي": "پسابند ",
    "Region": "Western Region"
   },
   "geometry": {
    "x": 7223700.0357400309,
    "y": 4000323.1042036377
   }
  },
  {
   "attributes": {
    "OBJECTID": 19,
    "ولایت": "غور",
    "Province": "GHOR",
    "PC_Code": "2309178",
    "District": "TULAK",
    "د_مرکز_نوم__نام_مرکز": "مکتب تولک",
    "Polling_Center_Name": "Tolak School",
    "د_مرکز_ځای__موقعیت_مرکز": "قریه خوا جه ها",
    "Polling_Center_Location": "Khwajaha Village",
    "Map_Accuracy": "Building",
    "Map_Accuracy_Dari": "تعمیر",
    "Status": "Open",
    "Status_Dari": null,
    "PS_Male": 3,
    "PS_Female": 1,
    "PS_Total": 4,
    "ولسوالي": "تولک ",
    "Region": "Western Region"
   },
   "geometry": {
    "x": 7093264.9879663065,
    "y": 4025024.7332163239
   }
  },
  {
   "attributes": {
    "OBJECTID": 20,
    "ولایت": "غور",
    "Province": "GHOR",
    "PC_Code": "2309193",
    "District": "TULAK",
    "د_مرکز_نوم__نام_مرکز": "مکتب ابتدای سنگ خلق ",
    "Polling_Center_Name": "Sang Khalq Primary School",
    "د_مرکز_ځای__موقعیت_مرکز": "سنگ خلق",
    "Polling_Center_Location": "Sang Khalq",
    "Map_Accuracy": "Building",
    "Map_Accuracy_Dari": "تعمیر",
    "Status": "Open",
    "Status_Dari": null,
    "PS_Male": 2,
    "PS_Female": 1,
    "PS_Total": 3,
    "ولسوالي": "تولک ",
    "Region": "Western Region"
   },
   "geometry": {
    "x": 7101883.452036622,
    "y": 4021544.2494069207
   }
  },
  {
   "attributes": {
    "OBJECTID": 21,
    "ولایت": "هلمند",
    "Province": "HELMAND",
    "PC_Code": "3007196",
    "District": "NAWZAD",
    "د_مرکز_نوم__نام_مرکز": "اسعد سوري ليسه",
    "Polling_Center_Name": "Asad Suri High School",
    "د_مرکز_ځای__موقعیت_مرکز": "نوزاد کلان",
    "Polling_Center_Location": "Nawzad Kalan",
    "Map_Accuracy": "Village",
    "Map_Accuracy_Dari": "قریه",
    "Status": "Open",
    "Status_Dari": null,
    "PS_Male": 6,
    "PS_Female": 1,
    "PS_Total": 7,
    "ولسوالي": "نوزاد",
    "Region": "Southern Region"
   },
   "geometry": {
    "x": 7176862.9622272095,
    "y": 3816527.5547524411
   }
  },
  {
   "attributes": {
    "OBJECTID": 22,
    "ولایت": "هلمند",
    "Province": "HELMAND",
    "PC_Code": "3009184",
    "District": "MUSA QALA",
    "د_مرکز_نوم__نام_مرکز": "د نور محمد كور",
    "Polling_Center_Name": "Noor Mohammad Private House",
    "د_مرکز_ځای__موقعیت_مرکز": " شیرغزی",
    "Polling_Center_Location": "Sher Ghazai",
    "Map_Accuracy": "Village",
    "Map_Accuracy_Dari": "قریه",
    "Status": "Open",
    "Status_Dari": null,
    "PS_Male": 3,
    "PS_Female": 2,
    "PS_Total": 5,
    "ولسوالي": "موسی قلعه",
    "Region": "Southern Region"
   },
   "geometry": {
    "x": 7202182.8687256202,
    "y": 3793855.8292902736
   }
  },
  {
   "attributes": {
    "OBJECTID": 23,
    "ولایت": "هلمند",
    "Province": "HELMAND",
    "PC_Code": "3009185",
    "District": "MUSA QALA",
    "د_مرکز_نوم__نام_مرکز": "خان محمد مسجد",
    "Polling_Center_Name": "Khan Mohammad Mosque",
    "د_مرکز_ځای__موقعیت_مرکز": "کاڼی مانده",
    "Polling_Center_Location": "Kaani Manda",
    "Map_Accuracy": "Village",
    "Map_Accuracy_Dari": "قریه",
    "Status": "Open",
    "Status_Dari": null,
    "PS_Male": 3,
    "PS_Female": 2,
    "PS_Total": 5,
    "ولسوالي": "موسی قلعه",
    "Region": "Southern Region"
   },
   "geometry": {
    "x": 7207405.4270889647,
    "y": 3797515.4005356901
   }
  },
  {
   "attributes": {
    "OBJECTID": 24,
    "ولایت": "بادغيس",
    "Province": "BADGHIS",
    "PC_Code": "3105153",
    "District": "BALA MURGHAB",
    "د_مرکز_نوم__نام_مرکز": "مکتب اکازی ها",
    "Polling_Center_Name": "Akazi School",
    "د_مرکز_ځای__موقعیت_مرکز": " اکازی ها",
    "Polling_Center_Location": "Akaziha ",
    "Map_Accuracy": "Building",
    "Map_Accuracy_Dari": "تعمیر",
    "Status": "Open",
    "Status_Dari": null,
    "PS_Male": 2,
    "PS_Female": 1,
    "PS_Total": 3,
    "ولسوالي": "بالا مرغاب",
    "Region": "Western Region"
   },
   "geometry": {
    "x": 7047718.8175701248,
    "y": 4247601.7197858915
   }
  },
  {
   "attributes": {
    "OBJECTID": 25,
    "ولایت": "بادغيس",
    "Province": "BADGHIS",
    "PC_Code": "3105158",
    "District": "BALA MURGHAB",
    "د_مرکز_نوم__نام_مرکز": "مکتب جوی کار",
    "Polling_Center_Name": "Joy-e- Kar School",
    "د_مرکز_ځای__موقعیت_مرکز": "جوی کار",
    "Polling_Center_Location": "Joy-e-Kar",
    "Map_Accuracy": "Building",
    "Map_Accuracy_Dari": "تعمیر",
    "Status": "Open",
    "Status_Dari": null,
    "PS_Male": 2,
    "PS_Female": 1,
    "PS_Total": 3,
    "ولسوالي": "بالا مرغاب",
    "Region": "Western Region"
   },
   "geometry": {
    "x": 7054358.6611812087,
    "y": 4234992.8448038045
   }
  },
  {
   "attributes": {
    "OBJECTID": 26,
    "ولایت": "بادغيس",
    "Province": "BADGHIS",
    "PC_Code": "3105188",
    "District": "BALA MURGHAB",
    "د_مرکز_نوم__نام_مرکز": "مسجد سر خلنگ جوی گنج",
    "Polling_Center_Name": "Sarkhlang Joy-e-Ganj Mosque",
    "د_مرکز_ځای__موقعیت_مرکز": "سرخلنک جوی گنج",
    "Polling_Center_Location": "Sarkhlang Joy-e-Ganj",
    "Map_Accuracy": "Village",
    "Map_Accuracy_Dari": "قریه",
    "Status": "Open",
    "Status_Dari": null,
    "PS_Male": 2,
    "PS_Female": 1,
    "PS_Total": 3,
    "ولسوالي": "بالا مرغاب",
    "Region": "Western Region"
   },
   "geometry": {
    "x": 7049289.5400379971,
    "y": 4247384.8069795649
   }
  },
  {
   "attributes": {
    "OBJECTID": 27,
    "ولایت": " فراه",
    "Province": "FARAH",
    "PC_Code": "3303055",
    "District": "KHAK-E-SAFED",
    "د_مرکز_نوم__نام_مرکز": "مسجد کاریز صادق",
    "Polling_Center_Name": "Kariz Sadiq Mosque ",
    "د_مرکز_ځای__موقعیت_مرکز": "کاریز صادق ",
    "Polling_Center_Location": "Kariz Sadiq",
    "Map_Accuracy": "Village",
    "Map_Accuracy_Dari": "قریه",
    "Status": "Open",
    "Status_Dari": null,
    "PS_Male": 1,
    "PS_Female": 1,
    "PS_Total": 2,
    "ولسوالي": "خاک سفید ",
    "Region": "Western Region"
   },
   "geometry": {
    "x": 6891074.0253823558,
    "y": 3882912.1375516341
   }
  },
  {
   "attributes": {
    "OBJECTID": 28,
    "ولایت": " فراه",
    "Province": "FARAH",
    "PC_Code": "3304072",
    "District": "QALA-E-KAH",
    "د_مرکز_نوم__نام_مرکز": "مسجد حسن آباد علیا",
    "Polling_Center_Name": "Hassan Abad Ulya Mosque ",
    "د_مرکز_ځای__موقعیت_مرکز": "حسن آباد علیا",
    "Polling_Center_Location": "Hassan Abad Ulya ",
    "Map_Accuracy": "Building",
    "Map_Accuracy_Dari": "تعمیر",
    "Status": "Open",
    "Status_Dari": null,
    "PS_Male": 2,
    "PS_Female": 1,
    "PS_Total": 3,
    "ولسوالي": "قلعه کاه ",
    "Region": "Western Region"
   },
   "geometry": {
    "x": 6823563.0400166279,
    "y": 3802666.1832931414
   }
  },
  {
   "attributes": {
    "OBJECTID": 29,
    "ولایت": " فراه",
    "Province": "FARAH",
    "PC_Code": "3306149",
    "District": "BALA BULUK",
    "د_مرکز_نوم__نام_مرکز": "خیمه قریه تودنک  ( کوچی ) ",
    "Polling_Center_Name": "Todanak Village Tent (Kuchi)",
    "د_مرکز_ځای__موقعیت_مرکز": "قریه تودنک",
    "Polling_Center_Location": "Todanak Village",
    "Map_Accuracy": "Village",
    "Map_Accuracy_Dari": "قریه",
    "Status": "Open",
    "Status_Dari": null,
    "PS_Male": 1,
    "PS_Female": 1,
    "PS_Total": 2,
    "ولسوالي": "بالا بلوک ",
    "Region": "Western Region"
   },
   "geometry": {
    "x": 6966202.5511829061,
    "y": 3864063.7160137482
   }
  },
  {
   "attributes": {
    "OBJECTID": 30,
    "ولایت": " فراه",
    "Province": "FARAH",
    "PC_Code": "3310177",
    "District": "GULISTAN",
    "د_مرکز_نوم__نام_مرکز": " مسجد مغل آباد",
    "Polling_Center_Name": "Mughol Abad Mosque ",
    "د_مرکز_ځای__موقعیت_مرکز": "مغل آباد",
    "Polling_Center_Location": "Mughol Abad ",
    "Map_Accuracy": "Village",
    "Map_Accuracy_Dari": "قریه",
    "Status": "Open",
    "Status_Dari": null,
    "PS_Male": 1,
    "PS_Female": 1,
    "PS_Total": 2,
    "ولسوالي": "گلستان",
    "Region": "Western Region"
   },
   "geometry": {
    "x": 7039160.9491514312,
    "y": 3836448.6185322423
   }
  },
  {
   "attributes": {
    "OBJECTID": 31,
    "ولایت": "کاپيسا",
    "Province": "KAPISA",
    "PC_Code": "0205039",
    "District": "NIJRAB",
    "د_مرکز_نوم__نام_مرکز": "مکتب قاضی عبدالجمیل ",
    "Polling_Center_Name": "Qazi Abdul Jamil  School ",
    "د_مرکز_ځای__موقعیت_مرکز": "افغانیه ",
    "Polling_Center_Location": "Afghania",
    "Map_Accuracy": "Building",
    "Map_Accuracy_Dari": "تعمیر",
    "Status": "Open",
    "Status_Dari": null,
    "PS_Male": 1,
    "PS_Female": 3,
    "PS_Total": 4,
    "ولسوالي": "نجراب ",
    "Region": "Central Region"
   },
   "geometry": {
    "x": 7747660.538606612,
    "y": 4157378.1450461401
   }
  },
  {
   "attributes": {
    "OBJECTID": 32,
    "ولایت": "کاپيسا",
    "Province": "KAPISA",
    "PC_Code": "0206078",
    "District": "TAGAB",
    "د_مرکز_نوم__نام_مرکز": "لیسه غازی عثمان",
    "Polling_Center_Name": "Ghazi Usman High School",
    "د_مرکز_ځای__موقعیت_مرکز": "مرکز ولسوالی ",
    "Polling_Center_Location": "District Compound",
    "Map_Accuracy": "Building",
    "Map_Accuracy_Dari": "تعمیر",
    "Status": "Open",
    "Status_Dari": null,
    "PS_Male": 4,
    "PS_Female": 0,
    "PS_Total": 4,
    "ولسوالي": "تگاب ",
    "Region": "Central Region"
   },
   "geometry": {
    "x": 7752887.0610570302,
    "y": 4144002.1392730465
   }
  },
  {
   "attributes": {
    "OBJECTID": 33,
    "ولایت": "پروان",
    "Province": "PARWAN",
    "PC_Code": "0308143",
    "District": "KOHI SAFI",
    "د_مرکز_نوم__نام_مرکز": "مکتب ملا احمد خیل",
    "Polling_Center_Name": "Mula Ahmad Khel School",
    "د_مرکز_ځای__موقعیت_مرکز": "ملا احمد خیل ",
    "Polling_Center_Location": "Mula Ahmad Khel",
    "Map_Accuracy": "Building",
    "Map_Accuracy_Dari": "تعمیر",
    "Status": "Open",
    "Status_Dari": null,
    "PS_Male": 2,
    "PS_Female": 1,
    "PS_Total": 3,
    "ولسوالي": "کوه صافی",
    "Region": "Central Region"
   },
   "geometry": {
    "x": 7724786.3113021757,
    "y": 4144492.747180413
   }
  },
  {
   "attributes": {
    "OBJECTID": 34,
    "ولایت": "پروان",
    "Province": "PARWAN",
    "PC_Code": "0308144",
    "District": "KOHI SAFI",
    "د_مرکز_نوم__نام_مرکز": "مکتب دندر",
    "Polling_Center_Name": "Dandar School",
    "د_مرکز_ځای__موقعیت_مرکز": "دندر ",
    "Polling_Center_Location": "Dandar",
    "Map_Accuracy": "Building",
    "Map_Accuracy_Dari": "تعمیر",
    "Status": "Open",
    "Status_Dari": null,
    "PS_Male": 1,
    "PS_Female": 1,
    "PS_Total": 2,
    "ولسوالي": "کوه صافی",
    "Region": "Central Region"
   },
   "geometry": {
    "x": 7732694.1930065006,
    "y": 4136034.7657991643
   }
  },
  {
   "attributes": {
    "OBJECTID": 35,
    "ولایت": "لغمان",
    "Province": "LAGHMAN",
    "PC_Code": "0703093",
    "District": "ALISHING",
    "د_مرکز_نوم__نام_مرکز": "دکوټوال خنډودکلي جومات اوعامه برنډه",
    "Polling_Center_Name": "Kotwal Khando Village Mosque",
    "د_مرکز_ځای__موقعیت_مرکز": "عليشنګ",
    "Polling_Center_Location": "Alishang",
    "Map_Accuracy": "Village",
    "Map_Accuracy_Dari": "قریه",
    "Status": "Open",
    "Status_Dari": null,
    "PS_Male": 2,
    "PS_Female": 1,
    "PS_Total": 3,
    "ولسوالي": "علیشنګ",
    "Region": "Eastern Region"
   },
   "geometry": {
    "x": 7805113.6799617531,
    "y": 4133986.145164805
   }
  },
  {
   "attributes": {
    "OBJECTID": 36,
    "ولایت": "کنړ ",
    "Province": "KUNAR",
    "PC_Code": "1514083",
    "District": "NOOR GAL",
    "د_مرکز_نوم__نام_مرکز": "لیسه ذکور",
    "Polling_Center_Name": "Bar Noor Gul Boys High School",
    "د_مرکز_ځای__موقعیت_مرکز": "برنورگل",
    "Polling_Center_Location": "Bar Noor Gul",
    "Map_Accuracy": "Building",
    "Map_Accuracy_Dari": "تعمیر",
    "Status": "Open",
    "Status_Dari": null,
    "PS_Male": 1,
    "PS_Female": 3,
    "PS_Total": 4,
    "ولسوالي": "نور ګل",
    "Region": "Eastern Region"
   },
   "geometry": {
    "x": 7877190.7069751155,
    "y": 4111559.0571341813
   }
  },
  {
   "attributes": {
    "OBJECTID": 37,
    "ولایت": "بدخشان",
    "Province": "BADAKHSHAN",
    "PC_Code": "1702054",
    "District": "ARGO",
    "د_مرکز_نوم__نام_مرکز": "مسجد گزان",
    "Polling_Center_Name": "Gazan Mosque",
    "د_مرکز_ځای__موقعیت_مرکز": "گزان",
    "Polling_Center_Location": "Gazan ",
    "Map_Accuracy": "Building",
    "Map_Accuracy_Dari": "تعمیر",
    "Status": "Open",
    "Status_Dari": null,
    "PS_Male": 2,
    "PS_Female": 1,
    "PS_Total": 3,
    "ولسوالي": "ارگو",
    "Region": "North Eastern Region"
   },
   "geometry": {
    "x": 7862774.5089776702,
    "y": 4437188.9621573891
   }
  },
  {
   "attributes": {
    "OBJECTID": 38,
    "ولایت": "بدخشان",
    "Province": "BADAKHSHAN",
    "PC_Code": "1702055",
    "District": "ARGO",
    "د_مرکز_نوم__نام_مرکز": "مکتب باغ مبارک ",
    "Polling_Center_Name": "Bagh Mubarak School",
    "د_مرکز_ځای__موقعیت_مرکز": "باغ مبارک",
    "Polling_Center_Location": "Bagh Mubarak",
    "Map_Accuracy": "Building",
    "Map_Accuracy_Dari": "تعمیر",
    "Status": "Open",
    "Status_Dari": null,
    "PS_Male": 2,
    "PS_Female": 1,
    "PS_Total": 3,
    "ولسوالي": "ارگو",
    "Region": "North Eastern Region"
   },
   "geometry": {
    "x": 7865245.3630744871,
    "y": 4446815.6185567854
   }
  },
  {
   "attributes": {
    "OBJECTID": 39,
    "ولایت": "غور",
    "Province": "GHOR",
    "PC_Code": "2308232",
    "District": "TAYWARA",
    "د_مرکز_نوم__نام_مرکز": "مکتب سیب تلخ",
    "Polling_Center_Name": "Seb Talkh School",
    "د_مرکز_ځای__موقعیت_مرکز": " سیب تلخ",
    "Polling_Center_Location": "Seb Talkh",
    "Map_Accuracy": "Village",
    "Map_Accuracy_Dari": "قریه",
    "Status": "Open",
    "Status_Dari": null,
    "PS_Male": 1,
    "PS_Female": 1,
    "PS_Total": 2,
    "ولسوالي": "تیوره",
    "Region": "Western Region"
   },
   "geometry": {
    "x": 7149161.0735474546,
    "y": 3974204.1634889301
   }
  },
  {
   "attributes": {
    "OBJECTID": 40,
    "ولایت": "دایکندی",
    "Province": "DAYKUNDI",
    "PC_Code": "2407191",
    "District": "MIRAMOR",
    "د_مرکز_نوم__نام_مرکز": "مسجد",
    "Polling_Center_Name": "Mosque",
    "د_مرکز_ځای__موقعیت_مرکز": "شازان ",
    "Polling_Center_Location": "Shazan",
    "Map_Accuracy": "Building",
    "Map_Accuracy_Dari": "تعمیر",
    "Status": "Open",
    "Status_Dari": null,
    "PS_Male": 2,
    "PS_Female": 1,
    "PS_Total": 3,
    "ولسوالي": "میرامور",
    "Region": "Central Highlands Region"
   },
   "geometry": {
    "x": 7471894.5324178105,
    "y": 4016417.9700386683
   }
  },
  {
   "attributes": {
    "OBJECTID": 41,
    "ولایت": "دایکندی",
    "Province": "DAYKUNDI",
    "PC_Code": "2407192",
    "District": "MIRAMOR",
    "د_مرکز_نوم__نام_مرکز": "مسجد",
    "Polling_Center_Name": "Mosque",
    "د_مرکز_ځای__موقعیت_مرکز": "غجورک",
    "Polling_Center_Location": "Ghajorak",
    "Map_Accuracy": "Building",
    "Map_Accuracy_Dari": "تعمیر",
    "Status": "Open",
    "Status_Dari": null,
    "PS_Male": 2,
    "PS_Female": 1,
    "PS_Total": 3,
    "ولسوالي": "میرامور",
    "Region": "Central Highlands Region"
   },
   "geometry": {
    "x": 7485787.9444755064,
    "y": 4006301.5796537939
   }
  },
  {
   "attributes": {
    "OBJECTID": 42,
    "ولایت": "دایکندی",
    "Province": "DAYKUNDI",
    "PC_Code": "2402172",
    "District": "SHAHRISTAN",
    "د_مرکز_نوم__نام_مرکز": "مسجد",
    "Polling_Center_Name": "Mosque",
    "د_مرکز_ځای__موقعیت_مرکز": "راخان ",
    "Polling_Center_Location": "Rakhan",
    "Map_Accuracy": "Building",
    "Map_Accuracy_Dari": "تعمیر",
    "Status": "Open",
    "Status_Dari": null,
    "PS_Male": 2,
    "PS_Female": 1,
    "PS_Total": 3,
    "ولسوالي": "شهرستان",
    "Region": "Central Highlands Region"
   },
   "geometry": {
    "x": 7421305.6125771133,
    "y": 3967185.2623396395
   }
  },
  {
   "attributes": {
    "OBJECTID": 43,
    "ولایت": "بغلان",
    "Province": "BAGHLAN",
    "PC_Code": "0902260",
    "District": "DAHANA-E-GHURI",
    "د_مرکز_نوم__نام_مرکز": "مسجد نوآمد",
    "Polling_Center_Name": "Nawamad Mosque",
    "د_مرکز_ځای__موقعیت_مرکز": "نوامد قره خوال شلکتو",
    "Polling_Center_Location": "Naw amad qara khwal shakar to",
    "Map_Accuracy": "Building",
    "Map_Accuracy_Dari": "تعمیر",
    "Status": "Open",
    "Status_Dari": null,
    "PS_Male": 2,
    "PS_Female": 1,
    "PS_Total": 3,
    "ولسوالي": "دهنۀ غوری",
    "Region": "North Eastern Region"
   },
   "geometry": {
    "x": 7625198.4614887508,
    "y": 4266537.0145692965
   }
  },
  {
   "attributes": {
    "OBJECTID": 44,
    "ولایت": "بغلان",
    "Province": "BAGHLAN",
    "PC_Code": "0903261",
    "District": "Doshi",
    "د_مرکز_نوم__نام_مرکز": "مدرسه ابوحنیفه",
    "Polling_Center_Name": "Abo hanifa Madrasa",
    "د_مرکز_ځای__موقعیت_مرکز": "خواجه زید سفلی",
    "Polling_Center_Location": "Khwaja zaid sufla",
    "Map_Accuracy": "Building",
    "Map_Accuracy_Dari": "تعمیر",
    "Status": "Open",
    "Status_Dari": null,
    "PS_Male": 2,
    "PS_Female": 1,
    "PS_Total": 3,
    "ولسوالي": "دوشی",
    "Region": "North Eastern Region"
   },
   "geometry": {
    "x": 7650989.0127679817,
    "y": 4245488.1640659673
   }
  },
  {
   "attributes": {
    "OBJECTID": 45,
    "ولایت": "کابل",
    "Province": "KABUL",
    "PC_Code": "0104539",
    "District": "Bagrami",
    "د_مرکز_نوم__نام_مرکز": "مسجد جامع قلعه حسن خان",
    "Polling_Center_Name": "Qala hasan khan Mosque",
    "د_مرکز_ځای__موقعیت_مرکز": "قلعه حسن خان سفلی",
    "Polling_Center_Location": "Qalai hasan khan sufla",
    "Map_Accuracy": "Building",
    "Map_Accuracy_Dari": "تعمیر",
    "Status": "Open",
    "Status_Dari": null,
    "PS_Male": 2,
    "PS_Female": 1,
    "PS_Total": 3,
    "ولسوالي": "بگرامی",
    "Region": "Central Region"
   },
   "geometry": {
    "x": 7708697.1606938066,
    "y": 4091561.0547233014
   }
  },
  {
   "attributes": {
    "OBJECTID": 46,
    "ولایت": "کابل",
    "Province": "KABUL",
    "PC_Code": "0104540",
    "District": "Bagrami",
    "د_مرکز_نوم__نام_مرکز": "مسجد مهترلام بابا",
    "Polling_Center_Name": "Mehtarlam baba Mosque",
    "د_مرکز_ځای__موقعیت_مرکز": "حصه دوم سید جمال الدین قریه حسین خیل",
    "Polling_Center_Location": "Hasan khil village_Said jamaludin second part",
    "Map_Accuracy": "Building",
    "Map_Accuracy_Dari": "تعمیر",
    "Status": "Open",
    "Status_Dari": null,
    "PS_Male": 2,
    "PS_Female": 1,
    "PS_Total": 3,
    "ولسوالي": "بگرامی",
    "Region": "Central Region"
   },
   "geometry": {
    "x": 7715809.7713917987,
    "y": 4095090.258108167
   }
  },
  {
   "attributes": {
    "OBJECTID": 47,
    "ولایت": "لغمان",
    "Province": "LAGHMAN",
    "PC_Code": "0704131",
    "District": "ALINGAR",
    "د_مرکز_نوم__نام_مرکز": " مکتب",
    "Polling_Center_Name": "School",
    "د_مرکز_ځای__موقعیت_مرکز": "لوکاړ",
    "Polling_Center_Location": "Lokar",
    "Map_Accuracy": "Building",
    "Map_Accuracy_Dari": "تعمیر",
    "Status": "Open",
    "Status_Dari": null,
    "PS_Male": 2,
    "PS_Female": 1,
    "PS_Total": 3,
    "ولسوالي": "علینگار",
    "Region": "Eastern Region"
   },
   "geometry": {
    "x": 7834338.8908249242,
    "y": 4151231.3021366769
   }
  },
  {
   "attributes": {
    "OBJECTID": 48,
    "ولایت": "لغمان",
    "Province": "LAGHMAN",
    "PC_Code": "0704132",
    "District": "ALINGAR",
    "د_مرکز_نوم__نام_مرکز": "مسجد",
    "Polling_Center_Name": "Mosque",
    "د_مرکز_ځای__موقعیت_مرکز": "چينچار پول",
    "Polling_Center_Location": "Chinchar pol",
    "Map_Accuracy": "Building",
    "Map_Accuracy_Dari": "تعمیر",
    "Status": "Open",
    "Status_Dari": null,
    "PS_Male": 2,
    "PS_Female": 1,
    "PS_Total": 3,
    "ولسوالي": "علینگار",
    "Region": "Eastern Region"
   },
   "geometry": {
    "x": 7825464.7716365643,
    "y": 4131131.6060324349
   }
  },
  {
   "attributes": {
    "OBJECTID": 49,
    "ولایت": "بغلان",
    "Province": "BAGHLAN",
    "PC_Code": "0905275",
    "District": "BAGLAN-E-JADEED",
    "د_مرکز_نوم__نام_مرکز": "مسجد ملاخال محمد",
    "Polling_Center_Name": "Mulah khal muhammad Mosque",
    "د_مرکز_ځای__موقعیت_مرکز": "لارخوابی",
    "Polling_Center_Location": "Larkhwabi",
    "Map_Accuracy": "Building",
    "Map_Accuracy_Dari": "تعمیر",
    "Status": "Open",
    "Status_Dari": null,
    "PS_Male": 2,
    "PS_Female": 1,
    "PS_Total": 3,
    "ولسوالي": "بغلان جدید",
    "Region": "North Eastern Region"
   },
   "geometry": {
    "x": 7651615.5199753623,
    "y": 4340730.9569783844
   }
  },
  {
   "attributes": {
    "OBJECTID": 50,
    "ولایت": "خوست",
    "Province": "KHOST",
    "PC_Code": "1402177",
    "District": "MANDUZAY",
    "د_مرکز_نوم__نام_مرکز": "جامع جومات",
    "Polling_Center_Name": "Mosque",
    "د_مرکز_ځای__موقعیت_مرکز": "د ديګانو کلى",
    "Polling_Center_Location": "Dikano village",
    "Map_Accuracy": "Building",
    "Map_Accuracy_Dari": "تعمیر",
    "Status": "Open",
    "Status_Dari": null,
    "PS_Male": 2,
    "PS_Female": 1,
    "PS_Total": 3,
    "ولسوالي": "مندوزائی",
    "Region": "South Eastern Region"
   },
   "geometry": {
    "x": 7777267.7581098098,
    "y": 3937339.0200611674
   }
  },
  {
   "attributes": {
    "OBJECTID": 51,
    "ولایت": "بدخشان",
    "Province": "BADAKHSHAN",
    "PC_Code": "1712305",
    "District": "SHUHADA",
    "د_مرکز_نوم__نام_مرکز": "مکتب وکیل عبدالجبار ",
    "Polling_Center_Name": "Wakil abdul jabar School",
    "د_مرکز_ځای__موقعیت_مرکز": "درگاب",
    "Polling_Center_Location": "Dargab",
    "Map_Accuracy": "Building",
    "Map_Accuracy_Dari": "تعمیر",
    "Status": "Open",
    "Status_Dari": null,
    "PS_Male": 2,
    "PS_Female": 1,
    "PS_Total": 3,
    "ولسوالي": "شهدا",
    "Region": "North Eastern Region"
   },
   "geometry": {
    "x": 7923192.2884137584,
    "y": 4447185.0291548204
   }
  },
  {
   "attributes": {
    "OBJECTID": 52,
    "ولایت": "سرپل",
    "Province": "SAR-E-PUL",
    "PC_Code": "2204141",
    "District": "SOZMA QALA",
    "د_مرکز_نوم__نام_مرکز": "مسجد",
    "Polling_Center_Name": "Mosque",
    "د_مرکز_ځای__موقعیت_مرکز": "سفر قشلاق",
    "Polling_Center_Location": "Safar qeshlaq",
    "Map_Accuracy": "Building",
    "Map_Accuracy_Dari": "تعمیر",
    "Status": "Open",
    "Status_Dari": null,
    "PS_Male": 2,
    "PS_Female": 1,
    "PS_Total": 3,
    "ولسوالي": "سوزمه قلعه",
    "Region": "Northern Region"
   },
   "geometry": {
    "x": 7373376.9110831805,
    "y": 4306548.8708553268
   }
  },
  {
   "attributes": {
    "OBJECTID": 53,
    "ولایت": "زابل",
    "Province": "ZABUL",
    "PC_Code": "2602052",
    "District": "TARANK WA JALDAK",
    "د_مرکز_نوم__نام_مرکز": "دحاجی عبدالعزیز پمپ",
    "Polling_Center_Name": "Haji abdul aziz pump station",
    "د_مرکز_ځای__موقعیت_مرکز": "درو",
    "Polling_Center_Location": "Daro",
    "Map_Accuracy": "Village",
    "Map_Accuracy_Dari": "قریه",
    "Status": "Open",
    "Status_Dari": null,
    "PS_Male": 2,
    "PS_Female": 1,
    "PS_Total": 3,
    "ولسوالي": "ترنک و جلدک",
    "Region": "Southern Region"
   },
   "geometry": {
    "x": 7388738.5786891431,
    "y": 3741307.1629152419
   }
  },
  {
   "attributes": {
    "OBJECTID": 54,
    "ولایت": "فارياب",
    "Province": "FARYAB",
    "PC_Code": "2908212",
    "District": "GURZIWAN",
    "د_مرکز_نوم__نام_مرکز": "مکتب ابتدائیه نسوان قلعه تردی",
    "Polling_Center_Name": "Qala tardi female Primary school",
    "د_مرکز_ځای__موقعیت_مرکز": "قلعه توردی",
    "Polling_Center_Location": "Qala tori",
    "Map_Accuracy": "Building",
    "Map_Accuracy_Dari": "تعمیر",
    "Status": "Open",
    "Status_Dari": null,
    "PS_Male": 2,
    "PS_Female": 1,
    "PS_Total": 3,
    "ولسوالي": "گرزیوان",
    "Region": "Northern Region"
   },
   "geometry": {
    "x": 7264810.5357536227,
    "y": 4262639.2718063556
   }
  },
  {
   "attributes": {
    "OBJECTID": 55,
    "ولایت": "کابل",
    "Province": "KABUL",
    "PC_Code": "0101520",
    "District": "Nahia_08",
    "د_مرکز_نوم__نام_مرکز": "مسجد حضور حضرت نبی",
    "Polling_Center_Name": "Hzor hazrat nabi Mosque",
    "د_مرکز_ځای__موقعیت_مرکز": "عقب فابریکه کوکاکولا",
    "Polling_Center_Location": "Behaind of Cokakola Industary",
    "Map_Accuracy": "Building",
    "Map_Accuracy_Dari": "تعمیر",
    "Status": "Open",
    "Status_Dari": null,
    "PS_Male": 2,
    "PS_Female": 1,
    "PS_Total": 3,
    "ولسوالي": "ناحیه_8",
    "Region": "Central Region"
   },
   "geometry": {
    "x": 7708020.6447636588,
    "y": 4097368.2444911846
   }
  },
  {
   "attributes": {
    "OBJECTID": 56,
    "ولایت": "کابل",
    "Province": "KABUL",
    "PC_Code": "0101528",
    "District": "Nahia_15",
    "د_مرکز_نوم__نام_مرکز": "مسجد محمد حنیفه غازی",
    "Polling_Center_Name": "Muhammad hanifa ghazi Mosque",
    "د_مرکز_ځای__موقعیت_مرکز": "ناحیه 15",
    "Polling_Center_Location": "District-15",
    "Map_Accuracy": "Building",
    "Map_Accuracy_Dari": "تعمیر",
    "Status": "Open",
    "Status_Dari": null,
    "PS_Male": 2,
    "PS_Female": 1,
    "PS_Total": 3,
    "ولسوالي": "ناحیه_15",
    "Region": "Central Region"
   },
   "geometry": {
    "x": 7699888.5964403814,
    "y": 4106562.1833006875
   }
  },
  {
   "attributes": {
    "OBJECTID": 57,
    "ولایت": "پروان",
    "Province": "PARWAN",
    "PC_Code": "0305154",
    "District": "JABULUSSARAJ",
    "د_مرکز_نوم__نام_مرکز": "متوسطه عبدالهادی شهید",
    "Polling_Center_Name": "Abdul hadi shaheed Secondary school",
    "د_مرکز_ځای__موقعیت_مرکز": "عزت الله خیل / گلبهار",
    "Polling_Center_Location": "Ezatullah khil_ Gul bahar",
    "Map_Accuracy": "Building",
    "Map_Accuracy_Dari": "تعمیر",
    "Status": "Open",
    "Status_Dari": null,
    "PS_Male": 2,
    "PS_Female": 1,
    "PS_Total": 3,
    "ولسوالي": "جبل السراج",
    "Region": "Central Region"
   },
   "geometry": {
    "x": 7712820.584691463,
    "y": 4183319.0193514805
   }
  },
  {
   "attributes": {
    "OBJECTID": 58,
    "ولایت": "ننگرهار",
    "Province": "NANGARHAR",
    "PC_Code": "0605512",
    "District": "KAMA",
    "د_مرکز_نوم__نام_مرکز": "کلینیک",
    "Polling_Center_Name": "Clinic",
    "د_مرکز_ځای__موقعیت_مرکز": "کوز ده غازی ",
    "Polling_Center_Location": "Koza deh ghazi",
    "Map_Accuracy": "Building",
    "Map_Accuracy_Dari": "تعمیر",
    "Status": "Open",
    "Status_Dari": null,
    "PS_Male": 2,
    "PS_Female": 1,
    "PS_Total": 3,
    "ولسوالي": "کامه",
    "Region": "Eastern Region"
   },
   "geometry": {
    "x": 7855244.5644029984,
    "y": 4084580.2003354589
   }
  },
  {
   "attributes": {
    "OBJECTID": 59,
    "ولایت": "ننگرهار",
    "Province": "NANGARHAR",
    "PC_Code": "0605513",
    "District": "KAMA",
    "د_مرکز_نوم__نام_مرکز": "مولوی ابراهیم کاموی ښوونځی",
    "Polling_Center_Name": "Molawi ebarahim kamawi School",
    "د_مرکز_ځای__موقعیت_مرکز": "درگل سفلی",
    "Polling_Center_Location": "Dar gul sufla",
    "Map_Accuracy": "Building",
    "Map_Accuracy_Dari": "تعمیر",
    "Status": "Open",
    "Status_Dari": null,
    "PS_Male": 2,
    "PS_Female": 1,
    "PS_Total": 3,
    "ولسوالي": "کامه",
    "Region": "Eastern Region"
   },
   "geometry": {
    "x": 7862361.2368152486,
    "y": 4088206.7635405245
   }
  },
  {
   "attributes": {
    "OBJECTID": 60,
    "ولایت": "پنجشیر",
    "Province": "PANJSHIR",
    "PC_Code": "0807108",
    "District": "PARYAN",
    "د_مرکز_نوم__نام_مرکز": "مکتب چونی",
    "Polling_Center_Name": "Chawni School",
    "د_مرکز_ځای__موقعیت_مرکز": "چونی",
    "Polling_Center_Location": "Chaoni",
    "Map_Accuracy": "Village",
    "Map_Accuracy_Dari": "قریه",
    "Status": "Open",
    "Status_Dari": null,
    "PS_Male": 2,
    "PS_Female": 1,
    "PS_Total": 3,
    "ولسوالي": "پریان",
    "Region": "Central Region"
   },
   "geometry": {
    "x": 7779039.6609463077,
    "y": 4251215.3367730454
   }
  },
  {
   "attributes": {
    "OBJECTID": 61,
    "ولایت": "پنجشیر",
    "Province": "PANJSHIR",
    "PC_Code": "0802099",
    "District": "RUKHA",
    "د_مرکز_نوم__نام_مرکز": "مسجد چمال ورده",
    "Polling_Center_Name": "Chamal warda Mosque",
    "د_مرکز_ځای__موقعیت_مرکز": "چمال ورده",
    "Polling_Center_Location": "Chamal warda",
    "Map_Accuracy": "Village",
    "Map_Accuracy_Dari": "قریه",
    "Status": "Open",
    "Status_Dari": null,
    "PS_Male": 2,
    "PS_Female": 1,
    "PS_Total": 3,
    "ولسوالي": "ر\u064Fخه",
    "Region": "Central Region"
   },
   "geometry": {
    "x": 7728296.5184151409,
    "y": 4205157.4899992356
   }
  },
  {
   "attributes": {
    "OBJECTID": 62,
    "ولایت": "بغلان",
    "Province": "BAGHLAN",
    "PC_Code": "0904265",
    "District": "NAHREEN",
    "د_مرکز_نوم__نام_مرکز": "مکتب خواجه گلخار",
    "Polling_Center_Name": "Khwaja gul khar School",
    "د_مرکز_ځای__موقعیت_مرکز": "خواجه گلخوار",
    "Polling_Center_Location": "Khwaja gul khor",
    "Map_Accuracy": "District",
    "Map_Accuracy_Dari": "ولسوالی",
    "Status": "Open",
    "Status_Dari": null,
    "PS_Male": 2,
    "PS_Female": 1,
    "PS_Total": 3,
    "ولسوالي": "نهرین",
    "Region": "North Eastern Region"
   },
   "geometry": {
    "x": 7681426.0811150931,
    "y": 4313002.0717135239
   }
  },
  {
   "attributes": {
    "OBJECTID": 63,
    "ولایت": "باميان",
    "Province": "BAMYAN",
    "PC_Code": "1005178",
    "District": "Yakawlang",
    "د_مرکز_نوم__نام_مرکز": "لیسه نسوان کلیگان",
    "Polling_Center_Name": "Kaligan Femal high school",
    "د_مرکز_ځای__موقعیت_مرکز": "کلیگان",
    "Polling_Center_Location": "Kaligan",
    "Map_Accuracy": "Building",
    "Map_Accuracy_Dari": "تعمیر",
    "Status": "Open",
    "Status_Dari": null,
    "PS_Male": 2,
    "PS_Female": 1,
    "PS_Total": 3,
    "ولسوالي": "یکاولنگ",
    "Region": "Central Highlands Region"
   },
   "geometry": {
    "x": 7398458.8896471774,
    "y": 4154689.2660705987
   }
  },
  {
   "attributes": {
    "OBJECTID": 64,
    "ولایت": "هرات",
    "Province": "HERAT",
    "PC_Code": "3202062",
    "District": "ENJIL",
    "د_مرکز_نوم__نام_مرکز": "مکتب متوسطه سر آسیاب",
    "Polling_Center_Name": "Sar Asiab Scondary School ",
    "د_مرکز_ځای__موقعیت_مرکز": " قریه سر اسیاب ",
    "Polling_Center_Location": "Sar Asiab Village ",
    "Map_Accuracy": "Building",
    "Map_Accuracy_Dari": "تعمیر",
    "Status": "Open",
    "Status_Dari": null,
    "PS_Male": 0,
    "PS_Female": 3,
    "PS_Total": 3,
    "ولسوالي": "انجیل",
    "Region": "Western Region"
   },
   "geometry": {
    "x": 6942310.3561157379,
    "y": 4065283.0121327615
   }
  },
  {
   "attributes": {
    "OBJECTID": 65,
    "ولایت": "تخار",
    "Province": "TAKHAR",
    "PC_Code": "1804059",
    "District": "BANGI",
    "د_مرکز_نوم__نام_مرکز": "مکتب دهانه بنگی",
    "Polling_Center_Name": "Dahana Bangi School",
    "د_مرکز_ځای__موقعیت_مرکز": "سقابه",
    "Polling_Center_Location": "Saqaba",
    "Map_Accuracy": "Building",
    "Map_Accuracy_Dari": "تعمیر",
    "Status": "Open",
    "Status_Dari": null,
    "PS_Male": 5,
    "PS_Female": 2,
    "PS_Total": 7,
    "ولسوالي": "بنگی",
    "Region": "North Eastern Region"
   },
   "geometry": {
    "x": 7709433.4455057094,
    "y": 4399742.0867718784
   }
  },
  {
   "attributes": {
    "OBJECTID": 66,
    "ولایت": "تخار",
    "Province": "TAKHAR",
    "PC_Code": "1804060",
    "District": "BANGI",
    "د_مرکز_نوم__نام_مرکز": "لیسه مولوی عزت الله شهید",
    "Polling_Center_Name": "Mawlawi Ezzatullah Shaheed High School",
    "د_مرکز_ځای__موقعیت_مرکز": "میرزابچه",
    "Polling_Center_Location": "Mirza Bacha",
    "Map_Accuracy": "Building",
    "Map_Accuracy_Dari": "تعمیر",
    "Status": "Open",
    "Status_Dari": null,
    "PS_Male": 3,
    "PS_Female": 2,
    "PS_Total": 5,
    "ولسوالي": "بنگی",
    "Region": "North Eastern Region"
   },
   "geometry": {
    "x": 7721761.1429141508,
    "y": 4373620.477619186
   }
  },
  {
   "attributes": {
    "OBJECTID": 67,
    "ولایت": "تخار",
    "Province": "TAKHAR",
    "PC_Code": "1810119",
    "District": "RUSTAQ",
    "د_مرکز_نوم__نام_مرکز": "لیسه کوکتابه",
    "Polling_Center_Name": "Koktaba High School",
    "د_مرکز_ځای__موقعیت_مرکز": "دشت مرزایی",
    "Polling_Center_Location": "Dasht Mirzayee",
    "Map_Accuracy": "Building",
    "Map_Accuracy_Dari": "تعمیر",
    "Status": "Open",
    "Status_Dari": null,
    "PS_Male": 2,
    "PS_Female": 1,
    "PS_Total": 3,
    "ولسوالي": "رستاق",
    "Region": "North Eastern Region"
   },
   "geometry": {
    "x": 7761293.9791330136,
    "y": 4427477.9801360816
   }
  },
  {
   "attributes": {
    "OBJECTID": 68,
    "ولایت": "تخار",
    "Province": "TAKHAR",
    "PC_Code": "1810120",
    "District": "RUSTAQ",
    "د_مرکز_نوم__نام_مرکز": "مکتب متوسطه گنده",
    "Polling_Center_Name": "Ganda Secondary School",
    "د_مرکز_ځای__موقعیت_مرکز": "گنده",
    "Polling_Center_Location": "Ganda",
    "Map_Accuracy": "Building",
    "Map_Accuracy_Dari": "تعمیر",
    "Status": "Open",
    "Status_Dari": null,
    "PS_Male": 2,
    "PS_Female": 2,
    "PS_Total": 4,
    "ولسوالي": "رستاق",
    "Region": "North Eastern Region"
   },
   "geometry": {
    "x": 7770669.2509878799,
    "y": 4462685.7931220243
   }
  },
  {
   "attributes": {
    "OBJECTID": 69,
    "ولایت": "سمنگان",
    "Province": "SAMANGAN",
    "PC_Code": "2002022",
    "District": "HAZRAT-E-SULTAN",
    "د_مرکز_نوم__نام_مرکز": "مکتب متوسطه دولت آباد",
    "Polling_Center_Name": "Dawlat Abad Secondary School",
    "د_مرکز_ځای__موقعیت_مرکز": "قریه دولت آباد",
    "Polling_Center_Location": "Dawlat Abad Village",
    "Map_Accuracy": "Building",
    "Map_Accuracy_Dari": "تعمیر",
    "Status": "Open",
    "Status_Dari": null,
    "PS_Male": 2,
    "PS_Female": 1,
    "PS_Total": 3,
    "ولسوالي": "حضرت سلطان",
    "Region": "Northern Region"
   },
   "geometry": {
    "x": 7550717.4773812881,
    "y": 4372670.1725833369
   }
  },
  {
   "attributes": {
    "OBJECTID": 70,
    "ولایت": "سمنگان",
    "Province": "SAMANGAN",
    "PC_Code": "2002023",
    "District": "HAZRAT-E-SULTAN",
    "د_مرکز_نوم__نام_مرکز": "تعمیر ولسوالی ",
    "Polling_Center_Name": "District Office",
    "د_مرکز_ځای__موقعیت_مرکز": "مرکز ولسوالی",
    "Polling_Center_Location": "District Compound",
    "Map_Accuracy": "Building",
    "Map_Accuracy_Dari": "تعمیر",
    "Status": "Open",
    "Status_Dari": null,
    "PS_Male": 3,
    "PS_Female": 1,
    "PS_Total": 4,
    "ولسوالي": "حضرت سلطان",
    "Region": "Northern Region"
   },
   "geometry": {
    "x": 7558172.7952617621,
    "y": 4363421.6367647415
   }
  },
  {
   "attributes": {
    "OBJECTID": 71,
    "ولایت": "هرات",
    "Province": "HERAT",
    "PC_Code": "3211456",
    "District": "GHORYAN",
    "د_مرکز_نوم__نام_مرکز": "مسجد سرآسیاب",
    "Polling_Center_Name": "Sar Asia Mosque ",
    "د_مرکز_ځای__موقعیت_مرکز": "مرکز سر آسیاب",
    "Polling_Center_Location": "Markaz-e-Sar Asia ",
    "Map_Accuracy": "Building",
    "Map_Accuracy_Dari": "تعمیر",
    "Status": "Open",
    "Status_Dari": null,
    "PS_Male": 1,
    "PS_Female": 2,
    "PS_Total": 3,
    "ولسوالي": "غوریان ",
    "Region": "Western Region"
   },
   "geometry": {
    "x": 6843778.7062988784,
    "y": 4075181.2873350484
   }
  },
  {
   "attributes": {
    "OBJECTID": 72,
    "ولایت": "هرات",
    "Province": "HERAT",
    "PC_Code": "3212365",
    "District": "OBE",
    "د_مرکز_نوم__نام_مرکز": " لیسه مرکز اوبه ",
    "Polling_Center_Name": "Markaz-e-Oba High School ",
    "د_مرکز_ځای__موقعیت_مرکز": "مرکز اویه  چهار محل",
    "Polling_Center_Location": "Markaz-e-Oba Char Mahal",
    "Map_Accuracy": "Village",
    "Map_Accuracy_Dari": "قریه",
    "Status": "Open",
    "Status_Dari": null,
    "PS_Male": 4,
    "PS_Female": 2,
    "PS_Total": 6,
    "ولسوالي": "اوبه ",
    "Region": "Western Region"
   },
   "geometry": {
    "x": 7032704.536684081,
    "y": 4078572.6059599626
   }
  },
  {
   "attributes": {
    "OBJECTID": 73,
    "ولایت": "باميان",
    "Province": "BAMYAN",
    "PC_Code": "1007186",
    "District": "WARAS",
    "د_مرکز_نوم__نام_مرکز": "مسجد دره غول سیاه",
    "Polling_Center_Name": "Dara ghol sia Mosque",
    "د_مرکز_ځای__موقعیت_مرکز": "دره غول سیا ",
    "Polling_Center_Location": "Dara ghol sia",
    "Map_Accuracy": "Building",
    "Map_Accuracy_Dari": "تعمیر",
    "Status": "Open",
    "Status_Dari": null,
    "PS_Male": 2,
    "PS_Female": 1,
    "PS_Total": 3,
    "ولسوالي": "ورس",
    "Region": "Central Highlands Region"
   },
   "geometry": {
    "x": 7465883.8375143073,
    "y": 4046318.9554904946
   }
  },
  {
   "attributes": {
    "OBJECTID": 74,
    "ولایت": "بدخشان",
    "Province": "BADAKHSHAN",
    "PC_Code": "1702287",
    "District": "ARGO",
    "د_مرکز_نوم__نام_مرکز": "مسجد قلعه ظفر",
    "Polling_Center_Name": "Qala zafar Mosque",
    "د_مرکز_ځای__موقعیت_مرکز": "نوآباد قلعه ظفر",
    "Polling_Center_Location": "Now abad qala zafar",
    "Map_Accuracy": "Building",
    "Map_Accuracy_Dari": "تعمیر",
    "Status": "Open",
    "Status_Dari": null,
    "PS_Male": 2,
    "PS_Female": 1,
    "PS_Total": 3,
    "ولسوالي": "ارگو",
    "Region": "North Eastern Region"
   },
   "geometry": {
    "x": 7804301.6914395792,
    "y": 4440265.2457709927
   }
  },
  {
   "attributes": {
    "OBJECTID": 75,
    "ولایت": "خوست",
    "Province": "KHOST",
    "PC_Code": "1413185",
    "District": "JAJI MAIDAN",
    "د_مرکز_نوم__نام_مرکز": "ساړې پيلې ښونځې",
    "Polling_Center_Name": "Sari pili School",
    "د_مرکز_ځای__موقعیت_مرکز": "ساړه پيله",
    "Polling_Center_Location": "Sara pila",
    "Map_Accuracy": "Building",
    "Map_Accuracy_Dari": "تعمیر",
    "Status": "Open",
    "Status_Dari": null,
    "PS_Male": 2,
    "PS_Female": 1,
    "PS_Total": 3,
    "ولسوالي": "جاجی میدان",
    "Region": "South Eastern Region"
   },
   "geometry": {
    "x": 7802001.4508263646,
    "y": 3973157.9222717672
   }
  },
  {
   "attributes": {
    "OBJECTID": 76,
    "ولایت": "بدخشان",
    "Province": "BADAKHSHAN",
    "PC_Code": "1707295",
    "District": "DARAYIM",
    "د_مرکز_نوم__نام_مرکز": " مسجد جامع قریه چپه",
    "Polling_Center_Name": "Chapa village Mosque",
    "د_مرکز_ځای__موقعیت_مرکز": "چپه",
    "Polling_Center_Location": "Chapa",
    "Map_Accuracy": "Building",
    "Map_Accuracy_Dari": "تعمیر",
    "Status": "Open",
    "Status_Dari": null,
    "PS_Male": 2,
    "PS_Female": 1,
    "PS_Total": 3,
    "ولسوالي": "درایم",
    "Region": "North Eastern Region"
   },
   "geometry": {
    "x": 7830205.1005336437,
    "y": 4434823.1372156665
   }
  },
  {
   "attributes": {
    "OBJECTID": 77,
    "ولایت": "تخار",
    "Province": "TAKHAR",
    "PC_Code": "1810209",
    "District": "RUSTAQ",
    "د_مرکز_نوم__نام_مرکز": "مسجد جامع",
    "Polling_Center_Name": "Mosque",
    "د_مرکز_ځای__موقعیت_مرکز": "دشت امانی",
    "Polling_Center_Location": "Dasht amani",
    "Map_Accuracy": "Building",
    "Map_Accuracy_Dari": "تعمیر",
    "Status": "Open",
    "Status_Dari": null,
    "PS_Male": 2,
    "PS_Female": 1,
    "PS_Total": 3,
    "ولسوالي": "رستاق",
    "Region": "North Eastern Region"
   },
   "geometry": {
    "x": 7806203.2673452739,
    "y": 4445551.1454647491
   }
  },
  {
   "attributes": {
    "OBJECTID": 78,
    "ولایت": "بدخشان",
    "Province": "BADAKHSHAN",
    "PC_Code": "1718313",
    "District": "YAMGAN",
    "د_مرکز_نوم__نام_مرکز": "متوسطه نسوان آوغ",
    "Polling_Center_Name": "Ogh Female Secondary school",
    "د_مرکز_ځای__موقعیت_مرکز": "آورغ",
    "Polling_Center_Location": "Awrugh",
    "Map_Accuracy": "Building",
    "Map_Accuracy_Dari": "تعمیر",
    "Status": "Open",
    "Status_Dari": null,
    "PS_Male": 2,
    "PS_Female": 1,
    "PS_Total": 3,
    "ولسوالي": "یمگان",
    "Region": "North Eastern Region"
   },
   "geometry": {
    "x": 7897926.2073381729,
    "y": 4378799.7001246447
   }
  },
  {
   "attributes": {
    "OBJECTID": 79,
    "ولایت": "کندز",
    "Province": "KUNDUZ",
    "PC_Code": "1907219",
    "District": "QALA-E-ZAL",
    "د_مرکز_نوم__نام_مرکز": "مکتب متوسطه",
    "Polling_Center_Name": "Secondary School",
    "د_مرکز_ځای__موقعیت_مرکز": "شور آرق",
    "Polling_Center_Location": "Shor aruq",
    "Map_Accuracy": "Building",
    "Map_Accuracy_Dari": "تعمیر",
    "Status": "Open",
    "Status_Dari": null,
    "PS_Male": 2,
    "PS_Female": 1,
    "PS_Total": 3,
    "ولسوالي": "قلعه ذال",
    "Region": "North Eastern Region"
   },
   "geometry": {
    "x": 7634244.6641345918,
    "y": 4434002.5077841869
   }
  },
  {
   "attributes": {
    "OBJECTID": 80,
    "ولایت": "دایکندی",
    "Province": "DAYKUNDI",
    "PC_Code": "2405182",
    "District": "KHEDIR",
    "د_مرکز_نوم__نام_مرکز": "مسجد",
    "Polling_Center_Name": "Mosque",
    "د_مرکز_ځای__موقعیت_مرکز": "دهن آبدره ",
    "Polling_Center_Location": "Dahan abdara",
    "Map_Accuracy": "Village",
    "Map_Accuracy_Dari": "قریه",
    "Status": "Open",
    "Status_Dari": null,
    "PS_Male": 2,
    "PS_Female": 1,
    "PS_Total": 3,
    "ولسوالي": "خدیر",
    "Region": "Central Highlands Region"
   },
   "geometry": {
    "x": 7315494.193045089,
    "y": 4020740.8483798956
   }
  },
  {
   "attributes": {
    "OBJECTID": 81,
    "ولایت": "بادغيس",
    "Province": "BADGHIS",
    "PC_Code": "3106198",
    "District": "JAWAND",
    "د_مرکز_نوم__نام_مرکز": "مسجد کفتر خان",
    "Polling_Center_Name": "Kaftar khan Mosque",
    "د_مرکز_ځای__موقعیت_مرکز": "کفتر خان",
    "Polling_Center_Location": "Kaftar khan",
    "Map_Accuracy": "Building",
    "Map_Accuracy_Dari": "تعمیر",
    "Status": "Open",
    "Status_Dari": null,
    "PS_Male": 2,
    "PS_Female": 1,
    "PS_Total": 3,
    "ولسوالي": "جوند",
    "Region": "Western Region"
   },
   "geometry": {
    "x": 7110436.2897048928,
    "y": 4141654.3667135364
   }
  },
  {
   "attributes": {
    "OBJECTID": 82,
    "ولایت": "هلمند",
    "Province": "HELMAND",
    "PC_Code": "3008226",
    "District": "SANGIN QALA",
    "د_مرکز_نوم__نام_مرکز": "نوی مکتب",
    "Polling_Center_Name": "New School",
    "د_مرکز_ځای__موقعیت_مرکز": "نوی مکتب",
    "Polling_Center_Location": "Nawi maktab",
    "Map_Accuracy": "Building",
    "Map_Accuracy_Dari": "تعمیر",
    "Status": "Open",
    "Status_Dari": null,
    "PS_Male": 3,
    "PS_Female": 1,
    "PS_Total": 4,
    "ولسوالي": "سنگین قلعه",
    "Region": "Southern Region"
   },
   "geometry": {
    "x": 7217666.5021958351,
    "y": 3772748.384205346
   }
  },
  {
   "attributes": {
    "OBJECTID": 83,
    "ولایت": "هرات",
    "Province": "HERAT",
    "PC_Code": "3201474",
    "District": "DISTRICT_12",
    "د_مرکز_نوم__نام_مرکز": "مكتب متوسطه سيد قناد",
    "Polling_Center_Name": "Sayed qanad Secondary School",
    "د_مرکز_ځای__موقعیت_مرکز": "مكتب متوسطه سيد قناد",
    "Polling_Center_Location": "Said qunad Secondary school",
    "Map_Accuracy": "Building",
    "Map_Accuracy_Dari": "تعمیر",
    "Status": "Open",
    "Status_Dari": null,
    "PS_Male": 2,
    "PS_Female": 2,
    "PS_Total": 4,
    "ولسوالي": "ناحیه_12",
    "Region": "Western Region"
   },
   "geometry": {
    "x": 6919741.9224506328,
    "y": 4077881.652590137
   }
  },
  {
   "attributes": {
    "OBJECTID": 84,
    "ولایت": "هرات",
    "Province": "HERAT",
    "PC_Code": "3201475",
    "District": "HERAT",
    "د_مرکز_نوم__نام_مرکز": "مولانا جامی",
    "Polling_Center_Name": "Mawlana jame",
    "د_مرکز_ځای__موقعیت_مرکز": "ناحیه 09",
    "Polling_Center_Location": "9th District",
    "Map_Accuracy": "Building",
    "Map_Accuracy_Dari": "تعمیر",
    "Status": "Open",
    "Status_Dari": null,
    "PS_Male": 2,
    "PS_Female": 2,
    "PS_Total": 4,
    "ولسوالي": "هرات",
    "Region": "Western Region"
   },
   "geometry": {
    "x": 6921871.3974064961,
    "y": 4079049.9851764049
   }
  },
  {
   "attributes": {
    "OBJECTID": 85,
    "ولایت": "کابل",
    "Province": "KABUL",
    "PC_Code": "0105474",
    "District": "DEHSABZ",
    "د_مرکز_نوم__نام_مرکز": " مسجد شریف حاجی احمد شاه ",
    "Polling_Center_Name": "Haji Ahmad Shah Mosque",
    "د_مرکز_ځای__موقعیت_مرکز": "قلعه زرین",
    "Polling_Center_Location": "Qala-e-Zarin",
    "Map_Accuracy": "Building",
    "Map_Accuracy_Dari": "تعمیر",
    "Status": "Open",
    "Status_Dari": null,
    "PS_Male": 2,
    "PS_Female": 2,
    "PS_Total": 4,
    "ولسوالي": "ده سبز",
    "Region": "Central Region"
   },
   "geometry": {
    "x": 7710253.4816478398,
    "y": 4110786.727669945
   }
  },
  {
   "attributes": {
    "OBJECTID": 86,
    "ولایت": "کابل",
    "Province": "KABUL",
    "PC_Code": "0106394",
    "District": "SHAKAR DARA",
    "د_مرکز_نوم__نام_مرکز": " ليسه دره شکردره",
    "Polling_Center_Name": "Dara-e-Shakar Dara High School",
    "د_مرکز_ځای__موقعیت_مرکز": "قلعه وزير",
    "Polling_Center_Location": "Qala-e-Wazir",
    "Map_Accuracy": "Building",
    "Map_Accuracy_Dari": "تعمیر",
    "Status": "Open",
    "Status_Dari": null,
    "PS_Male": 4,
    "PS_Female": 3,
    "PS_Total": 7,
    "ولسوالي": "شکردره",
    "Region": "Central Region"
   },
   "geometry": {
    "x": 7684878.6913008811,
    "y": 4121216.8446168355
   }
  },
  {
   "attributes": {
    "OBJECTID": 87,
    "ولایت": "کابل",
    "Province": "KABUL",
    "PC_Code": "0106395",
    "District": "SHAKAR DARA",
    "د_مرکز_نوم__نام_مرکز": " ليسه قلعه مراد بيک",
    "Polling_Center_Name": "Qala-e-Murad Big High School",
    "د_مرکز_ځای__موقعیت_مرکز": "قلعه مراد بيک",
    "Polling_Center_Location": "Qala-e-Murad Big",
    "Map_Accuracy": "Building",
    "Map_Accuracy_Dari": "تعمیر",
    "Status": "Open",
    "Status_Dari": null,
    "PS_Male": 3,
    "PS_Female": 3,
    "PS_Total": 6,
    "ولسوالي": "شکردره",
    "Region": "Central Region"
   },
   "geometry": {
    "x": 7689440.039718789,
    "y": 4118774.9276815685
   }
  },
  {
   "attributes": {
    "OBJECTID": 88,
    "ولایت": "کابل",
    "Province": "KABUL",
    "PC_Code": "0114366",
    "District": "QARA BAGH",
    "د_مرکز_نوم__نام_مرکز": "مکتب متوسطه عبدالرحمان بابا",
    "Polling_Center_Name": "Abdul Rahman Ba Ba Secondary School",
    "د_مرکز_ځای__موقعیت_مرکز": "دینار خیل",
    "Polling_Center_Location": "Denar Khel",
    "Map_Accuracy": "Building",
    "Map_Accuracy_Dari": "تعمیر",
    "Status": "Open",
    "Status_Dari": null,
    "PS_Male": 2,
    "PS_Female": 2,
    "PS_Total": 4,
    "ولسوالي": "قره باغ",
    "Region": "Central Region"
   },
   "geometry": {
    "x": 7701604.4214154743,
    "y": 4145670.849617518
   }
  },
  {
   "attributes": {
    "OBJECTID": 89,
    "ولایت": "کابل",
    "Province": "KABUL",
    "PC_Code": "0114367",
    "District": "QARA BAGH",
    "د_مرکز_نوم__نام_مرکز": "ليسه عبدالوکيل شهيد",
    "Polling_Center_Name": "Abdul Wakil Shaheed High School",
    "د_مرکز_ځای__موقعیت_مرکز": "مرکز ولسوالی ",
    "Polling_Center_Location": "District Capital",
    "Map_Accuracy": "Building",
    "Map_Accuracy_Dari": "تعمیر",
    "Status": "Open",
    "Status_Dari": null,
    "PS_Male": 3,
    "PS_Female": 2,
    "PS_Total": 5,
    "ولسوالي": "قره باغ",
    "Region": "Central Region"
   },
   "geometry": {
    "x": 7698545.3005827535,
    "y": 4142695.6560305953
   }
  },
  {
   "attributes": {
    "OBJECTID": 90,
    "ولایت": "کابل",
    "Province": "KABUL",
    "PC_Code": "0115479",
    "District": "SURUBI",
    "د_مرکز_نوم__نام_مرکز": "مسجد یاردل اوریاخیل",
    "Polling_Center_Name": "Yar Del Orya Khel Mosque",
    "د_مرکز_ځای__موقعیت_مرکز": "لوي کلي",
    "Polling_Center_Location": "Loy Kalai",
    "Map_Accuracy": "Building",
    "Map_Accuracy_Dari": "تعمیر",
    "Status": "Open",
    "Status_Dari": null,
    "PS_Male": 2,
    "PS_Female": 1,
    "PS_Total": 3,
    "ولسوالي": "سروبی",
    "Region": "Central Region"
   },
   "geometry": {
    "x": 7761183.8496475816,
    "y": 4105420.8808202194
   }
  },
  {
   "attributes": {
    "OBJECTID": 91,
    "ولایت": "کابل",
    "Province": "KABUL",
    "PC_Code": "0115480",
    "District": "SURUBI",
    "د_مرکز_نوم__نام_مرکز": "مکتب ابتدائيه تيزين خاص",
    "Polling_Center_Name": "Tezen-e-Khas Primary School",
    "د_مرکز_ځای__موقعیت_مرکز": "لوي کلي",
    "Polling_Center_Location": "Loy Kalai",
    "Map_Accuracy": "Building",
    "Map_Accuracy_Dari": "تعمیر",
    "Status": "Open",
    "Status_Dari": null,
    "PS_Male": 2,
    "PS_Female": 1,
    "PS_Total": 3,
    "ولسوالي": "سروبی",
    "Region": "Central Region"
   },
   "geometry": {
    "x": 7745589.1333518038,
    "y": 4077897.1761633363
   }
  },
  {
   "attributes": {
    "OBJECTID": 92,
    "ولایت": "کابل",
    "Province": "KABUL",
    "PC_Code": "0115517",
    "District": "SURUBI",
    "د_مرکز_نوم__نام_مرکز": " مکتب گوگا مندا",
    "Polling_Center_Name": "Guga Manda School",
    "د_مرکز_ځای__موقعیت_مرکز": "گوگا مندا",
    "Polling_Center_Location": "Guga Manda",
    "Map_Accuracy": "Building",
    "Map_Accuracy_Dari": "تعمیر",
    "Status": "Open",
    "Status_Dari": null,
    "PS_Male": 1,
    "PS_Female": 1,
    "PS_Total": 2,
    "ولسوالي": "سروبی",
    "Region": "Central Region"
   },
   "geometry": {
    "x": 7747367.0815045713,
    "y": 4106648.2886813525
   }
  },
  {
   "attributes": {
    "OBJECTID": 93,
    "ولایت": "کابل",
    "Province": "KABUL",
    "PC_Code": "0115518",
    "District": "SURUBI",
    "د_مرکز_نوم__نام_مرکز": " مکتب سپیر کوندی",
    "Polling_Center_Name": "Sperkundi School",
    "د_مرکز_ځای__موقعیت_مرکز": "سپیر کوندی",
    "Polling_Center_Location": "Sper Kundi",
    "Map_Accuracy": "Building",
    "Map_Accuracy_Dari": "تعمیر",
    "Status": "Open",
    "Status_Dari": null,
    "PS_Male": 1,
    "PS_Female": 1,
    "PS_Total": 2,
    "ولسوالي": "سروبی",
    "Region": "Central Region"
   },
   "geometry": {
    "x": 7774135.1009573033,
    "y": 4118095.5857684482
   }
  },
  {
   "attributes": {
    "OBJECTID": 94,
    "ولایت": "ننگرهار",
    "Province": "NANGARHAR",
    "PC_Code": "0603084",
    "District": "SURKH RUD",
    "د_مرکز_نوم__نام_مرکز": " کلینيک بختان",
    "Polling_Center_Name": "Bakhtaan Clinic",
    "د_مرکز_ځای__موقعیت_مرکز": "دوسرکه",
    "Polling_Center_Location": "Du Saraka",
    "Map_Accuracy": "Village",
    "Map_Accuracy_Dari": "قریه",
    "Status": "Open",
    "Status_Dari": null,
    "PS_Male": 0,
    "PS_Female": 2,
    "PS_Total": 2,
    "ولسوالي": "سرخرود",
    "Region": "Eastern Region"
   },
   "geometry": {
    "x": 7837221.3892592378,
    "y": 4087037.3981582797
   }
  },
  {
   "attributes": {
    "OBJECTID": 95,
    "ولایت": "ننگرهار",
    "Province": "NANGARHAR",
    "PC_Code": "0603085",
    "District": "SURKH RUD",
    "د_مرکز_نوم__نام_مرکز": "فتح آباد کلینيک",
    "Polling_Center_Name": "Fateh Abad Clinic",
    "د_مرکز_ځای__موقعیت_مرکز": "فتح آباد",
    "Polling_Center_Location": "Fateh Abad",
    "Map_Accuracy": "Building",
    "Map_Accuracy_Dari": "تعمیر",
    "Status": "Open",
    "Status_Dari": null,
    "PS_Male": 3,
    "PS_Female": 0,
    "PS_Total": 3,
    "ولسوالي": "سرخرود",
    "Region": "Eastern Region"
   },
   "geometry": {
    "x": 7817199.138365861,
    "y": 4076782.2076266687
   }
  },
  {
   "attributes": {
    "OBJECTID": 96,
    "ولایت": "باميان",
    "Province": "BAMYAN",
    "PC_Code": "1007150",
    "District": "WARAS",
    "د_مرکز_نوم__نام_مرکز": "مسجد تخته ها",
    "Polling_Center_Name": "Takhta ha Mosque",
    "د_مرکز_ځای__موقعیت_مرکز": "تخته ها",
    "Polling_Center_Location": "Takhta ha",
    "Map_Accuracy": "Building",
    "Map_Accuracy_Dari": "تعمیر",
    "Status": "Open",
    "Status_Dari": null,
    "PS_Male": 1,
    "PS_Female": 1,
    "PS_Total": 2,
    "ولسوالي": "ورس",
    "Region": "Central Highlands Region"
   },
   "geometry": {
    "x": 7450151.9158273097,
    "y": 4039692.6213599867
   }
  },
  {
   "attributes": {
    "OBJECTID": 97,
    "ولایت": "باميان",
    "Province": "BAMYAN",
    "PC_Code": "1007151",
    "District": "WARAS",
    "د_مرکز_نوم__نام_مرکز": "مسجد واز درغان",
    "Polling_Center_Name": "Waaz Darghan Mosque",
    "د_مرکز_ځای__موقعیت_مرکز": "واز درغان",
    "Polling_Center_Location": "Waaz Darghan",
    "Map_Accuracy": "Building",
    "Map_Accuracy_Dari": "تعمیر",
    "Status": "Open",
    "Status_Dari": null,
    "PS_Male": 1,
    "PS_Female": 1,
    "PS_Total": 2,
    "ولسوالي": "ورس",
    "Region": "Central Highlands Region"
   },
   "geometry": {
    "x": 7455245.5662203189,
    "y": 4033055.7577010202
   }
  },
  {
   "attributes": {
    "OBJECTID": 98,
    "ولایت": "باميان",
    "Province": "BAMYAN",
    "PC_Code": "1007159",
    "District": "WARAS",
    "د_مرکز_نوم__نام_مرکز": "مسجد توپ اسمعیل",
    "Polling_Center_Name": "Toop-e-Ismael Mosque",
    "د_مرکز_ځای__موقعیت_مرکز": "نس پتان",
    "Polling_Center_Location": "Nas Patan",
    "Map_Accuracy": "Building",
    "Map_Accuracy_Dari": "تعمیر",
    "Status": "Open",
    "Status_Dari": null,
    "PS_Male": 2,
    "PS_Female": 1,
    "PS_Total": 3,
    "ولسوالي": "ورس",
    "Region": "Central Highlands Region"
   },
   "geometry": {
    "x": 7454865.2754626749,
    "y": 4044644.8831623094
   }
  },
  {
   "attributes": {
    "OBJECTID": 99,
    "ولایت": "پکتيکا",
    "Province": "PAKTIKA",
    "PC_Code": "1205081",
    "District": "SAR RAWZA",
    "د_مرکز_نوم__نام_مرکز": "ستر جومات",
    "Polling_Center_Name": "Big Mosque",
    "د_مرکز_ځای__موقعیت_مرکز": "شاه طوری",
    "Polling_Center_Location": "Shah Tori",
    "Map_Accuracy": "Village",
    "Map_Accuracy_Dari": "قریه",
    "Status": "Open",
    "Status_Dari": null,
    "PS_Male": 2,
    "PS_Female": 0,
    "PS_Total": 2,
    "ولسوالي": "سروضه ",
    "Region": "South Eastern Region"
   },
   "geometry": {
    "x": 7689256.967023815,
    "y": 3891446.6926493817
   }
  },
  {
   "attributes": {
    "OBJECTID": 100,
    "ولایت": "پکتيکا",
    "Province": "PAKTIKA",
    "PC_Code": "1205082",
    "District": "SAR RAWZA",
    "د_مرکز_نوم__نام_مرکز": "محمد حیات میلمستون",
    "Polling_Center_Name": "Mohammad Hayat Guest House",
    "د_مرکز_ځای__موقعیت_مرکز": "شاه طوری",
    "Polling_Center_Location": "Shah Tori",
    "Map_Accuracy": "Village",
    "Map_Accuracy_Dari": "قریه",
    "Status": "Open",
    "Status_Dari": null,
    "PS_Male": 0,
    "PS_Female": 2,
    "PS_Total": 2,
    "ولسوالي": "سروضه ",
    "Region": "South Eastern Region"
   },
   "geometry": {
    "x": 7689367.8367838599,
    "y": 3891506.8449707804
   }
  },
  {
   "attributes": {
    "OBJECTID": 101,
    "ولایت": "ننگرهار",
    "Province": "NANGARHAR",
    "PC_Code": "0614495",
    "District": "GOSHTA",
    "د_مرکز_نوم__نام_مرکز": "دورخيل ميدان",
    "Polling_Center_Name": "Dor Khel Maidan",
    "د_مرکز_ځای__موقعیت_مرکز": "دورخيل",
    "Polling_Center_Location": "Dor Khel",
    "Map_Accuracy": "Village",
    "Map_Accuracy_Dari": "قریه",
    "Status": "Open",
    "Status_Dari": null,
    "PS_Male": 2,
    "PS_Female": 0,
    "PS_Total": 2,
    "ولسوالي": "ګوشته",
    "Region": "Eastern Region"
   },
   "geometry": {
    "x": 7881692.3469577432,
    "y": 4076058.6702178717
   }
  },
  {
   "attributes": {
    "OBJECTID": 102,
    "ولایت": "ننگرهار",
    "Province": "NANGARHAR",
    "PC_Code": "0615355",
    "District": "ACHIN",
    "د_مرکز_نوم__نام_مرکز": "کوشتال منځ کلی جومات",
    "Polling_Center_Name": "Koshtal Mainz Village Mosque",
    "د_مرکز_ځای__موقعیت_مرکز": "کوشتال",
    "Polling_Center_Location": "Koshtal",
    "Map_Accuracy": "Village",
    "Map_Accuracy_Dari": "قریه",
    "Status": "Open",
    "Status_Dari": null,
    "PS_Male": 3,
    "PS_Female": 0,
    "PS_Total": 3,
    "ولسوالي": "اچین",
    "Region": "Eastern Region"
   },
   "geometry": {
    "x": 7869637.2061943207,
    "y": 4041806.6697445577
   }
  },
  {
   "attributes": {
    "OBJECTID": 103,
    "ولایت": "ننگرهار",
    "Province": "NANGARHAR",
    "PC_Code": "0615362",
    "District": "ACHIN",
    "د_مرکز_نوم__نام_مرکز": "د پیروخیلو لوي تپه جامع جومات",
    "Polling_Center_Name": "Perokhelo Tapa Mosque",
    "د_مرکز_ځای__موقعیت_مرکز": "زوړ ده سرک",
    "Polling_Center_Location": "Zordeh Road",
    "Map_Accuracy": "Village",
    "Map_Accuracy_Dari": "قریه",
    "Status": "Open",
    "Status_Dari": null,
    "PS_Male": 3,
    "PS_Female": 1,
    "PS_Total": 4,
    "ولسوالي": "اچین",
    "Region": "Eastern Region"
   },
   "geometry": {
    "x": 7876848.947232822,
    "y": 4044540.7249602401
   }
  },
  {
   "attributes": {
    "OBJECTID": 104,
    "ولایت": "ننگرهار",
    "Province": "NANGARHAR",
    "PC_Code": "0615363",
    "District": "ACHIN",
    "د_مرکز_نوم__نام_مرکز": "ده سرک کهنه لیسه",
    "Polling_Center_Name": "Deh Sarak Kuhna High School",
    "د_مرکز_ځای__موقعیت_مرکز": "شیخ مل خیل",
    "Polling_Center_Location": "Shekh Mal Khel ",
    "Map_Accuracy": "Village",
    "Map_Accuracy_Dari": "قریه",
    "Status": "Open",
    "Status_Dari": null,
    "PS_Male": 1,
    "PS_Female": 1,
    "PS_Total": 2,
    "ولسوالي": "اچین",
    "Region": "Eastern Region"
   },
   "geometry": {
    "x": 7874226.1208803691,
    "y": 4046469.3574448819
   }
  },
  {
   "attributes": {
    "OBJECTID": 105,
    "ولایت": "ننگرهار",
    "Province": "NANGARHAR",
    "PC_Code": "0617462",
    "District": "MUHMAND DARA",
    "د_مرکز_نوم__نام_مرکز": "دامان کلی سپین جومات",
    "Polling_Center_Name": "Amaan Village Speen Mosque",
    "د_مرکز_ځای__موقعیت_مرکز": "دامان کلی ",
    "Polling_Center_Location": "Damaan Village",
    "Map_Accuracy": "Village",
    "Map_Accuracy_Dari": "قریه",
    "Status": "Open",
    "Status_Dari": null,
    "PS_Male": 3,
    "PS_Female": 1,
    "PS_Total": 4,
    "ولسوالي": "مهمند دره",
    "Region": "Eastern Region"
   },
   "geometry": {
    "x": 7891534.7320938995,
    "y": 4058618.9549378525
   }
  },
  {
   "attributes": {
    "OBJECTID": 106,
    "ولایت": "کابل",
    "Province": "KABUL",
    "PC_Code": "0101123",
    "District": "KABUL-D06",
    "د_مرکز_نوم__نام_مرکز": " مدرسه رسالت",
    "Polling_Center_Name": "Resalat Madrassa",
    "د_مرکز_ځای__موقعیت_مرکز": "قلعه وزير",
    "Polling_Center_Location": "Qala-e-Wazir",
    "Map_Accuracy": "Building",
    "Map_Accuracy_Dari": "تعمیر",
    "Status": "Open",
    "Status_Dari": null,
    "PS_Male": 3,
    "PS_Female": 3,
    "PS_Total": 6,
    "ولسوالي": "کابل - ناحیه 06",
    "Region": "Central Region"
   },
   "geometry": {
    "x": 7695732.4184636734,
    "y": 4096056.239296257
   }
  },
  {
   "attributes": {
    "OBJECTID": 107,
    "ولایت": "کابل",
    "Province": "KABUL",
    "PC_Code": "0101124",
    "District": "KABUL-D06",
    "د_مرکز_نوم__نام_مرکز": " مسجد سفيد",
    "Polling_Center_Name": "Safid Mosque",
    "د_مرکز_ځای__موقعیت_مرکز": "قلعه وزير",
    "Polling_Center_Location": "Qala-e-Wazir",
    "Map_Accuracy": "Building",
    "Map_Accuracy_Dari": "تعمیر",
    "Status": "Open",
    "Status_Dari": null,
    "PS_Male": 4,
    "PS_Female": 3,
    "PS_Total": 7,
    "ولسوالي": "کابل - ناحیه 06",
    "Region": "Central Region"
   },
   "geometry": {
    "x": 7694805.8050410645,
    "y": 4095138.1936273482
   }
  },
  {
   "attributes": {
    "OBJECTID": 108,
    "ولایت": "کابل",
    "Province": "KABUL",
    "PC_Code": "0101130",
    "District": "KABUL-D07",
    "د_مرکز_نوم__نام_مرکز": " ليسه نسوان سلطان راضيه",
    "Polling_Center_Name": "Sultan Razia Girls High School",
    "د_مرکز_ځای__موقعیت_مرکز": "باغ رييس",
    "Polling_Center_Location": "Bagh-e-Raees",
    "Map_Accuracy": "Building",
    "Map_Accuracy_Dari": "تعمیر",
    "Status": "Open",
    "Status_Dari": null,
    "PS_Male": 3,
    "PS_Female": 7,
    "PS_Total": 10,
    "ولسوالي": "کابل - ناحیه 07",
    "Region": "Central Region"
   },
   "geometry": {
    "x": 7698537.4603510192,
    "y": 4094868.5433693402
   }
  },
  {
   "attributes": {
    "OBJECTID": 109,
    "ولایت": "کابل",
    "Province": "KABUL",
    "PC_Code": "0101131",
    "District": "KABUL-D07",
    "د_مرکز_نوم__نام_مرکز": "ليسه فاميلي هاي ريش خور",
    "Polling_Center_Name": "Family Haie Reshkhur High School",
    "د_مرکز_ځای__موقعیت_مرکز": "فاميلي هاي ريش خور",
    "Polling_Center_Location": "Family Haie Reshkhur ",
    "Map_Accuracy": "Building",
    "Map_Accuracy_Dari": "تعمیر",
    "Status": "Open",
    "Status_Dari": null,
    "PS_Male": 3,
    "PS_Female": 3,
    "PS_Total": 6,
    "ولسوالي": "کابل - ناحیه 07",
    "Region": "Central Region"
   },
   "geometry": {
    "x": 7696219.4980088333,
    "y": 4086927.3549099006
   }
  },
  {
   "attributes": {
    "OBJECTID": 110,
    "ولایت": "کابل",
    "Province": "KABUL",
    "PC_Code": "0101157",
    "District": "KABUL-D08",
    "د_مرکز_نوم__نام_مرکز": " مسجد محمدیه سیدنورمحمد شاه ",
    "Polling_Center_Name": "Sayed Noor Mohammad Shah Mohammadia Mosque",
    "د_مرکز_ځای__موقعیت_مرکز": "کارته نو",
    "Polling_Center_Location": "Kart-e-Naw",
    "Map_Accuracy": "Building",
    "Map_Accuracy_Dari": "تعمیر",
    "Status": "Open",
    "Status_Dari": null,
    "PS_Male": 3,
    "PS_Female": 1,
    "PS_Total": 4,
    "ولسوالي": "کابل - ناحیه 08",
    "Region": "Central Region"
   },
   "geometry": {
    "x": 7706871.0099770175,
    "y": 4097506.307860327
   }
  },
  {
   "attributes": {
    "OBJECTID": 111,
    "ولایت": "کابل",
    "Province": "KABUL",
    "PC_Code": "0101158",
    "District": "KABUL-D08",
    "د_مرکز_نوم__نام_مرکز": " مسجد احمدي",
    "Polling_Center_Name": "Ahmadi Mosque",
    "د_مرکز_ځای__موقعیت_مرکز": "کارته نو",
    "Polling_Center_Location": "Kart-e-Naw",
    "Map_Accuracy": "Building",
    "Map_Accuracy_Dari": "تعمیر",
    "Status": "Open",
    "Status_Dari": null,
    "PS_Male": 3,
    "PS_Female": 2,
    "PS_Total": 5,
    "ولسوالي": "کابل - ناحیه 08",
    "Region": "Central Region"
   },
   "geometry": {
    "x": 7707164.6318319077,
    "y": 4096936.0738614067
   }
  },
  {
   "attributes": {
    "OBJECTID": 112,
    "ولایت": "کابل",
    "Province": "KABUL",
    "PC_Code": "0101182",
    "District": "KABUL-D09",
    "د_مرکز_نوم__نام_مرکز": " ليسه الفتح",
    "Polling_Center_Name": "Alfath High School",
    "د_مرکز_ځای__موقعیت_مرکز": "مکروريان سوم",
    "Polling_Center_Location": "3rd Makrorian",
    "Map_Accuracy": "Building",
    "Map_Accuracy_Dari": "تعمیر",
    "Status": "Open",
    "Status_Dari": null,
    "PS_Male": 3,
    "PS_Female": 3,
    "PS_Total": 6,
    "ولسوالي": "کابل - ناحیه 09",
    "Region": "Central Region"
   },
   "geometry": {
    "x": 7703463.6405888833,
    "y": 4101255.0040229135
   }
  },
  {
   "attributes": {
    "OBJECTID": 113,
    "ولایت": "کابل",
    "Province": "KABUL",
    "PC_Code": "0101183",
    "District": "KABUL-D09",
    "د_مرکز_نوم__نام_مرکز": " ليسه ابوالقاسم فردوسي",
    "Polling_Center_Name": "Abul Qasim Ferdawsi High School",
    "د_مرکز_ځای__موقعیت_مرکز": "مکروريان سوم",
    "Polling_Center_Location": "3rd Makrorian",
    "Map_Accuracy": "Building",
    "Map_Accuracy_Dari": "تعمیر",
    "Status": "Open",
    "Status_Dari": null,
    "PS_Male": 3,
    "PS_Female": 2,
    "PS_Total": 5,
    "ولسوالي": "کابل - ناحیه 09",
    "Region": "Central Region"
   },
   "geometry": {
    "x": 7703423.2238213625,
    "y": 4101754.9092354453
   }
  },
  {
   "attributes": {
    "OBJECTID": 114,
    "ولایت": "کابل",
    "Province": "KABUL",
    "PC_Code": "0101198",
    "District": "KABUL-D10",
    "د_مرکز_نوم__نام_مرکز": " مسجد محمديه",
    "Polling_Center_Name": "Mohammadia Mosque",
    "د_مرکز_ځای__موقعیت_مرکز": "چهار قلعه",
    "Polling_Center_Location": "Chahar Qala",
    "Map_Accuracy": "Building",
    "Map_Accuracy_Dari": "تعمیر",
    "Status": "Open",
    "Status_Dari": null,
    "PS_Male": 2,
    "PS_Female": 2,
    "PS_Total": 4,
    "ولسوالي": "کابل - ناحیه 10",
    "Region": "Central Region"
   },
   "geometry": {
    "x": 7700566.6265382459,
    "y": 4104297.3212530692
   }
  },
  {
   "attributes": {
    "OBJECTID": 115,
    "ولایت": "کابل",
    "Province": "KABUL",
    "PC_Code": "0101199",
    "District": "KABUL-D10",
    "د_مرکز_نوم__نام_مرکز": "مسجد بي بي رقیه",
    "Polling_Center_Name": "Bibi Ruqia Mosque",
    "د_مرکز_ځای__موقعیت_مرکز": "چهار قلعه",
    "Polling_Center_Location": "Chahar Qala",
    "Map_Accuracy": "Building",
    "Map_Accuracy_Dari": "تعمیر",
    "Status": "Open",
    "Status_Dari": null,
    "PS_Male": 2,
    "PS_Female": 2,
    "PS_Total": 4,
    "ولسوالي": "کابل - ناحیه 10",
    "Region": "Central Region"
   },
   "geometry": {
    "x": 7699955.6072116159,
    "y": 4104364.6366330185
   }
  },
  {
   "attributes": {
    "OBJECTID": 116,
    "ولایت": "کابل",
    "Province": "KABUL",
    "PC_Code": "0101213",
    "District": "KABUL-D10",
    "د_مرکز_نوم__نام_مرکز": " مسجد فاطميه",
    "Polling_Center_Name": "Fatimia Mosque",
    "د_مرکز_ځای__موقعیت_مرکز": "قلعه فتح الله",
    "Polling_Center_Location": "Qala-e-Fathullah",
    "Map_Accuracy": "Building",
    "Map_Accuracy_Dari": "تعمیر",
    "Status": "Open",
    "Status_Dari": null,
    "PS_Male": 2,
    "PS_Female": 2,
    "PS_Total": 4,
    "ولسوالي": "کابل - ناحیه 10",
    "Region": "Central Region"
   },
   "geometry": {
    "x": 7700137.5232970808,
    "y": 4102346.2249298901
   }
  },
  {
   "attributes": {
    "OBJECTID": 117,
    "ولایت": "کابل",
    "Province": "KABUL",
    "PC_Code": "0101214",
    "District": "KABUL-D10",
    "د_مرکز_نوم__نام_مرکز": "مسجد سرک چهار",
    "Polling_Center_Name": "Sarak-e-Chahar Mosque",
    "د_مرکز_ځای__موقعیت_مرکز": "قلعه فتح الله",
    "Polling_Center_Location": "Qala-e-Fathullah",
    "Map_Accuracy": "Building",
    "Map_Accuracy_Dari": "تعمیر",
    "Status": "Open",
    "Status_Dari": null,
    "PS_Male": 1,
    "PS_Female": 1,
    "PS_Total": 2,
    "ولسوالي": "کابل - ناحیه 10",
    "Region": "Central Region"
   },
   "geometry": {
    "x": 7699516.4518204378,
    "y": 4102313.0185490148
   }
  },
  {
   "attributes": {
    "OBJECTID": 118,
    "ولایت": "کابل",
    "Province": "KABUL",
    "PC_Code": "0101218",
    "District": "KABUL-D10",
    "د_مرکز_نوم__نام_مرکز": "مسجد حاجي قاسم",
    "Polling_Center_Name": "Haji Qasim Mosque",
    "د_مرکز_ځای__موقعیت_مرکز": "سرک بي بي مهرو",
    "Polling_Center_Location": "Sarak-e-Bi Bi Mahro",
    "Map_Accuracy": "Building",
    "Map_Accuracy_Dari": "تعمیر",
    "Status": "Open",
    "Status_Dari": null,
    "PS_Male": 2,
    "PS_Female": 1,
    "PS_Total": 3,
    "ولسوالي": "کابل - ناحیه 10",
    "Region": "Central Region"
   },
   "geometry": {
    "x": 7703069.5306296553,
    "y": 4102105.6640143408
   }
  },
  {
   "attributes": {
    "OBJECTID": 119,
    "ولایت": "کابل",
    "Province": "KABUL",
    "PC_Code": "0101219",
    "District": "KABUL-D10",
    "د_مرکز_نوم__نام_مرکز": " ليسه نسوان بي بي مهرو",
    "Polling_Center_Name": "Bibi Mahru Girls High School",
    "د_مرکز_ځای__موقعیت_مرکز": "سرک ميدان هوايي",
    "Polling_Center_Location": "Airport Road",
    "Map_Accuracy": "Building",
    "Map_Accuracy_Dari": "تعمیر",
    "Status": "Open",
    "Status_Dari": null,
    "PS_Male": 2,
    "PS_Female": 4,
    "PS_Total": 6,
    "ولسوالي": "کابل - ناحیه 10",
    "Region": "Central Region"
   },
   "geometry": {
    "x": 7703310.8801912544,
    "y": 4102429.0439900854
   }
  },
  {
   "attributes": {
    "OBJECTID": 120,
    "ولایت": "پکتيکا",
    "Province": "PAKTIKA",
    "PC_Code": "1208126",
    "District": "GOMAL",
    "د_مرکز_نوم__نام_مرکز": "مولوی سراج الدین مدرسه ",
    "Polling_Center_Name": "Mawlavi Serajuddin Madressa",
    "د_مرکز_ځای__موقعیت_مرکز": "پایندی کلی ",
    "Polling_Center_Location": "Payandi Village",
    "Map_Accuracy": "Building",
    "Map_Accuracy_Dari": "تعمیر",
    "Status": "Open",
    "Status_Dari": null,
    "PS_Male": 3,
    "PS_Female": 1,
    "PS_Total": 4,
    "ولسوالي": "گومل",
    "Region": "South Eastern Region"
   },
   "geometry": {
    "x": 7681784.2632652642,
    "y": 3787571.7174797566
   }
  },
  {
   "attributes": {
    "OBJECTID": 121,
    "ولایت": "پکتيکا",
    "Province": "PAKTIKA",
    "PC_Code": "1208127",
    "District": "GOMAL",
    "د_مرکز_نوم__نام_مرکز": "بازار جومات شکین ",
    "Polling_Center_Name": "Shekin Bazaar Mosque",
    "د_مرکز_ځای__موقعیت_مرکز": "شکین ",
    "Polling_Center_Location": "Shekin",
    "Map_Accuracy": "Village",
    "Map_Accuracy_Dari": "قریه",
    "Status": "Open",
    "Status_Dari": null,
    "PS_Male": 3,
    "PS_Female": 0,
    "PS_Total": 3,
    "ولسوالي": "گومل",
    "Region": "South Eastern Region"
   },
   "geometry": {
    "x": 7664539.3423851933,
    "y": 3822167.8275823677
   }
  },
  {
   "attributes": {
    "OBJECTID": 122,
    "ولایت": "پکتيا",
    "Province": "PAKTYA",
    "PC_Code": "1308207",
    "District": "LAJA AHMAD KHEL",
    "د_مرکز_نوم__نام_مرکز": "دموتي مكتب",
    "Polling_Center_Name": "Moti School",
    "د_مرکز_ځای__موقعیت_مرکز": "موتی کلی، سکندرخیل، احمدخیل",
    "Polling_Center_Location": "Moti Village, Sakander Khel",
    "Map_Accuracy": "Village",
    "Map_Accuracy_Dari": "قریه",
    "Status": "Open",
    "Status_Dari": null,
    "PS_Male": 1,
    "PS_Female": 1,
    "PS_Total": 2,
    "ولسوالي": " لجه احمد خیل",
    "Region": "South Eastern Region"
   },
   "geometry": {
    "x": 7756482.6060255934,
    "y": 4013475.3210636172
   }
  },
  {
   "attributes": {
    "OBJECTID": 123,
    "ولایت": "پکتيا",
    "Province": "PAKTYA",
    "PC_Code": "1309170",
    "District": "JANI KHEL",
    "د_مرکز_نوم__نام_مرکز": "مسجد کوټکی",
    "Polling_Center_Name": "Kotkai Mosque",
    "د_مرکز_ځای__موقعیت_مرکز": "کوټکی، سترکلی",
    "Polling_Center_Location": "Kotkai, Setar Kalai",
    "Map_Accuracy": "Village",
    "Map_Accuracy_Dari": "قریه",
    "Status": "Open",
    "Status_Dari": null,
    "PS_Male": 3,
    "PS_Female": 0,
    "PS_Total": 3,
    "ولسوالي": "جانی خیل",
    "Region": "South Eastern Region"
   },
   "geometry": {
    "x": 7768410.8167433944,
    "y": 3984130.2409280757
   }
  },
  {
   "attributes": {
    "OBJECTID": 124,
    "ولایت": "خوست",
    "Province": "KHOST",
    "PC_Code": "1401003",
    "District": "KHOST",
    "د_مرکز_نوم__نام_مرکز": "د عمر کلي درمند",
    "Polling_Center_Name": "Omer Village Dermand",
    "د_مرکز_ځای__موقعیت_مرکز": "د عمر کلي ",
    "Polling_Center_Location": "Omar Village",
    "Map_Accuracy": "Village",
    "Map_Accuracy_Dari": "قریه",
    "Status": "Open",
    "Status_Dari": null,
    "PS_Male": 4,
    "PS_Female": 1,
    "PS_Total": 5,
    "ولسوالي": "خوست",
    "Region": "South Eastern Region"
   },
   "geometry": {
    "x": 7785996.2906624777,
    "y": 3938675.363325506
   }
  },
  {
   "attributes": {
    "OBJECTID": 125,
    "ولایت": "خوست",
    "Province": "KHOST",
    "PC_Code": "1401004",
    "District": "KHOST",
    "د_مرکز_نوم__نام_مرکز": "د محمد والي شاه هجره ",
    "Polling_Center_Name": "Mohammad Vally Shah Hojra",
    "د_مرکز_ځای__موقعیت_مرکز": "شمل عمر کلى",
    "Polling_Center_Location": "Shamal Omar Village",
    "Map_Accuracy": "Village",
    "Map_Accuracy_Dari": "قریه",
    "Status": "Open",
    "Status_Dari": null,
    "PS_Male": 2,
    "PS_Female": 2,
    "PS_Total": 4,
    "ولسوالي": "خوست",
    "Region": "South Eastern Region"
   },
   "geometry": {
    "x": 7786140.6787212072,
    "y": 3938875.2802197607
   }
  },
  {
   "attributes": {
    "OBJECTID": 126,
    "ولایت": "کندز",
    "Province": "KUNDUZ",
    "PC_Code": "1902115",
    "District": "CHAR DARA",
    "د_مرکز_نوم__نام_مرکز": "مسجد سالارزی",
    "Polling_Center_Name": "Salarzai Mosque",
    "د_مرکز_ځای__موقعیت_مرکز": "ناقل سالارزی",
    "Polling_Center_Location": "Naqil Salarzai",
    "Map_Accuracy": "Building",
    "Map_Accuracy_Dari": "تعمیر",
    "Status": "Open",
    "Status_Dari": null,
    "PS_Male": 2,
    "PS_Female": 1,
    "PS_Total": 3,
    "ولسوالي": "چاردره",
    "Region": "North Eastern Region"
   },
   "geometry": {
    "x": 7664344.6795501169,
    "y": 4388042.0873182034
   }
  },
  {
   "attributes": {
    "OBJECTID": 127,
    "ولایت": "کندز",
    "Province": "KUNDUZ",
    "PC_Code": "1905093",
    "District": "HAZRAT-E-IMAM SAHIB",
    "د_مرکز_نوم__نام_مرکز": "سر چوک امام صاحب",
    "Polling_Center_Name": "Nomania Secondary school",
    "د_مرکز_ځای__موقعیت_مرکز": "مرکز شهر امام صاحب",
    "Polling_Center_Location": "Imam Sahib City",
    "Map_Accuracy": "Building",
    "Map_Accuracy_Dari": "تعمیر",
    "Status": "Open",
    "Status_Dari": null,
    "PS_Male": 3,
    "PS_Female": 1,
    "PS_Total": 4,
    "ولسوالي": "حضرت امام صاحب",
    "Region": "North Eastern Region"
   },
   "geometry": {
    "x": 7669715.7810835037,
    "y": 4466261.5165387252
   }
  },
  {
   "attributes": {
    "OBJECTID": 128,
    "ولایت": "کندز",
    "Province": "KUNDUZ",
    "PC_Code": "1905094",
    "District": "HAZRAT-E-IMAM SAHIB",
    "د_مرکز_نوم__نام_مرکز": "مکتب اورتبلاقی",
    "Polling_Center_Name": "Ortablaqi School",
    "د_مرکز_ځای__موقعیت_مرکز": "قریه اوته بلاقی ها",
    "Polling_Center_Location": "Ota Blaqiha Village",
    "Map_Accuracy": "Building",
    "Map_Accuracy_Dari": "تعمیر",
    "Status": "Open",
    "Status_Dari": null,
    "PS_Male": 3,
    "PS_Female": 1,
    "PS_Total": 4,
    "ولسوالي": "حضرت امام صاحب",
    "Region": "North Eastern Region"
   },
   "geometry": {
    "x": 7670571.2713702535,
    "y": 4460803.1705368524
   }
  },
  {
   "attributes": {
    "OBJECTID": 129,
    "ولایت": "سمنگان",
    "Province": "SAMANGAN",
    "PC_Code": "2005072",
    "District": "ROI-DO-AB",
    "د_مرکز_نوم__نام_مرکز": "مدرسه آبخورک ",
    "Polling_Center_Name": "Aabkhorak Madrassa",
    "د_مرکز_ځای__موقعیت_مرکز": "قریه آب خورک",
    "Polling_Center_Location": "Aabkhorak Village",
    "Map_Accuracy": "Building",
    "Map_Accuracy_Dari": "تعمیر",
    "Status": "Open",
    "Status_Dari": null,
    "PS_Male": 3,
    "PS_Female": 1,
    "PS_Total": 4,
    "ولسوالي": "روی دوآب",
    "Region": "Northern Region"
   },
   "geometry": {
    "x": 7543314.1189863347,
    "y": 4232581.7650341373
   }
  },
  {
   "attributes": {
    "OBJECTID": 130,
    "ولایت": "سمنگان",
    "Province": "SAMANGAN",
    "PC_Code": "2005073",
    "District": "ROI-DO-AB",
    "د_مرکز_نوم__نام_مرکز": "مدرسه دو آب",
    "Polling_Center_Name": "Do Aab Madrassa",
    "د_مرکز_ځای__موقعیت_مرکز": "مرکز ولسوالی",
    "Polling_Center_Location": "District Compound",
    "Map_Accuracy": "Building",
    "Map_Accuracy_Dari": "تعمیر",
    "Status": "Open",
    "Status_Dari": null,
    "PS_Male": 2,
    "PS_Female": 1,
    "PS_Total": 3,
    "ولسوالي": "روی دوآب",
    "Region": "Northern Region"
   },
   "geometry": {
    "x": 7549614.2088323459,
    "y": 4240918.9989837231
   }
  },
  {
   "attributes": {
    "OBJECTID": 131,
    "ولایت": "جوزجان",
    "Province": "JAWZJAN",
    "PC_Code": "2804069",
    "District": "MINGAJIK",
    "د_مرکز_نوم__نام_مرکز": "لیسه چارچنغو",
    "Polling_Center_Name": "Chaar Changhoo High School",
    "د_مرکز_ځای__موقعیت_مرکز": "چارچنغو",
    "Polling_Center_Location": "Chaar Changhoo",
    "Map_Accuracy": "Building",
    "Map_Accuracy_Dari": "تعمیر",
    "Status": "Open",
    "Status_Dari": null,
    "PS_Male": 3,
    "PS_Female": 2,
    "PS_Total": 5,
    "ولسوالي": "منگجیک",
    "Region": "Northern Region"
   },
   "geometry": {
    "x": 7356444.1614473891,
    "y": 4439920.7792606596
   }
  },
  {
   "attributes": {
    "OBJECTID": 132,
    "ولایت": "جوزجان",
    "Province": "JAWZJAN",
    "PC_Code": "2804070",
    "District": "MINGAJIK",
    "د_مرکز_نوم__نام_مرکز": "مکتب منگجیک",
    "Polling_Center_Name": "Mangjeek School",
    "د_مرکز_ځای__موقعیت_مرکز": "منگجیک",
    "Polling_Center_Location": "Mangjeek",
    "Map_Accuracy": "Building",
    "Map_Accuracy_Dari": "تعمیر",
    "Status": "Open",
    "Status_Dari": null,
    "PS_Male": 2,
    "PS_Female": 2,
    "PS_Total": 4,
    "ولسوالي": "منگجیک",
    "Region": "Northern Region"
   },
   "geometry": {
    "x": 7362346.6414493844,
    "y": 4441062.2467422402
   }
  },
  {
   "attributes": {
    "OBJECTID": 133,
    "ولایت": "جوزجان",
    "Province": "JAWZJAN",
    "PC_Code": "2806086",
    "District": "KHAMYAB",
    "د_مرکز_نوم__نام_مرکز": "مکتب قرنس",
    "Polling_Center_Name": "Qarnas School",
    "د_مرکز_ځای__موقعیت_مرکز": "قرنس",
    "Polling_Center_Location": "Qarnas",
    "Map_Accuracy": "Building",
    "Map_Accuracy_Dari": "تعمیر",
    "Status": "Open",
    "Status_Dari": null,
    "PS_Male": 2,
    "PS_Female": 1,
    "PS_Total": 3,
    "ولسوالي": "خم آب",
    "Region": "Northern Region"
   },
   "geometry": {
    "x": 7315577.7488982799,
    "y": 4513482.4995093988
   }
  },
  {
   "attributes": {
    "OBJECTID": 134,
    "ولایت": "جوزجان",
    "Province": "JAWZJAN",
    "PC_Code": "2806087",
    "District": "KHAMYAB",
    "د_مرکز_نوم__نام_مرکز": "مکتب چوپلی تپه",
    "Polling_Center_Name": "Chopli Tapa",
    "د_مرکز_ځای__موقعیت_مرکز": "چوپلی",
    "Polling_Center_Location": "Chopli",
    "Map_Accuracy": "Building",
    "Map_Accuracy_Dari": "تعمیر",
    "Status": "Open",
    "Status_Dari": null,
    "PS_Male": 1,
    "PS_Female": 1,
    "PS_Total": 2,
    "ولسوالي": "خم آب",
    "Region": "Northern Region"
   },
   "geometry": {
    "x": 7325071.6817643512,
    "y": 4508356.1271434464
   }
  },
  {
   "attributes": {
    "OBJECTID": 135,
    "ولایت": "فارياب",
    "Province": "FARYAB",
    "PC_Code": "2909158",
    "District": "DAWLAT ABAD",
    "د_مرکز_نوم__نام_مرکز": "لیسه نسوان قوزی بای قلعه",
    "Polling_Center_Name": "Qozi Bay Qala Girls High School",
    "د_مرکز_ځای__موقعیت_مرکز": "قوزی بای قلعه",
    "Polling_Center_Location": "Bay Qala Qozi ",
    "Map_Accuracy": "Building",
    "Map_Accuracy_Dari": "تعمیر",
    "Status": "Open",
    "Status_Dari": null,
    "PS_Male": 3,
    "PS_Female": 2,
    "PS_Total": 5,
    "ولسوالي": "دولت آباد",
    "Region": "Northern Region"
   },
   "geometry": {
    "x": 7222935.1472736504,
    "y": 4358564.3868094273
   }
  },
  {
   "attributes": {
    "OBJECTID": 136,
    "ولایت": "فارياب",
    "Province": "FARYAB",
    "PC_Code": "2909159",
    "District": "DAWLAT ABAD",
    "د_مرکز_نوم__نام_مرکز": "مکتب جر قلعه",
    "Polling_Center_Name": "Jar Qala School",
    "د_مرکز_ځای__موقعیت_مرکز": "کوک چه قلعه",
    "Polling_Center_Location": "Kokcha Qala",
    "Map_Accuracy": "Building",
    "Map_Accuracy_Dari": "تعمیر",
    "Status": "Open",
    "Status_Dari": null,
    "PS_Male": 2,
    "PS_Female": 2,
    "PS_Total": 4,
    "ولسوالي": "دولت آباد",
    "Region": "Northern Region"
   },
   "geometry": {
    "x": 7224965.6025405722,
    "y": 4350962.5452258633
   }
  },
  {
   "attributes": {
    "OBJECTID": 137,
    "ولایت": "هرات",
    "Province": "HERAT",
    "PC_Code": "3202078",
    "District": "ENJIL",
    "د_مرکز_نوم__نام_مرکز": "مكتب متوسطه شهدا ",
    "Polling_Center_Name": "Shohada Secondary School ",
    "د_مرکز_ځای__موقعیت_مرکز": "قریه سر حسن خواجه",
    "Polling_Center_Location": "Sar Hasan Khwaja Village ",
    "Map_Accuracy": "Building",
    "Map_Accuracy_Dari": "تعمیر",
    "Status": "Open",
    "Status_Dari": null,
    "PS_Male": 2,
    "PS_Female": 0,
    "PS_Total": 2,
    "ولسوالي": "انجیل",
    "Region": "Western Region"
   },
   "geometry": {
    "x": 6946000.1063165814,
    "y": 4066408.2816074747
   }
  },
  {
   "attributes": {
    "OBJECTID": 138,
    "ولایت": "هرات",
    "Province": "HERAT",
    "PC_Code": "3206128",
    "District": "PASHTUN ZARGHUN",
    "د_مرکز_نوم__نام_مرکز": "مکتب شاه آباد",
    "Polling_Center_Name": "Shah Abad School ",
    "د_مرکز_ځای__موقعیت_مرکز": "قریه شاه آباد ",
    "Polling_Center_Location": "Shad Abad Village ",
    "Map_Accuracy": "Building",
    "Map_Accuracy_Dari": "تعمیر",
    "Status": "Open",
    "Status_Dari": null,
    "PS_Male": 3,
    "PS_Female": 2,
    "PS_Total": 5,
    "ولسوالي": "پشتون زرغون",
    "Region": "Western Region"
   },
   "geometry": {
    "x": 6971641.3899585232,
    "y": 4059028.8441838827
   }
  },
  {
   "attributes": {
    "OBJECTID": 139,
    "ولایت": "هرات",
    "Province": "HERAT",
    "PC_Code": "3206129",
    "District": "PASHTUN ZARGHUN",
    "د_مرکز_نوم__نام_مرکز": "لیسه گل میر ",
    "Polling_Center_Name": "Gul Meer High School ",
    "د_مرکز_ځای__موقعیت_مرکز": "قریه گل میر ",
    "Polling_Center_Location": "Gul Meer Village ",
    "Map_Accuracy": "Village",
    "Map_Accuracy_Dari": "قریه",
    "Status": "Open",
    "Status_Dari": null,
    "PS_Male": 2,
    "PS_Female": 1,
    "PS_Total": 3,
    "ولسوالي": "پشتون زرغون",
    "Region": "Western Region"
   },
   "geometry": {
    "x": 6967714.011606656,
    "y": 4058113.70845555
   }
  },
  {
   "attributes": {
    "OBJECTID": 140,
    "ولایت": "نيمروز",
    "Province": "NIMROZ",
    "PC_Code": "3401007",
    "District": "ZARANJ",
    "د_مرکز_نوم__نام_مرکز": "خوابگاه زرنج",
    "Polling_Center_Name": "Zaranj Hostel",
    "د_مرکز_ځای__موقعیت_مرکز": "زرنج ",
    "Polling_Center_Location": "Zaranj ",
    "Map_Accuracy": "Village",
    "Map_Accuracy_Dari": "قریه",
    "Status": "Open",
    "Status_Dari": null,
    "PS_Male": 2,
    "PS_Female": 1,
    "PS_Total": 3,
    "ولسوالي": " زرنج",
    "Region": "Southern Region"
   },
   "geometry": {
    "x": 6886031.6743502896,
    "y": 3625824.6435359512
   }
  },
  {
   "attributes": {
    "OBJECTID": 141,
    "ولایت": "کابل",
    "Province": "KABUL",
    "PC_Code": "0101086",
    "District": "KABUL-D05",
    "د_مرکز_نوم__نام_مرکز": " لیسه حضرت شمس المشایخ",
    "Polling_Center_Name": "Hazrat Shamsul Mashayakh High School",
    "د_مرکز_ځای__موقعیت_مرکز": "قسمت الف خوشحال مينه",
    "Polling_Center_Location": "Phase A of Khush-hal Mina",
    "Map_Accuracy": "Village",
    "Map_Accuracy_Dari": "قریه",
    "Status": "Open",
    "Status_Dari": null,
    "PS_Male": 4,
    "PS_Female": 4,
    "PS_Total": 8,
    "ولسوالي": "کابل - ناحیه 05",
    "Region": "Central Region"
   },
   "geometry": {
    "x": 7693562.9641145701,
    "y": 4099409.1597413174
   }
  },
  {
   "attributes": {
    "OBJECTID": 142,
    "ولایت": "کابل",
    "Province": "KABUL",
    "PC_Code": "0101022",
    "District": "KABUL-D02",
    "د_مرکز_نوم__نام_مرکز": " مکتب ابتدائيه پارسا",
    "Polling_Center_Name": "Parsa Primary School",
    "د_مرکز_ځای__موقعیت_مرکز": "جوي شير",
    "Polling_Center_Location": "Joy Sher",
    "Map_Accuracy": "Village",
    "Map_Accuracy_Dari": "قریه",
    "Status": "Open",
    "Status_Dari": null,
    "PS_Male": 4,
    "PS_Female": 4,
    "PS_Total": 8,
    "ولسوالي": "کابل - ناحیه 02",
    "Region": "Central Region"
   },
   "geometry": {
    "x": 7700047.1018142961,
    "y": 4100664.988880415
   }
  },
  {
   "attributes": {
    "OBJECTID": 143,
    "ولایت": "کابل",
    "Province": "KABUL",
    "PC_Code": "0101060",
    "District": "KABUL-D04",
    "د_مرکز_نوم__نام_مرکز": " لیسه نسوان ده کیپک",
    "Polling_Center_Name": "Dehkepak Girls High School",
    "د_مرکز_ځای__موقعیت_مرکز": "نو آباد ده کيپک",
    "Polling_Center_Location": "Naw Abad Dehkepak",
    "Map_Accuracy": "Building",
    "Map_Accuracy_Dari": "تعمیر",
    "Status": "Open",
    "Status_Dari": null,
    "PS_Male": 3,
    "PS_Female": 5,
    "PS_Total": 8,
    "ولسوالي": "کابل - ناحیه 04",
    "Region": "Central Region"
   },
   "geometry": {
    "x": 7694924.1788479891,
    "y": 4102145.70691302
   }
  },
  {
   "attributes": {
    "OBJECTID": 144,
    "ولایت": "غور",
    "Province": "GHOR",
    "PC_Code": "2309189",
    "District": "TULAK",
    "د_مرکز_نوم__نام_مرکز": "مکتب متوسطه خمین",
    "Polling_Center_Name": "Khameen Secondary School",
    "د_مرکز_ځای__موقعیت_مرکز": "رباط ",
    "Polling_Center_Location": "Rabat",
    "Map_Accuracy": "Village",
    "Map_Accuracy_Dari": "قریه",
    "Status": "Open",
    "Status_Dari": null,
    "PS_Male": 2,
    "PS_Female": 1,
    "PS_Total": 3,
    "ولسوالي": "تولک ",
    "Region": "Western Region"
   },
   "geometry": {
    "x": 7105442.8382081864,
    "y": 4005818.2770384867
   }
  },
  {
   "attributes": {
    "OBJECTID": 145,
    "ولایت": "غور",
    "Province": "GHOR",
    "PC_Code": "2309190",
    "District": "TULAK",
    "د_مرکز_نوم__نام_مرکز": "منزل ارباب ملک",
    "Polling_Center_Name": "Arbab Malek Private House",
    "د_مرکز_ځای__موقعیت_مرکز": " گاو کوش",
    "Polling_Center_Location": "Gaw Gosh",
    "Map_Accuracy": "Village",
    "Map_Accuracy_Dari": "قریه",
    "Status": "Open",
    "Status_Dari": null,
    "PS_Male": 2,
    "PS_Female": 2,
    "PS_Total": 4,
    "ولسوالي": "تولک ",
    "Region": "Western Region"
   },
   "geometry": {
    "x": 7107879.3346573636,
    "y": 4048315.8298052121
   }
  },
  {
   "attributes": {
    "OBJECTID": 146,
    "ولایت": "ننگرهار",
    "Province": "NANGARHAR",
    "PC_Code": "0615375",
    "District": "ACHIN",
    "د_مرکز_نوم__نام_مرکز": "ميدانک صادق حجره",
    "Polling_Center_Name": "Medanak Sadeq Hujra",
    "د_مرکز_ځای__موقعیت_مرکز": "ميدانک",
    "Polling_Center_Location": "Medanak",
    "Map_Accuracy": "Building",
    "Map_Accuracy_Dari": "تعمیر",
    "Status": "Open",
    "Status_Dari": null,
    "PS_Male": 2,
    "PS_Female": 1,
    "PS_Total": 3,
    "ولسوالي": "اچین",
    "Region": "Eastern Region"
   },
   "geometry": {
    "x": 7869187.3610150767,
    "y": 4046308.324670387
   }
  },
  {
   "attributes": {
    "OBJECTID": 147,
    "ولایت": "ننگرهار",
    "Province": "NANGARHAR",
    "PC_Code": "0620402",
    "District": "NAZYAN",
    "د_مرکز_نوم__نام_مرکز": "ترخی ابتدائیه",
    "Polling_Center_Name": "Tarkhai Primary School",
    "د_مرکز_ځای__موقعیت_مرکز": "مورچل کلي",
    "Polling_Center_Location": "Morchal Village",
    "Map_Accuracy": "Village",
    "Map_Accuracy_Dari": "قریه",
    "Status": "Open",
    "Status_Dari": null,
    "PS_Male": 2,
    "PS_Female": 1,
    "PS_Total": 3,
    "ولسوالي": "نازیان",
    "Region": "Eastern Region"
   },
   "geometry": {
    "x": 7880977.5689601442,
    "y": 4038422.1217882806
   }
  },
  {
   "attributes": {
    "OBJECTID": 148,
    "ولایت": "پکتيکا",
    "Province": "PAKTIKA",
    "PC_Code": "1201017",
    "District": "SHARAN",
    "د_مرکز_نوم__نام_مرکز": "جومات میرزا قلعه",
    "Polling_Center_Name": "Merza Qala Mosque",
    "د_مرکز_ځای__موقعیت_مرکز": "میرزا قلعه",
    "Polling_Center_Location": "Merza Qala",
    "Map_Accuracy": "Village",
    "Map_Accuracy_Dari": "قریه",
    "Status": "Open",
    "Status_Dari": null,
    "PS_Male": 3,
    "PS_Female": 0,
    "PS_Total": 3,
    "ولسوالي": "شرن",
    "Region": "South Eastern Region"
   },
   "geometry": {
    "x": 7655260.5578121683,
    "y": 3913560.1834712084
   }
  },
  {
   "attributes": {
    "OBJECTID": 149,
    "ولایت": "پکتيکا",
    "Province": "PAKTIKA",
    "PC_Code": "1201018",
    "District": "SHARAN",
    "د_مرکز_نوم__نام_مرکز": "میلمستون اصغر",
    "Polling_Center_Name": "Asghar Guest House",
    "د_مرکز_ځای__موقعیت_مرکز": "میرزا قلعه",
    "Polling_Center_Location": "Merza Qala",
    "Map_Accuracy": "Village",
    "Map_Accuracy_Dari": "قریه",
    "Status": "Open",
    "Status_Dari": null,
    "PS_Male": 0,
    "PS_Female": 3,
    "PS_Total": 3,
    "ولسوالي": "شرن",
    "Region": "South Eastern Region"
   },
   "geometry": {
    "x": 7655285.5111892261,
    "y": 3913529.234907961
   }
  },
  {
   "attributes": {
    "OBJECTID": 150,
    "ولایت": "هرات",
    "Province": "HERAT",
    "PC_Code": "3203117",
    "District": "GUZARA",
    "د_مرکز_نوم__نام_مرکز": "موقعیت کوچی های گمبدی",
    "Polling_Center_Name": "Kochis Location",
    "د_مرکز_ځای__موقعیت_مرکز": "قریه گمبدی",
    "Polling_Center_Location": "Gumbadi Village",
    "Map_Accuracy": "Village",
    "Map_Accuracy_Dari": "قریه",
    "Status": "Open",
    "Status_Dari": null,
    "PS_Male": 1,
    "PS_Female": 1,
    "PS_Total": 2,
    "ولسوالي": "گذره",
    "Region": "Western Region"
   },
   "geometry": {
    "x": 6943696.8693166384,
    "y": 4036913.0511103063
   }
  },
  {
   "attributes": {
    "OBJECTID": 151,
    "ولایت": "وردک",
    "Province": "WARDAK",
    "PC_Code": "0404083",
    "District": "CHAKI WARDAK",
    "د_مرکز_نوم__نام_مرکز": "منزل صالح محمد",
    "Polling_Center_Name": "Saleh Mohammad House",
    "د_مرکز_ځای__موقعیت_مرکز": "قریه نورخیل",
    "Polling_Center_Location": "Noor Khel",
    "Map_Accuracy": "Village",
    "Map_Accuracy_Dari": "قریه",
    "Status": "Open",
    "Status_Dari": null,
    "PS_Male": 2,
    "PS_Female": 2,
    "PS_Total": 4,
    "ولسوالي": "چک وردک",
    "Region": "Central Region"
   },
   "geometry": {
    "x": 7643392.573165277,
    "y": 4046629.2560942173
   }
  },
  {
   "attributes": {
    "OBJECTID": 152,
    "ولایت": "پکتيکا",
    "Province": "PAKTIKA",
    "PC_Code": "1214264",
    "District": "BARMAL",
    "د_مرکز_نوم__نام_مرکز": "مخفیروالله میلمستون",
    "Polling_Center_Name": "Makhfirollah Guest House",
    "د_مرکز_ځای__موقعیت_مرکز": "سیرداګ",
    "Polling_Center_Location": "Serdag",
    "Map_Accuracy": "District",
    "Map_Accuracy_Dari": "ولسوالی",
    "Status": "Open",
    "Status_Dari": null,
    "PS_Male": 0,
    "PS_Female": 2,
    "PS_Total": 2,
    "ولسوالي": "برمل",
    "Region": "South Eastern Region"
   },
   "geometry": {
    "x": 7719111.5086019263,
    "y": 3867623.0592892384
   }
  },
  {
   "attributes": {
    "OBJECTID": 153,
    "ولایت": "کندهار",
    "Province": "کندهار",
    "PC_Code": "2709131",
    "District": "GHORAK",
    "د_مرکز_نوم__نام_مرکز": "د جمعه خان كور",
    "Polling_Center_Name": "Juma Khan Private House",
    "د_مرکز_ځای__موقعیت_مرکز": " د اسحق زو كلي",
    "Polling_Center_Location": "Ishaaqzo Village",
    "Map_Accuracy": "District",
    "Map_Accuracy_Dari": "ولسوالی",
    "Status": "Open",
    "Status_Dari": null,
    "PS_Male": 1,
    "PS_Female": 1,
    "PS_Total": 2,
    "ولسوالي": "غورك",
    "Region": "Southern Region"
   },
   "geometry": {
    "x": 7253611.536162002,
    "y": 3770911.5371752288
   }
  },
  {
   "attributes": {
    "OBJECTID": 154,
    "ولایت": "بادغيس",
    "Province": "BADGHIS",
    "PC_Code": "3104075",
    "District": "QADIS",
    "د_مرکز_نوم__نام_مرکز": "مسجد گنبد",
    "Polling_Center_Name": "Gunbad Mosque",
    "د_مرکز_ځای__موقعیت_مرکز": "قریه گنبد ",
    "Polling_Center_Location": "Gunbad Village",
    "Map_Accuracy": "Building",
    "Map_Accuracy_Dari": "تعمیر",
    "Status": "Open",
    "Status_Dari": null,
    "PS_Male": 1,
    "PS_Female": 1,
    "PS_Total": 2,
    "ولسوالي": "قادس",
    "Region": "Western Region"
   },
   "geometry": {
    "x": 7091824.6150561739,
    "y": 4120178.1915170322
   }
  },
  {
   "attributes": {
    "OBJECTID": 155,
    "ولایت": "باميان",
    "Province": "BAMYAN",
    "PC_Code": "1007188",
    "District": "WARAS",
    "د_مرکز_نوم__نام_مرکز": "مسجد",
    "Polling_Center_Name": "Mosque",
    "د_مرکز_ځای__موقعیت_مرکز": "قلعه سیا",
    "Polling_Center_Location": "Qala sia",
    "Map_Accuracy": "Village",
    "Map_Accuracy_Dari": "قریه",
    "Status": "Open",
    "Status_Dari": null,
    "PS_Male": 2,
    "PS_Female": 1,
    "PS_Total": 3,
    "ولسوالي": "ورس",
    "Region": "Central Highlands Region"
   },
   "geometry": {
    "x": 7450474.4031601222,
    "y": 4065751.2909690426
   }
  },
  {
   "attributes": {
    "OBJECTID": 156,
    "ولایت": "غزنى",
    "Province": "GHAZNI",
    "PC_Code": "1111406",
    "District": "QARA BAGH",
    "د_مرکز_نوم__نام_مرکز": "مکتب قاری عبدالله",
    "Polling_Center_Name": "Qari abdullah School",
    "د_مرکز_ځای__موقعیت_مرکز": "اشلیان",
    "Polling_Center_Location": "Ashlian",
    "Map_Accuracy": "Building",
    "Map_Accuracy_Dari": "تعمیر",
    "Status": "Open",
    "Status_Dari": null,
    "PS_Male": 2,
    "PS_Female": 1,
    "PS_Total": 3,
    "ولسوالي": "قره باغ",
    "Region": "South Eastern Region"
   },
   "geometry": {
    "x": 7585501.4408208318,
    "y": 3928145.1870823479
   }
  },
  {
   "attributes": {
    "OBJECTID": 157,
    "ولایت": "کابل",
    "Province": "KABUL",
    "PC_Code": "0101014",
    "District": "KABUL-D01",
    "د_مرکز_نوم__نام_مرکز": "مسجد خواجه صفا",
    "Polling_Center_Name": "Khwaja Safa Mosque",
    "د_مرکز_ځای__موقعیت_مرکز": "بالا جوي عاشقان و عارفان",
    "Polling_Center_Location": "Balajoie Ashuqan-o-Arifan",
    "Map_Accuracy": "Village",
    "Map_Accuracy_Dari": "قریه",
    "Status": "Open",
    "Status_Dari": null,
    "PS_Male": 1,
    "PS_Female": 1,
    "PS_Total": 2,
    "ولسوالي": "کابل - ناحیه 01",
    "Region": "Central Region"
   },
   "geometry": {
    "x": 7700968.159281116,
    "y": 4097090.2842952637
   }
  },
  {
   "attributes": {
    "OBJECTID": 158,
    "ولایت": "کابل",
    "Province": "KABUL",
    "PC_Code": "0101016",
    "District": "KABUL-D01",
    "د_مرکز_نوم__نام_مرکز": "مکتب عنصری بلخی",
    "Polling_Center_Name": "Ansori Balkhi School",
    "د_مرکز_ځای__موقعیت_مرکز": "باغ علي مردان",
    "Polling_Center_Location": "Bagh-e-Ali Mardan",
    "Map_Accuracy": "Village",
    "Map_Accuracy_Dari": "قریه",
    "Status": "Open",
    "Status_Dari": null,
    "PS_Male": 3,
    "PS_Female": 2,
    "PS_Total": 5,
    "ولسوالي": "کابل - ناحیه 01",
    "Region": "Central Region"
   },
   "geometry": {
    "x": 7702164.3985291859,
    "y": 4099590.7558035306
   }
  },
  {
   "attributes": {
    "OBJECTID": 159,
    "ولایت": "کابل",
    "Province": "KABUL",
    "PC_Code": "0101141",
    "District": "KABUL-D07",
    "د_مرکز_نوم__نام_مرکز": " ليسه نسوان ده دانا",
    "Polling_Center_Name": "Deh Dana Girls High School",
    "د_مرکز_ځای__موقعیت_مرکز": "ده دانا",
    "Polling_Center_Location": "Deh Dana",
    "Map_Accuracy": "Village",
    "Map_Accuracy_Dari": "قریه",
    "Status": "Open",
    "Status_Dari": null,
    "PS_Male": 2,
    "PS_Female": 4,
    "PS_Total": 6,
    "ولسوالي": "کابل - ناحیه 07",
    "Region": "Central Region"
   },
   "geometry": {
    "x": 7695909.3563415091,
    "y": 4092033.4849457545
   }
  },
  {
   "attributes": {
    "OBJECTID": 160,
    "ولایت": "کابل",
    "Province": "KABUL",
    "PC_Code": "0101153",
    "District": "KABUL-D08",
    "د_مرکز_نوم__نام_مرکز": "  لیسه محمدهاشم میوند وال",
    "Polling_Center_Name": "Mohammad Hashim Maiwandwal High School",
    "د_مرکز_ځای__موقعیت_مرکز": "سرک سه رحمن مينه",
    "Polling_Center_Location": "Sarak-e-3 Rahman Mina",
    "Map_Accuracy": "Building",
    "Map_Accuracy_Dari": "تعمیر",
    "Status": "Open",
    "Status_Dari": null,
    "PS_Male": 3,
    "PS_Female": 2,
    "PS_Total": 5,
    "ولسوالي": "کابل - ناحیه 08",
    "Region": "Central Region"
   },
   "geometry": {
    "x": 7706011.8227699809,
    "y": 4097058.4037622167
   }
  },
  {
   "attributes": {
    "OBJECTID": 161,
    "ولایت": "کابل",
    "Province": "KABUL",
    "PC_Code": "0101160",
    "District": "KABUL-D08",
    "د_مرکز_نوم__نام_مرکز": " مسجد عثمان غني",
    "Polling_Center_Name": "Usman Ghani Mosque",
    "د_مرکز_ځای__موقعیت_مرکز": "کارته نو",
    "Polling_Center_Location": "Kart-e-Naw",
    "Map_Accuracy": "Building",
    "Map_Accuracy_Dari": "تعمیر",
    "Status": "Open",
    "Status_Dari": null,
    "PS_Male": 3,
    "PS_Female": 2,
    "PS_Total": 5,
    "ولسوالي": "کابل - ناحیه 08",
    "Region": "Central Region"
   },
   "geometry": {
    "x": 7707115.889479666,
    "y": 4096139.0404472393
   }
  },
  {
   "attributes": {
    "OBJECTID": 162,
    "ولایت": "کابل",
    "Province": "KABUL",
    "PC_Code": "0101162",
    "District": "KABUL-D08",
    "د_مرکز_نوم__نام_مرکز": "  مسجد شاه  پاچا",
    "Polling_Center_Name": "Shah Pacha Mosque",
    "د_مرکز_ځای__موقعیت_مرکز": "سرک اول رحمان مینه عقب فابریکه قیر",
    "Polling_Center_Location": "First Road of Rahman Mina, Behind of Asphalt Factory",
    "Map_Accuracy": "Village",
    "Map_Accuracy_Dari": "قریه",
    "Status": "Open",
    "Status_Dari": null,
    "PS_Male": 3,
    "PS_Female": 2,
    "PS_Total": 5,
    "ولسوالي": "کابل - ناحیه 08",
    "Region": "Central Region"
   },
   "geometry": {
    "x": 7706096.6482219668,
    "y": 4097446.7850489034
   }
  },
  {
   "attributes": {
    "OBJECTID": 163,
    "ولایت": "کابل",
    "Province": "KABUL",
    "PC_Code": "0101248",
    "District": "KABUL-D11",
    "د_مرکز_نوم__نام_مرکز": "مسجد پنجصد فاميلي",
    "Polling_Center_Name": "500 family Mosque",
    "د_مرکز_ځای__موقعیت_مرکز": "سرک پنجصد فاميلي",
    "Polling_Center_Location": "Sarak-e-500 Family",
    "Map_Accuracy": "Village",
    "Map_Accuracy_Dari": "قریه",
    "Status": "Open",
    "Status_Dari": null,
    "PS_Male": 2,
    "PS_Female": 1,
    "PS_Total": 3,
    "ولسوالي": "کابل - ناحیه 11",
    "Region": "Central Region"
   },
   "geometry": {
    "x": 7697651.840330895,
    "y": 4108499.723365881
   }
  },
  {
   "attributes": {
    "OBJECTID": 164,
    "ولایت": "کابل",
    "Province": "KABUL",
    "PC_Code": "0101496",
    "District": "KABUL-D11",
    "د_مرکز_نوم__نام_مرکز": "مکتب متوسطه سادات",
    "Polling_Center_Name": "Emam Jafar Mosque",
    "د_مرکز_ځای__موقعیت_مرکز": "مسجد امام جعفر تپه سادات",
    "Polling_Center_Location": "Imam-e-Jafar Mosque, Tapa-e-Sadat",
    "Map_Accuracy": "Building",
    "Map_Accuracy_Dari": "تعمیر",
    "Status": "Open",
    "Status_Dari": null,
    "PS_Male": 2,
    "PS_Female": 1,
    "PS_Total": 3,
    "ولسوالي": "کابل - ناحیه 11",
    "Region": "Central Region"
   },
   "geometry": {
    "x": 7695405.0790482173,
    "y": 4094666.8106402135
   }
  },
  {
   "attributes": {
    "OBJECTID": 165,
    "ولایت": "کابل",
    "Province": "KABUL",
    "PC_Code": "0101291",
    "District": "KABUL-D15",
    "د_مرکز_نوم__نام_مرکز": " پرورشگاه فرشته نجات",
    "Polling_Center_Name": "Parwareshgah Fresht-e-Nejat ",
    "د_مرکز_ځای__موقعیت_مرکز": "چهار راهی خواجه بغرا",
    "Polling_Center_Location": "Khwaja Bughra Squre",
    "Map_Accuracy": "Village",
    "Map_Accuracy_Dari": "قریه",
    "Status": "Open",
    "Status_Dari": null,
    "PS_Male": 3,
    "PS_Female": 4,
    "PS_Total": 7,
    "ولسوالي": "کابل - ناحیه 15",
    "Region": "Central Region"
   },
   "geometry": {
    "x": 7698781.8444819385,
    "y": 4107338.7474444252
   }
  },
  {
   "attributes": {
    "OBJECTID": 166,
    "ولایت": "کابل",
    "Province": "KABUL",
    "PC_Code": "0101308",
    "District": "KABUL-D15",
    "د_مرکز_نوم__نام_مرکز": " مسجد حضرت يوسف",
    "Polling_Center_Name": "Hazrat-e-Yousuf Mosque",
    "د_مرکز_ځای__موقعیت_مرکز": "سر پل خواجه بغرا",
    "Polling_Center_Location": "Sari Pule Khaja Bughra",
    "Map_Accuracy": "Building",
    "Map_Accuracy_Dari": "تعمیر",
    "Status": "Open",
    "Status_Dari": null,
    "PS_Male": 2,
    "PS_Female": 2,
    "PS_Total": 4,
    "ولسوالي": "کابل - ناحیه 15",
    "Region": "Central Region"
   },
   "geometry": {
    "x": 7698855.9832628099,
    "y": 4107666.9077217146
   }
  },
  {
   "attributes": {
    "OBJECTID": 167,
    "ولایت": "کندهار",
    "Province": "کندهار",
    "PC_Code": "2717015",
    "District": "DAND",
    "د_مرکز_نوم__نام_مرکز": "مكتب حاجي عرب",
    "Polling_Center_Name": "Haji Arab School",
    "د_مرکز_ځای__موقعیت_مرکز": "دویمه ناحیه",
    "Polling_Center_Location": "D02 - Nahia 2",
    "Map_Accuracy": "Village",
    "Map_Accuracy_Dari": "قریه",
    "Status": "Open",
    "Status_Dari": null,
    "PS_Male": 3,
    "PS_Female": 3,
    "PS_Total": 6,
    "ولسوالي": "ډند",
    "Region": "Southern Region"
   },
   "geometry": {
    "x": 7314752.8670187201,
    "y": 3709935.2377847214
   }
  },
  {
   "attributes": {
    "OBJECTID": 168,
    "ولایت": "کندهار",
    "Province": "کندهار",
    "PC_Code": "2717052",
    "District": "DAND",
    "د_مرکز_نوم__نام_مرکز": "مسجد سالو خان چمن ",
    "Polling_Center_Name": "Salo Khan Chaman Mosque",
    "د_مرکز_ځای__موقعیت_مرکز": "الکوزو کوچ خانه",
    "Polling_Center_Location": "Alkozo Koch Khana",
    "Map_Accuracy": "Building",
    "Map_Accuracy_Dari": "تعمیر",
    "Status": "Open",
    "Status_Dari": null,
    "PS_Male": 4,
    "PS_Female": 3,
    "PS_Total": 7,
    "ولسوالي": "ډند",
    "Region": "Southern Region"
   },
   "geometry": {
    "x": 7313290.0175902033,
    "y": 3709756.719264261
   }
  },
  {
   "attributes": {
    "OBJECTID": 169,
    "ولایت": "کابل",
    "Province": "KABUL",
    "PC_Code": "0101237",
    "District": "KABUL-D11",
    "د_مرکز_نوم__نام_مرکز": " لیسه عبدالغفور ندیم",
    "Polling_Center_Name": "Abdul Ghafor Nadim High School",
    "د_مرکز_ځای__موقعیت_مرکز": "کودکستان خير خانه",
    "Polling_Center_Location": "Khair Khana Kindergarten",
    "Map_Accuracy": "Building",
    "Map_Accuracy_Dari": "تعمیر",
    "Status": "Open",
    "Status_Dari": null,
    "PS_Male": 4,
    "PS_Female": 3,
    "PS_Total": 7,
    "ولسوالي": "کابل - ناحیه 11",
    "Region": "Central Region"
   },
   "geometry": {
    "x": 7696167.9025380434,
    "y": 4106485.2105293344
   }
  },
  {
   "attributes": {
    "OBJECTID": 170,
    "ولایت": "کابل",
    "Province": "KABUL",
    "PC_Code": "0101238",
    "District": "KABUL-D11",
    "د_مرکز_نوم__نام_مرکز": " مسجد حضرت یوسف",
    "Polling_Center_Name": "Hazrat Yousuf Mosque",
    "د_مرکز_ځای__موقعیت_مرکز": "لب  جر",
    "Polling_Center_Location": "Lab Jar",
    "Map_Accuracy": "Building",
    "Map_Accuracy_Dari": "تعمیر",
    "Status": "Open",
    "Status_Dari": null,
    "PS_Male": 2,
    "PS_Female": 4,
    "PS_Total": 6,
    "ولسوالي": "کابل - ناحیه 11",
    "Region": "Central Region"
   },
   "geometry": {
    "x": 7697107.9577891668,
    "y": 4104946.7998922975
   }
  },
  {
   "attributes": {
    "OBJECTID": 171,
    "ولایت": "کابل",
    "Province": "KABUL",
    "PC_Code": "0101257",
    "District": "KABUL-D13",
    "د_مرکز_نوم__نام_مرکز": " مسجد امام محمد تقي",
    "Polling_Center_Name": "Imam Mohammad Taqi Mosque",
    "د_مرکز_ځای__موقعیت_مرکز": "باغ خان",
    "Polling_Center_Location": "Bagh-e-Khan",
    "Map_Accuracy": "Building",
    "Map_Accuracy_Dari": "تعمیر",
    "Status": "Open",
    "Status_Dari": null,
    "PS_Male": 1,
    "PS_Female": 2,
    "PS_Total": 3,
    "ولسوالي": "کابل - ناحیه 13",
    "Region": "Central Region"
   },
   "geometry": {
    "x": 7688826.1962166773,
    "y": 4096779.4367386973
   }
  },
  {
   "attributes": {
    "OBJECTID": 172,
    "ولایت": "کابل",
    "Province": "KABUL",
    "PC_Code": "0101258",
    "District": "KABUL-D13",
    "د_مرکز_نوم__نام_مرکز": " ليسه عبد الرحيم شهيد",
    "Polling_Center_Name": "Abdur Rahim Shaheed High School",
    "د_مرکز_ځای__موقعیت_مرکز": "دشت بيست هزاري",
    "Polling_Center_Location": "Dasht-e-Best Hazari",
    "Map_Accuracy": "Building",
    "Map_Accuracy_Dari": "تعمیر",
    "Status": "Open",
    "Status_Dari": null,
    "PS_Male": 6,
    "PS_Female": 6,
    "PS_Total": 12,
    "ولسوالي": "کابل - ناحیه 13",
    "Region": "Central Region"
   },
   "geometry": {
    "x": 7689675.2166146217,
    "y": 4095617.5087142684
   }
  },
  {
   "attributes": {
    "OBJECTID": 173,
    "ولایت": "کابل",
    "Province": "KABUL",
    "PC_Code": "0101262",
    "District": "KABUL-D13",
    "د_مرکز_نوم__نام_مرکز": "مسجد موسي ابن جعفر",
    "Polling_Center_Name": "Musa Ibne Jafar Mosque",
    "د_مرکز_ځای__موقعیت_مرکز": "نو آباد دوغ آباد",
    "Polling_Center_Location": "Naw Abad Dogh Abad",
    "Map_Accuracy": "Building",
    "Map_Accuracy_Dari": "تعمیر",
    "Status": "Open",
    "Status_Dari": null,
    "PS_Male": 1,
    "PS_Female": 2,
    "PS_Total": 3,
    "ولسوالي": "کابل - ناحیه 13",
    "Region": "Central Region"
   },
   "geometry": {
    "x": 7688503.8684046986,
    "y": 4094426.0639973367
   }
  },
  {
   "attributes": {
    "OBJECTID": 174,
    "ولایت": "کابل",
    "Province": "KABUL",
    "PC_Code": "0101263",
    "District": "KABUL-D13",
    "د_مرکز_نوم__نام_مرکز": "ليسه معرفت",
    "Polling_Center_Name": "Marefat High School",
    "د_مرکز_ځای__موقعیت_مرکز": "گذر گلستان",
    "Polling_Center_Location": "Guzar-e-Gulistan",
    "Map_Accuracy": "Building",
    "Map_Accuracy_Dari": "تعمیر",
    "Status": "Open",
    "Status_Dari": null,
    "PS_Male": 5,
    "PS_Female": 4,
    "PS_Total": 9,
    "ولسوالي": "کابل - ناحیه 13",
    "Region": "Central Region"
   },
   "geometry": {
    "x": 7687131.7421347918,
    "y": 4096127.9345217803
   }
  },
  {
   "attributes": {
    "OBJECTID": 175,
    "ولایت": "ننگرهار",
    "Province": "NANGARHAR",
    "PC_Code": "0617463",
    "District": "MUHMAND DARA",
    "د_مرکز_نوم__نام_مرکز": "صلح ازادی تجارتی لیسه",
    "Polling_Center_Name": "Sulh Azadi Commerce High School",
    "د_مرکز_ځای__موقعیت_مرکز": " لوي ډکه",
    "Polling_Center_Location": "Loy Daka",
    "Map_Accuracy": "Building",
    "Map_Accuracy_Dari": "تعمیر",
    "Status": "Open",
    "Status_Dari": null,
    "PS_Male": 4,
    "PS_Female": 0,
    "PS_Total": 4,
    "ولسوالي": "مهمند دره",
    "Region": "Eastern Region"
   },
   "geometry": {
    "x": 7908607.3949675336,
    "y": 4055806.0836326177
   }
  },
  {
   "attributes": {
    "OBJECTID": 176,
    "ولایت": "کابل",
    "Province": "KABUL",
    "PC_Code": "0101529",
    "District": "Nahia_15",
    "د_مرکز_نوم__نام_مرکز": "مسجد پروژه خراسان",
    "Polling_Center_Name": "Prozha khurasan Mosque",
    "د_مرکز_ځای__موقعیت_مرکز": "ناحیه 15",
    "Polling_Center_Location": "District-15",
    "Map_Accuracy": "Building",
    "Map_Accuracy_Dari": "تعمیر",
    "Status": "Open",
    "Status_Dari": null,
    "PS_Male": 2,
    "PS_Female": 1,
    "PS_Total": 3,
    "ولسوالي": "ناحیه_15",
    "Region": "Central Region"
   },
   "geometry": {
    "x": 7698863.532394073,
    "y": 4105903.0872400808
   }
  },
  {
   "attributes": {
    "OBJECTID": 177,
    "ولایت": "کابل",
    "Province": "KABUL",
    "PC_Code": "0101530",
    "District": "Nahia_15",
    "د_مرکز_نوم__نام_مرکز": "مسجد جامع خواجه بغرا",
    "Polling_Center_Name": "Khoja bughra Mosque",
    "د_مرکز_ځای__موقعیت_مرکز": "کوچه برج برق",
    "Polling_Center_Location": "Pawar station street",
    "Map_Accuracy": "Building",
    "Map_Accuracy_Dari": "تعمیر",
    "Status": "Open",
    "Status_Dari": null,
    "PS_Male": 2,
    "PS_Female": 1,
    "PS_Total": 3,
    "ولسوالي": "ناحیه_15",
    "Region": "Central Region"
   },
   "geometry": {
    "x": 7699259.0934028691,
    "y": 4107192.8521122206
   }
  },
  {
   "attributes": {
    "OBJECTID": 178,
    "ولایت": "کابل",
    "Province": "KABUL",
    "PC_Code": "0101531",
    "District": "Nahia_17",
    "د_مرکز_نوم__نام_مرکز": "لیسه خصوصی صدیق اکبر",
    "Polling_Center_Name": "Sedeq akbar High school",
    "د_مرکز_ځای__موقعیت_مرکز": "شهرک نجات",
    "Polling_Center_Location": "Nejat town",
    "Map_Accuracy": "Building",
    "Map_Accuracy_Dari": "تعمیر",
    "Status": "Open",
    "Status_Dari": null,
    "PS_Male": 3,
    "PS_Female": 2,
    "PS_Total": 5,
    "ولسوالي": "ناحیه_17",
    "Region": "Central Region"
   },
   "geometry": {
    "x": 7688646.3327513067,
    "y": 4110568.5869590221
   }
  },
  {
   "attributes": {
    "OBJECTID": 179,
    "ولایت": "کابل",
    "Province": "KABUL",
    "PC_Code": "0105533",
    "District": "Dehsabz",
    "د_مرکز_نوم__نام_مرکز": "مسجد حاجی عبدالله خان",
    "Polling_Center_Name": "Haji abdullah khan Mosque",
    "د_مرکز_ځای__موقعیت_مرکز": "اده تورخم",
    "Polling_Center_Location": "Torkham transportation station",
    "Map_Accuracy": "Building",
    "Map_Accuracy_Dari": "تعمیر",
    "Status": "Open",
    "Status_Dari": null,
    "PS_Male": 2,
    "PS_Female": 1,
    "PS_Total": 3,
    "ولسوالي": "ده سبز",
    "Region": "Central Region"
   },
   "geometry": {
    "x": 7724566.4851414822,
    "y": 4105169.12574691
   }
  },
  {
   "attributes": {
    "OBJECTID": 180,
    "ولایت": "کابل",
    "Province": "KABUL",
    "PC_Code": "0105541",
    "District": "Dehsabz",
    "د_مرکز_نوم__نام_مرکز": "مسجد قیس و لونگ",
    "Polling_Center_Name": "Qais wa lang Mosque",
    "د_مرکز_ځای__موقعیت_مرکز": "جیران",
    "Polling_Center_Location": "Jeeran",
    "Map_Accuracy": "Village",
    "Map_Accuracy_Dari": "قریه",
    "Status": "Open",
    "Status_Dari": null,
    "PS_Male": 2,
    "PS_Female": 1,
    "PS_Total": 3,
    "ولسوالي": "ده سبز",
    "Region": "Central Region"
   },
   "geometry": {
    "x": 7722526.7813399453,
    "y": 4110174.9011078733
   }
  },
  {
   "attributes": {
    "OBJECTID": 181,
    "ولایت": "کابل",
    "Province": "KABUL",
    "PC_Code": "0106542",
    "District": "Shakar Dara",
    "د_مرکز_نوم__نام_مرکز": "مسجد شهرک الغوی",
    "Polling_Center_Name": "Shahrak alghawi Mosque",
    "د_مرکز_ځای__موقعیت_مرکز": "شهرک الغوی",
    "Polling_Center_Location": "Alghawi town",
    "Map_Accuracy": "Building",
    "Map_Accuracy_Dari": "تعمیر",
    "Status": "Open",
    "Status_Dari": null,
    "PS_Male": 2,
    "PS_Female": 1,
    "PS_Total": 3,
    "ولسوالي": "شکردره",
    "Region": "Central Region"
   },
   "geometry": {
    "x": 7699888.8945539752,
    "y": 4112047.7480315324
   }
  },
  {
   "attributes": {
    "OBJECTID": 182,
    "ولایت": "ننگرهار",
    "Province": "NANGARHAR",
    "PC_Code": "0605511",
    "District": "KAMA",
    "د_مرکز_نوم__نام_مرکز": "ښوونځی",
    "Polling_Center_Name": "School",
    "د_مرکز_ځای__موقعیت_مرکز": " ده طاهر",
    "Polling_Center_Location": "Deh taher",
    "Map_Accuracy": "Building",
    "Map_Accuracy_Dari": "تعمیر",
    "Status": "Open",
    "Status_Dari": null,
    "PS_Male": 2,
    "PS_Female": 1,
    "PS_Total": 3,
    "ولسوالي": "کامه",
    "Region": "Eastern Region"
   },
   "geometry": {
    "x": 7861652.5061376635,
    "y": 4083056.0237895986
   }
  },
  {
   "attributes": {
    "OBJECTID": 183,
    "ولایت": "ننگرهار",
    "Province": "NANGARHAR",
    "PC_Code": "0602509",
    "District": "BEHSUD",
    "د_مرکز_نوم__نام_مرکز": "مکتب ابتدایه",
    "Polling_Center_Name": "Primary School",
    "د_مرکز_ځای__موقعیت_مرکز": "ګردیکس",
    "Polling_Center_Location": "Gardiks",
    "Map_Accuracy": "Village",
    "Map_Accuracy_Dari": "قریه",
    "Status": "Open",
    "Status_Dari": null,
    "PS_Male": 2,
    "PS_Female": 1,
    "PS_Total": 3,
    "ولسوالي": "بهسود",
    "Region": "Eastern Region"
   },
   "geometry": {
    "x": 7866271.2495491942,
    "y": 4080951.6933992077
   }
  },
  {
   "attributes": {
    "OBJECTID": 184,
    "ولایت": "ننگرهار",
    "Province": "NANGARHAR",
    "PC_Code": "0603510",
    "District": "SURKH RUD",
    "د_مرکز_نوم__نام_مرکز": "مکتب سیدوخیل",
    "Polling_Center_Name": "Saido khil School",
    "د_مرکز_ځای__موقعیت_مرکز": "سیدو خیل",
    "Polling_Center_Location": "Saido khil",
    "Map_Accuracy": "Building",
    "Map_Accuracy_Dari": "تعمیر",
    "Status": "Open",
    "Status_Dari": null,
    "PS_Male": 2,
    "PS_Female": 1,
    "PS_Total": 3,
    "ولسوالي": "سرخ رود",
    "Region": "Eastern Region"
   },
   "geometry": {
    "x": 7828362.2334141992,
    "y": 4085886.0136498399
   }
  },
  {
   "attributes": {
    "OBJECTID": 185,
    "ولایت": "ننگرهار",
    "Province": "NANGARHAR",
    "PC_Code": "0605514",
    "District": "KAMA",
    "د_مرکز_نوم__نام_مرکز": "جومات ",
    "Polling_Center_Name": "Mosque",
    "د_مرکز_ځای__موقعیت_مرکز": "بازید خیل",
    "Polling_Center_Location": "Bazid khil",
    "Map_Accuracy": "Building",
    "Map_Accuracy_Dari": "تعمیر",
    "Status": "Open",
    "Status_Dari": null,
    "PS_Male": 2,
    "PS_Female": 1,
    "PS_Total": 3,
    "ولسوالي": "کامه",
    "Region": "Eastern Region"
   },
   "geometry": {
    "x": 7864747.4176338296,
    "y": 4086838.7360135703
   }
  },
  {
   "attributes": {
    "OBJECTID": 186,
    "ولایت": "ننگرهار",
    "Province": "NANGARHAR",
    "PC_Code": "0606515",
    "District": "KUZ KUNAR",
    "د_مرکز_نوم__نام_مرکز": "مکتب گمبیری",
    "Polling_Center_Name": "Gambiri School",
    "د_مرکز_ځای__موقعیت_مرکز": "گمبیری",
    "Polling_Center_Location": "Gambiri",
    "Map_Accuracy": "Building",
    "Map_Accuracy_Dari": "تعمیر",
    "Status": "Open",
    "Status_Dari": null,
    "PS_Male": 2,
    "PS_Female": 1,
    "PS_Total": 3,
    "ولسوالي": "کوز کنر",
    "Region": "Eastern Region"
   },
   "geometry": {
    "x": 7851364.7591034379,
    "y": 4104752.1649978547
   }
  },
  {
   "attributes": {
    "OBJECTID": 187,
    "ولایت": "ننگرهار",
    "Province": "NANGARHAR",
    "PC_Code": "0608516",
    "District": "KHUGYANI",
    "د_مرکز_نوم__نام_مرکز": "لیسه",
    "Polling_Center_Name": "High school",
    "د_مرکز_ځای__موقعیت_مرکز": "چمتله",
    "Polling_Center_Location": "Chemtala",
    "Map_Accuracy": "Building",
    "Map_Accuracy_Dari": "تعمیر",
    "Status": "Open",
    "Status_Dari": null,
    "PS_Male": 2,
    "PS_Female": 1,
    "PS_Total": 3,
    "ولسوالي": "خوگیانی",
    "Region": "Eastern Region"
   },
   "geometry": {
    "x": 7813500.9549343549,
    "y": 4075540.1821247358
   }
  },
  {
   "attributes": {
    "OBJECTID": 188,
    "ولایت": "پنجشیر",
    "Province": "PANJSHIR",
    "PC_Code": "0801097",
    "District": "BAZARAK",
    "د_مرکز_نوم__نام_مرکز": "مکتب متوسطه کوه منجهور ",
    "Polling_Center_Name": "Koh manjahoor Secondary School",
    "د_مرکز_ځای__موقعیت_مرکز": "دشتک",
    "Polling_Center_Location": "Dashtak",
    "Map_Accuracy": "Building",
    "Map_Accuracy_Dari": "تعمیر",
    "Status": "Open",
    "Status_Dari": null,
    "PS_Male": 2,
    "PS_Female": 1,
    "PS_Total": 3,
    "ولسوالي": "بازارک",
    "Region": "Central Region"
   },
   "geometry": {
    "x": 7741916.1319475882,
    "y": 4206055.3166056974
   }
  },
  {
   "attributes": {
    "OBJECTID": 189,
    "ولایت": "پنجشیر",
    "Province": "PANJSHIR",
    "PC_Code": "0801098",
    "District": "BAZARAK",
    "د_مرکز_نوم__نام_مرکز": "مسجد مارشال فهیم",
    "Polling_Center_Name": "Marshal faheem Mosque",
    "د_مرکز_ځای__موقعیت_مرکز": "مرکزولایت،بازارک",
    "Polling_Center_Location": "Province center_Bazarak",
    "Map_Accuracy": "Building",
    "Map_Accuracy_Dari": "تعمیر",
    "Status": "Open",
    "Status_Dari": null,
    "PS_Male": 2,
    "PS_Female": 1,
    "PS_Total": 3,
    "ولسوالي": "بازارک",
    "Region": "Central Region"
   },
   "geometry": {
    "x": 7734430.1959751295,
    "y": 4201689.1331146481
   }
  },
  {
   "attributes": {
    "OBJECTID": 190,
    "ولایت": "بغلان",
    "Province": "BAGHLAN",
    "PC_Code": "0903262",
    "District": "Doshi",
    "د_مرکز_نوم__نام_مرکز": "مکتب متوسطه سنگ سوراخ",
    "Polling_Center_Name": "Sang sorakh Secondary School",
    "د_مرکز_ځای__موقعیت_مرکز": "سنگ سوراخ",
    "Polling_Center_Location": "Sang sorakh",
    "Map_Accuracy": "Building",
    "Map_Accuracy_Dari": "تعمیر",
    "Status": "Open",
    "Status_Dari": null,
    "PS_Male": 2,
    "PS_Female": 1,
    "PS_Total": 3,
    "ولسوالي": "دوشی",
    "Region": "North Eastern Region"
   },
   "geometry": {
    "x": 7655351.9832854467,
    "y": 4267498.3420154238
   }
  },
  {
   "attributes": {
    "OBJECTID": 191,
    "ولایت": "بغلان",
    "Province": "BAGHLAN",
    "PC_Code": "0903263",
    "District": "Doshi",
    "د_مرکز_نوم__نام_مرکز": "مکتب متوسطه ناصری",
    "Polling_Center_Name": "Nasri Secondary school",
    "د_مرکز_ځای__موقعیت_مرکز": "ناصری ها",
    "Polling_Center_Location": "Naseri ha",
    "Map_Accuracy": "Building",
    "Map_Accuracy_Dari": "تعمیر",
    "Status": "Open",
    "Status_Dari": null,
    "PS_Male": 2,
    "PS_Female": 1,
    "PS_Total": 3,
    "ولسوالي": "دوشی",
    "Region": "North Eastern Region"
   },
   "geometry": {
    "x": 7659346.1160397576,
    "y": 4278219.6017185804
   }
  },
  {
   "attributes": {
    "OBJECTID": 192,
    "ولایت": "بغلان",
    "Province": "BAGHLAN",
    "PC_Code": "0903264",
    "District": "Doshi",
    "د_مرکز_نوم__نام_مرکز": "مکتب ",
    "Polling_Center_Name": "School",
    "د_مرکز_ځای__موقعیت_مرکز": "دره گی ",
    "Polling_Center_Location": "Dara gai",
    "Map_Accuracy": "Building",
    "Map_Accuracy_Dari": "تعمیر",
    "Status": "Open",
    "Status_Dari": null,
    "PS_Male": 2,
    "PS_Female": 1,
    "PS_Total": 3,
    "ولسوالي": "دوشی",
    "Region": "North Eastern Region"
   },
   "geometry": {
    "x": 7641847.4236787455,
    "y": 4245464.2357919328
   }
  },
  {
   "attributes": {
    "OBJECTID": 193,
    "ولایت": "بدخشان",
    "Province": "BADAKHSHAN",
    "PC_Code": "1701284",
    "District": "FAIZ ABAD",
    "د_مرکز_نوم__نام_مرکز": "لیسه ذکور تجربوی الجهاد ",
    "Polling_Center_Name": "Al jahad High school",
    "د_مرکز_ځای__موقعیت_مرکز": "دشت شهداء",
    "Polling_Center_Location": "Dasht shhada",
    "Map_Accuracy": "Building",
    "Map_Accuracy_Dari": "تعمیر",
    "Status": "Open",
    "Status_Dari": null,
    "PS_Male": 2,
    "PS_Female": 1,
    "PS_Total": 3,
    "ولسوالي": "فیض آباد",
    "Region": "North Eastern Region"
   },
   "geometry": {
    "x": 7852102.9622841319,
    "y": 4453836.9475950142
   }
  },
  {
   "attributes": {
    "OBJECTID": 194,
    "ولایت": "بدخشان",
    "Province": "BADAKHSHAN",
    "PC_Code": "1704292",
    "District": "YAFTAL-E-SUFLA",
    "د_مرکز_نوم__نام_مرکز": " لیسه ورینگ",
    "Polling_Center_Name": "Warig High school",
    "د_مرکز_ځای__موقعیت_مرکز": "ورنگ",
    "Polling_Center_Location": "Warang",
    "Map_Accuracy": "Building",
    "Map_Accuracy_Dari": "تعمیر",
    "Status": "Open",
    "Status_Dari": null,
    "PS_Male": 2,
    "PS_Female": 1,
    "PS_Total": 3,
    "ولسوالي": "یفتل سفلی",
    "Region": "North Eastern Region"
   },
   "geometry": {
    "x": 7843102.7222315278,
    "y": 4480802.8045296241
   }
  },
  {
   "attributes": {
    "OBJECTID": 195,
    "ولایت": "بدخشان",
    "Province": "BADAKHSHAN",
    "PC_Code": "1704293",
    "District": "YAFTAL-E-SUFLA",
    "د_مرکز_نوم__نام_مرکز": "مکتب متوسطه پهندره",
    "Polling_Center_Name": "Pahn dara Secondary school",
    "د_مرکز_ځای__موقعیت_مرکز": "پهن دره",
    "Polling_Center_Location": "Pahn dara",
    "Map_Accuracy": "Building",
    "Map_Accuracy_Dari": "تعمیر",
    "Status": "Open",
    "Status_Dari": null,
    "PS_Male": 2,
    "PS_Female": 1,
    "PS_Total": 3,
    "ولسوالي": "یفتل سفلی",
    "Region": "North Eastern Region"
   },
   "geometry": {
    "x": 7839879.8864953648,
    "y": 4490083.0176161109
   }
  },
  {
   "attributes": {
    "OBJECTID": 196,
    "ولایت": "بدخشان",
    "Province": "BADAKHSHAN",
    "PC_Code": "1707294",
    "District": "DARAYIM",
    "د_مرکز_نوم__نام_مرکز": " مدرسه ترگنی پاین",
    "Polling_Center_Name": "Targani payan Madrasa",
    "د_مرکز_ځای__موقعیت_مرکز": "ترگنی پایان",
    "Polling_Center_Location": "Trangai paian",
    "Map_Accuracy": "Building",
    "Map_Accuracy_Dari": "تعمیر",
    "Status": "Open",
    "Status_Dari": null,
    "PS_Male": 2,
    "PS_Female": 1,
    "PS_Total": 3,
    "ولسوالي": "درایم",
    "Region": "North Eastern Region"
   },
   "geometry": {
    "x": 7841041.8644984718,
    "y": 4420212.9577406868
   }
  },
  {
   "attributes": {
    "OBJECTID": 197,
    "ولایت": "خوست",
    "Province": "KHOST",
    "PC_Code": "1404182",
    "District": "TANAY",
    "د_مرکز_نوم__نام_مرکز": "شاعر کلي جومات",
    "Polling_Center_Name": "Shahr kli Mosque",
    "د_مرکز_ځای__موقعیت_مرکز": "شاعر کلى",
    "Polling_Center_Location": "Shaher village",
    "Map_Accuracy": "District",
    "Map_Accuracy_Dari": "ولسوالی",
    "Status": "Open",
    "Status_Dari": null,
    "PS_Male": 2,
    "PS_Female": 1,
    "PS_Total": 3,
    "ولسوالي": "تنی",
    "Region": "South Eastern Region"
   },
   "geometry": {
    "x": 7777580.846181415,
    "y": 3933689.0707196714
   }
  },
  {
   "attributes": {
    "OBJECTID": 198,
    "ولایت": "خوست",
    "Province": "KHOST",
    "PC_Code": "1401024",
    "District": "KHOST",
    "د_مرکز_نوم__نام_مرکز": "د محمد انور جومات او هجره ",
    "Polling_Center_Name": "Mohammad Anwer Mosque and Hojra",
    "د_مرکز_ځای__موقعیت_مرکز": "متون چينې کلى",
    "Polling_Center_Location": "Maton Chinay Village",
    "Map_Accuracy": "Village",
    "Map_Accuracy_Dari": "قریه",
    "Status": "Open",
    "Status_Dari": null,
    "PS_Male": 2,
    "PS_Female": 1,
    "PS_Total": 3,
    "ولسوالي": "خوست",
    "Region": "South Eastern Region"
   },
   "geometry": {
    "x": 7779128.0227958746,
    "y": 3939723.2549649598
   }
  },
  {
   "attributes": {
    "OBJECTID": 199,
    "ولایت": "پکتيکا",
    "Province": "PAKTIKA",
    "PC_Code": "1211163",
    "District": "URGOON",
    "د_مرکز_نوم__نام_مرکز": "ارګون زوړ ښوونځی قرخیل ",
    "Polling_Center_Name": "Orgon Old School",
    "د_مرکز_ځای__موقعیت_مرکز": "قره خیل کلی",
    "Polling_Center_Location": "Qara Khel Village",
    "Map_Accuracy": "Village",
    "Map_Accuracy_Dari": "قریه",
    "Status": "Open",
    "Status_Dari": null,
    "PS_Male": 2,
    "PS_Female": 0,
    "PS_Total": 2,
    "ولسوالي": "اورگون",
    "Region": "South Eastern Region"
   },
   "geometry": {
    "x": 7698674.9777707756,
    "y": 3884554.1815762245
   }
  },
  {
   "attributes": {
    "OBJECTID": 200,
    "ولایت": "پکتيکا",
    "Province": "PAKTIKA",
    "PC_Code": "1214252",
    "District": "BARMAL",
    "د_مرکز_نوم__نام_مرکز": "ملا اقب خان میلمستون",
    "Polling_Center_Name": "Molla Aqib Khan Guest House",
    "د_مرکز_ځای__موقعیت_مرکز": "فاخر خان مدرسه",
    "Polling_Center_Location": "Fakhir Khan Madrassa",
    "Map_Accuracy": "Village",
    "Map_Accuracy_Dari": "قریه",
    "Status": "Open",
    "Status_Dari": null,
    "PS_Male": 0,
    "PS_Female": 3,
    "PS_Total": 3,
    "ولسوالي": "برمل",
    "Region": "South Eastern Region"
   },
   "geometry": {
    "x": 7712929.2159278756,
    "y": 3860938.8358250251
   }
  }
 ]
}