{
 "displayFieldName": "Polling_Center_Name",
 "fieldAliases": {
  "OBJECTID": "OBJECTID",
  "ولایت": "ولایت",
  "Province": "Province",
  "PC_Code": "PC_Code",
  "District": "District",
  "د_مرکز_نوم__نام_مرکز": "د_مرکز_نوم__نام_مرکز",
  "Polling_Center_Name": "Polling_Center_Name",
  "د_مرکز_ځای__موقعیت_مرکز": "د_مرکز_ځای__موقعیت_مرکز",
  "Polling_Center_Location": "Polling_Center_Location",
  "Map_Accuracy": "Map_Accuracy",
  "Map_Accuracy_Dari": "Map_Accuracy_Dari",
  "Status": "Status",
  "Status_Dari": "Status_Dari",
  "PS_Male": "PS_Male",
  "PS_Female": "PS_Female",
  "PS_Total": "PS_Total",
  "ولسوالي": "ولسوالي",
  "Region": "Region"
 },
 "geometryType": "esriGeometryPoint",
 "spatialReference": {
  "wkid": 102100,
  "latestWkid": 3857
 },
 "fields": [
  {
   "name": "OBJECTID",
   "type": "esriFieldTypeOID",
   "alias": "OBJECTID"
  },
  {
   "name": "ولایت",
   "type": "esriFieldTypeString",
   "alias": "ولایت",
   "length": 255
  },
  {
   "name": "Province",
   "type": "esriFieldTypeString",
   "alias": "Province",
   "length": 255
  },
  {
   "name": "PC_Code",
   "type": "esriFieldTypeString",
   "alias": "PC_Code",
   "length": 255
  },
  {
   "name": "District",
   "type": "esriFieldTypeString",
   "alias": "District",
   "length": 255
  },
  {
   "name": "د_مرکز_نوم__نام_مرکز",
   "type": "esriFieldTypeString",
   "alias": "د_مرکز_نوم__نام_مرکز",
   "length": 255
  },
  {
   "name": "Polling_Center_Name",
   "type": "esriFieldTypeString",
   "alias": "Polling_Center_Name",
   "length": 255
  },
  {
   "name": "د_مرکز_ځای__موقعیت_مرکز",
   "type": "esriFieldTypeString",
   "alias": "د_مرکز_ځای__موقعیت_مرکز",
   "length": 255
  },
  {
   "name": "Polling_Center_Location",
   "type": "esriFieldTypeString",
   "alias": "Polling_Center_Location",
   "length": 255
  },
  {
   "name": "Map_Accuracy",
   "type": "esriFieldTypeString",
   "alias": "Map_Accuracy",
   "length": 10
  },
  {
   "name": "Map_Accuracy_Dari",
   "type": "esriFieldTypeString",
   "alias": "Map_Accuracy_Dari",
   "length": 50
  },
  {
   "name": "Status",
   "type": "esriFieldTypeString",
   "alias": "Status",
   "length": 6
  },
  {
   "name": "Status_Dari",
   "type": "esriFieldTypeString",
   "alias": "Status_Dari",
   "length": 8
  },
  {
   "name": "PS_Male",
   "type": "esriFieldTypeSmallInteger",
   "alias": "PS_Male"
  },
  {
   "name": "PS_Female",
   "type": "esriFieldTypeSmallInteger",
   "alias": "PS_Female"
  },
  {
   "name": "PS_Total",
   "type": "esriFieldTypeSmallInteger",
   "alias": "PS_Total"
  },
  {
   "name": "ولسوالي",
   "type": "esriFieldTypeString",
   "alias": "ولسوالي",
   "length": 255
  },
  {
   "name": "Region",
   "type": "esriFieldTypeString",
   "alias": "Region",
   "length": 50
  }
 ],
 "features": [
  {
   "attributes": {
    "OBJECTID": 1601,
    "ولایت": "کندز",
    "Province": "KUNDUZ",
    "PC_Code": "1907099",
    "District": "QALA-E-ZAL",
    "د_مرکز_نوم__نام_مرکز": "لیسه مرکزی قلعه ذال",
    "Polling_Center_Name": "Markazi Qala Zaal High School",
    "د_مرکز_ځای__موقعیت_مرکز": "آرساری",
    "Polling_Center_Location": "Aarsari",
    "Map_Accuracy": "Building",
    "Map_Accuracy_Dari": "تعمیر",
    "Status": "Open",
    "Status_Dari": null,
    "PS_Male": 4,
    "PS_Female": 1,
    "PS_Total": 5,
    "ولسوالي": "قلعه ذال",
    "Region": "North Eastern Region"
   },
   "geometry": {
    "x": 7618253.4294824041,
    "y": 4440257.7885847231
   }
  },
  {
   "attributes": {
    "OBJECTID": 1602,
    "ولایت": "کندز",
    "Province": "KUNDUZ",
    "PC_Code": "1907104",
    "District": "QALA-E-ZAL",
    "د_مرکز_نوم__نام_مرکز": "مکتب کلوخ تپه ",
    "Polling_Center_Name": "Kolokh Tapa School",
    "د_مرکز_ځای__موقعیت_مرکز": "کلوخ تپه",
    "Polling_Center_Location": "Kolokh Tapa ",
    "Map_Accuracy": "Building",
    "Map_Accuracy_Dari": "تعمیر",
    "Status": "Open",
    "Status_Dari": null,
    "PS_Male": 3,
    "PS_Female": 1,
    "PS_Total": 4,
    "ولسوالي": "قلعه ذال",
    "Region": "North Eastern Region"
   },
   "geometry": {
    "x": 7591654.20377356,
    "y": 4437411.0209264169
   }
  },
  {
   "attributes": {
    "OBJECTID": 1603,
    "ولایت": "کندز",
    "Province": "KUNDUZ",
    "PC_Code": "1907105",
    "District": "QALA-E-ZAL",
    "د_مرکز_نوم__نام_مرکز": "مکتب ینگی آرق",
    "Polling_Center_Name": "Yangee Aaraq School",
    "د_مرکز_ځای__موقعیت_مرکز": "ینگی آرق",
    "Polling_Center_Location": "Yangee Aaraq",
    "Map_Accuracy": "Building",
    "Map_Accuracy_Dari": "تعمیر",
    "Status": "Open",
    "Status_Dari": null,
    "PS_Male": 2,
    "PS_Female": 2,
    "PS_Total": 4,
    "ولسوالي": "قلعه ذال",
    "Region": "North Eastern Region"
   },
   "geometry": {
    "x": 7639083.9878963577,
    "y": 4425780.1928075692
   }
  },
  {
   "attributes": {
    "OBJECTID": 1604,
    "ولایت": "کندز",
    "Province": "KUNDUZ",
    "PC_Code": "1901032",
    "District": "KUNDUZ",
    "د_مرکز_نوم__نام_مرکز": "لیسه کوبهی",
    "Polling_Center_Name": "Kobahi High School",
    "د_مرکز_ځای__موقعیت_مرکز": "کوبهی",
    "Polling_Center_Location": "Kobahi",
    "Map_Accuracy": "Building",
    "Map_Accuracy_Dari": "تعمیر",
    "Status": "Open",
    "Status_Dari": null,
    "PS_Male": 3,
    "PS_Female": 2,
    "PS_Total": 5,
    "ولسوالي": "کندز",
    "Region": "North Eastern Region"
   },
   "geometry": {
    "x": 7680148.1238986282,
    "y": 4400690.0207646964
   }
  },
  {
   "attributes": {
    "OBJECTID": 1605,
    "ولایت": "کندز",
    "Province": "KUNDUZ",
    "PC_Code": "1901033",
    "District": "KUNDUZ",
    "د_مرکز_نوم__نام_مرکز": "مکتب انگور باغ",
    "Polling_Center_Name": "Angoor Bagh School",
    "د_مرکز_ځای__موقعیت_مرکز": "انگور باغ",
    "Polling_Center_Location": "Angoor Bagh",
    "Map_Accuracy": "Building",
    "Map_Accuracy_Dari": "تعمیر",
    "Status": "Open",
    "Status_Dari": null,
    "PS_Male": 3,
    "PS_Female": 2,
    "PS_Total": 5,
    "ولسوالي": "کندز",
    "Region": "North Eastern Region"
   },
   "geometry": {
    "x": 7668704.2587192934,
    "y": 4392833.0473350715
   }
  },
  {
   "attributes": {
    "OBJECTID": 1606,
    "ولایت": "کندز",
    "Province": "KUNDUZ",
    "PC_Code": "1903133",
    "District": "ALI ABAD",
    "د_مرکز_نوم__نام_مرکز": "لیسه ذکور لرخابی",
    "Polling_Center_Name": "Larkhabi Boys High School",
    "د_مرکز_ځای__موقعیت_مرکز": "قریه ارباب رمضانی",
    "Polling_Center_Location": "Arbab Ramazani Village",
    "Map_Accuracy": "Building",
    "Map_Accuracy_Dari": "تعمیر",
    "Status": "Open",
    "Status_Dari": null,
    "PS_Male": 3,
    "PS_Female": 2,
    "PS_Total": 5,
    "ولسوالي": "علی آباد",
    "Region": "North Eastern Region"
   },
   "geometry": {
    "x": 7670679.6709508011,
    "y": 4376645.816448682
   }
  },
  {
   "attributes": {
    "OBJECTID": 1607,
    "ولایت": "کندز",
    "Province": "KUNDUZ",
    "PC_Code": "1903134",
    "District": "ALI ABAD",
    "د_مرکز_نوم__نام_مرکز": "مکتب متوسطه قزل سای",
    "Polling_Center_Name": "Qazal Say Secondary School",
    "د_مرکز_ځای__موقعیت_مرکز": "قریه قزل سای",
    "Polling_Center_Location": "Qazal Say Village",
    "Map_Accuracy": "Building",
    "Map_Accuracy_Dari": "تعمیر",
    "Status": "Open",
    "Status_Dari": null,
    "PS_Male": 2,
    "PS_Female": 2,
    "PS_Total": 4,
    "ولسوالي": "علی آباد",
    "Region": "North Eastern Region"
   },
   "geometry": {
    "x": 7667797.2709229076,
    "y": 4361812.7418286102
   }
  },
  {
   "attributes": {
    "OBJECTID": 1608,
    "ولایت": "کندز",
    "Province": "KUNDUZ",
    "PC_Code": "1904158",
    "District": "KHAN ABAD",
    "د_مرکز_نوم__نام_مرکز": "لیسه ذکور صدر رمضان",
    "Polling_Center_Name": "Sadr Ramazan Boys High School",
    "د_مرکز_ځای__موقعیت_مرکز": "قریه صدر رمضان",
    "Polling_Center_Location": "Sadr Ramazan Village",
    "Map_Accuracy": "Building",
    "Map_Accuracy_Dari": "تعمیر",
    "Status": "Open",
    "Status_Dari": null,
    "PS_Male": 1,
    "PS_Female": 1,
    "PS_Total": 2,
    "ولسوالي": "خان آباد",
    "Region": "North Eastern Region"
   },
   "geometry": {
    "x": 7683226.284817053,
    "y": 4396413.0061821993
   }
  },
  {
   "attributes": {
    "OBJECTID": 1609,
    "ولایت": "کندز",
    "Province": "KUNDUZ",
    "PC_Code": "1904163",
    "District": "KHAN ABAD",
    "د_مرکز_نوم__نام_مرکز": "کلینیک بوهین ",
    "Polling_Center_Name": "Boheen Clinic",
    "د_مرکز_ځای__موقعیت_مرکز": "قریه بوهین علیا",
    "Polling_Center_Location": "Boheen Ulya Village",
    "Map_Accuracy": "Building",
    "Map_Accuracy_Dari": "تعمیر",
    "Status": "Open",
    "Status_Dari": null,
    "PS_Male": 1,
    "PS_Female": 1,
    "PS_Total": 2,
    "ولسوالي": "خان آباد",
    "Region": "North Eastern Region"
   },
   "geometry": {
    "x": 7686472.7329756804,
    "y": 4399146.3312844131
   }
  },
  {
   "attributes": {
    "OBJECTID": 1610,
    "ولایت": "کندز",
    "Province": "KUNDUZ",
    "PC_Code": "1904170",
    "District": "KHAN ABAD",
    "د_مرکز_نوم__نام_مرکز": "مسجد جمعه خوانی اوچقدق",
    "Polling_Center_Name": "Ochqadaq Juma Khowani Mosque",
    "د_مرکز_ځای__موقعیت_مرکز": "قریه اوچ قدق",
    "Polling_Center_Location": "Ochqadaq Village",
    "Map_Accuracy": "Building",
    "Map_Accuracy_Dari": "تعمیر",
    "Status": "Open",
    "Status_Dari": null,
    "PS_Male": 1,
    "PS_Female": 1,
    "PS_Total": 2,
    "ولسوالي": "خان آباد",
    "Region": "North Eastern Region"
   },
   "geometry": {
    "x": 7704279.2673659772,
    "y": 4374710.7807459282
   }
  },
  {
   "attributes": {
    "OBJECTID": 1611,
    "ولایت": "کندز",
    "Province": "KUNDUZ",
    "PC_Code": "1904171",
    "District": "KHAN ABAD",
    "د_مرکز_نوم__نام_مرکز": "مسجد جمعه خوانی صندوق سای",
    "Polling_Center_Name": "Sondoq Say Juma Khowani Mosque",
    "د_مرکز_ځای__موقعیت_مرکز": "قریه صندوق سای",
    "Polling_Center_Location": "Sondoq Say Village",
    "Map_Accuracy": "Building",
    "Map_Accuracy_Dari": "تعمیر",
    "Status": "Open",
    "Status_Dari": null,
    "PS_Male": 1,
    "PS_Female": 1,
    "PS_Total": 2,
    "ولسوالي": "خان آباد",
    "Region": "North Eastern Region"
   },
   "geometry": {
    "x": 7691895.6731016282,
    "y": 4380643.7468788996
   }
  },
  {
   "attributes": {
    "OBJECTID": 1612,
    "ولایت": "کندز",
    "Province": "KUNDUZ",
    "PC_Code": "1905085",
    "District": "HAZRAT-E-IMAM SAHIB",
    "د_مرکز_نوم__نام_مرکز": "لیسه قره کوترمه",
    "Polling_Center_Name": "Kotrama High School",
    "د_مرکز_ځای__موقعیت_مرکز": "قره کوترمه بارزنگی",
    "Polling_Center_Location": "Kotrama Barzangi Village",
    "Map_Accuracy": "Building",
    "Map_Accuracy_Dari": "تعمیر",
    "Status": "Open",
    "Status_Dari": null,
    "PS_Male": 3,
    "PS_Female": 1,
    "PS_Total": 4,
    "ولسوالي": "حضرت امام صاحب",
    "Region": "North Eastern Region"
   },
   "geometry": {
    "x": 7646262.1547537996,
    "y": 4460611.3757490488
   }
  },
  {
   "attributes": {
    "OBJECTID": 1613,
    "ولایت": "کندز",
    "Province": "KUNDUZ",
    "PC_Code": "1905086",
    "District": "HAZRAT-E-IMAM SAHIB",
    "د_مرکز_نوم__نام_مرکز": "مکتب متوسطه بیش کپه",
    "Polling_Center_Name": "Besh Kapa Secondary School",
    "د_مرکز_ځای__موقعیت_مرکز": "بیش کپه",
    "Polling_Center_Location": "Besh Kapa",
    "Map_Accuracy": "Building",
    "Map_Accuracy_Dari": "تعمیر",
    "Status": "Open",
    "Status_Dari": null,
    "PS_Male": 4,
    "PS_Female": 2,
    "PS_Total": 6,
    "ولسوالي": "حضرت امام صاحب",
    "Region": "North Eastern Region"
   },
   "geometry": {
    "x": 7663189.089282034,
    "y": 4458527.6619685199
   }
  },
  {
   "attributes": {
    "OBJECTID": 1614,
    "ولایت": "کندز",
    "Province": "KUNDUZ",
    "PC_Code": "1905095",
    "District": "HAZRAT-E-IMAM SAHIB",
    "د_مرکز_نوم__نام_مرکز": "مکتب آب فروشان",
    "Polling_Center_Name": "Aab Froshan School",
    "د_مرکز_ځای__موقعیت_مرکز": "آب فروشان",
    "Polling_Center_Location": "Aab Froshan",
    "Map_Accuracy": "Building",
    "Map_Accuracy_Dari": "تعمیر",
    "Status": "Open",
    "Status_Dari": null,
    "PS_Male": 3,
    "PS_Female": 1,
    "PS_Total": 4,
    "ولسوالي": "حضرت امام صاحب",
    "Region": "North Eastern Region"
   },
   "geometry": {
    "x": 7670652.658163161,
    "y": 4470424.9892342743
   }
  },
  {
   "attributes": {
    "OBJECTID": 1615,
    "ولایت": "کندز",
    "Province": "KUNDUZ",
    "PC_Code": "1905096",
    "District": "HAZRAT-E-IMAM SAHIB",
    "د_مرکز_نوم__نام_مرکز": "مکتب ابتدائیه جیهون",
    "Polling_Center_Name": "Jaihoon Primary School",
    "د_مرکز_ځای__موقعیت_مرکز": "حلقه کول",
    "Polling_Center_Location": "Halqa Kol",
    "Map_Accuracy": "Building",
    "Map_Accuracy_Dari": "تعمیر",
    "Status": "Open",
    "Status_Dari": null,
    "PS_Male": 3,
    "PS_Female": 1,
    "PS_Total": 4,
    "ولسوالي": "حضرت امام صاحب",
    "Region": "North Eastern Region"
   },
   "geometry": {
    "x": 7668915.6867149603,
    "y": 4469853.2465053806
   }
  },
  {
   "attributes": {
    "OBJECTID": 1616,
    "ولایت": "کندز",
    "Province": "KUNDUZ",
    "PC_Code": "1907206",
    "District": "QALA-E-ZAL",
    "د_مرکز_نوم__نام_مرکز": "مکتب سخسه کول",
    "Polling_Center_Name": "Sakhsa Kol School",
    "د_مرکز_ځای__موقعیت_مرکز": "سخسه کول",
    "Polling_Center_Location": "Sakhsa Kol",
    "Map_Accuracy": "Building",
    "Map_Accuracy_Dari": "تعمیر",
    "Status": "Open",
    "Status_Dari": null,
    "PS_Male": 1,
    "PS_Female": 1,
    "PS_Total": 2,
    "ولسوالي": "قلعه ذال",
    "Region": "North Eastern Region"
   },
   "geometry": {
    "x": 7623103.6041115373,
    "y": 4444130.7771431627
   }
  },
  {
   "attributes": {
    "OBJECTID": 1617,
    "ولایت": "سمنگان",
    "Province": "SAMANGAN",
    "PC_Code": "2001001",
    "District": "AYBAK",
    "د_مرکز_نوم__نام_مرکز": "مدرسه منغر",
    "Polling_Center_Name": "Manghar Madrassa",
    "د_مرکز_ځای__موقعیت_مرکز": "قریه منغر",
    "Polling_Center_Location": "Manghar Village",
    "Map_Accuracy": "Building",
    "Map_Accuracy_Dari": "تعمیر",
    "Status": "Open",
    "Status_Dari": null,
    "PS_Male": 2,
    "PS_Female": 1,
    "PS_Total": 3,
    "ولسوالي": "ایبک",
    "Region": "Northern Region"
   },
   "geometry": {
    "x": 7565387.0307474136,
    "y": 4337131.7031672001
   }
  },
  {
   "attributes": {
    "OBJECTID": 1618,
    "ولایت": "سمنگان",
    "Province": "SAMANGAN",
    "PC_Code": "2001089",
    "District": "AYBAK",
    "د_مرکز_نوم__نام_مرکز": "مکتب متوسطه خواجه برهان",
    "Polling_Center_Name": "Khwaja Burhan Secondary Schoo",
    "د_مرکز_ځای__موقعیت_مرکز": "قریه قره غاج",
    "Polling_Center_Location": "Qara Ghaj Village",
    "Map_Accuracy": "District",
    "Map_Accuracy_Dari": "ولسوالی",
    "Status": "Open",
    "Status_Dari": null,
    "PS_Male": 2,
    "PS_Female": 1,
    "PS_Total": 3,
    "ولسوالي": "ایبک",
    "Region": "Northern Region"
   },
   "geometry": {
    "x": 7574643.6401439114,
    "y": 4337632.4218041198
   }
  },
  {
   "attributes": {
    "OBJECTID": 1619,
    "ولایت": "سمنگان",
    "Province": "SAMANGAN",
    "PC_Code": "2002019",
    "District": "HAZRAT-E-SULTAN",
    "د_مرکز_نوم__نام_مرکز": "مسجد اوملی",
    "Polling_Center_Name": "Omli Mosque",
    "د_مرکز_ځای__موقعیت_مرکز": "قریه اوملی",
    "Polling_Center_Location": "Omli Village",
    "Map_Accuracy": "Building",
    "Map_Accuracy_Dari": "تعمیر",
    "Status": "Open",
    "Status_Dari": null,
    "PS_Male": 2,
    "PS_Female": 1,
    "PS_Total": 3,
    "ولسوالي": "حضرت سلطان",
    "Region": "North Eastern Region"
   },
   "geometry": {
    "x": 7607666.4683473483,
    "y": 4368758.0873505101
   }
  },
  {
   "attributes": {
    "OBJECTID": 1620,
    "ولایت": "سمنگان",
    "Province": "SAMANGAN",
    "PC_Code": "2002027",
    "District": "HAZRAT-E-SULTAN",
    "د_مرکز_نوم__نام_مرکز": "مسجد بایلر",
    "Polling_Center_Name": "Boylar Mosque",
    "د_مرکز_ځای__موقعیت_مرکز": "قریه بایلر",
    "Polling_Center_Location": "Boylar Village",
    "Map_Accuracy": "Village",
    "Map_Accuracy_Dari": "قریه",
    "Status": "Open",
    "Status_Dari": null,
    "PS_Male": 1,
    "PS_Female": 1,
    "PS_Total": 2,
    "ولسوالي": "حضرت سلطان",
    "Region": "Northern Region"
   },
   "geometry": {
    "x": 7560295.5288205799,
    "y": 4350214.6951397974
   }
  },
  {
   "attributes": {
    "OBJECTID": 1621,
    "ولایت": "سمنگان",
    "Province": "SAMANGAN",
    "PC_Code": "2002028",
    "District": "HAZRAT-E-SULTAN",
    "د_مرکز_نوم__نام_مرکز": "مسجد بابه مراد",
    "Polling_Center_Name": "Baba Murad Mosque",
    "د_مرکز_ځای__موقعیت_مرکز": "قریه نیمان",
    "Polling_Center_Location": "Neman Village",
    "Map_Accuracy": "Village",
    "Map_Accuracy_Dari": "قریه",
    "Status": "Open",
    "Status_Dari": null,
    "PS_Male": 1,
    "PS_Female": 1,
    "PS_Total": 2,
    "ولسوالي": "حضرت سلطان",
    "Region": "Northern Region"
   },
   "geometry": {
    "x": 7529797.7765454939,
    "y": 4315056.4582952019
   }
  },
  {
   "attributes": {
    "OBJECTID": 1622,
    "ولایت": "سمنگان",
    "Province": "SAMANGAN",
    "PC_Code": "2003084",
    "District": "KHURAM WA SARBAGH",
    "د_مرکز_نوم__نام_مرکز": "مکتب ابتدائی شاخ سفید",
    "Polling_Center_Name": "Shaakh Safid Primary School",
    "د_مرکز_ځای__موقعیت_مرکز": "قریه شاخ سفید",
    "Polling_Center_Location": "Shaakh Safid Village",
    "Map_Accuracy": "Building",
    "Map_Accuracy_Dari": "تعمیر",
    "Status": "Open",
    "Status_Dari": null,
    "PS_Male": 1,
    "PS_Female": 1,
    "PS_Total": 2,
    "ولسوالي": "خرم و سارباغ",
    "Region": "Northern Region"
   },
   "geometry": {
    "x": 7594700.3146973914,
    "y": 4292975.9325405294
   }
  },
  {
   "attributes": {
    "OBJECTID": 1623,
    "ولایت": "سمنگان",
    "Province": "SAMANGAN",
    "PC_Code": "2003085",
    "District": "KHURAM WA SARBAGH",
    "د_مرکز_نوم__نام_مرکز": "لیسه آق چشمه",
    "Polling_Center_Name": "Aaq Chashma High School",
    "د_مرکز_ځای__موقعیت_مرکز": "قریه آق چشمه",
    "Polling_Center_Location": "Aaq Chashma Village",
    "Map_Accuracy": "Building",
    "Map_Accuracy_Dari": "تعمیر",
    "Status": "Open",
    "Status_Dari": null,
    "PS_Male": 2,
    "PS_Female": 1,
    "PS_Total": 3,
    "ولسوالي": "خرم و سارباغ",
    "Region": "Northern Region"
   },
   "geometry": {
    "x": 7603985.8786274055,
    "y": 4282137.8493835106
   }
  },
  {
   "attributes": {
    "OBJECTID": 1624,
    "ولایت": "سمنگان",
    "Province": "SAMANGAN",
    "PC_Code": "2004030",
    "District": "FEROZ NAKHCHEER",
    "د_مرکز_نوم__نام_مرکز": "مسجد قوش موله",
    "Polling_Center_Name": "Qosh Mola Mosque",
    "د_مرکز_ځای__موقعیت_مرکز": "فیروز نخچیر ",
    "Polling_Center_Location": "Nakhchir Feroz",
    "Map_Accuracy": "Building",
    "Map_Accuracy_Dari": "تعمیر",
    "Status": "Open",
    "Status_Dari": null,
    "PS_Male": 2,
    "PS_Female": 1,
    "PS_Total": 3,
    "ولسوالي": "فیروز نخچیر",
    "Region": "Northern Region"
   },
   "geometry": {
    "x": 7517221.3312820988,
    "y": 4358998.381292684
   }
  },
  {
   "attributes": {
    "OBJECTID": 1625,
    "ولایت": "سمنگان",
    "Province": "SAMANGAN",
    "PC_Code": "2004031",
    "District": "FEROZ NAKHCHEER",
    "د_مرکز_نوم__نام_مرکز": "مکتب ذکور فیروز نخچیر",
    "Polling_Center_Name": "Feroz Nakhchir Boys School",
    "د_مرکز_ځای__موقعیت_مرکز": "مرکز ولسوالی",
    "Polling_Center_Location": "District Compound",
    "Map_Accuracy": "Building",
    "Map_Accuracy_Dari": "تعمیر",
    "Status": "Open",
    "Status_Dari": null,
    "PS_Male": 3,
    "PS_Female": 2,
    "PS_Total": 5,
    "ولسوالي": "فیروز نخچیر",
    "Region": "Northern Region"
   },
   "geometry": {
    "x": 7535561.0882596839,
    "y": 4373535.9270093124
   }
  },
  {
   "attributes": {
    "OBJECTID": 1626,
    "ولایت": "سمنگان",
    "Province": "SAMANGAN",
    "PC_Code": "2005067",
    "District": "ROI-DO-AB",
    "د_مرکز_نوم__نام_مرکز": "مکتب ابتدائیه چهار چشمه",
    "Polling_Center_Name": "Chahar Chashma Primary School",
    "د_مرکز_ځای__موقعیت_مرکز": "قریه چهار چشمه",
    "Polling_Center_Location": "Chahar Chashma Village",
    "Map_Accuracy": "Building",
    "Map_Accuracy_Dari": "تعمیر",
    "Status": "Open",
    "Status_Dari": null,
    "PS_Male": 1,
    "PS_Female": 1,
    "PS_Total": 2,
    "ولسوالي": "روی دوآب",
    "Region": "Northern Region"
   },
   "geometry": {
    "x": 7536946.0786099443,
    "y": 4277667.4267835766
   }
  },
  {
   "attributes": {
    "OBJECTID": 1627,
    "ولایت": "سمنگان",
    "Province": "SAMANGAN",
    "PC_Code": "2005068",
    "District": "ROI-DO-AB",
    "د_مرکز_نوم__نام_مرکز": "مکتب ابتدائیه موهو ",
    "Polling_Center_Name": "Moho Primary School",
    "د_مرکز_ځای__موقعیت_مرکز": "قریه موهو",
    "Polling_Center_Location": "Moho Village",
    "Map_Accuracy": "Building",
    "Map_Accuracy_Dari": "تعمیر",
    "Status": "Open",
    "Status_Dari": null,
    "PS_Male": 2,
    "PS_Female": 1,
    "PS_Total": 3,
    "ولسوالي": "روی دوآب",
    "Region": "Northern Region"
   },
   "geometry": {
    "x": 7557316.1817613514,
    "y": 4259794.463207054
   }
  },
  {
   "attributes": {
    "OBJECTID": 1628,
    "ولایت": "سمنگان",
    "Province": "SAMANGAN",
    "PC_Code": "2006051",
    "District": "DARA-E-SOOF-E-PAYIN",
    "د_مرکز_نوم__نام_مرکز": "مکتب متوسطه چوبکی",
    "Polling_Center_Name": "Chobaki Secondary School",
    "د_مرکز_ځای__موقعیت_مرکز": "قریه چوبکی",
    "Polling_Center_Location": "Chobaki Village",
    "Map_Accuracy": "Building",
    "Map_Accuracy_Dari": "تعمیر",
    "Status": "Open",
    "Status_Dari": null,
    "PS_Male": 1,
    "PS_Female": 1,
    "PS_Total": 2,
    "ولسوالي": "دره صوف پائین",
    "Region": "Northern Region"
   },
   "geometry": {
    "x": 7484342.0844050385,
    "y": 4299310.4282596027
   }
  },
  {
   "attributes": {
    "OBJECTID": 1629,
    "ولایت": "سمنگان",
    "Province": "SAMANGAN",
    "PC_Code": "2006052",
    "District": "DARA-E-SOOF-E-PAYIN",
    "د_مرکز_نوم__نام_مرکز": "مکتب ابتدائیه علی خیل",
    "Polling_Center_Name": "Ali Khel Primary School",
    "د_مرکز_ځای__موقعیت_مرکز": "قریه علی خیل",
    "Polling_Center_Location": "Ali Khel Village",
    "Map_Accuracy": "Building",
    "Map_Accuracy_Dari": "تعمیر",
    "Status": "Open",
    "Status_Dari": null,
    "PS_Male": 2,
    "PS_Female": 2,
    "PS_Total": 4,
    "ولسوالي": "دره صوف پائین",
    "Region": "Northern Region"
   },
   "geometry": {
    "x": 7475525.7388078915,
    "y": 4300245.9191316357
   }
  },
  {
   "attributes": {
    "OBJECTID": 1630,
    "ولایت": "سمنگان",
    "Province": "SAMANGAN",
    "PC_Code": "2006056",
    "District": "DARA-E-SOOF-E-PAYIN",
    "د_مرکز_نوم__نام_مرکز": "مدرسه زاغ پایان",
    "Polling_Center_Name": "Zaagh Payan Madrassa",
    "د_مرکز_ځای__موقعیت_مرکز": "قریه زاغ پایان",
    "Polling_Center_Location": "Zaagh Payan Village",
    "Map_Accuracy": "Village",
    "Map_Accuracy_Dari": "قریه",
    "Status": "Open",
    "Status_Dari": null,
    "PS_Male": 1,
    "PS_Female": 1,
    "PS_Total": 2,
    "ولسوالي": "دره صوف پائین",
    "Region": "Northern Region"
   },
   "geometry": {
    "x": 7475524.808176945,
    "y": 4299996.6627562344
   }
  },
  {
   "attributes": {
    "OBJECTID": 1631,
    "ولایت": "سمنگان",
    "Province": "SAMANGAN",
    "PC_Code": "2006057",
    "District": "DARA-E-SOOF-E-PAYIN",
    "د_مرکز_نوم__نام_مرکز": "مسجد اویمتان ",
    "Polling_Center_Name": "Oyemtan Mosque",
    "د_مرکز_ځای__موقعیت_مرکز": "قریه اویمتان",
    "Polling_Center_Location": "Oyemtan Village",
    "Map_Accuracy": "Building",
    "Map_Accuracy_Dari": "تعمیر",
    "Status": "Open",
    "Status_Dari": null,
    "PS_Male": 2,
    "PS_Female": 1,
    "PS_Total": 3,
    "ولسوالي": "دره صوف پائین",
    "Region": "Northern Region"
   },
   "geometry": {
    "x": 7473855.8195417691,
    "y": 4312626.0043256357
   }
  },
  {
   "attributes": {
    "OBJECTID": 1632,
    "ولایت": "خوست",
    "Province": "KHOST",
    "PC_Code": "1404135",
    "District": "TANAY",
    "د_مرکز_نوم__نام_مرکز": "ډاکټر بادشاه خان کور خبي خيل",
    "Polling_Center_Name": "Dr. Badshah khan House",
    "د_مرکز_ځای__موقعیت_مرکز": "خبي خيل",
    "Polling_Center_Location": "Khabi khail",
    "Map_Accuracy": "District",
    "Map_Accuracy_Dari": "ولسوالی",
    "Status": "Open",
    "Status_Dari": null,
    "PS_Male": 2,
    "PS_Female": 2,
    "PS_Total": 4,
    "ولسوالي": "تڼي",
    "Region": "South Eastern Region"
   },
   "geometry": {
    "x": 7777188.5823446196,
    "y": 3927604.5984489527
   }
  },
  {
   "attributes": {
    "OBJECTID": 1633,
    "ولایت": "خوست",
    "Province": "KHOST",
    "PC_Code": "1404138",
    "District": "TANAY",
    "د_مرکز_نوم__نام_مرکز": "ملک خونه ګل جومات کوچان",
    "Polling_Center_Name": "Malik Khona Gul Mosque",
    "د_مرکز_ځای__موقعیت_مرکز": "کوچان",
    "Polling_Center_Location": "Kochan",
    "Map_Accuracy": "Village",
    "Map_Accuracy_Dari": "قریه",
    "Status": "Open",
    "Status_Dari": null,
    "PS_Male": 2,
    "PS_Female": 2,
    "PS_Total": 4,
    "ولسوالي": "تڼي",
    "Region": "South Eastern Region"
   },
   "geometry": {
    "x": 7750311.8148813304,
    "y": 3915720.8447258896
   }
  },
  {
   "attributes": {
    "OBJECTID": 1634,
    "ولایت": "خوست",
    "Province": "KHOST",
    "PC_Code": "1404139",
    "District": "TANAY",
    "د_مرکز_نوم__نام_مرکز": "د ورژلې مدرسه ",
    "Polling_Center_Name": "Warzhali Madrassa",
    "د_مرکز_ځای__موقعیت_مرکز": "د ورژاله تنداى",
    "Polling_Center_Location": "Warzhala Tandai",
    "Map_Accuracy": "Building",
    "Map_Accuracy_Dari": "تعمیر",
    "Status": "Open",
    "Status_Dari": null,
    "PS_Male": 3,
    "PS_Female": 1,
    "PS_Total": 4,
    "ولسوالي": "تڼي",
    "Region": "South Eastern Region"
   },
   "geometry": {
    "x": 7754550.4202655507,
    "y": 3914637.1209689439
   }
  },
  {
   "attributes": {
    "OBJECTID": 1635,
    "ولایت": "خوست",
    "Province": "KHOST",
    "PC_Code": "1405070",
    "District": "MUSA KHEL",
    "د_مرکز_نوم__نام_مرکز": "د باډک هجره ",
    "Polling_Center_Name": "Badak Hojra",
    "د_مرکز_ځای__موقعیت_مرکز": "وچکړى کلى",
    "Polling_Center_Location": "Wachkri Village",
    "Map_Accuracy": "Village",
    "Map_Accuracy_Dari": "قریه",
    "Status": "Open",
    "Status_Dari": null,
    "PS_Male": 2,
    "PS_Female": 1,
    "PS_Total": 3,
    "ولسوالي": "موسی خیل",
    "Region": "South Eastern Region"
   },
   "geometry": {
    "x": 7748456.5453234557,
    "y": 3972060.7747584227
   }
  },
  {
   "attributes": {
    "OBJECTID": 1636,
    "ولایت": "خوست",
    "Province": "KHOST",
    "PC_Code": "1405071",
    "District": "MUSA KHEL",
    "د_مرکز_نوم__نام_مرکز": "د غرنى تپې جومات",
    "Polling_Center_Name": "Gharani Tapa Mosque",
    "د_مرکز_ځای__موقعیت_مرکز": "غرنۍ تپه",
    "Polling_Center_Location": "Gharani Tapa",
    "Map_Accuracy": "Village",
    "Map_Accuracy_Dari": "قریه",
    "Status": "Open",
    "Status_Dari": null,
    "PS_Male": 1,
    "PS_Female": 1,
    "PS_Total": 2,
    "ولسوالي": "موسی خیل",
    "Region": "South Eastern Region"
   },
   "geometry": {
    "x": 7776258.8196936175,
    "y": 3954299.0532103376
   }
  },
  {
   "attributes": {
    "OBJECTID": 1637,
    "ولایت": "خوست",
    "Province": "KHOST",
    "PC_Code": "1408054",
    "District": "ALI SHER",
    "د_مرکز_نوم__نام_مرکز": "مرکزي باغ بلاوټ",
    "Polling_Center_Name": "Balawat Markarzi Bagh ",
    "د_مرکز_ځای__موقعیت_مرکز": "بلاوت موت خيل کلى",
    "Polling_Center_Location": "Balawat Mot Khel Village",
    "Map_Accuracy": "District",
    "Map_Accuracy_Dari": "ولسوالی",
    "Status": "Open",
    "Status_Dari": null,
    "PS_Male": 4,
    "PS_Female": 2,
    "PS_Total": 6,
    "ولسوالي": "علی شیر",
    "Region": "South Eastern Region"
   },
   "geometry": {
    "x": 7808629.3988366602,
    "y": 3951208.7644861271
   }
  },
  {
   "attributes": {
    "OBJECTID": 1638,
    "ولایت": "خوست",
    "Province": "KHOST",
    "PC_Code": "1408163",
    "District": "ALI SHER",
    "د_مرکز_نوم__نام_مرکز": "ادم خان مرکزي جومات ببرک تهانه",
    "Polling_Center_Name": "Adam Khan Central Mosque ",
    "د_مرکز_ځای__موقعیت_مرکز": "ببرک تاڼه",
    "Polling_Center_Location": "Babrak Tana Village",
    "Map_Accuracy": "Village",
    "Map_Accuracy_Dari": "قریه",
    "Status": "Open",
    "Status_Dari": null,
    "PS_Male": 5,
    "PS_Female": 3,
    "PS_Total": 8,
    "ولسوالي": "علی شیر",
    "Region": "South Eastern Region"
   },
   "geometry": {
    "x": 7814705.7843735665,
    "y": 3955851.0242031631
   }
  },
  {
   "attributes": {
    "OBJECTID": 1639,
    "ولایت": "خوست",
    "Province": "KHOST",
    "PC_Code": "1408164",
    "District": "ALI SHER",
    "د_مرکز_نوم__نام_مرکز": "بټى تاڼه",
    "Polling_Center_Name": "Bati Tana",
    "د_مرکز_ځای__موقعیت_مرکز": "ببرک تاڼه",
    "Polling_Center_Location": "Babrak Tana Village",
    "Map_Accuracy": "Village",
    "Map_Accuracy_Dari": "قریه",
    "Status": "Open",
    "Status_Dari": null,
    "PS_Male": 2,
    "PS_Female": 2,
    "PS_Total": 4,
    "ولسوالي": "علی شیر",
    "Region": "South Eastern Region"
   },
   "geometry": {
    "x": 7815690.0356889227,
    "y": 3956005.5413317853
   }
  },
  {
   "attributes": {
    "OBJECTID": 1640,
    "ولایت": "خوست",
    "Province": "KHOST",
    "PC_Code": "1409062",
    "District": "BAAK",
    "د_مرکز_نوم__نام_مرکز": "د رحيم جمال هجره",
    "Polling_Center_Name": "Rahim Jamal Hojra",
    "د_مرکز_ځای__موقعیت_مرکز": " مانه کهول",
    "Polling_Center_Location": "Mana Kahol",
    "Map_Accuracy": "Village",
    "Map_Accuracy_Dari": "قریه",
    "Status": "Open",
    "Status_Dari": null,
    "PS_Male": 2,
    "PS_Female": 1,
    "PS_Total": 3,
    "ولسوالي": "باک",
    "Region": "South Eastern Region"
   },
   "geometry": {
    "x": 7794801.2683132309,
    "y": 3966904.7794484585
   }
  },
  {
   "attributes": {
    "OBJECTID": 1641,
    "ولایت": "خوست",
    "Province": "KHOST",
    "PC_Code": "1409063",
    "District": "BAAK",
    "د_مرکز_نوم__نام_مرکز": "د ولسوالۍ مرکز",
    "Polling_Center_Name": "District Compound",
    "د_مرکز_ځای__موقعیت_مرکز": " د يعقوبيو ولسوالۍ مرکز",
    "Polling_Center_Location": "Yaqobayo District Center",
    "Map_Accuracy": "Building",
    "Map_Accuracy_Dari": "تعمیر",
    "Status": "Open",
    "Status_Dari": null,
    "PS_Male": 3,
    "PS_Female": 3,
    "PS_Total": 6,
    "ولسوالي": "باک",
    "Region": "South Eastern Region"
   },
   "geometry": {
    "x": 7794991.3942111405,
    "y": 3964905.775949745
   }
  },
  {
   "attributes": {
    "OBJECTID": 1642,
    "ولایت": "خوست",
    "Province": "KHOST",
    "PC_Code": "1411173",
    "District": "SPERA",
    "د_مرکز_نوم__نام_مرکز": "د خوست خيل کلى او دوکانونه",
    "Polling_Center_Name": "Khost Khel Village Shops",
    "د_مرکز_ځای__موقعیت_مرکز": "د خوست خيل کلى",
    "Polling_Center_Location": "Khost Khel Village",
    "Map_Accuracy": "Village",
    "Map_Accuracy_Dari": "قریه",
    "Status": "Open",
    "Status_Dari": null,
    "PS_Male": 1,
    "PS_Female": 1,
    "PS_Total": 2,
    "ولسوالي": "سپیره",
    "Region": "South Eastern Region"
   },
   "geometry": {
    "x": 7727943.3509853845,
    "y": 3919260.9533736617
   }
  },
  {
   "attributes": {
    "OBJECTID": 1643,
    "ولایت": "خوست",
    "Province": "KHOST",
    "PC_Code": "1412155",
    "District": "SHAMUL",
    "د_مرکز_نوم__نام_مرکز": "د دوه منده ښوونځی",
    "Polling_Center_Name": "Dwa Manda Village School ",
    "د_مرکز_ځای__موقعیت_مرکز": " دوه منده",
    "Polling_Center_Location": "Dowa Manda",
    "Map_Accuracy": "Building",
    "Map_Accuracy_Dari": "تعمیر",
    "Status": "Open",
    "Status_Dari": null,
    "PS_Male": 4,
    "PS_Female": 2,
    "PS_Total": 6,
    "ولسوالي": "شمل",
    "Region": "South Eastern Region"
   },
   "geometry": {
    "x": 7747548.0168653233,
    "y": 3932233.5452522514
   }
  },
  {
   "attributes": {
    "OBJECTID": 1644,
    "ولایت": "خوست",
    "Province": "KHOST",
    "PC_Code": "1413186",
    "District": "JAJI MAIDAN",
    "د_مرکز_نوم__نام_مرکز": " شيخانو جامع جومات",
    "Polling_Center_Name": "Shaikhano Mosque",
    "د_مرکز_ځای__موقعیت_مرکز": "شيخان",
    "Polling_Center_Location": "Shaikhan",
    "Map_Accuracy": "Building",
    "Map_Accuracy_Dari": "تعمیر",
    "Status": "Open",
    "Status_Dari": null,
    "PS_Male": 2,
    "PS_Female": 1,
    "PS_Total": 3,
    "ولسوالي": "جاجی میدان",
    "Region": "South Eastern Region"
   },
   "geometry": {
    "x": 7790956.4100980125,
    "y": 3982262.9294322855
   }
  },
  {
   "attributes": {
    "OBJECTID": 1645,
    "ولایت": "کنړ ",
    "Province": "KUNAR",
    "PC_Code": "1506120",
    "District": "SHIGAL WA SHILTAN",
    "د_مرکز_نوم__نام_مرکز": "کلنیک",
    "Polling_Center_Name": "Clinic",
    "د_مرکز_ځای__موقعیت_مرکز": "ډیری",
    "Polling_Center_Location": "Dirai",
    "Map_Accuracy": "Building",
    "Map_Accuracy_Dari": "تعمیر",
    "Status": "Open",
    "Status_Dari": null,
    "PS_Male": 2,
    "PS_Female": 1,
    "PS_Total": 3,
    "ولسوالي": "شیگل وشلتن",
    "Region": "Eastern Region"
   },
   "geometry": {
    "x": 7930305.3294729004,
    "y": 4169157.4142040019
   }
  },
  {
   "attributes": {
    "OBJECTID": 1646,
    "ولایت": "کنړ ",
    "Province": "KUNAR",
    "PC_Code": "1510121",
    "District": "KHAS KUNAR",
    "د_مرکز_نوم__نام_مرکز": "مسجد",
    "Polling_Center_Name": "Mosque",
    "د_مرکز_ځای__موقعیت_مرکز": "شامکار",
    "Polling_Center_Location": "Shamkar",
    "Map_Accuracy": "Building",
    "Map_Accuracy_Dari": "تعمیر",
    "Status": "Open",
    "Status_Dari": null,
    "PS_Male": 2,
    "PS_Female": 1,
    "PS_Total": 3,
    "ولسوالي": "خاص کنر",
    "Region": "Eastern Region"
   },
   "geometry": {
    "x": 7898505.9360917732,
    "y": 4121727.6960850446
   }
  },
  {
   "attributes": {
    "OBJECTID": 1647,
    "ولایت": "خوست",
    "Province": "KHOST",
    "PC_Code": "1408183",
    "District": "ALI SHER",
    "د_مرکز_نوم__نام_مرکز": "مسجد",
    "Polling_Center_Name": "Mosque",
    "د_مرکز_ځای__موقعیت_مرکز": "متاخيل",
    "Polling_Center_Location": "Mata khil",
    "Map_Accuracy": "Building",
    "Map_Accuracy_Dari": "تعمیر",
    "Status": "Open",
    "Status_Dari": null,
    "PS_Male": 2,
    "PS_Female": 1,
    "PS_Total": 3,
    "ولسوالي": "تری زائی",
    "Region": "South Eastern Region"
   },
   "geometry": {
    "x": 7799204.4484326448,
    "y": 3952193.2201682571
   }
  },
  {
   "attributes": {
    "OBJECTID": 1648,
    "ولایت": "خوست",
    "Province": "KHOST",
    "PC_Code": "1408184",
    "District": "ALI SHER",
    "د_مرکز_نوم__نام_مرکز": "مسجد ښکرى",
    "Polling_Center_Name": "Shakari Mosque",
    "د_مرکز_ځای__موقعیت_مرکز": "د ښکرى کلى",
    "Polling_Center_Location": "Shakari village",
    "Map_Accuracy": "Building",
    "Map_Accuracy_Dari": "تعمیر",
    "Status": "Open",
    "Status_Dari": null,
    "PS_Male": 2,
    "PS_Female": 1,
    "PS_Total": 3,
    "ولسوالي": "تری زائی",
    "Region": "South Eastern Region"
   },
   "geometry": {
    "x": 7800678.0598955713,
    "y": 3951214.6575304726
   }
  },
  {
   "attributes": {
    "OBJECTID": 1649,
    "ولایت": "کنړ ",
    "Province": "KUNAR",
    "PC_Code": "1502043",
    "District": "MARA WARA",
    "د_مرکز_نوم__نام_مرکز": "مکتب ابتدائیه",
    "Polling_Center_Name": "Khan Ghondy Primary School",
    "د_مرکز_ځای__موقعیت_مرکز": "خان غوندی",
    "Polling_Center_Location": "Khan Ghondy",
    "Map_Accuracy": "Building",
    "Map_Accuracy_Dari": "تعمیر",
    "Status": "Open",
    "Status_Dari": null,
    "PS_Male": 4,
    "PS_Female": 1,
    "PS_Total": 5,
    "ولسوالي": "مره وره",
    "Region": "Eastern Region"
   },
   "geometry": {
    "x": 7923358.5455204071,
    "y": 4148376.7970770518
   }
  },
  {
   "attributes": {
    "OBJECTID": 1650,
    "ولایت": "کنړ ",
    "Province": "KUNAR",
    "PC_Code": "1504031",
    "District": "NARANG",
    "د_مرکز_نوم__نام_مرکز": "لیسه نرنګ ",
    "Polling_Center_Name": "Narang High School",
    "د_مرکز_ځای__موقعیت_مرکز": "نرنګ",
    "Polling_Center_Location": "Narang",
    "Map_Accuracy": "Building",
    "Map_Accuracy_Dari": "تعمیر",
    "Status": "Open",
    "Status_Dari": null,
    "PS_Male": 3,
    "PS_Female": 2,
    "PS_Total": 5,
    "ولسوالي": "نرنګ",
    "Region": "Eastern Region"
   },
   "geometry": {
    "x": 7906179.9732832434,
    "y": 4129975.176463285
   }
  },
  {
   "attributes": {
    "OBJECTID": 1651,
    "ولایت": "کنړ ",
    "Province": "KUNAR",
    "PC_Code": "1504032",
    "District": "NARANG",
    "د_مرکز_نوم__نام_مرکز": "مکتب لمتک",
    "Polling_Center_Name": "Lamtak Primary School",
    "د_مرکز_ځای__موقعیت_مرکز": "لمټک ",
    "Polling_Center_Location": "Lamtak",
    "Map_Accuracy": "Building",
    "Map_Accuracy_Dari": "تعمیر",
    "Status": "Open",
    "Status_Dari": null,
    "PS_Male": 2,
    "PS_Female": 1,
    "PS_Total": 3,
    "ولسوالي": "نرنګ",
    "Region": "Eastern Region"
   },
   "geometry": {
    "x": 7909472.7526139412,
    "y": 4131412.5149822636
   }
  },
  {
   "attributes": {
    "OBJECTID": 1652,
    "ولایت": "کنړ ",
    "Province": "KUNAR",
    "PC_Code": "1507020",
    "District": "DARA-E-PECH",
    "د_مرکز_نوم__نام_مرکز": "مدرسه قریه",
    "Polling_Center_Name": "Nanglam Village Madrassa",
    "د_مرکز_ځای__موقعیت_مرکز": "ننگلام",
    "Polling_Center_Location": "Nanglam",
    "Map_Accuracy": "Village",
    "Map_Accuracy_Dari": "قریه",
    "Status": "Open",
    "Status_Dari": null,
    "PS_Male": 2,
    "PS_Female": 1,
    "PS_Total": 3,
    "ولسوالي": "دره پیچ",
    "Region": "Eastern Region"
   },
   "geometry": {
    "x": 7893354.047682642,
    "y": 4161361.2734628078
   }
  },
  {
   "attributes": {
    "OBJECTID": 1653,
    "ولایت": "کنړ ",
    "Province": "KUNAR",
    "PC_Code": "1507021",
    "District": "DARA-E-PECH",
    "د_مرکز_نوم__نام_مرکز": "مکتب ابتدائیه",
    "Polling_Center_Name": "Shahilam Primary School",
    "د_مرکز_ځای__موقعیت_مرکز": "شاهیلام",
    "Polling_Center_Location": "Shahilam",
    "Map_Accuracy": "Village",
    "Map_Accuracy_Dari": "قریه",
    "Status": "Open",
    "Status_Dari": null,
    "PS_Male": 2,
    "PS_Female": 1,
    "PS_Total": 3,
    "ولسوالي": "دره پیچ",
    "Region": "Eastern Region"
   },
   "geometry": {
    "x": 7894692.4708635155,
    "y": 4165718.0512557039
   }
  },
  {
   "attributes": {
    "OBJECTID": 1654,
    "ولایت": "کنړ ",
    "Province": "KUNAR",
    "PC_Code": "1508059",
    "District": "BAR KUNAR",
    "د_مرکز_نوم__نام_مرکز": "مسجد قریه",
    "Polling_Center_Name": "Sher Kasi Village Mosque",
    "د_مرکز_ځای__موقعیت_مرکز": "شیرکڅی",
    "Polling_Center_Location": "Sher Kasi Village",
    "Map_Accuracy": "Village",
    "Map_Accuracy_Dari": "قریه",
    "Status": "Open",
    "Status_Dari": null,
    "PS_Male": 2,
    "PS_Female": 1,
    "PS_Total": 3,
    "ولسوالي": "بر کنړ ",
    "Region": "Eastern Region"
   },
   "geometry": {
    "x": 7942006.1151389321,
    "y": 4167299.2320748437
   }
  },
  {
   "attributes": {
    "OBJECTID": 1655,
    "ولایت": "کنړ ",
    "Province": "KUNAR",
    "PC_Code": "1508060",
    "District": "BAR KUNAR",
    "د_مرکز_نوم__نام_مرکز": "مسجد قریه",
    "Polling_Center_Name": "Dambaro Village Mosque",
    "د_مرکز_ځای__موقعیت_مرکز": "دمبارو",
    "Polling_Center_Location": "Dambaro Village ",
    "Map_Accuracy": "Building",
    "Map_Accuracy_Dari": "تعمیر",
    "Status": "Open",
    "Status_Dari": null,
    "PS_Male": 2,
    "PS_Female": 1,
    "PS_Total": 3,
    "ولسوالي": "بر کنړ ",
    "Region": "Eastern Region"
   },
   "geometry": {
    "x": 7939893.6020452026,
    "y": 4165013.6679982594
   }
  },
  {
   "attributes": {
    "OBJECTID": 1656,
    "ولایت": "کنړ ",
    "Province": "KUNAR",
    "PC_Code": "1511117",
    "District": "GHAZI ABAD",
    "د_مرکز_نوم__نام_مرکز": "مکتب دخترانه",
    "Polling_Center_Name": "Sokai Girls School",
    "د_مرکز_ځای__موقعیت_مرکز": "نیشاگام",
    "Polling_Center_Location": "Nishagam",
    "Map_Accuracy": "Village",
    "Map_Accuracy_Dari": "قریه",
    "Status": "Open",
    "Status_Dari": null,
    "PS_Male": 3,
    "PS_Female": 2,
    "PS_Total": 5,
    "ولسوالي": "غازی آباد",
    "Region": "Eastern Region"
   },
   "geometry": {
    "x": 7947437.808539073,
    "y": 4183854.2754147612
   }
  },
  {
   "attributes": {
    "OBJECTID": 1657,
    "ولایت": "کنړ ",
    "Province": "KUNAR",
    "PC_Code": "1511118",
    "District": "GHAZI ABAD",
    "د_مرکز_نوم__نام_مرکز": "کلینیک AMI",
    "Polling_Center_Name": "AMI Clinic",
    "د_مرکز_ځای__موقعیت_مرکز": "بارګام",
    "Polling_Center_Location": "Bargam",
    "Map_Accuracy": "Village",
    "Map_Accuracy_Dari": "قریه",
    "Status": "Open",
    "Status_Dari": null,
    "PS_Male": 3,
    "PS_Female": 2,
    "PS_Total": 5,
    "ولسوالي": "غازی آباد",
    "Region": "Eastern Region"
   },
   "geometry": {
    "x": 7945956.9765600171,
    "y": 4181183.9742132383
   }
  },
  {
   "attributes": {
    "OBJECTID": 1658,
    "ولایت": "کنړ ",
    "Province": "KUNAR",
    "PC_Code": "1514085",
    "District": "NOOR GAL",
    "د_مرکز_نوم__نام_مرکز": "مکتب متوسطه",
    "Polling_Center_Name": "Patan Secondary School",
    "د_مرکز_ځای__موقعیت_مرکز": "پتن",
    "Polling_Center_Location": "Patan",
    "Map_Accuracy": "Building",
    "Map_Accuracy_Dari": "تعمیر",
    "Status": "Open",
    "Status_Dari": null,
    "PS_Male": 3,
    "PS_Female": 2,
    "PS_Total": 5,
    "ولسوالي": "نور ګل",
    "Region": "Eastern Region"
   },
   "geometry": {
    "x": 7880510.4356413418,
    "y": 4113593.9776772726
   }
  },
  {
   "attributes": {
    "OBJECTID": 1659,
    "ولایت": "کنړ ",
    "Province": "KUNAR",
    "PC_Code": "1514086",
    "District": "NOOR GAL",
    "د_مرکز_نوم__نام_مرکز": "مکتب سیراوړ",
    "Polling_Center_Name": "Sirawar Village School",
    "د_مرکز_ځای__موقعیت_مرکز": "سیراور",
    "Polling_Center_Location": "Sirawar",
    "Map_Accuracy": "Building",
    "Map_Accuracy_Dari": "تعمیر",
    "Status": "Open",
    "Status_Dari": null,
    "PS_Male": 3,
    "PS_Female": 1,
    "PS_Total": 4,
    "ولسوالي": "نور ګل",
    "Region": "Eastern Region"
   },
   "geometry": {
    "x": 7874600.1755201397,
    "y": 4114925.7303316807
   }
  },
  {
   "attributes": {
    "OBJECTID": 1660,
    "ولایت": "کنړ ",
    "Province": "KUNAR",
    "PC_Code": "1515110",
    "District": "NARI",
    "د_مرکز_نوم__نام_مرکز": "مکتب ابتدائیه",
    "Polling_Center_Name": "Machmana Primary School",
    "د_مرکز_ځای__موقعیت_مرکز": "مچ منه",
    "Polling_Center_Location": "Machmana",
    "Map_Accuracy": "Village",
    "Map_Accuracy_Dari": "قریه",
    "Status": "Open",
    "Status_Dari": null,
    "PS_Male": 3,
    "PS_Female": 1,
    "PS_Total": 4,
    "ولسوالي": "نری",
    "Region": "Eastern Region"
   },
   "geometry": {
    "x": 7965645.2478303164,
    "y": 4193913.894058744
   }
  },
  {
   "attributes": {
    "OBJECTID": 1661,
    "ولایت": "کنړ ",
    "Province": "KUNAR",
    "PC_Code": "1501002",
    "District": "ASAD ABAD",
    "د_مرکز_نوم__نام_مرکز": "امام ابو حنیفه مسجد ",
    "Polling_Center_Name": "Imam-e-Abu Hanifa Mosque",
    "د_مرکز_ځای__موقعیت_مرکز": "دم کلی",
    "Polling_Center_Location": "Dam Village",
    "Map_Accuracy": "Building",
    "Map_Accuracy_Dari": "تعمیر",
    "Status": "Open",
    "Status_Dari": null,
    "PS_Male": 4,
    "PS_Female": 2,
    "PS_Total": 6,
    "ولسوالي": "اسعد آباد",
    "Region": "Eastern Region"
   },
   "geometry": {
    "x": 7920284.9331163773,
    "y": 4146638.1807813095
   }
  },
  {
   "attributes": {
    "OBJECTID": 1662,
    "ولایت": "کنړ ",
    "Province": "KUNAR",
    "PC_Code": "1501003",
    "District": "ASAD ABAD",
    "د_مرکز_نوم__نام_مرکز": "ریاست امورزنان",
    "Polling_Center_Name": "Women Affairs Department",
    "د_مرکز_ځای__موقعیت_مرکز": "اسعد آباد",
    "Polling_Center_Location": "Asad Abad",
    "Map_Accuracy": "Building",
    "Map_Accuracy_Dari": "تعمیر",
    "Status": "Open",
    "Status_Dari": null,
    "PS_Male": 5,
    "PS_Female": 4,
    "PS_Total": 9,
    "ولسوالي": "اسعد آباد",
    "Region": "Eastern Region"
   },
   "geometry": {
    "x": 7920231.6489289152,
    "y": 4147025.9449067847
   }
  },
  {
   "attributes": {
    "OBJECTID": 1663,
    "ولایت": "کنړ ",
    "Province": "KUNAR",
    "PC_Code": "1501006",
    "District": "ASAD ABAD",
    "د_مرکز_نوم__نام_مرکز": "مکتب ابتدائیه تیشه ",
    "Polling_Center_Name": "Tesha Primary School",
    "د_مرکز_ځای__موقعیت_مرکز": "تیشه",
    "Polling_Center_Location": "Tesha",
    "Map_Accuracy": "Building",
    "Map_Accuracy_Dari": "تعمیر",
    "Status": "Open",
    "Status_Dari": null,
    "PS_Male": 4,
    "PS_Female": 3,
    "PS_Total": 7,
    "ولسوالي": "اسعد آباد",
    "Region": "Eastern Region"
   },
   "geometry": {
    "x": 7916946.7064903714,
    "y": 4141198.1233736947
   }
  },
  {
   "attributes": {
    "OBJECTID": 1664,
    "ولایت": "کنړ ",
    "Province": "KUNAR",
    "PC_Code": "1501007",
    "District": "ASAD ABAD",
    "د_مرکز_نوم__نام_مرکز": "کرهالی انجونو لیسه ",
    "Polling_Center_Name": "Kirhala Girls High School",
    "د_مرکز_ځای__موقعیت_مرکز": "کرهاله",
    "Polling_Center_Location": "Kirhala",
    "Map_Accuracy": "Village",
    "Map_Accuracy_Dari": "قریه",
    "Status": "Open",
    "Status_Dari": null,
    "PS_Male": 3,
    "PS_Female": 1,
    "PS_Total": 4,
    "ولسوالي": "اسعد آباد",
    "Region": "Eastern Region"
   },
   "geometry": {
    "x": 7920757.463204097,
    "y": 4146267.3848525207
   }
  },
  {
   "attributes": {
    "OBJECTID": 1665,
    "ولایت": "کنړ ",
    "Province": "KUNAR",
    "PC_Code": "1502046",
    "District": "MARA WARA",
    "د_مرکز_نوم__نام_مرکز": "کلینیک",
    "Polling_Center_Name": "Adam Khel Clinic",
    "د_مرکز_ځای__موقعیت_مرکز": "ادم خیل",
    "Polling_Center_Location": "Adam Khel",
    "Map_Accuracy": "Building",
    "Map_Accuracy_Dari": "تعمیر",
    "Status": "Open",
    "Status_Dari": null,
    "PS_Male": 3,
    "PS_Female": 1,
    "PS_Total": 4,
    "ولسوالي": "مره وره",
    "Region": "Eastern Region"
   },
   "geometry": {
    "x": 7924346.913430539,
    "y": 4150239.5777694965
   }
  },
  {
   "attributes": {
    "OBJECTID": 1666,
    "ولایت": "کنړ ",
    "Province": "KUNAR",
    "PC_Code": "1505040",
    "District": "SAR KANI",
    "د_مرکز_نوم__نام_مرکز": "مدرسه قریه دونایی",
    "Polling_Center_Name": "Donaye Village Madrassa",
    "د_مرکز_ځای__موقعیت_مرکز": "دونایی",
    "Polling_Center_Location": "Donaye",
    "Map_Accuracy": "Building",
    "Map_Accuracy_Dari": "تعمیر",
    "Status": "Open",
    "Status_Dari": null,
    "PS_Male": 3,
    "PS_Female": 1,
    "PS_Total": 4,
    "ولسوالي": "سرکاڼو",
    "Region": "Eastern Region"
   },
   "geometry": {
    "x": 7913947.4365818771,
    "y": 4131172.5412768554
   }
  },
  {
   "attributes": {
    "OBJECTID": 1667,
    "ولایت": "کنړ ",
    "Province": "KUNAR",
    "PC_Code": "1505041",
    "District": "SAR KANI",
    "د_مرکز_نوم__نام_مرکز": "مکتب ابتدائیه",
    "Polling_Center_Name": "Pashad Primary School",
    "د_مرکز_ځای__موقعیت_مرکز": "پشد",
    "Polling_Center_Location": "Pashad",
    "Map_Accuracy": "Building",
    "Map_Accuracy_Dari": "تعمیر",
    "Status": "Open",
    "Status_Dari": null,
    "PS_Male": 2,
    "PS_Female": 2,
    "PS_Total": 4,
    "ولسوالي": "سرکاڼو",
    "Region": "Eastern Region"
   },
   "geometry": {
    "x": 7905291.7940280214,
    "y": 4126722.7497480768
   }
  },
  {
   "attributes": {
    "OBJECTID": 1668,
    "ولایت": "کنړ ",
    "Province": "KUNAR",
    "PC_Code": "1506067",
    "District": "SHIGAL WA SHILTAN",
    "د_مرکز_نوم__نام_مرکز": "مکتب ابتدائیه",
    "Polling_Center_Name": "Shilton Primary School",
    "د_مرکز_ځای__موقعیت_مرکز": "شلتن",
    "Polling_Center_Location": "Shilton",
    "Map_Accuracy": "Village",
    "Map_Accuracy_Dari": "قریه",
    "Status": "Open",
    "Status_Dari": null,
    "PS_Male": 3,
    "PS_Female": 2,
    "PS_Total": 5,
    "ولسوالي": "شیګل و شیلتن",
    "Region": "Eastern Region"
   },
   "geometry": {
    "x": 7933047.5023419904,
    "y": 4162400.3757250337
   }
  },
  {
   "attributes": {
    "OBJECTID": 1669,
    "ولایت": "کنړ ",
    "Province": "KUNAR",
    "PC_Code": "1508056",
    "District": "BAR KUNAR",
    "د_مرکز_نوم__نام_مرکز": "ججی لیسه",
    "Polling_Center_Name": "Jaji High School",
    "د_مرکز_ځای__موقعیت_مرکز": "ججی",
    "Polling_Center_Location": "Jaji Village ",
    "Map_Accuracy": "Building",
    "Map_Accuracy_Dari": "تعمیر",
    "Status": "Open",
    "Status_Dari": null,
    "PS_Male": 3,
    "PS_Female": 1,
    "PS_Total": 4,
    "ولسوالي": "بر کنړ ",
    "Region": "Eastern Region"
   },
   "geometry": {
    "x": 7942793.0005593337,
    "y": 4167494.3239655602
   }
  },
  {
   "attributes": {
    "OBJECTID": 1670,
    "ولایت": "کنړ ",
    "Province": "KUNAR",
    "PC_Code": "1508057",
    "District": "BAR KUNAR",
    "د_مرکز_نوم__نام_مرکز": "لیسه ذکور",
    "Polling_Center_Name": "Shangar Boys High School",
    "د_مرکز_ځای__موقعیت_مرکز": "شنگر",
    "Polling_Center_Location": "Shangar",
    "Map_Accuracy": "Building",
    "Map_Accuracy_Dari": "تعمیر",
    "Status": "Open",
    "Status_Dari": null,
    "PS_Male": 2,
    "PS_Female": 1,
    "PS_Total": 3,
    "ولسوالي": "بر کنړ ",
    "Region": "Eastern Region"
   },
   "geometry": {
    "x": 7944689.5128753558,
    "y": 4173023.0858720038
   }
  },
  {
   "attributes": {
    "OBJECTID": 1671,
    "ولایت": "کنړ ",
    "Province": "KUNAR",
    "PC_Code": "1509094",
    "District": "SAWKAI",
    "د_مرکز_نوم__نام_مرکز": "مسجد قریه",
    "Polling_Center_Name": "Wali Qala Mosque",
    "د_مرکز_ځای__موقعیت_مرکز": "ولی قلعه",
    "Polling_Center_Location": "Wali Qala",
    "Map_Accuracy": "Building",
    "Map_Accuracy_Dari": "تعمیر",
    "Status": "Open",
    "Status_Dari": null,
    "PS_Male": 3,
    "PS_Female": 2,
    "PS_Total": 5,
    "ولسوالي": "څوکی",
    "Region": "Eastern Region"
   },
   "geometry": {
    "x": 7893968.3587266058,
    "y": 4122203.7883945834
   }
  },
  {
   "attributes": {
    "OBJECTID": 1672,
    "ولایت": "کنړ ",
    "Province": "KUNAR",
    "PC_Code": "1509095",
    "District": "SAWKAI",
    "د_مرکز_نوم__نام_مرکز": "ګټو قلعه لیسه",
    "Polling_Center_Name": "Gato Qala High School",
    "د_مرکز_ځای__موقعیت_مرکز": "ګټو قلعه",
    "Polling_Center_Location": "Gato Qala",
    "Map_Accuracy": "Building",
    "Map_Accuracy_Dari": "تعمیر",
    "Status": "Open",
    "Status_Dari": null,
    "PS_Male": 2,
    "PS_Female": 1,
    "PS_Total": 3,
    "ولسوالي": "څوکی",
    "Region": "Eastern Region"
   },
   "geometry": {
    "x": 7890541.9614979131,
    "y": 4119313.3921332564
   }
  },
  {
   "attributes": {
    "OBJECTID": 1673,
    "ولایت": "کنړ ",
    "Province": "KUNAR",
    "PC_Code": "1510100",
    "District": "KHAS KUNAR",
    "د_مرکز_نوم__نام_مرکز": "لیسه منگوال",
    "Polling_Center_Name": "Mangwal High School",
    "د_مرکز_ځای__موقعیت_مرکز": "منگوال",
    "Polling_Center_Location": "Mangwal",
    "Map_Accuracy": "Building",
    "Map_Accuracy_Dari": "تعمیر",
    "Status": "Open",
    "Status_Dari": null,
    "PS_Male": 2,
    "PS_Female": 1,
    "PS_Total": 3,
    "ولسوالي": "خاص کنړ",
    "Region": "Eastern Region"
   },
   "geometry": {
    "x": 7885501.6620840644,
    "y": 4110932.0553638302
   }
  },
  {
   "attributes": {
    "OBJECTID": 1674,
    "ولایت": "کنړ ",
    "Province": "KUNAR",
    "PC_Code": "1510101",
    "District": "KHAS KUNAR",
    "د_مرکز_نوم__نام_مرکز": "مسجد قریه",
    "Polling_Center_Name": "Mangwal Village Mosque",
    "د_مرکز_ځای__موقعیت_مرکز": "منگوال",
    "Polling_Center_Location": "Mangwal",
    "Map_Accuracy": "Building",
    "Map_Accuracy_Dari": "تعمیر",
    "Status": "Open",
    "Status_Dari": null,
    "PS_Male": 1,
    "PS_Female": 1,
    "PS_Total": 2,
    "ولسوالي": "خاص کنړ",
    "Region": "Eastern Region"
   },
   "geometry": {
    "x": 7884534.2311437652,
    "y": 4110185.4519400978
   }
  },
  {
   "attributes": {
    "OBJECTID": 1675,
    "ولایت": "کنړ ",
    "Province": "KUNAR",
    "PC_Code": "1507018",
    "District": "DARA-E-PECH",
    "د_مرکز_نوم__نام_مرکز": "لیسه بارکندی( اوس لیسه شوی ده)",
    "Polling_Center_Name": "Barkandy High School",
    "د_مرکز_ځای__موقعیت_مرکز": "بارکنډی ",
    "Polling_Center_Location": "Barkandi",
    "Map_Accuracy": "Village",
    "Map_Accuracy_Dari": "قریه",
    "Status": "Open",
    "Status_Dari": null,
    "PS_Male": 3,
    "PS_Female": 1,
    "PS_Total": 4,
    "ولسوالي": "دره پیچ",
    "Region": "Eastern Region"
   },
   "geometry": {
    "x": 7901190.3264640896,
    "y": 4156275.8685956001
   }
  },
  {
   "attributes": {
    "OBJECTID": 1676,
    "ولایت": "کنړ ",
    "Province": "KUNAR",
    "PC_Code": "1507026",
    "District": "DARA-E-PECH",
    "د_مرکز_نوم__نام_مرکز": "مدرسه قریه",
    "Polling_Center_Name": "Kandagal Village Madrassa",
    "د_مرکز_ځای__موقعیت_مرکز": "کنده گل",
    "Polling_Center_Location": "Kandagal",
    "Map_Accuracy": "Village",
    "Map_Accuracy_Dari": "قریه",
    "Status": "Open",
    "Status_Dari": null,
    "PS_Male": 2,
    "PS_Female": 1,
    "PS_Total": 3,
    "ولسوالي": "دره پیچ",
    "Region": "Eastern Region"
   },
   "geometry": {
    "x": 7898513.9131351588,
    "y": 4155666.4550161897
   }
  },
  {
   "attributes": {
    "OBJECTID": 1677,
    "ولایت": "کنړ ",
    "Province": "KUNAR",
    "PC_Code": "1507027",
    "District": "DARA-E-PECH",
    "د_مرکز_نوم__نام_مرکز": "مسجد قریه",
    "Polling_Center_Name": "Sondoray Village Mosque",
    "د_مرکز_ځای__موقعیت_مرکز": "سوندری ",
    "Polling_Center_Location": "Sondoray",
    "Map_Accuracy": "Village",
    "Map_Accuracy_Dari": "قریه",
    "Status": "Open",
    "Status_Dari": null,
    "PS_Male": 1,
    "PS_Female": 2,
    "PS_Total": 3,
    "ولسوالي": "دره پیچ",
    "Region": "Eastern Region"
   },
   "geometry": {
    "x": 7894876.9495236585,
    "y": 4159430.1264550965
   }
  },
  {
   "attributes": {
    "OBJECTID": 1678,
    "ولایت": "کنړ ",
    "Province": "KUNAR",
    "PC_Code": "1509089",
    "District": "SAWKAI",
    "د_مرکز_نوم__نام_مرکز": "مکتب ابتدائیه",
    "Polling_Center_Name": "Babaro Primary School",
    "د_مرکز_ځای__موقعیت_مرکز": "با برو",
    "Polling_Center_Location": "Babaro",
    "Map_Accuracy": "Village",
    "Map_Accuracy_Dari": "قریه",
    "Status": "Open",
    "Status_Dari": null,
    "PS_Male": 3,
    "PS_Female": 1,
    "PS_Total": 4,
    "ولسوالي": "څوکی",
    "Region": "Eastern Region"
   },
   "geometry": {
    "x": 7898763.4981126878,
    "y": 4125318.2869019601
   }
  },
  {
   "attributes": {
    "OBJECTID": 1679,
    "ولایت": "کنړ ",
    "Province": "KUNAR",
    "PC_Code": "1509090",
    "District": "SAWKAI",
    "د_مرکز_نوم__نام_مرکز": "لیسه جمعیت",
    "Polling_Center_Name": "Jamiat High School",
    "د_مرکز_ځای__موقعیت_مرکز": "شالوتی",
    "Polling_Center_Location": "Shaloti ",
    "Map_Accuracy": "Building",
    "Map_Accuracy_Dari": "تعمیر",
    "Status": "Open",
    "Status_Dari": null,
    "PS_Male": 2,
    "PS_Female": 1,
    "PS_Total": 3,
    "ولسوالي": "څوکی",
    "Region": "Eastern Region"
   },
   "geometry": {
    "x": 7895613.1832399182,
    "y": 4123149.0979187274
   }
  },
  {
   "attributes": {
    "OBJECTID": 1680,
    "ولایت": "کنړ ",
    "Province": "KUNAR",
    "PC_Code": "1515104",
    "District": "NARI",
    "د_مرکز_نوم__نام_مرکز": "مکتب ابتدائیه",
    "Polling_Center_Name": "Primary School",
    "د_مرکز_ځای__موقعیت_مرکز": "زروکڅ",
    "Polling_Center_Location": "Zarokas",
    "Map_Accuracy": "Village",
    "Map_Accuracy_Dari": "قریه",
    "Status": "Open",
    "Status_Dari": null,
    "PS_Male": 3,
    "PS_Female": 2,
    "PS_Total": 5,
    "ولسوالي": "نری",
    "Region": "Eastern Region"
   },
   "geometry": {
    "x": 7961887.9055478591,
    "y": 4192532.6625637729
   }
  },
  {
   "attributes": {
    "OBJECTID": 1681,
    "ولایت": "کنړ ",
    "Province": "KUNAR",
    "PC_Code": "1515105",
    "District": "NARI",
    "د_مرکز_نوم__نام_مرکز": "لیسه بری کوت",
    "Polling_Center_Name": "Barikot High School",
    "د_مرکز_ځای__موقعیت_مرکز": "بری کوت",
    "Polling_Center_Location": "Barikot",
    "Map_Accuracy": "Village",
    "Map_Accuracy_Dari": "قریه",
    "Status": "Open",
    "Status_Dari": null,
    "PS_Male": 3,
    "PS_Female": 2,
    "PS_Total": 5,
    "ولسوالي": "نری",
    "Region": "Eastern Region"
   },
   "geometry": {
    "x": 7963796.7464974849,
    "y": 4204387.2106706956
   }
  },
  {
   "attributes": {
    "OBJECTID": 1682,
    "ولایت": "نورستان",
    "Province": "NOORISTAN",
    "PC_Code": "1601009",
    "District": "PAROON",
    "د_مرکز_نوم__نام_مرکز": "مکتب ابتدائیه کوشت",
    "Polling_Center_Name": "Kosht Primary School",
    "د_مرکز_ځای__موقعیت_مرکز": "کوشت",
    "Polling_Center_Location": "Kosht",
    "Map_Accuracy": "Village",
    "Map_Accuracy_Dari": "قریه",
    "Status": "Open",
    "Status_Dari": null,
    "PS_Male": 2,
    "PS_Female": 1,
    "PS_Total": 3,
    "ولسوالي": "پارون",
    "Region": "Eastern Region"
   },
   "geometry": {
    "x": 7886294.9937935425,
    "y": 4192241.6294142976
   }
  },
  {
   "attributes": {
    "OBJECTID": 1683,
    "ولایت": "نورستان",
    "Province": "NOORISTAN",
    "PC_Code": "1601010",
    "District": "PAROON",
    "د_مرکز_نوم__نام_مرکز": "مسجد جامع قریه موم",
    "Polling_Center_Name": "Moom Village Mosque",
    "د_مرکز_ځای__موقعیت_مرکز": "قریه موم",
    "Polling_Center_Location": "Moom Village",
    "Map_Accuracy": "Village",
    "Map_Accuracy_Dari": "قریه",
    "Status": "Open",
    "Status_Dari": null,
    "PS_Male": 2,
    "PS_Female": 1,
    "PS_Total": 3,
    "ولسوالي": "پارون",
    "Region": "Eastern Region"
   },
   "geometry": {
    "x": 7883840.0294408426,
    "y": 4199026.0003538867
   }
  },
  {
   "attributes": {
    "OBJECTID": 1684,
    "ولایت": "نورستان",
    "Province": "NOORISTAN",
    "PC_Code": "1608065",
    "District": "BARG-E-MATAL",
    "د_مرکز_نوم__نام_مرکز": "خانه ملک قریه شدګل",
    "Polling_Center_Name": "Shod Gul Village Malak House",
    "د_مرکز_ځای__موقعیت_مرکز": "قریه شدګل",
    "Polling_Center_Location": "Shod Gul Village",
    "Map_Accuracy": "Village",
    "Map_Accuracy_Dari": "قریه",
    "Status": "Open",
    "Status_Dari": null,
    "PS_Male": 4,
    "PS_Female": 2,
    "PS_Total": 6,
    "ولسوالي": "برګ مټال",
    "Region": "Eastern Region"
   },
   "geometry": {
    "x": 7941406.484018852,
    "y": 4260192.9819927746
   }
  },
  {
   "attributes": {
    "OBJECTID": 1685,
    "ولایت": "نورستان",
    "Province": "NOORISTAN",
    "PC_Code": "1603044",
    "District": "WAMA",
    "د_مرکز_نوم__نام_مرکز": "پونز ابتدائیه مکتب",
    "Polling_Center_Name": "Ponz Primary School",
    "د_مرکز_ځای__موقعیت_مرکز": "پونز",
    "Polling_Center_Location": "Ponz",
    "Map_Accuracy": "Village",
    "Map_Accuracy_Dari": "قریه",
    "Status": "Open",
    "Status_Dari": null,
    "PS_Male": 2,
    "PS_Female": 2,
    "PS_Total": 4,
    "ولسوالي": "واما",
    "Region": "Eastern Region"
   },
   "geometry": {
    "x": 7875139.0943257716,
    "y": 4179266.5993332979
   }
  },
  {
   "attributes": {
    "OBJECTID": 1686,
    "ولایت": "نورستان",
    "Province": "NOORISTAN",
    "PC_Code": "1603045",
    "District": "WAMA",
    "د_مرکز_نوم__نام_مرکز": "مسجد جامع سرپل",
    "Polling_Center_Name": "Sar-e-Pul Mosque",
    "د_مرکز_ځای__موقعیت_مرکز": "سر پل پسو چم",
    "Polling_Center_Location": "Sar-e-Pul Paso Cham",
    "Map_Accuracy": "Village",
    "Map_Accuracy_Dari": "قریه",
    "Status": "Open",
    "Status_Dari": null,
    "PS_Male": 3,
    "PS_Female": 3,
    "PS_Total": 6,
    "ولسوالي": "واما",
    "Region": "Eastern Region"
   },
   "geometry": {
    "x": 7875933.2097244654,
    "y": 4180154.0754094911
   }
  },
  {
   "attributes": {
    "OBJECTID": 1687,
    "ولایت": "نورستان",
    "Province": "NOORISTAN",
    "PC_Code": "1603075",
    "District": "WAMA",
    "د_مرکز_نوم__نام_مرکز": "مسجد بونی",
    "Polling_Center_Name": "Boni Mosque",
    "د_مرکز_ځای__موقعیت_مرکز": "بونی",
    "Polling_Center_Location": "Boni",
    "Map_Accuracy": "Village",
    "Map_Accuracy_Dari": "قریه",
    "Status": "Open",
    "Status_Dari": null,
    "PS_Male": 2,
    "PS_Female": 1,
    "PS_Total": 3,
    "ولسوالي": "واما",
    "Region": "Eastern Region"
   },
   "geometry": {
    "x": 7885734.7347075632,
    "y": 4190227.6840649997
   }
  },
  {
   "attributes": {
    "OBJECTID": 1688,
    "ولایت": "نورستان",
    "Province": "NOORISTAN",
    "PC_Code": "1606074",
    "District": "KAMDESH",
    "د_مرکز_نوم__نام_مرکز": "مکتب کامز آباد",
    "Polling_Center_Name": "Kamez abad School",
    "د_مرکز_ځای__موقعیت_مرکز": "کامز آباد",
    "Polling_Center_Location": "Kamez abad",
    "Map_Accuracy": "District",
    "Map_Accuracy_Dari": "ولسوالی",
    "Status": "Open",
    "Status_Dari": null,
    "PS_Male": 3,
    "PS_Female": 3,
    "PS_Total": 6,
    "ولسوالي": "کامدیش",
    "Region": "Eastern Region"
   },
   "geometry": {
    "x": 7944047.5303663248,
    "y": 4234930.1326822843
   }
  },
  {
   "attributes": {
    "OBJECTID": 1689,
    "ولایت": "کابل",
    "Province": "KABUL",
    "PC_Code": "0101553",
    "District": "District_13",
    "د_مرکز_نوم__نام_مرکز": "مسجد امام هادی",
    "Polling_Center_Name": "Emam Hadi Mosque",
    "د_مرکز_ځای__موقعیت_مرکز": "شهرک اتفاق",
    "Polling_Center_Location": "Etifaq Town",
    "Map_Accuracy": "Building",
    "Map_Accuracy_Dari": "تعمیر",
    "Status": "Open",
    "Status_Dari": null,
    "PS_Male": 2,
    "PS_Female": 1,
    "PS_Total": 3,
    "ولسوالي": "ناحیه_13",
    "Region": "Central Region"
   },
   "geometry": {
    "x": 7683719.480700315,
    "y": 4096214.2641322878
   }
  },
  {
   "attributes": {
    "OBJECTID": 1690,
    "ولایت": "کابل",
    "Province": "KABUL",
    "PC_Code": "0101554",
    "District": "District_13",
    "د_مرکز_نوم__نام_مرکز": "مکتب متوسطه شهرک محمدیه",
    "Polling_Center_Name": "Sahrak Mohamadia Secondary School",
    "د_مرکز_ځای__موقعیت_مرکز": "قلعه نو",
    "Polling_Center_Location": "Qala naw",
    "Map_Accuracy": "Building",
    "Map_Accuracy_Dari": "تعمیر",
    "Status": "Open",
    "Status_Dari": null,
    "PS_Male": 2,
    "PS_Female": 1,
    "PS_Total": 3,
    "ولسوالي": "ناحیه_13",
    "Region": "Central Region"
   },
   "geometry": {
    "x": 7685358.6762322523,
    "y": 4094890.424414651
   }
  },
  {
   "attributes": {
    "OBJECTID": 1691,
    "ولایت": "کابل",
    "Province": "KABUL",
    "PC_Code": "0101556",
    "District": "District_13",
    "د_مرکز_نوم__نام_مرکز": "مسجد قمبر بن هاشم",
    "Polling_Center_Name": "Qambar bin Hashem Mosque",
    "د_مرکز_ځای__موقعیت_مرکز": "کور کاریز",
    "Polling_Center_Location": "Kor Kariz",
    "Map_Accuracy": "Building",
    "Map_Accuracy_Dari": "تعمیر",
    "Status": "Open",
    "Status_Dari": null,
    "PS_Male": 2,
    "PS_Female": 2,
    "PS_Total": 4,
    "ولسوالي": "ناحیه_13",
    "Region": "Central Region"
   },
   "geometry": {
    "x": 7685271.8504803376,
    "y": 4093332.5433206358
   }
  },
  {
   "attributes": {
    "OBJECTID": 1692,
    "ولایت": "کابل",
    "Province": "KABUL",
    "PC_Code": "0101555",
    "District": "District_13",
    "د_مرکز_نوم__نام_مرکز": "مسجد قهرمان کربلا",
    "Polling_Center_Name": "Qhraman Karbala Mosque",
    "د_مرکز_ځای__موقعیت_مرکز": "ریگ ریشن",
    "Polling_Center_Location": "Regression",
    "Map_Accuracy": "Building",
    "Map_Accuracy_Dari": "تعمیر",
    "Status": "Open",
    "Status_Dari": null,
    "PS_Male": 2,
    "PS_Female": 2,
    "PS_Total": 4,
    "ولسوالي": "ناحیه_13",
    "Region": "Central Region"
   },
   "geometry": {
    "x": 7687717.5013991622,
    "y": 4096979.7379875327
   }
  },
  {
   "attributes": {
    "OBJECTID": 1693,
    "ولایت": "کابل",
    "Province": "KABUL",
    "PC_Code": "0101557",
    "District": "District_13",
    "د_مرکز_نوم__نام_مرکز": "لیسه شهرک",
    "Polling_Center_Name": "Shahrak High school",
    "د_مرکز_ځای__موقعیت_مرکز": "شهرک دوازده امام",
    "Polling_Center_Location": "Shrak Dwazda Emamy",
    "Map_Accuracy": "Building",
    "Map_Accuracy_Dari": "تعمیر",
    "Status": "Open",
    "Status_Dari": null,
    "PS_Male": 2,
    "PS_Female": 1,
    "PS_Total": 3,
    "ولسوالي": "ناحیه_13",
    "Region": "Central Region"
   },
   "geometry": {
    "x": 7691325.9787982469,
    "y": 4094696.2891409709
   }
  },
  {
   "attributes": {
    "OBJECTID": 1694,
    "ولایت": "نورستان",
    "Province": "NOORISTAN",
    "PC_Code": "1601001",
    "District": "PAROON",
    "د_مرکز_نوم__نام_مرکز": "مکتب سابقه نسوان شتوی",
    "Polling_Center_Name": "Shatawi Girls Old School",
    "د_مرکز_ځای__موقعیت_مرکز": "شتوی",
    "Polling_Center_Location": "Shatawi",
    "Map_Accuracy": "Building",
    "Map_Accuracy_Dari": "تعمیر",
    "Status": "Open",
    "Status_Dari": null,
    "PS_Male": 3,
    "PS_Female": 1,
    "PS_Total": 4,
    "ولسوالي": "پارون",
    "Region": "Eastern Region"
   },
   "geometry": {
    "x": 7896093.0802288922,
    "y": 4224975.5890906714
   }
  },
  {
   "attributes": {
    "OBJECTID": 1695,
    "ولایت": "نورستان",
    "Province": "NOORISTAN",
    "PC_Code": "1605025",
    "District": "DUAB",
    "د_مرکز_نوم__نام_مرکز": "مکتب متوسطه کور ګل",
    "Polling_Center_Name": "Kor Gul Secondary School",
    "د_مرکز_ځای__موقعیت_مرکز": "کورګل",
    "Polling_Center_Location": "Kor Gul",
    "Map_Accuracy": "Village",
    "Map_Accuracy_Dari": "قریه",
    "Status": "Open",
    "Status_Dari": null,
    "PS_Male": 1,
    "PS_Female": 1,
    "PS_Total": 2,
    "ولسوالي": "دو آب",
    "Region": "Eastern Region"
   },
   "geometry": {
    "x": 7826456.9013662422,
    "y": 4173986.8726637391
   }
  },
  {
   "attributes": {
    "OBJECTID": 1696,
    "ولایت": "نورستان",
    "Province": "NOORISTAN",
    "PC_Code": "1608072",
    "District": "BARG-E-MATAL",
    "د_مرکز_نوم__نام_مرکز": "مکتب قریه پشاورک",
    "Polling_Center_Name": "Peshawarak Village School",
    "د_مرکز_ځای__موقعیت_مرکز": "قریه پشاورک",
    "Polling_Center_Location": "Peshawarak Village",
    "Map_Accuracy": "Village",
    "Map_Accuracy_Dari": "قریه",
    "Status": "Open",
    "Status_Dari": null,
    "PS_Male": 2,
    "PS_Female": 2,
    "PS_Total": 4,
    "ولسوالي": "برګ مټال",
    "Region": "Eastern Region"
   },
   "geometry": {
    "x": 7944106.8755661007,
    "y": 4278876.1527122399
   }
  },
  {
   "attributes": {
    "OBJECTID": 1697,
    "ولایت": "بدخشان",
    "Province": "BADAKHSHAN",
    "PC_Code": "1701002",
    "District": "FAIZ ABAD",
    "د_مرکز_نوم__نام_مرکز": "مکتب دو ابه",
    "Polling_Center_Name": "Do-Aba School",
    "د_مرکز_ځای__موقعیت_مرکز": "دوبایی یفتل علیا",
    "Polling_Center_Location": "Dobayee Yaftal Ulya",
    "Map_Accuracy": "Building",
    "Map_Accuracy_Dari": "تعمیر",
    "Status": "Open",
    "Status_Dari": null,
    "PS_Male": 3,
    "PS_Female": 1,
    "PS_Total": 4,
    "ولسوالي": "فیض آباد",
    "Region": "North Eastern Region"
   },
   "geometry": {
    "x": 7853854.3546157666,
    "y": 4476415.4393583415
   }
  },
  {
   "attributes": {
    "OBJECTID": 1698,
    "ولایت": "بدخشان",
    "Province": "BADAKHSHAN",
    "PC_Code": "1701003",
    "District": "FAIZ ABAD",
    "د_مرکز_نوم__نام_مرکز": "لیسه تلبزنگ",
    "Polling_Center_Name": "Talabzang High School",
    "د_مرکز_ځای__موقعیت_مرکز": "تلب زنگ ",
    "Polling_Center_Location": "Talabzang",
    "Map_Accuracy": "Building",
    "Map_Accuracy_Dari": "تعمیر",
    "Status": "Open",
    "Status_Dari": null,
    "PS_Male": 3,
    "PS_Female": 1,
    "PS_Total": 4,
    "ولسوالي": "فیض آباد",
    "Region": "North Eastern Region"
   },
   "geometry": {
    "x": 7853543.8467073189,
    "y": 4468780.0465643918
   }
  },
  {
   "attributes": {
    "OBJECTID": 1699,
    "ولایت": "بدخشان",
    "Province": "BADAKHSHAN",
    "PC_Code": "1701012",
    "District": "FAIZ ABAD",
    "د_مرکز_نوم__نام_مرکز": "فاکولته طب",
    "Polling_Center_Name": "Medical Faculty",
    "د_مرکز_ځای__موقعیت_مرکز": " ناحیه شهر جدید",
    "Polling_Center_Location": "Nahia Shahr Jadid",
    "Map_Accuracy": "Building",
    "Map_Accuracy_Dari": "تعمیر",
    "Status": "Open",
    "Status_Dari": null,
    "PS_Male": 3,
    "PS_Female": 1,
    "PS_Total": 4,
    "ولسوالي": "فیض آباد",
    "Region": "North Eastern Region"
   },
   "geometry": {
    "x": 7854048.9945190288,
    "y": 4453633.3541737543
   }
  },
  {
   "attributes": {
    "OBJECTID": 1700,
    "ولایت": "بدخشان",
    "Province": "BADAKHSHAN",
    "PC_Code": "1701013",
    "District": "FAIZ ABAD",
    "د_مرکز_نوم__نام_مرکز": "مسجد امام بخاری ",
    "Polling_Center_Name": "Imam Bukhari Mosque",
    "د_مرکز_ځای__موقعیت_مرکز": "حصه سوم شهر جدید",
    "Polling_Center_Location": "Hisa 3 Shahr Jadid",
    "Map_Accuracy": "Building",
    "Map_Accuracy_Dari": "تعمیر",
    "Status": "Open",
    "Status_Dari": null,
    "PS_Male": 3,
    "PS_Female": 3,
    "PS_Total": 6,
    "ولسوالي": "فیض آباد",
    "Region": "North Eastern Region"
   },
   "geometry": {
    "x": 7854064.8842631448,
    "y": 4453655.5709099518
   }
  },
  {
   "attributes": {
    "OBJECTID": 1701,
    "ولایت": "بدخشان",
    "Province": "BADAKHSHAN",
    "PC_Code": "1701023",
    "District": "FAIZ ABAD",
    "د_مرکز_نوم__نام_مرکز": "مکتب دره کولان ",
    "Polling_Center_Name": "Dara-e-Kolan School",
    "د_مرکز_ځای__موقعیت_مرکز": "دره کولان ",
    "Polling_Center_Location": "Dara-e-Kolan",
    "Map_Accuracy": "Building",
    "Map_Accuracy_Dari": "تعمیر",
    "Status": "Open",
    "Status_Dari": null,
    "PS_Male": 1,
    "PS_Female": 1,
    "PS_Total": 2,
    "ولسوالي": "فیض آباد",
    "Region": "North Eastern Region"
   },
   "geometry": {
    "x": 7858638.3943354255,
    "y": 4469560.0387434438
   }
  },
  {
   "attributes": {
    "OBJECTID": 1702,
    "ولایت": "بدخشان",
    "Province": "BADAKHSHAN",
    "PC_Code": "1702038",
    "District": "ARGO",
    "د_مرکز_نوم__نام_مرکز": "لیسه ذکور خردمند شهید ",
    "Polling_Center_Name": "Khiradmand Shaheed Boys High School",
    "د_مرکز_ځای__موقعیت_مرکز": "شهروحدت ",
    "Polling_Center_Location": "Shahr-e-Wahdat",
    "Map_Accuracy": "Building",
    "Map_Accuracy_Dari": "تعمیر",
    "Status": "Open",
    "Status_Dari": null,
    "PS_Male": 2,
    "PS_Female": 2,
    "PS_Total": 4,
    "ولسوالي": "ارگو",
    "Region": "North Eastern Region"
   },
   "geometry": {
    "x": 7838782.176462559,
    "y": 4446384.2212144881
   }
  },
  {
   "attributes": {
    "OBJECTID": 1703,
    "ولایت": "بدخشان",
    "Province": "BADAKHSHAN",
    "PC_Code": "1702043",
    "District": "ARGO",
    "د_مرکز_نوم__نام_مرکز": "مکتب خواجه ایشتل",
    "Polling_Center_Name": "Khwaja Eshtal School",
    "د_مرکز_ځای__موقعیت_مرکز": "خواجه ایشتل",
    "Polling_Center_Location": "Khwaja Eshtal",
    "Map_Accuracy": "Building",
    "Map_Accuracy_Dari": "تعمیر",
    "Status": "Open",
    "Status_Dari": null,
    "PS_Male": 2,
    "PS_Female": 2,
    "PS_Total": 4,
    "ولسوالي": "ارگو",
    "Region": "North Eastern Region"
   },
   "geometry": {
    "x": 7844348.6330156224,
    "y": 4454235.3399652801
   }
  },
  {
   "attributes": {
    "OBJECTID": 1704,
    "ولایت": "بدخشان",
    "Province": "BADAKHSHAN",
    "PC_Code": "1702044",
    "District": "ARGO",
    "د_مرکز_نوم__نام_مرکز": "مکتب نسوان ده دهی",
    "Polling_Center_Name": "Deh Dahi Girls School",
    "د_مرکز_ځای__موقعیت_مرکز": "ده دهی",
    "Polling_Center_Location": "Deh Dahi",
    "Map_Accuracy": "Building",
    "Map_Accuracy_Dari": "تعمیر",
    "Status": "Open",
    "Status_Dari": null,
    "PS_Male": 2,
    "PS_Female": 2,
    "PS_Total": 4,
    "ولسوالي": "ارگو",
    "Region": "North Eastern Region"
   },
   "geometry": {
    "x": 7843719.2515389873,
    "y": 4439370.5192958061
   }
  },
  {
   "attributes": {
    "OBJECTID": 1705,
    "ولایت": "بدخشان",
    "Province": "BADAKHSHAN",
    "PC_Code": "1702048",
    "District": "ARGO",
    "د_مرکز_نوم__نام_مرکز": "مکتب متوسطه خوش دره ",
    "Polling_Center_Name": "Khosh Dara Secondary School",
    "د_مرکز_ځای__موقعیت_مرکز": "خوش دره ",
    "Polling_Center_Location": "Khosh Dara",
    "Map_Accuracy": "Building",
    "Map_Accuracy_Dari": "تعمیر",
    "Status": "Open",
    "Status_Dari": null,
    "PS_Male": 2,
    "PS_Female": 1,
    "PS_Total": 3,
    "ولسوالي": "ارگو",
    "Region": "North Eastern Region"
   },
   "geometry": {
    "x": 7826677.2237892244,
    "y": 4450756.5241989028
   }
  },
  {
   "attributes": {
    "OBJECTID": 1706,
    "ولایت": "بدخشان",
    "Province": "BADAKHSHAN",
    "PC_Code": "1702049",
    "District": "ARGO",
    "د_مرکز_نوم__نام_مرکز": "لیسه عبدالقادر حنیف شهید ",
    "Polling_Center_Name": "Abdul Qader Hanif Shaheed High School",
    "د_مرکز_ځای__موقعیت_مرکز": "اتین جلو",
    "Polling_Center_Location": "Ateen Jalo",
    "Map_Accuracy": "Building",
    "Map_Accuracy_Dari": "تعمیر",
    "Status": "Open",
    "Status_Dari": null,
    "PS_Male": 2,
    "PS_Female": 1,
    "PS_Total": 3,
    "ولسوالي": "ارگو",
    "Region": "North Eastern Region"
   },
   "geometry": {
    "x": 7810842.8511013109,
    "y": 4449603.4671645025
   }
  },
  {
   "attributes": {
    "OBJECTID": 1707,
    "ولایت": "بدخشان",
    "Province": "BADAKHSHAN",
    "PC_Code": "1702051",
    "District": "ARGO",
    "د_مرکز_نوم__نام_مرکز": "لیسه قچی ",
    "Polling_Center_Name": "Qachi High School",
    "د_مرکز_ځای__موقعیت_مرکز": "قچی",
    "Polling_Center_Location": "Qachi",
    "Map_Accuracy": "Building",
    "Map_Accuracy_Dari": "تعمیر",
    "Status": "Open",
    "Status_Dari": null,
    "PS_Male": 2,
    "PS_Female": 1,
    "PS_Total": 3,
    "ولسوالي": "ارگو",
    "Region": "North Eastern Region"
   },
   "geometry": {
    "x": 7815546.5426388988,
    "y": 4460914.8231390361
   }
  },
  {
   "attributes": {
    "OBJECTID": 1708,
    "ولایت": "بدخشان",
    "Province": "BADAKHSHAN",
    "PC_Code": "1702052",
    "District": "ARGO",
    "د_مرکز_نوم__نام_مرکز": "لیسه چتراق ",
    "Polling_Center_Name": "Chatraaq High School",
    "د_مرکز_ځای__موقعیت_مرکز": "چتراق",
    "Polling_Center_Location": "Chatraaq",
    "Map_Accuracy": "Building",
    "Map_Accuracy_Dari": "تعمیر",
    "Status": "Open",
    "Status_Dari": null,
    "PS_Male": 2,
    "PS_Female": 1,
    "PS_Total": 3,
    "ولسوالي": "ارگو",
    "Region": "North Eastern Region"
   },
   "geometry": {
    "x": 7857464.493569578,
    "y": 4447052.4686517529
   }
  },
  {
   "attributes": {
    "OBJECTID": 1709,
    "ولایت": "بدخشان",
    "Province": "BADAKHSHAN",
    "PC_Code": "1702060",
    "District": "ARGO",
    "د_مرکز_نوم__نام_مرکز": "مکتب متوسطه آب باریک ",
    "Polling_Center_Name": "Aab Bareek Secondary School",
    "د_مرکز_ځای__موقعیت_مرکز": "آب باریک ",
    "Polling_Center_Location": "Aab Bareek",
    "Map_Accuracy": "Building",
    "Map_Accuracy_Dari": "تعمیر",
    "Status": "Open",
    "Status_Dari": null,
    "PS_Male": 2,
    "PS_Female": 1,
    "PS_Total": 3,
    "ولسوالي": "ارگو",
    "Region": "North Eastern Region"
   },
   "geometry": {
    "x": 7830482.0861359118,
    "y": 4441607.9769798405
   }
  },
  {
   "attributes": {
    "OBJECTID": 1710,
    "ولایت": "بدخشان",
    "Province": "BADAKHSHAN",
    "PC_Code": "1702061",
    "District": "ARGO",
    "د_مرکز_نوم__نام_مرکز": "توروق",
    "Polling_Center_Name": "Toroq",
    "د_مرکز_ځای__موقعیت_مرکز": "توروق",
    "Polling_Center_Location": "Toroq",
    "Map_Accuracy": "Building",
    "Map_Accuracy_Dari": "تعمیر",
    "Status": "Open",
    "Status_Dari": null,
    "PS_Male": 2,
    "PS_Female": 1,
    "PS_Total": 3,
    "ولسوالي": "ارگو",
    "Region": "North Eastern Region"
   },
   "geometry": {
    "x": 7843635.1463241093,
    "y": 4456527.6974090822
   }
  },
  {
   "attributes": {
    "OBJECTID": 1711,
    "ولایت": "بدخشان",
    "Province": "BADAKHSHAN",
    "PC_Code": "1704036",
    "District": "YAFTAL-E-SUFLA",
    "د_مرکز_نوم__نام_مرکز": "مکتب سرن ",
    "Polling_Center_Name": "Saran School",
    "د_مرکز_ځای__موقعیت_مرکز": "سرن",
    "Polling_Center_Location": "Saran",
    "Map_Accuracy": "Building",
    "Map_Accuracy_Dari": "تعمیر",
    "Status": "Open",
    "Status_Dari": null,
    "PS_Male": 2,
    "PS_Female": 1,
    "PS_Total": 3,
    "ولسوالي": "یفتل سفلا",
    "Region": "North Eastern Region"
   },
   "geometry": {
    "x": 7845958.6301130382,
    "y": 4479513.4981062552
   }
  },
  {
   "attributes": {
    "OBJECTID": 1712,
    "ولایت": "بدخشان",
    "Province": "BADAKHSHAN",
    "PC_Code": "1704037",
    "District": "YAFTAL-E-SUFLA",
    "د_مرکز_نوم__نام_مرکز": "مکتب زمستانک",
    "Polling_Center_Name": "Zemestanak School",
    "د_مرکز_ځای__موقعیت_مرکز": "زمستانک",
    "Polling_Center_Location": "Zemestanak",
    "Map_Accuracy": "Building",
    "Map_Accuracy_Dari": "تعمیر",
    "Status": "Open",
    "Status_Dari": null,
    "PS_Male": 2,
    "PS_Female": 1,
    "PS_Total": 3,
    "ولسوالي": "یفتل سفلا",
    "Region": "North Eastern Region"
   },
   "geometry": {
    "x": 7819983.5583175411,
    "y": 4477236.3175856834
   }
  },
  {
   "attributes": {
    "OBJECTID": 1713,
    "ولایت": "بدخشان",
    "Province": "BADAKHSHAN",
    "PC_Code": "1706105",
    "District": "BAHARAK",
    "د_مرکز_نوم__نام_مرکز": "مکتب دشت فراخ ",
    "Polling_Center_Name": "Dasht Faraakh School",
    "د_مرکز_ځای__موقعیت_مرکز": "دشت فراخ ",
    "Polling_Center_Location": "Dasht Faraakh",
    "Map_Accuracy": "Building",
    "Map_Accuracy_Dari": "تعمیر",
    "Status": "Open",
    "Status_Dari": null,
    "PS_Male": 1,
    "PS_Female": 1,
    "PS_Total": 2,
    "ولسوالي": "بهارک",
    "Region": "North Eastern Region"
   },
   "geometry": {
    "x": 7887343.318381412,
    "y": 4435300.2193808565
   }
  },
  {
   "attributes": {
    "OBJECTID": 1714,
    "ولایت": "بدخشان",
    "Province": "BADAKHSHAN",
    "PC_Code": "1706106",
    "District": "BAHARAK",
    "د_مرکز_نوم__نام_مرکز": "مکتب یردار",
    "Polling_Center_Name": "Yardar School",
    "د_مرکز_ځای__موقعیت_مرکز": "یردار",
    "Polling_Center_Location": "Yardar",
    "Map_Accuracy": "Building",
    "Map_Accuracy_Dari": "تعمیر",
    "Status": "Open",
    "Status_Dari": null,
    "PS_Male": 1,
    "PS_Female": 1,
    "PS_Total": 2,
    "ولسوالي": "بهارک",
    "Region": "North Eastern Region"
   },
   "geometry": {
    "x": 7894662.3923371034,
    "y": 4435142.6958189951
   }
  },
  {
   "attributes": {
    "OBJECTID": 1715,
    "ولایت": "بدخشان",
    "Province": "BADAKHSHAN",
    "PC_Code": "1707065",
    "District": "DARAYIM",
    "د_مرکز_نوم__نام_مرکز": "لیسه پنگانی ",
    "Polling_Center_Name": "Pangani High School",
    "د_مرکز_ځای__موقعیت_مرکز": "پنگانی ",
    "Polling_Center_Location": "Pangani",
    "Map_Accuracy": "Building",
    "Map_Accuracy_Dari": "تعمیر",
    "Status": "Open",
    "Status_Dari": null,
    "PS_Male": 2,
    "PS_Female": 1,
    "PS_Total": 3,
    "ولسوالي": "درایم",
    "Region": "North Eastern Region"
   },
   "geometry": {
    "x": 7822949.2820974803,
    "y": 4439061.7053754749
   }
  },
  {
   "attributes": {
    "OBJECTID": 1716,
    "ولایت": "تخار",
    "Province": "TAKHAR",
    "PC_Code": "1812175",
    "District": "DASHT-E-QALA",
    "د_مرکز_نوم__نام_مرکز": "ابتدائیه لایقه",
    "Polling_Center_Name": "Laayeqa Primary School",
    "د_مرکز_ځای__موقعیت_مرکز": "لایقه",
    "Polling_Center_Location": "Laayeqa",
    "Map_Accuracy": "Building",
    "Map_Accuracy_Dari": "تعمیر",
    "Status": "Open",
    "Status_Dari": null,
    "PS_Male": 2,
    "PS_Female": 1,
    "PS_Total": 3,
    "ولسوالي": "دشت قلعه",
    "Region": "North Eastern Region"
   },
   "geometry": {
    "x": 7737261.4925643811,
    "y": 4473491.6850338485
   }
  },
  {
   "attributes": {
    "OBJECTID": 1717,
    "ولایت": "تخار",
    "Province": "TAKHAR",
    "PC_Code": "1816136",
    "District": "CHAH AB",
    "د_مرکز_نوم__نام_مرکز": "مکتب متوسطه ارگ شاه",
    "Polling_Center_Name": "Arg Shah Secondary School",
    "د_مرکز_ځای__موقعیت_مرکز": "ارگ شاه",
    "Polling_Center_Location": "Arg Shah",
    "Map_Accuracy": "Building",
    "Map_Accuracy_Dari": "تعمیر",
    "Status": "Open",
    "Status_Dari": null,
    "PS_Male": 2,
    "PS_Female": 2,
    "PS_Total": 4,
    "ولسوالي": "چا آب",
    "Region": "North Eastern Region"
   },
   "geometry": {
    "x": 7780243.8504097639,
    "y": 4501311.2897394476
   }
  },
  {
   "attributes": {
    "OBJECTID": 1718,
    "ولایت": "تخار",
    "Province": "TAKHAR",
    "PC_Code": "1816137",
    "District": "CHAH AB",
    "د_مرکز_نوم__نام_مرکز": "مکتب متوسطه سمتی",
    "Polling_Center_Name": "Samti Secondary School",
    "د_مرکز_ځای__موقعیت_مرکز": "سمتی",
    "Polling_Center_Location": "Samti",
    "Map_Accuracy": "Building",
    "Map_Accuracy_Dari": "تعمیر",
    "Status": "Open",
    "Status_Dari": null,
    "PS_Male": 2,
    "PS_Female": 2,
    "PS_Total": 4,
    "ولسوالي": "چا آب",
    "Region": "North Eastern Region"
   },
   "geometry": {
    "x": 7777645.4442140022,
    "y": 4522486.9036620511
   }
  },
  {
   "attributes": {
    "OBJECTID": 1719,
    "ولایت": "تخار",
    "Province": "TAKHAR",
    "PC_Code": "1816139",
    "District": "CHAH AB",
    "د_مرکز_نوم__نام_مرکز": "مکتب متوسطۀ هودی",
    "Polling_Center_Name": "Hody Secondary School",
    "د_مرکز_ځای__موقعیت_مرکز": "هودی",
    "Polling_Center_Location": "Hody",
    "Map_Accuracy": "Building",
    "Map_Accuracy_Dari": "تعمیر",
    "Status": "Open",
    "Status_Dari": null,
    "PS_Male": 2,
    "PS_Female": 2,
    "PS_Total": 4,
    "ولسوالي": "چا آب",
    "Region": "North Eastern Region"
   },
   "geometry": {
    "x": 7763792.3525211494,
    "y": 4513943.5748789823
   }
  },
  {
   "attributes": {
    "OBJECTID": 1720,
    "ولایت": "تخار",
    "Province": "TAKHAR",
    "PC_Code": "1816140",
    "District": "CHAH AB",
    "د_مرکز_نوم__نام_مرکز": "مکتب متوسطۀ ورنخواه",
    "Polling_Center_Name": "Warankhwah Secondary School",
    "د_مرکز_ځای__موقعیت_مرکز": "ورنخواه",
    "Polling_Center_Location": "Warankhwah",
    "Map_Accuracy": "Building",
    "Map_Accuracy_Dari": "تعمیر",
    "Status": "Open",
    "Status_Dari": null,
    "PS_Male": 2,
    "PS_Female": 2,
    "PS_Total": 4,
    "ولسوالي": "چا آب",
    "Region": "North Eastern Region"
   },
   "geometry": {
    "x": 7778272.9644287499,
    "y": 4490822.1178768352
   }
  },
  {
   "attributes": {
    "OBJECTID": 1721,
    "ولایت": "تخار",
    "Province": "TAKHAR",
    "PC_Code": "1801186",
    "District": "TALUQAN",
    "د_مرکز_نوم__نام_مرکز": "مكتب ابتدائيه باغك ",
    "Polling_Center_Name": "Baghak Primary School",
    "د_مرکز_ځای__موقعیت_مرکز": "قریه باغک ",
    "Polling_Center_Location": "Baghak Village",
    "Map_Accuracy": "Building",
    "Map_Accuracy_Dari": "تعمیر",
    "Status": "Open",
    "Status_Dari": null,
    "PS_Male": 2,
    "PS_Female": 1,
    "PS_Total": 3,
    "ولسوالي": "تالقان",
    "Region": "North Eastern Region"
   },
   "geometry": {
    "x": 7738845.1982244663,
    "y": 4403731.6277761143
   }
  },
  {
   "attributes": {
    "OBJECTID": 1722,
    "ولایت": "تخار",
    "Province": "TAKHAR",
    "PC_Code": "1802035",
    "District": "HAZAR SUMUCH",
    "د_مرکز_نوم__نام_مرکز": "مکتب متوسطه هزارسموچ",
    "Polling_Center_Name": "Hazar Smooch Secondary School",
    "د_مرکز_ځای__موقعیت_مرکز": "هزارسموچ",
    "Polling_Center_Location": "Hazar Smooch",
    "Map_Accuracy": "Building",
    "Map_Accuracy_Dari": "تعمیر",
    "Status": "Open",
    "Status_Dari": null,
    "PS_Male": 3,
    "PS_Female": 1,
    "PS_Total": 4,
    "ولسوالي": "هزارسموچ",
    "Region": "North Eastern Region"
   },
   "geometry": {
    "x": 7743707.0280042877,
    "y": 4420331.5004283451
   }
  },
  {
   "attributes": {
    "OBJECTID": 1723,
    "ولایت": "تخار",
    "Province": "TAKHAR",
    "PC_Code": "1802187",
    "District": "HAZAR SUMUCH",
    "د_مرکز_نوم__نام_مرکز": "مکتب متوسطه بی بی خدیجه",
    "Polling_Center_Name": "Bibi Khadija Secondary School",
    "د_مرکز_ځای__موقعیت_مرکز": "شلولوك",
    "Polling_Center_Location": "Shololok",
    "Map_Accuracy": "Building",
    "Map_Accuracy_Dari": "تعمیر",
    "Status": "Open",
    "Status_Dari": null,
    "PS_Male": 1,
    "PS_Female": 1,
    "PS_Total": 2,
    "ولسوالي": "هزارسموچ",
    "Region": "North Eastern Region"
   },
   "geometry": {
    "x": 7746680.3969842214,
    "y": 4424765.6615353627
   }
  },
  {
   "attributes": {
    "OBJECTID": 1724,
    "ولایت": "تخار",
    "Province": "TAKHAR",
    "PC_Code": "1803040",
    "District": "BAHARAK",
    "د_مرکز_نوم__نام_مرکز": "مکتب ابتدائیه چاپله",
    "Polling_Center_Name": "Chapla Primary Schoo",
    "د_مرکز_ځای__موقعیت_مرکز": "چایله",
    "Polling_Center_Location": "Chayla",
    "Map_Accuracy": "Building",
    "Map_Accuracy_Dari": "تعمیر",
    "Status": "Open",
    "Status_Dari": null,
    "PS_Male": 4,
    "PS_Female": 3,
    "PS_Total": 7,
    "ولسوالي": "بهارک",
    "Region": "North Eastern Region"
   },
   "geometry": {
    "x": 7729219.3884972343,
    "y": 4410332.2734762393
   }
  },
  {
   "attributes": {
    "OBJECTID": 1725,
    "ولایت": "تخار",
    "Province": "TAKHAR",
    "PC_Code": "1803043",
    "District": "BAHARAK",
    "د_مرکز_نوم__نام_مرکز": "لیسه حاجی پهلوان",
    "Polling_Center_Name": "Haji Pahlawan High School",
    "د_مرکز_ځای__موقعیت_مرکز": "حاجی پهلوان",
    "Polling_Center_Location": "Haji Pahlawan",
    "Map_Accuracy": "Building",
    "Map_Accuracy_Dari": "تعمیر",
    "Status": "Open",
    "Status_Dari": null,
    "PS_Male": 2,
    "PS_Female": 2,
    "PS_Total": 4,
    "ولسوالي": "بهارک",
    "Region": "North Eastern Region"
   },
   "geometry": {
    "x": 7723023.9044635259,
    "y": 4416378.2177066859
   }
  },
  {
   "attributes": {
    "OBJECTID": 1726,
    "ولایت": "تخار",
    "Province": "TAKHAR",
    "PC_Code": "1803044",
    "District": "BAHARAK",
    "د_مرکز_نوم__نام_مرکز": "لیسه الحاج عبدالقیوم بیک",
    "Polling_Center_Name": "Alhaj Abdul Qayum Bek High School",
    "د_مرکز_ځای__موقعیت_مرکز": "مرکزشهر",
    "Polling_Center_Location": "Markaz Shahr",
    "Map_Accuracy": "Building",
    "Map_Accuracy_Dari": "تعمیر",
    "Status": "Open",
    "Status_Dari": null,
    "PS_Male": 3,
    "PS_Female": 3,
    "PS_Total": 6,
    "ولسوالي": "بهارک",
    "Region": "North Eastern Region"
   },
   "geometry": {
    "x": 7727041.3068875903,
    "y": 4414236.574370021
   }
  },
  {
   "attributes": {
    "OBJECTID": 1727,
    "ولایت": "تخار",
    "Province": "TAKHAR",
    "PC_Code": "1805078",
    "District": "CHAL",
    "د_مرکز_نوم__نام_مرکز": "مکتب سنگ لشم",
    "Polling_Center_Name": "Sang Lashem School",
    "د_مرکز_ځای__موقعیت_مرکز": "سنگ لشم",
    "Polling_Center_Location": "Sang Lashem",
    "Map_Accuracy": "Building",
    "Map_Accuracy_Dari": "تعمیر",
    "Status": "Open",
    "Status_Dari": null,
    "PS_Male": 2,
    "PS_Female": 2,
    "PS_Total": 4,
    "ولسوالي": "چال",
    "Region": "North Eastern Region"
   },
   "geometry": {
    "x": 7750348.0226589078,
    "y": 4371694.8014431056
   }
  },
  {
   "attributes": {
    "OBJECTID": 1728,
    "ولایت": "تخار",
    "Province": "TAKHAR",
    "PC_Code": "1805079",
    "District": "CHAL",
    "د_مرکز_نوم__نام_مرکز": "لیسه سمنداب",
    "Polling_Center_Name": "Samandab High School",
    "د_مرکز_ځای__موقعیت_مرکز": "سمنداب",
    "Polling_Center_Location": "Samandab",
    "Map_Accuracy": "Building",
    "Map_Accuracy_Dari": "تعمیر",
    "Status": "Open",
    "Status_Dari": null,
    "PS_Male": 2,
    "PS_Female": 2,
    "PS_Total": 4,
    "ولسوالي": "چال",
    "Region": "North Eastern Region"
   },
   "geometry": {
    "x": 7731348.5529830353,
    "y": 4363612.4705780782
   }
  },
  {
   "attributes": {
    "OBJECTID": 1729,
    "ولایت": "تخار",
    "Province": "TAKHAR",
    "PC_Code": "1809046",
    "District": "KHWAJA GHAR",
    "د_مرکز_نوم__نام_مرکز": "لیسه نسوان خواجه غار",
    "Polling_Center_Name": "Khwaja Ghaar Girls High School",
    "د_مرکز_ځای__موقعیت_مرکز": "خواجه غار",
    "Polling_Center_Location": "Khwaja Ghaar",
    "Map_Accuracy": "Building",
    "Map_Accuracy_Dari": "تعمیر",
    "Status": "Open",
    "Status_Dari": null,
    "PS_Male": 3,
    "PS_Female": 2,
    "PS_Total": 5,
    "ولسوالي": "خواجه غار",
    "Region": "North Eastern Region"
   },
   "geometry": {
    "x": 7728166.0322683798,
    "y": 4448346.3905810732
   }
  },
  {
   "attributes": {
    "OBJECTID": 1730,
    "ولایت": "تخار",
    "Province": "TAKHAR",
    "PC_Code": "1809047",
    "District": "KHWAJA GHAR",
    "د_مرکز_نوم__نام_مرکز": "لیسه ذکور",
    "Polling_Center_Name": "Boys High School",
    "د_مرکز_ځای__موقعیت_مرکز": "خواجه غا ر",
    "Polling_Center_Location": "Khwaja Ghaar",
    "Map_Accuracy": "Building",
    "Map_Accuracy_Dari": "تعمیر",
    "Status": "Open",
    "Status_Dari": null,
    "PS_Male": 4,
    "PS_Female": 2,
    "PS_Total": 6,
    "ولسوالي": "خواجه غار",
    "Region": "North Eastern Region"
   },
   "geometry": {
    "x": 7727811.3650311297,
    "y": 4448605.4420055486
   }
  },
  {
   "attributes": {
    "OBJECTID": 1731,
    "ولایت": "تخار",
    "Province": "TAKHAR",
    "PC_Code": "1809052",
    "District": "KHWAJA GHAR",
    "د_مرکز_نوم__نام_مرکز": "لیسه سبحانی",
    "Polling_Center_Name": "Subhani High School",
    "د_مرکز_ځای__موقعیت_مرکز": "مینگ چقور",
    "Polling_Center_Location": "Meng Chaqoor",
    "Map_Accuracy": "Building",
    "Map_Accuracy_Dari": "تعمیر",
    "Status": "Open",
    "Status_Dari": null,
    "PS_Male": 2,
    "PS_Female": 2,
    "PS_Total": 4,
    "ولسوالي": "خواجه غار",
    "Region": "North Eastern Region"
   },
   "geometry": {
    "x": 7717860.0671315715,
    "y": 4453255.5428101467
   }
  },
  {
   "attributes": {
    "OBJECTID": 1732,
    "ولایت": "تخار",
    "Province": "TAKHAR",
    "PC_Code": "1809053",
    "District": "KHWAJA GHAR",
    "د_مرکز_نوم__نام_مرکز": "لیسه غلام سخی",
    "Polling_Center_Name": "Ghulam Sakhi High School",
    "د_مرکز_ځای__موقعیت_مرکز": "قلعه چه کاریز",
    "Polling_Center_Location": "Qala Cha Kaarez",
    "Map_Accuracy": "Building",
    "Map_Accuracy_Dari": "تعمیر",
    "Status": "Open",
    "Status_Dari": null,
    "PS_Male": 3,
    "PS_Female": 1,
    "PS_Total": 4,
    "ولسوالي": "خواجه غار",
    "Region": "North Eastern Region"
   },
   "geometry": {
    "x": 7723636.8195610736,
    "y": 4436212.6725698626
   }
  },
  {
   "attributes": {
    "OBJECTID": 1733,
    "ولایت": "تخار",
    "Province": "TAKHAR",
    "PC_Code": "1810104",
    "District": "RUSTAQ",
    "د_مرکز_نوم__نام_مرکز": "لیسه نسوان رستاق",
    "Polling_Center_Name": "Rostaq Girls High School",
    "د_مرکز_ځای__موقعیت_مرکز": "شهرجدید رستاق",
    "Polling_Center_Location": "Shahr Jadid Rostaq",
    "Map_Accuracy": "Building",
    "Map_Accuracy_Dari": "تعمیر",
    "Status": "Open",
    "Status_Dari": null,
    "PS_Male": 4,
    "PS_Female": 2,
    "PS_Total": 6,
    "ولسوالي": "رستاق",
    "Region": "North Eastern Region"
   },
   "geometry": {
    "x": 7769733.2332946891,
    "y": 4458709.2820450999
   }
  },
  {
   "attributes": {
    "OBJECTID": 1734,
    "ولایت": "تخار",
    "Province": "TAKHAR",
    "PC_Code": "1810105",
    "District": "RUSTAQ",
    "د_مرکز_نوم__نام_مرکز": "مکتب متوسطه تولکی وچپه خانه",
    "Polling_Center_Name": "Tolkai Wa Chapa Khana Secondary School",
    "د_مرکز_ځای__موقعیت_مرکز": "تولکی",
    "Polling_Center_Location": "Tolakai",
    "Map_Accuracy": "Building",
    "Map_Accuracy_Dari": "تعمیر",
    "Status": "Open",
    "Status_Dari": null,
    "PS_Male": 3,
    "PS_Female": 2,
    "PS_Total": 5,
    "ولسوالي": "رستاق",
    "Region": "North Eastern Region"
   },
   "geometry": {
    "x": 7766201.2673400939,
    "y": 4467667.4751757318
   }
  },
  {
   "attributes": {
    "OBJECTID": 1735,
    "ولایت": "تخار",
    "Province": "TAKHAR",
    "PC_Code": "1810130",
    "District": "RUSTAQ",
    "د_مرکز_نوم__نام_مرکز": "مکتب متوسطۀ چبدره وبتاش",
    "Polling_Center_Name": "Chabdara Wabtash Secondary School",
    "د_مرکز_ځای__موقعیت_مرکز": "چبدره وبتاش",
    "Polling_Center_Location": "Chabdara Wabtash",
    "Map_Accuracy": "Building",
    "Map_Accuracy_Dari": "تعمیر",
    "Status": "Open",
    "Status_Dari": null,
    "PS_Male": 2,
    "PS_Female": 2,
    "PS_Total": 4,
    "ولسوالي": "رستاق",
    "Region": "North Eastern Region"
   },
   "geometry": {
    "x": 7774726.6082035853,
    "y": 4445592.5053888606
   }
  },
  {
   "attributes": {
    "OBJECTID": 1736,
    "ولایت": "تخار",
    "Province": "TAKHAR",
    "PC_Code": "1810131",
    "District": "RUSTAQ",
    "د_مرکز_نوم__نام_مرکز": "مکتب ابتدائیه قره دینگ",
    "Polling_Center_Name": "Qara Deng Primary School",
    "د_مرکز_ځای__موقعیت_مرکز": "قره دینگ",
    "Polling_Center_Location": "Qara Deng",
    "Map_Accuracy": "Building",
    "Map_Accuracy_Dari": "تعمیر",
    "Status": "Open",
    "Status_Dari": null,
    "PS_Male": 1,
    "PS_Female": 1,
    "PS_Total": 2,
    "ولسوالي": "رستاق",
    "Region": "North Eastern Region"
   },
   "geometry": {
    "x": 7756609.0961365886,
    "y": 4477774.5118959369
   }
  },
  {
   "attributes": {
    "OBJECTID": 1737,
    "ولایت": "تخار",
    "Province": "TAKHAR",
    "PC_Code": "1811066",
    "District": "ESHKAMESH",
    "د_مرکز_نوم__نام_مرکز": "لیسه دهنه شیره",
    "Polling_Center_Name": "Dahan Sheera High School",
    "د_مرکز_ځای__موقعیت_مرکز": "شیره",
    "Polling_Center_Location": "Sheera",
    "Map_Accuracy": "Building",
    "Map_Accuracy_Dari": "تعمیر",
    "Status": "Open",
    "Status_Dari": null,
    "PS_Male": 2,
    "PS_Female": 2,
    "PS_Total": 4,
    "ولسوالي": "اشکمش",
    "Region": "North Eastern Region"
   },
   "geometry": {
    "x": 7741242.526910807,
    "y": 4350671.4286052445
   }
  },
  {
   "attributes": {
    "OBJECTID": 1738,
    "ولایت": "تخار",
    "Province": "TAKHAR",
    "PC_Code": "1811067",
    "District": "ESHKAMESH",
    "د_مرکز_نوم__نام_مرکز": "مکتب ابتدائیه ترسک",
    "Polling_Center_Name": "Tarsak Primary School",
    "د_مرکز_ځای__موقعیت_مرکز": "ترسک",
    "Polling_Center_Location": "Tarsak",
    "Map_Accuracy": "Building",
    "Map_Accuracy_Dari": "تعمیر",
    "Status": "Open",
    "Status_Dari": null,
    "PS_Male": 2,
    "PS_Female": 2,
    "PS_Total": 4,
    "ولسوالي": "اشکمش",
    "Region": "North Eastern Region"
   },
   "geometry": {
    "x": 7710456.223383639,
    "y": 4349368.6466019573
   }
  },
  {
   "attributes": {
    "OBJECTID": 1739,
    "ولایت": "تخار",
    "Province": "TAKHAR",
    "PC_Code": "1812169",
    "District": "DASHT-E-QALA",
    "د_مرکز_نوم__نام_مرکز": "لیسه ذکور شهر",
    "Polling_Center_Name": "Shahr Boys High School",
    "د_مرکز_ځای__موقعیت_مرکز": "شهرجدید",
    "Polling_Center_Location": "Shahr Jadid",
    "Map_Accuracy": "Building",
    "Map_Accuracy_Dari": "تعمیر",
    "Status": "Open",
    "Status_Dari": null,
    "PS_Male": 4,
    "PS_Female": 2,
    "PS_Total": 6,
    "ولسوالي": "دشت قلعه",
    "Region": "North Eastern Region"
   },
   "geometry": {
    "x": 7730980.5619159285,
    "y": 4460651.4599264869
   }
  },
  {
   "attributes": {
    "OBJECTID": 1740,
    "ولایت": "تخار",
    "Province": "TAKHAR",
    "PC_Code": "1812170",
    "District": "DASHT-E-QALA",
    "د_مرکز_نوم__نام_مرکز": "لیسه نسوان",
    "Polling_Center_Name": "Girls High School",
    "د_مرکز_ځای__موقعیت_مرکز": "شهرکهنه",
    "Polling_Center_Location": "Shahr Kuhna",
    "Map_Accuracy": "Building",
    "Map_Accuracy_Dari": "تعمیر",
    "Status": "Open",
    "Status_Dari": null,
    "PS_Male": 2,
    "PS_Female": 2,
    "PS_Total": 4,
    "ولسوالي": "دشت قلعه",
    "Region": "North Eastern Region"
   },
   "geometry": {
    "x": 7729632.4205435086,
    "y": 4460092.5564445034
   }
  },
  {
   "attributes": {
    "OBJECTID": 1741,
    "ولایت": "تخار",
    "Province": "TAKHAR",
    "PC_Code": "1813178",
    "District": "WARSAJ",
    "د_مرکز_نوم__نام_مرکز": "لیسه سید ظهرالدین شهید",
    "Polling_Center_Name": "Sayed Zafaruddin Shaheed High School",
    "د_مرکز_ځای__موقعیت_مرکز": "خانقاه",
    "Polling_Center_Location": "Khanqah",
    "Map_Accuracy": "Building",
    "Map_Accuracy_Dari": "تعمیر",
    "Status": "Open",
    "Status_Dari": null,
    "PS_Male": 4,
    "PS_Female": 2,
    "PS_Total": 6,
    "ولسوالي": "ورسج",
    "Region": "North Eastern Region"
   },
   "geometry": {
    "x": 7792915.3870085841,
    "y": 4328596.8284086166
   }
  },
  {
   "attributes": {
    "OBJECTID": 1742,
    "ولایت": "تخار",
    "Province": "TAKHAR",
    "PC_Code": "1813179",
    "District": "WARSAJ",
    "د_مرکز_نوم__نام_مرکز": "لیسه انصاف شهید",
    "Polling_Center_Name": "Insaf Shaheed High School",
    "د_مرکز_ځای__موقعیت_مرکز": "سریاوار",
    "Polling_Center_Location": "Sar Yawaar",
    "Map_Accuracy": "Building",
    "Map_Accuracy_Dari": "تعمیر",
    "Status": "Open",
    "Status_Dari": null,
    "PS_Male": 2,
    "PS_Female": 2,
    "PS_Total": 4,
    "ولسوالي": "ورسج",
    "Region": "North Eastern Region"
   },
   "geometry": {
    "x": 7800597.5495210038,
    "y": 4327830.6823551804
   }
  },
  {
   "attributes": {
    "OBJECTID": 1743,
    "ولایت": "تخار",
    "Province": "TAKHAR",
    "PC_Code": "1813202",
    "District": "WARSAJ",
    "د_مرکز_نوم__نام_مرکز": "مسجد جامع سرويغنان",
    "Polling_Center_Name": "Sarweghnan Mosque",
    "د_مرکز_ځای__موقعیت_مرکز": "سرويغنان",
    "Polling_Center_Location": "Sarweghnan",
    "Map_Accuracy": "Building",
    "Map_Accuracy_Dari": "تعمیر",
    "Status": "Open",
    "Status_Dari": null,
    "PS_Male": 1,
    "PS_Female": 1,
    "PS_Total": 2,
    "ولسوالي": "ورسج",
    "Region": "North Eastern Region"
   },
   "geometry": {
    "x": 7795734.848109575,
    "y": 4298803.0685701054
   }
  },
  {
   "attributes": {
    "OBJECTID": 1744,
    "ولایت": "تخار",
    "Province": "TAKHAR",
    "PC_Code": "1813203",
    "District": "WARSAJ",
    "د_مرکز_نوم__نام_مرکز": "مسجد جامع اسكوان",
    "Polling_Center_Name": "Iskowan Mosque",
    "د_مرکز_ځای__موقعیت_مرکز": "اسكوان",
    "Polling_Center_Location": "Iskowan",
    "Map_Accuracy": "Building",
    "Map_Accuracy_Dari": "تعمیر",
    "Status": "Open",
    "Status_Dari": null,
    "PS_Male": 1,
    "PS_Female": 1,
    "PS_Total": 2,
    "ولسوالي": "ورسج",
    "Region": "North Eastern Region"
   },
   "geometry": {
    "x": 7808598.3050764985,
    "y": 4332470.9885778623
   }
  },
  {
   "attributes": {
    "OBJECTID": 1745,
    "ولایت": "تخار",
    "Province": "TAKHAR",
    "PC_Code": "1814159",
    "District": "KHWAJA BAHAWUDIN",
    "د_مرکز_نوم__نام_مرکز": "مکتب لاله گزر",
    "Polling_Center_Name": "Lala Guzar School",
    "د_مرکز_ځای__موقعیت_مرکز": "لاله گذر",
    "Polling_Center_Location": "Lala Guzar",
    "Map_Accuracy": "Building",
    "Map_Accuracy_Dari": "تعمیر",
    "Status": "Open",
    "Status_Dari": null,
    "PS_Male": 2,
    "PS_Female": 1,
    "PS_Total": 3,
    "ولسوالي": "خواجه بهاوالدین",
    "Region": "North Eastern Region"
   },
   "geometry": {
    "x": 7744367.7269932609,
    "y": 4490258.0146395834
   }
  },
  {
   "attributes": {
    "OBJECTID": 1746,
    "ولایت": "تخار",
    "Province": "TAKHAR",
    "PC_Code": "1814160",
    "District": "KHWAJA BAHAWUDIN",
    "د_مرکز_نوم__نام_مرکز": "مسجد  شورتوغی",
    "Polling_Center_Name": "Shortoghai Mosque",
    "د_مرکز_ځای__موقعیت_مرکز": "شورتوغی",
    "Polling_Center_Location": "Shortoghai",
    "Map_Accuracy": "Building",
    "Map_Accuracy_Dari": "تعمیر",
    "Status": "Open",
    "Status_Dari": null,
    "PS_Male": 2,
    "PS_Female": 1,
    "PS_Total": 3,
    "ولسوالي": "خواجه بهاوالدین",
    "Region": "North Eastern Region"
   },
   "geometry": {
    "x": 7737998.9574742094,
    "y": 4482081.9765725117
   }
  },
  {
   "attributes": {
    "OBJECTID": 1747,
    "ولایت": "تخار",
    "Province": "TAKHAR",
    "PC_Code": "1815162",
    "District": "DARQAD",
    "د_مرکز_نوم__نام_مرکز": "لیسه ذکور قره تپه",
    "Polling_Center_Name": "Qara Tapa Boys High School",
    "د_مرکز_ځای__موقعیت_مرکز": "قره تپه",
    "Polling_Center_Location": "Qara Tapa",
    "Map_Accuracy": "Building",
    "Map_Accuracy_Dari": "تعمیر",
    "Status": "Open",
    "Status_Dari": null,
    "PS_Male": 2,
    "PS_Female": 1,
    "PS_Total": 3,
    "ولسوالي": "درقد",
    "Region": "North Eastern Region"
   },
   "geometry": {
    "x": 7728815.3978199977,
    "y": 4497935.5326764276
   }
  },
  {
   "attributes": {
    "OBJECTID": 1748,
    "ولایت": "تخار",
    "Province": "TAKHAR",
    "PC_Code": "1815163",
    "District": "DARQAD",
    "د_مرکز_نوم__نام_مرکز": "لیسه ذکور قغنی",
    "Polling_Center_Name": "Qaghni Boys High School",
    "د_مرکز_ځای__موقعیت_مرکز": "قغنی",
    "Polling_Center_Location": "Qaghni",
    "Map_Accuracy": "Building",
    "Map_Accuracy_Dari": "تعمیر",
    "Status": "Open",
    "Status_Dari": null,
    "PS_Male": 2,
    "PS_Female": 1,
    "PS_Total": 3,
    "ولسوالي": "درقد",
    "Region": "North Eastern Region"
   },
   "geometry": {
    "x": 7737913.4674448622,
    "y": 4506285.9158307547
   }
  },
  {
   "attributes": {
    "OBJECTID": 1749,
    "ولایت": "تخار",
    "Province": "TAKHAR",
    "PC_Code": "1815168",
    "District": "DARQAD",
    "د_مرکز_نوم__نام_مرکز": "مسجد جامع کل توت",
    "Polling_Center_Name": "Kol Toot Mosque",
    "د_مرکز_ځای__موقعیت_مرکز": "کل توت",
    "Polling_Center_Location": "Kol Toot",
    "Map_Accuracy": "Building",
    "Map_Accuracy_Dari": "تعمیر",
    "Status": "Open",
    "Status_Dari": null,
    "PS_Male": 2,
    "PS_Female": 1,
    "PS_Total": 3,
    "ولسوالي": "درقد",
    "Region": "North Eastern Region"
   },
   "geometry": {
    "x": 7739259.08297804,
    "y": 4509667.1171542853
   }
  },
  {
   "attributes": {
    "OBJECTID": 1750,
    "ولایت": "تخار",
    "Province": "TAKHAR",
    "PC_Code": "1816132",
    "District": "CHAH AB",
    "د_مرکز_نوم__نام_مرکز": "مدرسه عیدگاه",
    "Polling_Center_Name": "Eidgah Madrassa",
    "د_مرکز_ځای__موقعیت_مرکز": "مرکز شهر",
    "Polling_Center_Location": "Markaz Shahr",
    "Map_Accuracy": "Building",
    "Map_Accuracy_Dari": "تعمیر",
    "Status": "Open",
    "Status_Dari": null,
    "PS_Male": 4,
    "PS_Female": 2,
    "PS_Total": 6,
    "ولسوالي": "چا آب",
    "Region": "North Eastern Region"
   },
   "geometry": {
    "x": 7770740.226068818,
    "y": 4494527.6451725494
   }
  },
  {
   "attributes": {
    "OBJECTID": 1751,
    "ولایت": "تخار",
    "Province": "TAKHAR",
    "PC_Code": "1816143",
    "District": "CHAH AB",
    "د_مرکز_نوم__نام_مرکز": "مکتب ابتدائیه گزان",
    "Polling_Center_Name": "Gazan Primary School",
    "د_مرکز_ځای__موقعیت_مرکز": "گزان",
    "Polling_Center_Location": "Gazan",
    "Map_Accuracy": "Building",
    "Map_Accuracy_Dari": "تعمیر",
    "Status": "Open",
    "Status_Dari": null,
    "PS_Male": 1,
    "PS_Female": 1,
    "PS_Total": 2,
    "ولسوالي": "چا آب",
    "Region": "North Eastern Region"
   },
   "geometry": {
    "x": 7780317.8845503125,
    "y": 4495822.7608417477
   }
  },
  {
   "attributes": {
    "OBJECTID": 1752,
    "ولایت": "تخار",
    "Province": "TAKHAR",
    "PC_Code": "1816144",
    "District": "CHAH AB",
    "د_مرکز_نوم__نام_مرکز": "مسجد رباط حمیدالدین",
    "Polling_Center_Name": "Rabaat Hameeduddin Mosque",
    "د_مرکز_ځای__موقعیت_مرکز": "رباط حمیدالدین",
    "Polling_Center_Location": "Rabaat Hameeduddin",
    "Map_Accuracy": "Building",
    "Map_Accuracy_Dari": "تعمیر",
    "Status": "Open",
    "Status_Dari": null,
    "PS_Male": 1,
    "PS_Female": 1,
    "PS_Total": 2,
    "ولسوالي": "چا آب",
    "Region": "North Eastern Region"
   },
   "geometry": {
    "x": 7798234.0341299931,
    "y": 4494238.2973344503
   }
  },
  {
   "attributes": {
    "OBJECTID": 1753,
    "ولایت": "تخار",
    "Province": "TAKHAR",
    "PC_Code": "1817146",
    "District": "YANGI QALA",
    "د_مرکز_نوم__نام_مرکز": "مکتب متوسطه کفتر علی",
    "Polling_Center_Name": "Kaftar Ali Secondary School",
    "د_مرکز_ځای__موقعیت_مرکز": "کفتر علی",
    "Polling_Center_Location": "Kaftar Ali",
    "Map_Accuracy": "Building",
    "Map_Accuracy_Dari": "تعمیر",
    "Status": "Open",
    "Status_Dari": null,
    "PS_Male": 4,
    "PS_Female": 3,
    "PS_Total": 7,
    "ولسوالي": "ینگی قلعه",
    "Region": "North Eastern Region"
   },
   "geometry": {
    "x": 7748384.0384863233,
    "y": 4496419.8157002293
   }
  },
  {
   "attributes": {
    "OBJECTID": 1754,
    "ولایت": "تخار",
    "Province": "TAKHAR",
    "PC_Code": "1817147",
    "District": "YANGI QALA",
    "د_مرکز_نوم__نام_مرکز": "مسجد ایرمجر",
    "Polling_Center_Name": "Irmajar Mosque",
    "د_مرکز_ځای__موقعیت_مرکز": "ایرمجر",
    "Polling_Center_Location": "Irmajar",
    "Map_Accuracy": "Building",
    "Map_Accuracy_Dari": "تعمیر",
    "Status": "Open",
    "Status_Dari": null,
    "PS_Male": 2,
    "PS_Female": 2,
    "PS_Total": 4,
    "ولسوالي": "ینگی قلعه",
    "Region": "North Eastern Region"
   },
   "geometry": {
    "x": 7747602.9474680498,
    "y": 4501555.4855561247
   }
  },
  {
   "attributes": {
    "OBJECTID": 1755,
    "ولایت": "تخار",
    "Province": "TAKHAR",
    "PC_Code": "1817152",
    "District": "YANGI QALA",
    "د_مرکز_نوم__نام_مرکز": "مکتب متوسطه مغلان",
    "Polling_Center_Name": "Mughlan Secondary School",
    "د_مرکز_ځای__موقعیت_مرکز": "مغلان",
    "Polling_Center_Location": "Mughlan",
    "Map_Accuracy": "Building",
    "Map_Accuracy_Dari": "تعمیر",
    "Status": "Open",
    "Status_Dari": null,
    "PS_Male": 1,
    "PS_Female": 1,
    "PS_Total": 2,
    "ولسوالي": "ینگی قلعه",
    "Region": "North Eastern Region"
   },
   "geometry": {
    "x": 7763169.3162554931,
    "y": 4496379.4591851933
   }
  },
  {
   "attributes": {
    "OBJECTID": 1756,
    "ولایت": "تخار",
    "Province": "TAKHAR",
    "PC_Code": "1817153",
    "District": "YANGI QALA",
    "د_مرکز_نوم__نام_مرکز": "مکتب جرباشی",
    "Polling_Center_Name": "Jarbashi School",
    "د_مرکز_ځای__موقعیت_مرکز": "جرباشی",
    "Polling_Center_Location": "Jarbashi",
    "Map_Accuracy": "Building",
    "Map_Accuracy_Dari": "تعمیر",
    "Status": "Open",
    "Status_Dari": null,
    "PS_Male": 2,
    "PS_Female": 1,
    "PS_Total": 3,
    "ولسوالي": "ینگی قلعه",
    "Region": "North Eastern Region"
   },
   "geometry": {
    "x": 7756757.8746360382,
    "y": 4509934.7444573864
   }
  },
  {
   "attributes": {
    "OBJECTID": 1757,
    "ولایت": "تخار",
    "Province": "TAKHAR",
    "PC_Code": "1801007",
    "District": "TALUQAN",
    "د_مرکز_نوم__نام_مرکز": "لیسه نسوان بی بی هاجره",
    "Polling_Center_Name": "Bibi Hajera Girls High School",
    "د_مرکز_ځای__موقعیت_مرکز": "ناحیه سوم",
    "Polling_Center_Location": "D03 - Nahia 3",
    "Map_Accuracy": "Building",
    "Map_Accuracy_Dari": "تعمیر",
    "Status": "Open",
    "Status_Dari": null,
    "PS_Male": 3,
    "PS_Female": 2,
    "PS_Total": 5,
    "ولسوالي": "تالقان",
    "Region": "North Eastern Region"
   },
   "geometry": {
    "x": 7740805.345214203,
    "y": 4403078.0951714367
   }
  },
  {
   "attributes": {
    "OBJECTID": 1758,
    "ولایت": "تخار",
    "Province": "TAKHAR",
    "PC_Code": "1801008",
    "District": "TALUQAN",
    "د_مرکز_نوم__نام_مرکز": "لیسه قاری صدیق",
    "Polling_Center_Name": "Qari Sediq High School",
    "د_مرکز_ځای__موقعیت_مرکز": "قره پرچاو",
    "Polling_Center_Location": "Parchaw Village",
    "Map_Accuracy": "Building",
    "Map_Accuracy_Dari": "تعمیر",
    "Status": "Open",
    "Status_Dari": null,
    "PS_Male": 3,
    "PS_Female": 1,
    "PS_Total": 4,
    "ولسوالي": "تالقان",
    "Region": "North Eastern Region"
   },
   "geometry": {
    "x": 7734526.6843701657,
    "y": 4406210.203223302
   }
  },
  {
   "attributes": {
    "OBJECTID": 1759,
    "ولایت": "تخار",
    "Province": "TAKHAR",
    "PC_Code": "1801018",
    "District": "TALUQAN",
    "د_مرکز_نوم__نام_مرکز": "شعبه ملاریا",
    "Polling_Center_Name": "Malaria Clinic",
    "د_مرکز_ځای__موقعیت_مرکز": "ناحیه اول",
    "Polling_Center_Location": "D01 - Nahia 1",
    "Map_Accuracy": "Village",
    "Map_Accuracy_Dari": "قریه",
    "Status": "Open",
    "Status_Dari": null,
    "PS_Male": 5,
    "PS_Female": 2,
    "PS_Total": 7,
    "ولسوالي": "تالقان",
    "Region": "North Eastern Region"
   },
   "geometry": {
    "x": 7744253.3523390461,
    "y": 4401154.0975729898
   }
  },
  {
   "attributes": {
    "OBJECTID": 1760,
    "ولایت": "تخار",
    "Province": "TAKHAR",
    "PC_Code": "1801019",
    "District": "TALUQAN",
    "د_مرکز_نوم__نام_مرکز": "لیسه فیاض شهید",
    "Polling_Center_Name": "Fayaz Shaheed High School",
    "د_مرکز_ځای__موقعیت_مرکز": "نهر چمن",
    "Polling_Center_Location": "Nahr Chaman",
    "Map_Accuracy": "Building",
    "Map_Accuracy_Dari": "تعمیر",
    "Status": "Open",
    "Status_Dari": null,
    "PS_Male": 3,
    "PS_Female": 3,
    "PS_Total": 6,
    "ولسوالي": "تالقان",
    "Region": "North Eastern Region"
   },
   "geometry": {
    "x": 7743245.4717919761,
    "y": 4398234.5707400311
   }
  },
  {
   "attributes": {
    "OBJECTID": 1761,
    "ولایت": "تخار",
    "Province": "TAKHAR",
    "PC_Code": "1801027",
    "District": "TALUQAN",
    "د_مرکز_نوم__نام_مرکز": "مکتب جوی شیخ",
    "Polling_Center_Name": "Joy Shekh School",
    "د_مرکز_ځای__موقعیت_مرکز": "جوی شیخ",
    "Polling_Center_Location": "Joy Shekh",
    "Map_Accuracy": "Building",
    "Map_Accuracy_Dari": "تعمیر",
    "Status": "Open",
    "Status_Dari": null,
    "PS_Male": 1,
    "PS_Female": 1,
    "PS_Total": 2,
    "ولسوالي": "تالقان",
    "Region": "North Eastern Region"
   },
   "geometry": {
    "x": 7751890.5612580981,
    "y": 4392647.2737437692
   }
  },
  {
   "attributes": {
    "OBJECTID": 1762,
    "ولایت": "بدخشان",
    "Province": "BADAKHSHAN",
    "PC_Code": "1707066",
    "District": "DARAYIM",
    "د_مرکز_نوم__نام_مرکز": "مسجد جامع نیم تله ",
    "Polling_Center_Name": "Neem Tala Mosque",
    "د_مرکز_ځای__موقعیت_مرکز": "نیم تله",
    "Polling_Center_Location": "Neem Tala",
    "Map_Accuracy": "Building",
    "Map_Accuracy_Dari": "تعمیر",
    "Status": "Open",
    "Status_Dari": null,
    "PS_Male": 1,
    "PS_Female": 1,
    "PS_Total": 2,
    "ولسوالي": "درایم",
    "Region": "North Eastern Region"
   },
   "geometry": {
    "x": 7838941.5069365399,
    "y": 4428862.4863251988
   }
  },
  {
   "attributes": {
    "OBJECTID": 1763,
    "ولایت": "بدخشان",
    "Province": "BADAKHSHAN",
    "PC_Code": "1708123",
    "District": "KOHISTAN",
    "د_مرکز_نوم__نام_مرکز": "مسجد شپوی بالا",
    "Polling_Center_Name": "Shpoy Bala Mosque",
    "د_مرکز_ځای__موقعیت_مرکز": "شپوی بالا",
    "Polling_Center_Location": "Shpoy Bala",
    "Map_Accuracy": "Building",
    "Map_Accuracy_Dari": "تعمیر",
    "Status": "Open",
    "Status_Dari": null,
    "PS_Male": 1,
    "PS_Female": 1,
    "PS_Total": 2,
    "ولسوالي": "کوهستان",
    "Region": "North Eastern Region"
   },
   "geometry": {
    "x": 7857897.3738810616,
    "y": 4507146.935074769
   }
  },
  {
   "attributes": {
    "OBJECTID": 1764,
    "ولایت": "بدخشان",
    "Province": "BADAKHSHAN",
    "PC_Code": "1708124",
    "District": "KOHISTAN",
    "د_مرکز_نوم__نام_مرکز": "مکتب وختی ده ",
    "Polling_Center_Name": "Wakhti Deh School",
    "د_مرکز_ځای__موقعیت_مرکز": "مکتب وختی ده ",
    "Polling_Center_Location": "Wakhti Deh",
    "Map_Accuracy": "Building",
    "Map_Accuracy_Dari": "تعمیر",
    "Status": "Open",
    "Status_Dari": null,
    "PS_Male": 2,
    "PS_Female": 1,
    "PS_Total": 3,
    "ولسوالي": "کوهستان",
    "Region": "North Eastern Region"
   },
   "geometry": {
    "x": 7852936.9751449227,
    "y": 4503320.9102741405
   }
  },
  {
   "attributes": {
    "OBJECTID": 1765,
    "ولایت": "بدخشان",
    "Province": "BADAKHSHAN",
    "PC_Code": "1710079",
    "District": "JURM",
    "د_مرکز_نوم__نام_مرکز": "لیسه غیاثی ",
    "Polling_Center_Name": "Ghiyasi High School",
    "د_مرکز_ځای__موقعیت_مرکز": "مرکز جرم",
    "Polling_Center_Location": "Markaz Jorm",
    "Map_Accuracy": "Building",
    "Map_Accuracy_Dari": "تعمیر",
    "Status": "Open",
    "Status_Dari": null,
    "PS_Male": 2,
    "PS_Female": 2,
    "PS_Total": 4,
    "ولسوالي": "جرم",
    "Region": "North Eastern Region"
   },
   "geometry": {
    "x": 7884963.219725851,
    "y": 4420520.5067628091
   }
  },
  {
   "attributes": {
    "OBJECTID": 1766,
    "ولایت": "بدخشان",
    "Province": "BADAKHSHAN",
    "PC_Code": "1710080",
    "District": "JURM",
    "د_مرکز_نوم__نام_مرکز": "لیسه فرغا میرو ",
    "Polling_Center_Name": "Fergha Meero High School",
    "د_مرکز_ځای__موقعیت_مرکز": "فرغا میرو",
    "Polling_Center_Location": "Fergha Meero",
    "Map_Accuracy": "Building",
    "Map_Accuracy_Dari": "تعمیر",
    "Status": "Open",
    "Status_Dari": null,
    "PS_Male": 2,
    "PS_Female": 1,
    "PS_Total": 3,
    "ولسوالي": "جرم",
    "Region": "North Eastern Region"
   },
   "geometry": {
    "x": 7885367.6957560666,
    "y": 4403794.0520651238
   }
  },
  {
   "attributes": {
    "OBJECTID": 1767,
    "ولایت": "بدخشان",
    "Province": "BADAKHSHAN",
    "PC_Code": "1710088",
    "District": "JURM",
    "د_مرکز_نوم__نام_مرکز": "مسجد خانقا ",
    "Polling_Center_Name": "Khanqah Mosque",
    "د_مرکز_ځای__موقعیت_مرکز": "خانقا ",
    "Polling_Center_Location": "Khanqah",
    "Map_Accuracy": "Building",
    "Map_Accuracy_Dari": "تعمیر",
    "Status": "Open",
    "Status_Dari": null,
    "PS_Male": 1,
    "PS_Female": 1,
    "PS_Total": 2,
    "ولسوالي": "جرم",
    "Region": "North Eastern Region"
   },
   "geometry": {
    "x": 7884287.5660764799,
    "y": 4418946.792040498
   }
  },
  {
   "attributes": {
    "OBJECTID": 1768,
    "ولایت": "بدخشان",
    "Province": "BADAKHSHAN",
    "PC_Code": "1710089",
    "District": "JURM",
    "د_مرکز_نوم__نام_مرکز": "لیسه سر حوض ",
    "Polling_Center_Name": "Sar Hawz High School",
    "د_مرکز_ځای__موقعیت_مرکز": "سر حوض ",
    "Polling_Center_Location": "Sar Hawz",
    "Map_Accuracy": "Building",
    "Map_Accuracy_Dari": "تعمیر",
    "Status": "Open",
    "Status_Dari": null,
    "PS_Male": 1,
    "PS_Female": 1,
    "PS_Total": 2,
    "ولسوالي": "جرم",
    "Region": "North Eastern Region"
   },
   "geometry": {
    "x": 7883768.4087068569,
    "y": 4432502.542673734
   }
  },
  {
   "attributes": {
    "OBJECTID": 1769,
    "ولایت": "بدخشان",
    "Province": "BADAKHSHAN",
    "PC_Code": "1711179",
    "District": "TASHKAN",
    "د_مرکز_نوم__نام_مرکز": "مکتب ده آستایان",
    "Polling_Center_Name": "Deh Aastayan School",
    "د_مرکز_ځای__موقعیت_مرکز": "ده آستایان",
    "Polling_Center_Location": "Deh Aastayan",
    "Map_Accuracy": "Building",
    "Map_Accuracy_Dari": "تعمیر",
    "Status": "Open",
    "Status_Dari": null,
    "PS_Male": 1,
    "PS_Female": 1,
    "PS_Total": 2,
    "ولسوالي": "تشکان ",
    "Region": "North Eastern Region"
   },
   "geometry": {
    "x": 7832869.6131410943,
    "y": 4400358.7561269747
   }
  },
  {
   "attributes": {
    "OBJECTID": 1770,
    "ولایت": "بدخشان",
    "Province": "BADAKHSHAN",
    "PC_Code": "1711180",
    "District": "TASHKAN",
    "د_مرکز_نوم__نام_مرکز": "مکتب ده سیدان ",
    "Polling_Center_Name": "Deh Sayedan School",
    "د_مرکز_ځای__موقعیت_مرکز": "ده سیدان",
    "Polling_Center_Location": "Deh Sayedan",
    "Map_Accuracy": "Building",
    "Map_Accuracy_Dari": "تعمیر",
    "Status": "Open",
    "Status_Dari": null,
    "PS_Male": 1,
    "PS_Female": 1,
    "PS_Total": 2,
    "ولسوالي": "تشکان ",
    "Region": "North Eastern Region"
   },
   "geometry": {
    "x": 7833995.3326049354,
    "y": 4412748.9181936271
   }
  },
  {
   "attributes": {
    "OBJECTID": 1771,
    "ولایت": "بدخشان",
    "Province": "BADAKHSHAN",
    "PC_Code": "1711184",
    "District": "TASHKAN",
    "د_مرکز_نوم__نام_مرکز": "مکتب سیدان ",
    "Polling_Center_Name": "Sayedan School",
    "د_مرکز_ځای__موقعیت_مرکز": "سیدان ",
    "Polling_Center_Location": "Sayedan",
    "Map_Accuracy": "Building",
    "Map_Accuracy_Dari": "تعمیر",
    "Status": "Open",
    "Status_Dari": null,
    "PS_Male": 1,
    "PS_Female": 1,
    "PS_Total": 2,
    "ولسوالي": "تشکان ",
    "Region": "North Eastern Region"
   },
   "geometry": {
    "x": 7816444.5781218279,
    "y": 4428881.7825686652
   }
  },
  {
   "attributes": {
    "OBJECTID": 1772,
    "ولایت": "بدخشان",
    "Province": "BADAKHSHAN",
    "PC_Code": "1711185",
    "District": "TASHKAN",
    "د_مرکز_نوم__نام_مرکز": "مکتب مظفری",
    "Polling_Center_Name": "Muzaffari School",
    "د_مرکز_ځای__موقعیت_مرکز": "مظفری",
    "Polling_Center_Location": "Muzaffari",
    "Map_Accuracy": "Building",
    "Map_Accuracy_Dari": "تعمیر",
    "Status": "Open",
    "Status_Dari": null,
    "PS_Male": 1,
    "PS_Female": 1,
    "PS_Total": 2,
    "ولسوالي": "تشکان ",
    "Region": "North Eastern Region"
   },
   "geometry": {
    "x": 7807694.2583410628,
    "y": 4435518.1656901995
   }
  },
  {
   "attributes": {
    "OBJECTID": 1773,
    "ولایت": "بدخشان",
    "Province": "BADAKHSHAN",
    "PC_Code": "1711187",
    "District": "TASHKAN",
    "د_مرکز_نوم__نام_مرکز": "مکتب دشت آغه ",
    "Polling_Center_Name": "Dasht Aagha School",
    "د_مرکز_ځای__موقعیت_مرکز": "دشت آغه ",
    "Polling_Center_Location": "Dasht Aagha",
    "Map_Accuracy": "Building",
    "Map_Accuracy_Dari": "تعمیر",
    "Status": "Open",
    "Status_Dari": null,
    "PS_Male": 1,
    "PS_Female": 1,
    "PS_Total": 2,
    "ولسوالي": "تشکان ",
    "Region": "North Eastern Region"
   },
   "geometry": {
    "x": 7818320.2670138991,
    "y": 4414838.8941106098
   }
  },
  {
   "attributes": {
    "OBJECTID": 1774,
    "ولایت": "بدخشان",
    "Province": "BADAKHSHAN",
    "PC_Code": "1712113",
    "District": "SHUHADA",
    "د_مرکز_نوم__نام_مرکز": "مکتب محمودان",
    "Polling_Center_Name": "Mahmoodan School",
    "د_مرکز_ځای__موقعیت_مرکز": "محمودان",
    "Polling_Center_Location": "Mahmoodan",
    "Map_Accuracy": "Building",
    "Map_Accuracy_Dari": "تعمیر",
    "Status": "Open",
    "Status_Dari": null,
    "PS_Male": 3,
    "PS_Female": 1,
    "PS_Total": 4,
    "ولسوالي": "شهدا",
    "Region": "North Eastern Region"
   },
   "geometry": {
    "x": 7903975.5646140305,
    "y": 4443902.9395245397
   }
  },
  {
   "attributes": {
    "OBJECTID": 1775,
    "ولایت": "بدخشان",
    "Province": "BADAKHSHAN",
    "PC_Code": "1713148",
    "District": "SHAHR-E-BUZURG",
    "د_مرکز_نوم__نام_مرکز": "لیسه برلاس ",
    "Polling_Center_Name": "Barlaas High School",
    "د_مرکز_ځای__موقعیت_مرکز": "برلاس",
    "Polling_Center_Location": "Barlaas",
    "Map_Accuracy": "Building",
    "Map_Accuracy_Dari": "تعمیر",
    "Status": "Open",
    "Status_Dari": null,
    "PS_Male": 1,
    "PS_Female": 1,
    "PS_Total": 2,
    "ولسوالي": "شهر بزرگ",
    "Region": "North Eastern Region"
   },
   "geometry": {
    "x": 7811163.6471570963,
    "y": 4455118.72191275
   }
  },
  {
   "attributes": {
    "OBJECTID": 1776,
    "ولایت": "بدخشان",
    "Province": "BADAKHSHAN",
    "PC_Code": "1713149",
    "District": "SHAHR-E-BUZURG",
    "د_مرکز_نوم__نام_مرکز": "مکتب دره کلاتی ",
    "Polling_Center_Name": "Kalati Dara School",
    "د_مرکز_ځای__موقعیت_مرکز": "ګردنګ",
    "Polling_Center_Location": "Gardang",
    "Map_Accuracy": "Building",
    "Map_Accuracy_Dari": "تعمیر",
    "Status": "Open",
    "Status_Dari": null,
    "PS_Male": 1,
    "PS_Female": 1,
    "PS_Total": 2,
    "ولسوالي": "شهر بزرگ",
    "Region": "North Eastern Region"
   },
   "geometry": {
    "x": 7796964.3217916163,
    "y": 4499419.6349472366
   }
  },
  {
   "attributes": {
    "OBJECTID": 1777,
    "ولایت": "بدخشان",
    "Province": "BADAKHSHAN",
    "PC_Code": "1714230",
    "District": "RAGHISTAN",
    "د_مرکز_نوم__نام_مرکز": "مکتب متوسطه نقش ده ",
    "Polling_Center_Name": "Naqsh Deh Secondary School",
    "د_مرکز_ځای__موقعیت_مرکز": "نقش ده ",
    "Polling_Center_Location": "Naqsh Deh",
    "Map_Accuracy": "Building",
    "Map_Accuracy_Dari": "تعمیر",
    "Status": "Open",
    "Status_Dari": null,
    "PS_Male": 1,
    "PS_Female": 3,
    "PS_Total": 4,
    "ولسوالي": "راغستان ",
    "Region": "North Eastern Region"
   },
   "geometry": {
    "x": 7854544.9896422112,
    "y": 4517547.0742283491
   }
  },
  {
   "attributes": {
    "OBJECTID": 1778,
    "ولایت": "بدخشان",
    "Province": "BADAKHSHAN",
    "PC_Code": "1714231",
    "District": "RAGHISTAN",
    "د_مرکز_نوم__نام_مرکز": "مکتب متوسطه کالر ",
    "Polling_Center_Name": "Kaalar Secondary School",
    "د_مرکز_ځای__موقعیت_مرکز": "کالر",
    "Polling_Center_Location": "Kaalar",
    "Map_Accuracy": "Building",
    "Map_Accuracy_Dari": "تعمیر",
    "Status": "Open",
    "Status_Dari": null,
    "PS_Male": 2,
    "PS_Female": 2,
    "PS_Total": 4,
    "ولسوالي": "راغستان ",
    "Region": "North Eastern Region"
   },
   "geometry": {
    "x": 7859289.6267149039,
    "y": 4526113.1495919749
   }
  },
  {
   "attributes": {
    "OBJECTID": 1779,
    "ولایت": "بدخشان",
    "Province": "BADAKHSHAN",
    "PC_Code": "1715151",
    "District": "KISHM",
    "د_مرکز_نوم__نام_مرکز": "مکتب چارمغ",
    "Polling_Center_Name": "Charmagh School",
    "د_مرکز_ځای__موقعیت_مرکز": "چارمغ دره ",
    "Polling_Center_Location": "Charmagh Dara",
    "Map_Accuracy": "Building",
    "Map_Accuracy_Dari": "تعمیر",
    "Status": "Open",
    "Status_Dari": null,
    "PS_Male": 4,
    "PS_Female": 2,
    "PS_Total": 6,
    "ولسوالي": "کشم",
    "Region": "North Eastern Region"
   },
   "geometry": {
    "x": 7815258.0225562695,
    "y": 4412321.1457345514
   }
  },
  {
   "attributes": {
    "OBJECTID": 1780,
    "ولایت": "بدخشان",
    "Province": "BADAKHSHAN",
    "PC_Code": "1715152",
    "District": "KISHM",
    "د_مرکز_نوم__نام_مرکز": "مکتب نسوان جر شاه بابا ",
    "Polling_Center_Name": "Jar Shah Baba Girls School",
    "د_مرکز_ځای__موقعیت_مرکز": "جر شاه بابا",
    "Polling_Center_Location": "Jar Shah Baba",
    "Map_Accuracy": "Building",
    "Map_Accuracy_Dari": "تعمیر",
    "Status": "Open",
    "Status_Dari": null,
    "PS_Male": 2,
    "PS_Female": 2,
    "PS_Total": 4,
    "ولسوالي": "کشم",
    "Region": "North Eastern Region"
   },
   "geometry": {
    "x": 7811255.3198709628,
    "y": 4400510.0045273602
   }
  },
  {
   "attributes": {
    "OBJECTID": 1781,
    "ولایت": "بدخشان",
    "Province": "BADAKHSHAN",
    "PC_Code": "1715165",
    "District": "KISHM",
    "د_مرکز_نوم__نام_مرکز": "مکتب نوآباد گندم قول ",
    "Polling_Center_Name": "Nawabad Gandom Qol School",
    "د_مرکز_ځای__موقعیت_مرکز": "نوآباد گندم قول",
    "Polling_Center_Location": "Nawabad Gandum Qol",
    "Map_Accuracy": "Building",
    "Map_Accuracy_Dari": "تعمیر",
    "Status": "Open",
    "Status_Dari": null,
    "PS_Male": 1,
    "PS_Female": 1,
    "PS_Total": 2,
    "ولسوالي": "کشم",
    "Region": "North Eastern Region"
   },
   "geometry": {
    "x": 7806196.1840860751,
    "y": 4411906.8639143631
   }
  },
  {
   "attributes": {
    "OBJECTID": 1782,
    "ولایت": "بدخشان",
    "Province": "BADAKHSHAN",
    "PC_Code": "1715166",
    "District": "KISHM",
    "د_مرکز_نوم__نام_مرکز": "مسجد پشه دره ",
    "Polling_Center_Name": "Pasha Dara Mosque",
    "د_مرکز_ځای__موقعیت_مرکز": "پشه دره ",
    "Polling_Center_Location": "Pasha Dara",
    "Map_Accuracy": "Building",
    "Map_Accuracy_Dari": "تعمیر",
    "Status": "Open",
    "Status_Dari": null,
    "PS_Male": 1,
    "PS_Female": 1,
    "PS_Total": 2,
    "ولسوالي": "کشم",
    "Region": "North Eastern Region"
   },
   "geometry": {
    "x": 7798211.4273678018,
    "y": 4403593.4896003073
   }
  },
  {
   "attributes": {
    "OBJECTID": 1783,
    "ولایت": "بدخشان",
    "Province": "BADAKHSHAN",
    "PC_Code": "1716095",
    "District": "WARDOOJ",
    "د_مرکز_نوم__نام_مرکز": "مکتب شاکران ",
    "Polling_Center_Name": "Shakeran School",
    "د_مرکز_ځای__موقعیت_مرکز": "شاکران",
    "Polling_Center_Location": "Shakeran",
    "Map_Accuracy": "Building",
    "Map_Accuracy_Dari": "تعمیر",
    "Status": "Open",
    "Status_Dari": null,
    "PS_Male": 2,
    "PS_Female": 1,
    "PS_Total": 3,
    "ولسوالي": "وردوج",
    "Region": "North Eastern Region"
   },
   "geometry": {
    "x": 7909630.8006873829,
    "y": 4421350.7443322781
   }
  },
  {
   "attributes": {
    "OBJECTID": 1784,
    "ولایت": "بدخشان",
    "Province": "BADAKHSHAN",
    "PC_Code": "1716100",
    "District": "WARDOOJ",
    "د_مرکز_نوم__نام_مرکز": "مکتب سرقلات حویلی حمید الله ",
    "Polling_Center_Name": "Sarqalat School/Hamidullah House",
    "د_مرکز_ځای__موقعیت_مرکز": "سرقلات",
    "Polling_Center_Location": "Sarqalat",
    "Map_Accuracy": "Village",
    "Map_Accuracy_Dari": "قریه",
    "Status": "Open",
    "Status_Dari": null,
    "PS_Male": 1,
    "PS_Female": 1,
    "PS_Total": 2,
    "ولسوالي": "وردوج",
    "Region": "North Eastern Region"
   },
   "geometry": {
    "x": 7910146.3156832764,
    "y": 4421871.7974268151
   }
  },
  {
   "attributes": {
    "OBJECTID": 1785,
    "ولایت": "بدخشان",
    "Province": "BADAKHSHAN",
    "PC_Code": "1716101",
    "District": "WARDOOJ",
    "د_مرکز_نوم__نام_مرکز": "مکتب غنیو",
    "Polling_Center_Name": "Ghanyo School",
    "د_مرکز_ځای__موقعیت_مرکز": "غنیو",
    "Polling_Center_Location": "Ghanyo",
    "Map_Accuracy": "Building",
    "Map_Accuracy_Dari": "تعمیر",
    "Status": "Open",
    "Status_Dari": null,
    "PS_Male": 1,
    "PS_Female": 1,
    "PS_Total": 2,
    "ولسوالي": "وردوج",
    "Region": "North Eastern Region"
   },
   "geometry": {
    "x": 7912582.9279047204,
    "y": 4421812.9603451136
   }
  },
  {
   "attributes": {
    "OBJECTID": 1786,
    "ولایت": "بدخشان",
    "Province": "BADAKHSHAN",
    "PC_Code": "1718254",
    "District": "YAMGAN",
    "د_مرکز_نوم__نام_مرکز": "مکتب غرمی ",
    "Polling_Center_Name": "Gharmai School",
    "د_مرکز_ځای__موقعیت_مرکز": "مرکز ولسوالی",
    "Polling_Center_Location": "District Office",
    "Map_Accuracy": "Building",
    "Map_Accuracy_Dari": "تعمیر",
    "Status": "Open",
    "Status_Dari": null,
    "PS_Male": 2,
    "PS_Female": 2,
    "PS_Total": 4,
    "ولسوالي": "یمگان",
    "Region": "North Eastern Region"
   },
   "geometry": {
    "x": 7880923.7304016137,
    "y": 4372081.8365502814
   }
  },
  {
   "attributes": {
    "OBJECTID": 1787,
    "ولایت": "بدخشان",
    "Province": "BADAKHSHAN",
    "PC_Code": "1718255",
    "District": "YAMGAN",
    "د_مرکز_نوم__نام_مرکز": "مسجد ملا قربان ",
    "Polling_Center_Name": "Mula Qurban Mosque",
    "د_مرکز_ځای__موقعیت_مرکز": "آوریش",
    "Polling_Center_Location": "Aawreesh",
    "Map_Accuracy": "Building",
    "Map_Accuracy_Dari": "تعمیر",
    "Status": "Open",
    "Status_Dari": null,
    "PS_Male": 1,
    "PS_Female": 1,
    "PS_Total": 2,
    "ولسوالي": "یمگان",
    "Region": "North Eastern Region"
   },
   "geometry": {
    "x": 7879806.0459786188,
    "y": 4373404.2724831169
   }
  },
  {
   "attributes": {
    "OBJECTID": 1788,
    "ولایت": "بدخشان",
    "Province": "BADAKHSHAN",
    "PC_Code": "1719215",
    "District": "SHIGHNAN",
    "د_مرکز_نوم__نام_مرکز": "لیسه شدوج ",
    "Polling_Center_Name": "Shadoj High School",
    "د_مرکز_ځای__موقعیت_مرکز": "شدوج ",
    "Polling_Center_Location": "Shadoj",
    "Map_Accuracy": "Building",
    "Map_Accuracy_Dari": "تعمیر",
    "Status": "Open",
    "Status_Dari": null,
    "PS_Male": 2,
    "PS_Female": 1,
    "PS_Total": 3,
    "ولسوالي": "شغنان",
    "Region": "North Eastern Region"
   },
   "geometry": {
    "x": 7963677.1504025487,
    "y": 4536772.8812680701
   }
  },
  {
   "attributes": {
    "OBJECTID": 1789,
    "ولایت": "بدخشان",
    "Province": "BADAKHSHAN",
    "PC_Code": "1719216",
    "District": "SHIGHNAN",
    "د_مرکز_نوم__نام_مرکز": "مکتب پاجور چاوید",
    "Polling_Center_Name": "Pajor Jawed School",
    "د_مرکز_ځای__موقعیت_مرکز": "پاجور",
    "Polling_Center_Location": "Pajor",
    "Map_Accuracy": "Building",
    "Map_Accuracy_Dari": "تعمیر",
    "Status": "Open",
    "Status_Dari": null,
    "PS_Male": 2,
    "PS_Female": 1,
    "PS_Total": 3,
    "ولسوالي": "شغنان",
    "Region": "North Eastern Region"
   },
   "geometry": {
    "x": 7953131.8561528958,
    "y": 4567016.956075443
   }
  },
  {
   "attributes": {
    "OBJECTID": 1790,
    "ولایت": "بدخشان",
    "Province": "BADAKHSHAN",
    "PC_Code": "1720242",
    "District": "KHWAHAN",
    "د_مرکز_نوم__نام_مرکز": "مکتب سیل دان ",
    "Polling_Center_Name": "Sel Daan School",
    "د_مرکز_ځای__موقعیت_مرکز": "سیل دان ",
    "Polling_Center_Location": "Sel Daan",
    "Map_Accuracy": "Building",
    "Map_Accuracy_Dari": "تعمیر",
    "Status": "Open",
    "Status_Dari": null,
    "PS_Male": 2,
    "PS_Female": 2,
    "PS_Total": 4,
    "ولسوالي": "خواهان",
    "Region": "North Eastern Region"
   },
   "geometry": {
    "x": 7835327.2636331068,
    "y": 4544187.6827912172
   }
  },
  {
   "attributes": {
    "OBJECTID": 1791,
    "ولایت": "بدخشان",
    "Province": "BADAKHSHAN",
    "PC_Code": "1720243",
    "District": "KHWAHAN",
    "د_مرکز_نوم__نام_مرکز": "مکتب حوض شاه ",
    "Polling_Center_Name": "Hawz Shah School",
    "د_مرکز_ځای__موقعیت_مرکز": "زرهیج",
    "Polling_Center_Location": "Zarhej",
    "Map_Accuracy": "Building",
    "Map_Accuracy_Dari": "تعمیر",
    "Status": "Open",
    "Status_Dari": null,
    "PS_Male": 2,
    "PS_Female": 1,
    "PS_Total": 3,
    "ولسوالي": "خواهان",
    "Region": "North Eastern Region"
   },
   "geometry": {
    "x": 7843054.9602700425,
    "y": 4545344.7634276226
   }
  },
  {
   "attributes": {
    "OBJECTID": 1792,
    "ولایت": "بدخشان",
    "Province": "BADAKHSHAN",
    "PC_Code": "1720245",
    "District": "KHWAHAN",
    "د_مرکز_نوم__نام_مرکز": "مکتب حوزه شاه ",
    "Polling_Center_Name": "Hawza Shah School",
    "د_مرکز_ځای__موقعیت_مرکز": "کجگه",
    "Polling_Center_Location": "Kajaga",
    "Map_Accuracy": "Building",
    "Map_Accuracy_Dari": "تعمیر",
    "Status": "Open",
    "Status_Dari": null,
    "PS_Male": 1,
    "PS_Female": 1,
    "PS_Total": 2,
    "ولسوالي": "خواهان",
    "Region": "North Eastern Region"
   },
   "geometry": {
    "x": 7846352.6254131952,
    "y": 4546402.5292496998
   }
  },
  {
   "attributes": {
    "OBJECTID": 1793,
    "ولایت": "بدخشان",
    "Province": "BADAKHSHAN",
    "PC_Code": "1721246",
    "District": "KUFAB",
    "د_مرکز_نوم__نام_مرکز": "مکتب قلعه ",
    "Polling_Center_Name": "Qala School",
    "د_مرکز_ځای__موقعیت_مرکز": "قلعه ",
    "Polling_Center_Location": "Qala",
    "Map_Accuracy": "Building",
    "Map_Accuracy_Dari": "تعمیر",
    "Status": "Open",
    "Status_Dari": null,
    "PS_Male": 3,
    "PS_Female": 2,
    "PS_Total": 5,
    "ولسوالي": "کوف آب",
    "Region": "North Eastern Region"
   },
   "geometry": {
    "x": 7845479.7726254677,
    "y": 4585090.3244327605
   }
  },
  {
   "attributes": {
    "OBJECTID": 1794,
    "ولایت": "بدخشان",
    "Province": "BADAKHSHAN",
    "PC_Code": "1721252",
    "District": "KUFAB",
    "د_مرکز_نوم__نام_مرکز": "مکتب پدیو",
    "Polling_Center_Name": "Padyo School",
    "د_مرکز_ځای__موقعیت_مرکز": "پدیو",
    "Polling_Center_Location": "Padyo",
    "Map_Accuracy": "Building",
    "Map_Accuracy_Dari": "تعمیر",
    "Status": "Open",
    "Status_Dari": null,
    "PS_Male": 1,
    "PS_Female": 1,
    "PS_Total": 2,
    "ولسوالي": "کوف آب",
    "Region": "North Eastern Region"
   },
   "geometry": {
    "x": 7848947.562893617,
    "y": 4574672.6298481403
   }
  },
  {
   "attributes": {
    "OBJECTID": 1795,
    "ولایت": "بدخشان",
    "Province": "BADAKHSHAN",
    "PC_Code": "1722261",
    "District": "DARWAZ-E-PAYIN",
    "د_مرکز_نوم__نام_مرکز": "مدرسه چار باغ",
    "Polling_Center_Name": "Charbagh Madrassa",
    "د_مرکز_ځای__موقعیت_مرکز": "مدرسه",
    "Polling_Center_Location": "Madrassa",
    "Map_Accuracy": "Village",
    "Map_Accuracy_Dari": "قریه",
    "Status": "Open",
    "Status_Dari": null,
    "PS_Male": 1,
    "PS_Female": 3,
    "PS_Total": 4,
    "ولسوالي": "درواز پائین (مایمی)",
    "Region": "North Eastern Region"
   },
   "geometry": {
    "x": 7909334.2010361115,
    "y": 4636699.9000396281
   }
  },
  {
   "attributes": {
    "OBJECTID": 1796,
    "ولایت": "بدخشان",
    "Province": "BADAKHSHAN",
    "PC_Code": "1722267",
    "District": "DARWAZ-E-PAYIN",
    "د_مرکز_نوم__نام_مرکز": "مکتب تنگ شیو",
    "Polling_Center_Name": "Tang Shew School",
    "د_مرکز_ځای__موقعیت_مرکز": "تنگ شیو",
    "Polling_Center_Location": "Tang Shew",
    "Map_Accuracy": "District",
    "Map_Accuracy_Dari": "ولسوالی",
    "Status": "Open",
    "Status_Dari": null,
    "PS_Male": 1,
    "PS_Female": 1,
    "PS_Total": 2,
    "ولسوالي": "درواز پائین (مایمی)",
    "Region": "North Eastern Region"
   },
   "geometry": {
    "x": 7897702.6221409151,
    "y": 4620670.3097534608
   }
  },
  {
   "attributes": {
    "OBJECTID": 1797,
    "ولایت": "بدخشان",
    "Province": "BADAKHSHAN",
    "PC_Code": "1727272",
    "District": "DARWAZ-E-BALA",
    "د_مرکز_نوم__نام_مرکز": "مکتب اوباغون",
    "Polling_Center_Name": "Awbaghoon School",
    "د_مرکز_ځای__موقعیت_مرکز": "اوباغون",
    "Polling_Center_Location": "Awbaghoon",
    "Map_Accuracy": "Village",
    "Map_Accuracy_Dari": "قریه",
    "Status": "Open",
    "Status_Dari": null,
    "PS_Male": 2,
    "PS_Female": 1,
    "PS_Total": 3,
    "ولسوالي": "درواز بالا (نسی) ",
    "Region": "North Eastern Region"
   },
   "geometry": {
    "x": 7894852.1553334724,
    "y": 4640399.156258814
   }
  },
  {
   "attributes": {
    "OBJECTID": 1798,
    "ولایت": "بدخشان",
    "Province": "BADAKHSHAN",
    "PC_Code": "1727273",
    "District": "DARWAZ-E-BALA",
    "د_مرکز_نوم__نام_مرکز": "مکتب آرون",
    "Polling_Center_Name": "Aaroon School",
    "د_مرکز_ځای__موقعیت_مرکز": " آرون",
    "Polling_Center_Location": "Aaroon",
    "Map_Accuracy": "Village",
    "Map_Accuracy_Dari": "قریه",
    "Status": "Open",
    "Status_Dari": null,
    "PS_Male": 2,
    "PS_Female": 1,
    "PS_Total": 3,
    "ولسوالي": "درواز بالا (نسی) ",
    "Region": "North Eastern Region"
   },
   "geometry": {
    "x": 7885894.6811122829,
    "y": 4622727.1044436991
   }
  },
  {
   "attributes": {
    "OBJECTID": 1799,
    "ولایت": "بدخشان",
    "Province": "BADAKHSHAN",
    "PC_Code": "1727275",
    "District": "DARWAZ-E-BALA",
    "د_مرکز_نوم__نام_مرکز": "مکتب مه گی جاوای",
    "Polling_Center_Name": "Magai Jawai School",
    "د_مرکز_ځای__موقعیت_مرکز": "مه گی جاوای",
    "Polling_Center_Location": "Magai Jawai",
    "Map_Accuracy": "Village",
    "Map_Accuracy_Dari": "قریه",
    "Status": "Open",
    "Status_Dari": null,
    "PS_Male": 2,
    "PS_Female": 1,
    "PS_Total": 3,
    "ولسوالي": "درواز بالا (نسی) ",
    "Region": "North Eastern Region"
   },
   "geometry": {
    "x": 7882572.161666424,
    "y": 4623628.6866549402
   }
  },
  {
   "attributes": {
    "OBJECTID": 1800,
    "ولایت": "بدخشان",
    "Province": "BADAKHSHAN",
    "PC_Code": "1728203",
    "District": "WAKHAN",
    "د_مرکز_نوم__نام_مرکز": "مکتب قاضی ده ",
    "Polling_Center_Name": "Qazi Deh School",
    "د_مرکز_ځای__موقعیت_مرکز": "قاضی ده ",
    "Polling_Center_Location": "Qazi Deh",
    "Map_Accuracy": "Building",
    "Map_Accuracy_Dari": "تعمیر",
    "Status": "Open",
    "Status_Dari": null,
    "PS_Male": 2,
    "PS_Female": 1,
    "PS_Total": 3,
    "ولسوالي": "واخان",
    "Region": "North Eastern Region"
   },
   "geometry": {
    "x": 7987038.7667203275,
    "y": 4393247.1813734146
   }
  }
 ]
}