{
 "displayFieldName": "Polling_Center_Name",
 "fieldAliases": {
  "OBJECTID": "OBJECTID",
  "ولایت": "ولایت",
  "Province": "Province",
  "PC_Code": "PC_Code",
  "District": "District",
  "د_مرکز_نوم__نام_مرکز": "د_مرکز_نوم__نام_مرکز",
  "Polling_Center_Name": "Polling_Center_Name",
  "د_مرکز_ځای__موقعیت_مرکز": "د_مرکز_ځای__موقعیت_مرکز",
  "Polling_Center_Location": "Polling_Center_Location",
  "Map_Accuracy": "Map_Accuracy",
  "Map_Accuracy_Dari": "Map_Accuracy_Dari",
  "Status": "Status",
  "Status_Dari": "Status_Dari",
  "PS_Male": "PS_Male",
  "PS_Female": "PS_Female",
  "PS_Total": "PS_Total",
  "ولسوالي": "ولسوالي",
  "Region": "Region"
 },
 "geometryType": "esriGeometryPoint",
 "spatialReference": {
  "wkid": 102100,
  "latestWkid": 3857
 },
 "fields": [
  {
   "name": "OBJECTID",
   "type": "esriFieldTypeOID",
   "alias": "OBJECTID"
  },
  {
   "name": "ولایت",
   "type": "esriFieldTypeString",
   "alias": "ولایت",
   "length": 255
  },
  {
   "name": "Province",
   "type": "esriFieldTypeString",
   "alias": "Province",
   "length": 255
  },
  {
   "name": "PC_Code",
   "type": "esriFieldTypeString",
   "alias": "PC_Code",
   "length": 255
  },
  {
   "name": "District",
   "type": "esriFieldTypeString",
   "alias": "District",
   "length": 255
  },
  {
   "name": "د_مرکز_نوم__نام_مرکز",
   "type": "esriFieldTypeString",
   "alias": "د_مرکز_نوم__نام_مرکز",
   "length": 255
  },
  {
   "name": "Polling_Center_Name",
   "type": "esriFieldTypeString",
   "alias": "Polling_Center_Name",
   "length": 255
  },
  {
   "name": "د_مرکز_ځای__موقعیت_مرکز",
   "type": "esriFieldTypeString",
   "alias": "د_مرکز_ځای__موقعیت_مرکز",
   "length": 255
  },
  {
   "name": "Polling_Center_Location",
   "type": "esriFieldTypeString",
   "alias": "Polling_Center_Location",
   "length": 255
  },
  {
   "name": "Map_Accuracy",
   "type": "esriFieldTypeString",
   "alias": "Map_Accuracy",
   "length": 10
  },
  {
   "name": "Map_Accuracy_Dari",
   "type": "esriFieldTypeString",
   "alias": "Map_Accuracy_Dari",
   "length": 50
  },
  {
   "name": "Status",
   "type": "esriFieldTypeString",
   "alias": "Status",
   "length": 6
  },
  {
   "name": "Status_Dari",
   "type": "esriFieldTypeString",
   "alias": "Status_Dari",
   "length": 8
  },
  {
   "name": "PS_Male",
   "type": "esriFieldTypeSmallInteger",
   "alias": "PS_Male"
  },
  {
   "name": "PS_Female",
   "type": "esriFieldTypeSmallInteger",
   "alias": "PS_Female"
  },
  {
   "name": "PS_Total",
   "type": "esriFieldTypeSmallInteger",
   "alias": "PS_Total"
  },
  {
   "name": "ولسوالي",
   "type": "esriFieldTypeString",
   "alias": "ولسوالي",
   "length": 255
  },
  {
   "name": "Region",
   "type": "esriFieldTypeString",
   "alias": "Region",
   "length": 50
  }
 ],
 "features": [
  {
   "attributes": {
    "OBJECTID": 1201,
    "ولایت": "بغلان",
    "Province": "BAGHLAN",
    "PC_Code": "0903098",
    "District": "DUSHI",
    "د_مرکز_نوم__نام_مرکز": "مکتب کیان ",
    "Polling_Center_Name": "Keyan School",
    "د_مرکز_ځای__موقعیت_مرکز": "مرکز کیان",
    "Polling_Center_Location": "Keyan Center",
    "Map_Accuracy": "Building",
    "Map_Accuracy_Dari": "تعمیر",
    "Status": "Open",
    "Status_Dari": null,
    "PS_Male": 2,
    "PS_Female": 1,
    "PS_Total": 3,
    "ولسوالي": "دوشی",
    "Region": "North Eastern Region"
   },
   "geometry": {
    "x": 7615343.3765798109,
    "y": 4249901.544307732
   }
  },
  {
   "attributes": {
    "OBJECTID": 1202,
    "ولایت": "بغلان",
    "Province": "BAGHLAN",
    "PC_Code": "0904133",
    "District": "NAHREEN",
    "د_مرکز_نوم__نام_مرکز": "مکتب حضرت عباس",
    "Polling_Center_Name": "Hazrat Abas School",
    "د_مرکز_ځای__موقعیت_مرکز": "بره قی",
    "Polling_Center_Location": "Baraqi",
    "Map_Accuracy": "Building",
    "Map_Accuracy_Dari": "تعمیر",
    "Status": "Open",
    "Status_Dari": null,
    "PS_Male": 2,
    "PS_Female": 1,
    "PS_Total": 3,
    "ولسوالي": "نهرین",
    "Region": "North Eastern Region"
   },
   "geometry": {
    "x": 7676822.8537481511,
    "y": 4310162.5857653106
   }
  },
  {
   "attributes": {
    "OBJECTID": 1203,
    "ولایت": "بغلان",
    "Province": "BAGHLAN",
    "PC_Code": "0904134",
    "District": "NAHREEN",
    "د_مرکز_نوم__نام_مرکز": "مکتب لکن خیل",
    "Polling_Center_Name": "Lakan Khel School",
    "د_مرکز_ځای__موقعیت_مرکز": "لکن خیل",
    "Polling_Center_Location": "Lakan Khel",
    "Map_Accuracy": "Building",
    "Map_Accuracy_Dari": "تعمیر",
    "Status": "Open",
    "Status_Dari": null,
    "PS_Male": 3,
    "PS_Female": 2,
    "PS_Total": 5,
    "ولسوالي": "نهرین",
    "Region": "North Eastern Region"
   },
   "geometry": {
    "x": 7683348.0026614815,
    "y": 4313769.9911579341
   }
  },
  {
   "attributes": {
    "OBJECTID": 1204,
    "ولایت": "بغلان",
    "Province": "BAGHLAN",
    "PC_Code": "0904136",
    "District": "NAHREEN",
    "د_مرکز_نوم__نام_مرکز": "لیسه خواج خضر ",
    "Polling_Center_Name": "Khwaja Khezr High School",
    "د_مرکز_ځای__موقعیت_مرکز": "خواجه خضر",
    "Polling_Center_Location": "Khwja Khezr",
    "Map_Accuracy": "Building",
    "Map_Accuracy_Dari": "تعمیر",
    "Status": "Open",
    "Status_Dari": null,
    "PS_Male": 2,
    "PS_Female": 1,
    "PS_Total": 3,
    "ولسوالي": "نهرین",
    "Region": "North Eastern Region"
   },
   "geometry": {
    "x": 7690676.0445153536,
    "y": 4299242.5084465276
   }
  },
  {
   "attributes": {
    "OBJECTID": 1205,
    "ولایت": "بغلان",
    "Province": "BAGHLAN",
    "PC_Code": "0904137",
    "District": "NAHREEN",
    "د_مرکز_نوم__نام_مرکز": "مکتب دوابی",
    "Polling_Center_Name": "Du Aabi School",
    "د_مرکز_ځای__موقعیت_مرکز": "دو آبی",
    "Polling_Center_Location": "Do Aabi",
    "Map_Accuracy": "Building",
    "Map_Accuracy_Dari": "تعمیر",
    "Status": "Open",
    "Status_Dari": null,
    "PS_Male": 2,
    "PS_Female": 1,
    "PS_Total": 3,
    "ولسوالي": "نهرین",
    "Region": "North Eastern Region"
   },
   "geometry": {
    "x": 7695326.863747593,
    "y": 4302264.6050633145
   }
  },
  {
   "attributes": {
    "OBJECTID": 1206,
    "ولایت": "بغلان",
    "Province": "BAGHLAN",
    "PC_Code": "0905045",
    "District": "BAGLAN-E-JADEED",
    "د_مرکز_نوم__نام_مرکز": "مکتب لیسه حسن تال",
    "Polling_Center_Name": "Hasan Tal High School",
    "د_مرکز_ځای__موقعیت_مرکز": "هوفیانی حسن تال",
    "Polling_Center_Location": "Hoofyani Hassan Tal",
    "Map_Accuracy": "Building",
    "Map_Accuracy_Dari": "تعمیر",
    "Status": "Open",
    "Status_Dari": null,
    "PS_Male": 2,
    "PS_Female": 2,
    "PS_Total": 4,
    "ولسوالي": "بغلان جدید",
    "Region": "North Eastern Region"
   },
   "geometry": {
    "x": 7664630.2748244405,
    "y": 4332948.8947513532
   }
  },
  {
   "attributes": {
    "OBJECTID": 1207,
    "ولایت": "بغلان",
    "Province": "BAGHLAN",
    "PC_Code": "0905046",
    "District": "BAGLAN-E-JADEED",
    "د_مرکز_نوم__نام_مرکز": "لیسه ذکور منگل ها",
    "Polling_Center_Name": "Mangalha Boys High School",
    "د_مرکز_ځای__موقعیت_مرکز": "قریه منگل ها",
    "Polling_Center_Location": "Mangal Ha Village",
    "Map_Accuracy": "Building",
    "Map_Accuracy_Dari": "تعمیر",
    "Status": "Open",
    "Status_Dari": null,
    "PS_Male": 2,
    "PS_Female": 2,
    "PS_Total": 4,
    "ولسوالي": "بغلان جدید",
    "Region": "North Eastern Region"
   },
   "geometry": {
    "x": 7647341.0165043855,
    "y": 4332004.5463629309
   }
  },
  {
   "attributes": {
    "OBJECTID": 1208,
    "ولایت": "بغلان",
    "Province": "BAGHLAN",
    "PC_Code": "0905051",
    "District": "BAGLAN-E-JADEED",
    "د_مرکز_نوم__نام_مرکز": "مکتب متوسطه شاهی خیل",
    "Polling_Center_Name": "Shahi khel Secondary School",
    "د_مرکز_ځای__موقعیت_مرکز": "شاهی خیل",
    "Polling_Center_Location": "Shahi Khel",
    "Map_Accuracy": "Building",
    "Map_Accuracy_Dari": "تعمیر",
    "Status": "Open",
    "Status_Dari": null,
    "PS_Male": 2,
    "PS_Female": 2,
    "PS_Total": 4,
    "ولسوالي": "بغلان جدید",
    "Region": "North Eastern Region"
   },
   "geometry": {
    "x": 7653484.3206399819,
    "y": 4335905.6996798031
   }
  },
  {
   "attributes": {
    "OBJECTID": 1209,
    "ولایت": "بغلان",
    "Province": "BAGHLAN",
    "PC_Code": "0905052",
    "District": "BAGLAN-E-JADEED",
    "د_مرکز_نوم__نام_مرکز": "مسجد جامع علاوالدین",
    "Polling_Center_Name": "Allawuddin Mosque",
    "د_مرکز_ځای__موقعیت_مرکز": " قریه شاهی خیل",
    "Polling_Center_Location": "Shahi Khel Village",
    "Map_Accuracy": "Building",
    "Map_Accuracy_Dari": "تعمیر",
    "Status": "Open",
    "Status_Dari": null,
    "PS_Male": 1,
    "PS_Female": 1,
    "PS_Total": 2,
    "ولسوالي": "بغلان جدید",
    "Region": "North Eastern Region"
   },
   "geometry": {
    "x": 7647958.237439842,
    "y": 4337875.1907052547
   }
  },
  {
   "attributes": {
    "OBJECTID": 1210,
    "ولایت": "بغلان",
    "Province": "BAGHLAN",
    "PC_Code": "0905055",
    "District": "BAGLAN-E-JADEED",
    "د_مرکز_نوم__نام_مرکز": "مکتب شیخ جلال",
    "Polling_Center_Name": "Shaikh Jalal School",
    "د_مرکز_ځای__موقعیت_مرکز": "شیخ جلال",
    "Polling_Center_Location": "Shaikh Jalal",
    "Map_Accuracy": "Building",
    "Map_Accuracy_Dari": "تعمیر",
    "Status": "Open",
    "Status_Dari": null,
    "PS_Male": 2,
    "PS_Female": 1,
    "PS_Total": 3,
    "ولسوالي": "بغلان جدید",
    "Region": "North Eastern Region"
   },
   "geometry": {
    "x": 7665381.2572600348,
    "y": 4314621.5654945076
   }
  },
  {
   "attributes": {
    "OBJECTID": 1211,
    "ولایت": "بغلان",
    "Province": "BAGHLAN",
    "PC_Code": "0905056",
    "District": "BAGLAN-E-JADEED",
    "د_مرکز_نوم__نام_مرکز": "مکتب نسوان بغلان جدید",
    "Polling_Center_Name": "Baghlan Jadeed Girls School",
    "د_مرکز_ځای__موقعیت_مرکز": "شهربغلان جدید",
    "Polling_Center_Location": "Shahr-e-Baghlan Jadeed",
    "Map_Accuracy": "Building",
    "Map_Accuracy_Dari": "تعمیر",
    "Status": "Open",
    "Status_Dari": null,
    "PS_Male": 2,
    "PS_Female": 2,
    "PS_Total": 4,
    "ولسوالي": "بغلان جدید",
    "Region": "North Eastern Region"
   },
   "geometry": {
    "x": 7653280.7929885732,
    "y": 4324649.5864203032
   }
  },
  {
   "attributes": {
    "OBJECTID": 1212,
    "ولایت": "بغلان",
    "Province": "BAGHLAN",
    "PC_Code": "0905064",
    "District": "BAGLAN-E-JADEED",
    "د_مرکز_نوم__نام_مرکز": "بایسقال",
    "Polling_Center_Name": "Baisqal",
    "د_مرکز_ځای__موقعیت_مرکز": "قریه بایسقال",
    "Polling_Center_Location": "Baisqal Village ",
    "Map_Accuracy": "Village",
    "Map_Accuracy_Dari": "قریه",
    "Status": "Open",
    "Status_Dari": null,
    "PS_Male": 1,
    "PS_Female": 1,
    "PS_Total": 2,
    "ولسوالي": "بغلان جدید",
    "Region": "North Eastern Region"
   },
   "geometry": {
    "x": 7630140.8672103155,
    "y": 4333477.5362902228
   }
  },
  {
   "attributes": {
    "OBJECTID": 1213,
    "ولایت": "بغلان",
    "Province": "BAGHLAN",
    "PC_Code": "0905065",
    "District": "BAGLAN-E-JADEED",
    "د_مرکز_نوم__نام_مرکز": " طرف جپ قصرخیل  قشلاق عرب ها",
    "Polling_Center_Name": "Qeshlaq Arab Ha leftside of Qasarkhel",
    "د_مرکز_ځای__موقعیت_مرکز": "قشلاق عرب ها",
    "Polling_Center_Location": "Qeshlaq Arab Ha",
    "Map_Accuracy": "Building",
    "Map_Accuracy_Dari": "تعمیر",
    "Status": "Open",
    "Status_Dari": null,
    "PS_Male": 1,
    "PS_Female": 1,
    "PS_Total": 2,
    "ولسوالي": "بغلان جدید",
    "Region": "North Eastern Region"
   },
   "geometry": {
    "x": 7647233.4418012621,
    "y": 4327448.3007866526
   }
  },
  {
   "attributes": {
    "OBJECTID": 1214,
    "ولایت": "بغلان",
    "Province": "BAGHLAN",
    "PC_Code": "0906116",
    "District": "KHINJAN",
    "د_مرکز_نوم__نام_مرکز": "مسجد گزان ",
    "Polling_Center_Name": "Gazan Mosque",
    "د_مرکز_ځای__موقعیت_مرکز": "گزان پایان",
    "Polling_Center_Location": "Guzan Payan",
    "Map_Accuracy": "Building",
    "Map_Accuracy_Dari": "تعمیر",
    "Status": "Open",
    "Status_Dari": null,
    "PS_Male": 1,
    "PS_Female": 1,
    "PS_Total": 2,
    "ولسوالي": "خنجان",
    "Region": "North Eastern Region"
   },
   "geometry": {
    "x": 7665341.757765118,
    "y": 4246339.2911420306
   }
  },
  {
   "attributes": {
    "OBJECTID": 1215,
    "ولایت": "بغلان",
    "Province": "BAGHLAN",
    "PC_Code": "0906117",
    "District": "KHINJAN",
    "د_مرکز_نوم__نام_مرکز": "مکتب لیسه  باجگاه",
    "Polling_Center_Name": "Bajgah High School",
    "د_مرکز_ځای__موقعیت_مرکز": "سرتل باجگاه",
    "Polling_Center_Location": "Bajgah Village",
    "Map_Accuracy": "Building",
    "Map_Accuracy_Dari": "تعمیر",
    "Status": "Open",
    "Status_Dari": null,
    "PS_Male": 1,
    "PS_Female": 1,
    "PS_Total": 2,
    "ولسوالي": "خنجان",
    "Region": "North Eastern Region"
   },
   "geometry": {
    "x": 7683393.6458790973,
    "y": 4243762.4288187241
   }
  },
  {
   "attributes": {
    "OBJECTID": 1216,
    "ولایت": "بغلان",
    "Province": "BAGHLAN",
    "PC_Code": "0906119",
    "District": "KHINJAN",
    "د_مرکز_نوم__نام_مرکز": "مکتب لیسه ",
    "Polling_Center_Name": "School",
    "د_مرکز_ځای__موقعیت_مرکز": "قریه خوب دره",
    "Polling_Center_Location": "Khoob Dara Village",
    "Map_Accuracy": "Building",
    "Map_Accuracy_Dari": "تعمیر",
    "Status": "Open",
    "Status_Dari": null,
    "PS_Male": 1,
    "PS_Female": 1,
    "PS_Total": 2,
    "ولسوالي": "خنجان",
    "Region": "North Eastern Region"
   },
   "geometry": {
    "x": 7668014.2181389341,
    "y": 4231744.1008863756
   }
  },
  {
   "attributes": {
    "OBJECTID": 1217,
    "ولایت": "بغلان",
    "Province": "BAGHLAN",
    "PC_Code": "0906241",
    "District": "KHINJAN",
    "د_مرکز_نوم__نام_مرکز": "مسجد فراق دره",
    "Polling_Center_Name": "Feraq Dara Mosque",
    "د_مرکز_ځای__موقعیت_مرکز": "ترکان",
    "Polling_Center_Location": "Turkan",
    "Map_Accuracy": "Building",
    "Map_Accuracy_Dari": "تعمیر",
    "Status": "Open",
    "Status_Dari": null,
    "PS_Male": 2,
    "PS_Female": 1,
    "PS_Total": 3,
    "ولسوالي": "خنجان",
    "Region": "North Eastern Region"
   },
   "geometry": {
    "x": 7671781.6481936434,
    "y": 4245810.1462054579
   }
  },
  {
   "attributes": {
    "OBJECTID": 1218,
    "ولایت": "بغلان",
    "Province": "BAGHLAN",
    "PC_Code": "0908182",
    "District": "DEH SALAH",
    "د_مرکز_نوم__نام_مرکز": "مسجد قریه ارزنگان",
    "Polling_Center_Name": "Uroznegan Village Mosque ",
    "د_مرکز_ځای__موقعیت_مرکز": "قریه ارزنگان",
    "Polling_Center_Location": "Uroznegan Village",
    "Map_Accuracy": "Building",
    "Map_Accuracy_Dari": "تعمیر",
    "Status": "Open",
    "Status_Dari": null,
    "PS_Male": 1,
    "PS_Female": 1,
    "PS_Total": 2,
    "ولسوالي": "ده صلاح ",
    "Region": "North Eastern Region"
   },
   "geometry": {
    "x": 7714801.5207074247,
    "y": 4254371.6803113967
   }
  },
  {
   "attributes": {
    "OBJECTID": 1219,
    "ولایت": "بغلان",
    "Province": "BAGHLAN",
    "PC_Code": "0908183",
    "District": "DEH SALAH",
    "د_مرکز_نوم__نام_مرکز": "مسجد  کمیخلر",
    "Polling_Center_Name": "Kamekhlar Mosque",
    "د_مرکز_ځای__موقعیت_مرکز": "کمیخلر",
    "Polling_Center_Location": "Kamekhlar",
    "Map_Accuracy": "Building",
    "Map_Accuracy_Dari": "تعمیر",
    "Status": "Open",
    "Status_Dari": null,
    "PS_Male": 2,
    "PS_Female": 1,
    "PS_Total": 3,
    "ولسوالي": "ده صلاح ",
    "Region": "North Eastern Region"
   },
   "geometry": {
    "x": 7706514.2644048706,
    "y": 4259548.743678553
   }
  },
  {
   "attributes": {
    "OBJECTID": 1220,
    "ولایت": "بغلان",
    "Province": "BAGHLAN",
    "PC_Code": "0908185",
    "District": "DEH SALAH",
    "د_مرکز_نوم__نام_مرکز": "مدرسه امام قطیبه ",
    "Polling_Center_Name": "Amam Qutbia Madrassa",
    "د_مرکز_ځای__موقعیت_مرکز": "پشه ئی",
    "Polling_Center_Location": "Pashayee",
    "Map_Accuracy": "Building",
    "Map_Accuracy_Dari": "تعمیر",
    "Status": "Open",
    "Status_Dari": null,
    "PS_Male": 2,
    "PS_Female": 1,
    "PS_Total": 3,
    "ولسوالي": "ده صلاح ",
    "Region": "North Eastern Region"
   },
   "geometry": {
    "x": 7728787.0859339098,
    "y": 4264372.8563908013
   }
  },
  {
   "attributes": {
    "OBJECTID": 1221,
    "ولایت": "بغلان",
    "Province": "BAGHLAN",
    "PC_Code": "0908186",
    "District": "DEH SALAH",
    "د_مرکز_نوم__نام_مرکز": "مدرسه سنگبران ",
    "Polling_Center_Name": "Sangbaran Madrassa",
    "د_مرکز_ځای__موقعیت_مرکز": "سنگبران",
    "Polling_Center_Location": "Sang Baran",
    "Map_Accuracy": "Building",
    "Map_Accuracy_Dari": "تعمیر",
    "Status": "Open",
    "Status_Dari": null,
    "PS_Male": 1,
    "PS_Female": 1,
    "PS_Total": 2,
    "ولسوالي": "ده صلاح ",
    "Region": "North Eastern Region"
   },
   "geometry": {
    "x": 7717157.0300006596,
    "y": 4256094.0704633817
   }
  },
  {
   "attributes": {
    "OBJECTID": 1222,
    "ولایت": "بغلان",
    "Province": "BAGHLAN",
    "PC_Code": "0908251",
    "District": "DEH SALAH",
    "د_مرکز_نوم__نام_مرکز": "مسجد شریف ساکه ",
    "Polling_Center_Name": "Saka Sharif Moaque",
    "د_مرکز_ځای__موقعیت_مرکز": "ساکه",
    "Polling_Center_Location": "Saka",
    "Map_Accuracy": "Building",
    "Map_Accuracy_Dari": "تعمیر",
    "Status": "Open",
    "Status_Dari": null,
    "PS_Male": 1,
    "PS_Female": 1,
    "PS_Total": 2,
    "ولسوالي": "ده صلاح ",
    "Region": "North Eastern Region"
   },
   "geometry": {
    "x": 7716382.338739913,
    "y": 4261469.9433531901
   }
  },
  {
   "attributes": {
    "OBJECTID": 1223,
    "ولایت": "بغلان",
    "Province": "BAGHLAN",
    "PC_Code": "0909190",
    "District": "JALGA",
    "د_مرکز_نوم__نام_مرکز": "مکتب غوری سنگ",
    "Polling_Center_Name": "Sangee Ghuri School",
    "د_مرکز_ځای__موقعیت_مرکز": "گدری",
    "Polling_Center_Location": "Gadree",
    "Map_Accuracy": "Building",
    "Map_Accuracy_Dari": "تعمیر",
    "Status": "Open",
    "Status_Dari": null,
    "PS_Male": 2,
    "PS_Female": 2,
    "PS_Total": 4,
    "ولسوالي": "جلگه",
    "Region": "North Eastern Region"
   },
   "geometry": {
    "x": 7716078.7315266998,
    "y": 4310369.2924619019
   }
  },
  {
   "attributes": {
    "OBJECTID": 1224,
    "ولایت": "بغلان",
    "Province": "BAGHLAN",
    "PC_Code": "0909192",
    "District": "JALGA",
    "د_مرکز_نوم__نام_مرکز": "لیسه  مولوی سید احمد ",
    "Polling_Center_Name": "Maolawe Sayed Ahmad High School",
    "د_مرکز_ځای__موقعیت_مرکز": "قریه مهرداد",
    "Polling_Center_Location": "Mherdad Village ",
    "Map_Accuracy": "Building",
    "Map_Accuracy_Dari": "تعمیر",
    "Status": "Open",
    "Status_Dari": null,
    "PS_Male": 2,
    "PS_Female": 1,
    "PS_Total": 3,
    "ولسوالي": "جلگه",
    "Region": "North Eastern Region"
   },
   "geometry": {
    "x": 7709064.6585042523,
    "y": 4293451.9790366953
   }
  },
  {
   "attributes": {
    "OBJECTID": 1225,
    "ولایت": "بغلان",
    "Province": "BAGHLAN",
    "PC_Code": "0909193",
    "District": "JALGA",
    "د_مرکز_نوم__نام_مرکز": "لیسه یرم علیا",
    "Polling_Center_Name": "Yarm Ulya High School",
    "د_مرکز_ځای__موقعیت_مرکز": "یرم علیا",
    "Polling_Center_Location": "Yarm Ulya",
    "Map_Accuracy": "Building",
    "Map_Accuracy_Dari": "تعمیر",
    "Status": "Open",
    "Status_Dari": null,
    "PS_Male": 1,
    "PS_Female": 2,
    "PS_Total": 3,
    "ولسوالي": "جلگه",
    "Region": "North Eastern Region"
   },
   "geometry": {
    "x": 7710569.8149052365,
    "y": 4291255.2595243994
   }
  },
  {
   "attributes": {
    "OBJECTID": 1226,
    "ولایت": "بغلان",
    "Province": "BAGHLAN",
    "PC_Code": "0909195",
    "District": "JALGA",
    "د_مرکز_نوم__نام_مرکز": "مکتب ابتدائیه خواجه هجران ",
    "Polling_Center_Name": "Khwaja Hejran Primary School",
    "د_مرکز_ځای__موقعیت_مرکز": "خواجه هجران",
    "Polling_Center_Location": "Khwaja Hajran",
    "Map_Accuracy": "Building",
    "Map_Accuracy_Dari": "تعمیر",
    "Status": "Open",
    "Status_Dari": null,
    "PS_Male": 2,
    "PS_Female": 1,
    "PS_Total": 3,
    "ولسوالي": "جلگه",
    "Region": "North Eastern Region"
   },
   "geometry": {
    "x": 7708996.5510133924,
    "y": 4306291.1876107231
   }
  },
  {
   "attributes": {
    "OBJECTID": 1227,
    "ولایت": "بغلان",
    "Province": "BAGHLAN",
    "PC_Code": "0909196",
    "District": "JALGA",
    "د_مرکز_نوم__نام_مرکز": "مکتب ابتدائیه ",
    "Polling_Center_Name": "Primary School",
    "د_مرکز_ځای__موقعیت_مرکز": "گدری",
    "Polling_Center_Location": "Gadree",
    "Map_Accuracy": "Building",
    "Map_Accuracy_Dari": "تعمیر",
    "Status": "Open",
    "Status_Dari": null,
    "PS_Male": 2,
    "PS_Female": 1,
    "PS_Total": 3,
    "ولسوالي": "جلگه",
    "Region": "North Eastern Region"
   },
   "geometry": {
    "x": 7721724.1247306829,
    "y": 4308829.9097200157
   }
  },
  {
   "attributes": {
    "OBJECTID": 1228,
    "ولایت": "بغلان",
    "Province": "BAGHLAN",
    "PC_Code": "0909200",
    "District": "JALGA",
    "د_مرکز_نوم__نام_مرکز": "مسجد جامع گدری",
    "Polling_Center_Name": "Gadree Mosque",
    "د_مرکز_ځای__موقعیت_مرکز": "گدری",
    "Polling_Center_Location": "Gardree",
    "Map_Accuracy": "Building",
    "Map_Accuracy_Dari": "تعمیر",
    "Status": "Open",
    "Status_Dari": null,
    "PS_Male": 2,
    "PS_Female": 2,
    "PS_Total": 4,
    "ولسوالي": "جلگه",
    "Region": "North Eastern Region"
   },
   "geometry": {
    "x": 7713009.5073369993,
    "y": 4309182.8900765358
   }
  },
  {
   "attributes": {
    "OBJECTID": 1229,
    "ولایت": "بغلان",
    "Province": "BAGHLAN",
    "PC_Code": "0909252",
    "District": "JALGA",
    "د_مرکز_نوم__نام_مرکز": "مسجد جامع خواجه اولیا",
    "Polling_Center_Name": "Khawja Awliya Mosque",
    "د_مرکز_ځای__موقعیت_مرکز": "خواجه اولیا",
    "Polling_Center_Location": "Khwaja Awliya",
    "Map_Accuracy": "Building",
    "Map_Accuracy_Dari": "تعمیر",
    "Status": "Open",
    "Status_Dari": null,
    "PS_Male": 1,
    "PS_Female": 1,
    "PS_Total": 2,
    "ولسوالي": "جلگه",
    "Region": "North Eastern Region"
   },
   "geometry": {
    "x": 7711659.3110067789,
    "y": 4280510.1930397097
   }
  },
  {
   "attributes": {
    "OBJECTID": 1230,
    "ولایت": "بغلان",
    "Province": "BAGHLAN",
    "PC_Code": "0910151",
    "District": "BURKA",
    "د_مرکز_نوم__نام_مرکز": "لیسه فلول",
    "Polling_Center_Name": "Falol High School",
    "د_مرکز_ځای__موقعیت_مرکز": "فلول",
    "Polling_Center_Location": "Felol",
    "Map_Accuracy": "Building",
    "Map_Accuracy_Dari": "تعمیر",
    "Status": "Open",
    "Status_Dari": null,
    "PS_Male": 2,
    "PS_Female": 2,
    "PS_Total": 4,
    "ولسوالي": "برکه",
    "Region": "North Eastern Region"
   },
   "geometry": {
    "x": 7707908.7102326807,
    "y": 4330721.3522685925
   }
  },
  {
   "attributes": {
    "OBJECTID": 1231,
    "ولایت": "بغلان",
    "Province": "BAGHLAN",
    "PC_Code": "0910152",
    "District": "BURKA",
    "د_مرکز_نوم__نام_مرکز": "مکتب چپه",
    "Polling_Center_Name": "Chapa School",
    "د_مرکز_ځای__موقعیت_مرکز": "چپه",
    "Polling_Center_Location": "Chapa",
    "Map_Accuracy": "Building",
    "Map_Accuracy_Dari": "تعمیر",
    "Status": "Open",
    "Status_Dari": null,
    "PS_Male": 2,
    "PS_Female": 1,
    "PS_Total": 3,
    "ولسوالي": "برکه",
    "Region": "North Eastern Region"
   },
   "geometry": {
    "x": 7695894.7233944414,
    "y": 4328206.050311137
   }
  },
  {
   "attributes": {
    "OBJECTID": 1232,
    "ولایت": "بغلان",
    "Province": "BAGHLAN",
    "PC_Code": "0910156",
    "District": "BURKA",
    "د_مرکز_نوم__نام_مرکز": "مسجد خلیفه",
    "Polling_Center_Name": "Khalifa Mosque",
    "د_مرکز_ځای__موقعیت_مرکز": "فلول علیا",
    "Polling_Center_Location": "Felol Ulya",
    "Map_Accuracy": "Building",
    "Map_Accuracy_Dari": "تعمیر",
    "Status": "Open",
    "Status_Dari": null,
    "PS_Male": 2,
    "PS_Female": 1,
    "PS_Total": 3,
    "ولسوالي": "برکه",
    "Region": "North Eastern Region"
   },
   "geometry": {
    "x": 7709022.7255652593,
    "y": 4330577.2134326342
   }
  },
  {
   "attributes": {
    "OBJECTID": 1233,
    "ولایت": "بغلان",
    "Province": "BAGHLAN",
    "PC_Code": "0910157",
    "District": "BURKA",
    "د_مرکز_نوم__نام_مرکز": "لیسه بولک",
    "Polling_Center_Name": "Boolak High School",
    "د_مرکز_ځای__موقعیت_مرکز": "بولک پشته",
    "Polling_Center_Location": "Boolak Poshta",
    "Map_Accuracy": "Building",
    "Map_Accuracy_Dari": "تعمیر",
    "Status": "Open",
    "Status_Dari": null,
    "PS_Male": 2,
    "PS_Female": 1,
    "PS_Total": 3,
    "ولسوالي": "برکه",
    "Region": "North Eastern Region"
   },
   "geometry": {
    "x": 7682012.7353881709,
    "y": 4348909.1170656728
   }
  },
  {
   "attributes": {
    "OBJECTID": 1234,
    "ولایت": "بغلان",
    "Province": "BAGHLAN",
    "PC_Code": "0910159",
    "District": "BURKA",
    "د_مرکز_نوم__نام_مرکز": "مسجد مریم چشمه",
    "Polling_Center_Name": "Mariam Cheshma Mosque",
    "د_مرکز_ځای__موقعیت_مرکز": "مریم چشمه",
    "Polling_Center_Location": "Mariam Cheshma",
    "Map_Accuracy": "Building",
    "Map_Accuracy_Dari": "تعمیر",
    "Status": "Open",
    "Status_Dari": null,
    "PS_Male": 2,
    "PS_Female": 2,
    "PS_Total": 4,
    "ولسوالي": "برکه",
    "Region": "North Eastern Region"
   },
   "geometry": {
    "x": 7681183.4274456566,
    "y": 4333238.0450878814
   }
  },
  {
   "attributes": {
    "OBJECTID": 1235,
    "ولایت": "بغلان",
    "Province": "BAGHLAN",
    "PC_Code": "0910160",
    "District": "BURKA",
    "د_مرکز_نوم__نام_مرکز": "مکتب شورچه",
    "Polling_Center_Name": "Shorcha School",
    "د_مرکز_ځای__موقعیت_مرکز": "شورچه",
    "Polling_Center_Location": "Shorcha",
    "Map_Accuracy": "Building",
    "Map_Accuracy_Dari": "تعمیر",
    "Status": "Open",
    "Status_Dari": null,
    "PS_Male": 2,
    "PS_Female": 1,
    "PS_Total": 3,
    "ولسوالي": "برکه",
    "Region": "North Eastern Region"
   },
   "geometry": {
    "x": 7695902.5814372972,
    "y": 4315569.0768044796
   }
  },
  {
   "attributes": {
    "OBJECTID": 1236,
    "ولایت": "بغلان",
    "Province": "BAGHLAN",
    "PC_Code": "0912175",
    "District": "PUL-E-HISAR",
    "د_مرکز_نوم__نام_مرکز": "مسجد لکر مار ",
    "Polling_Center_Name": "Lakarmar Mosque",
    "د_مرکز_ځای__موقعیت_مرکز": "لکر مار ",
    "Polling_Center_Location": "Lakarmar",
    "Map_Accuracy": "Building",
    "Map_Accuracy_Dari": "تعمیر",
    "Status": "Open",
    "Status_Dari": null,
    "PS_Male": 1,
    "PS_Female": 1,
    "PS_Total": 2,
    "ولسوالي": "پل حصار",
    "Region": "North Eastern Region"
   },
   "geometry": {
    "x": 7737034.1547870925,
    "y": 4247434.6804418154
   }
  },
  {
   "attributes": {
    "OBJECTID": 1237,
    "ولایت": "بغلان",
    "Province": "BAGHLAN",
    "PC_Code": "0912176",
    "District": "PUL-E-HISAR",
    "د_مرکز_نوم__نام_مرکز": "مکتب سمندان",
    "Polling_Center_Name": "Samandan School",
    "د_مرکز_ځای__موقعیت_مرکز": "سمندان",
    "Polling_Center_Location": "Samandan",
    "Map_Accuracy": "Building",
    "Map_Accuracy_Dari": "تعمیر",
    "Status": "Open",
    "Status_Dari": null,
    "PS_Male": 1,
    "PS_Female": 1,
    "PS_Total": 2,
    "ولسوالي": "پل حصار",
    "Region": "North Eastern Region"
   },
   "geometry": {
    "x": 7751424.9763934137,
    "y": 4249642.1978546549
   }
  },
  {
   "attributes": {
    "OBJECTID": 1238,
    "ولایت": "بغلان",
    "Province": "BAGHLAN",
    "PC_Code": "0912179",
    "District": "PUL-E-HISAR",
    "د_مرکز_نوم__نام_مرکز": "مسجد قلکها",
    "Polling_Center_Name": "Qalakha Mosque",
    "د_مرکز_ځای__موقعیت_مرکز": "قلکها",
    "Polling_Center_Location": "Qalakha",
    "Map_Accuracy": "Building",
    "Map_Accuracy_Dari": "تعمیر",
    "Status": "Open",
    "Status_Dari": null,
    "PS_Male": 1,
    "PS_Female": 1,
    "PS_Total": 2,
    "ولسوالي": "پل حصار",
    "Region": "North Eastern Region"
   },
   "geometry": {
    "x": 7754912.273175939,
    "y": 4250178.0583679006
   }
  },
  {
   "attributes": {
    "OBJECTID": 1239,
    "ولایت": "بغلان",
    "Province": "BAGHLAN",
    "PC_Code": "0913208",
    "District": "KHOST WA FIRING",
    "د_مرکز_نوم__نام_مرکز": "مکتب لیسه بازار",
    "Polling_Center_Name": "Bazaar School",
    "د_مرکز_ځای__موقعیت_مرکز": "بازار",
    "Polling_Center_Location": "Bazaar",
    "Map_Accuracy": "Building",
    "Map_Accuracy_Dari": "تعمیر",
    "Status": "Open",
    "Status_Dari": null,
    "PS_Male": 2,
    "PS_Female": 1,
    "PS_Total": 3,
    "ولسوالي": "خوست و فرنگ",
    "Region": "North Eastern Region"
   },
   "geometry": {
    "x": 7737780.4317478053,
    "y": 4295820.1983492784
   }
  },
  {
   "attributes": {
    "OBJECTID": 1240,
    "ولایت": "بغلان",
    "Province": "BAGHLAN",
    "PC_Code": "0913209",
    "District": "KHOST WA FIRING",
    "د_مرکز_نوم__نام_مرکز": "مکتب لیسه میان شهر",
    "Polling_Center_Name": "Meyan Shahr School",
    "د_مرکز_ځای__موقعیت_مرکز": "میان شهر",
    "Polling_Center_Location": "Meyan Shahr",
    "Map_Accuracy": "Building",
    "Map_Accuracy_Dari": "تعمیر",
    "Status": "Open",
    "Status_Dari": null,
    "PS_Male": 1,
    "PS_Female": 1,
    "PS_Total": 2,
    "ولسوالي": "خوست و فرنگ",
    "Region": "North Eastern Region"
   },
   "geometry": {
    "x": 7739589.1864564558,
    "y": 4307286.2241301993
   }
  },
  {
   "attributes": {
    "OBJECTID": 1241,
    "ولایت": "بغلان",
    "Province": "BAGHLAN",
    "PC_Code": "0913211",
    "District": "KHOST WA FIRING",
    "د_مرکز_نوم__نام_مرکز": "مکتب لیسه دهنه ",
    "Polling_Center_Name": "Dahana High School",
    "د_مرکز_ځای__موقعیت_مرکز": "دهنه",
    "Polling_Center_Location": "Dahana",
    "Map_Accuracy": "Building",
    "Map_Accuracy_Dari": "تعمیر",
    "Status": "Open",
    "Status_Dari": null,
    "PS_Male": 2,
    "PS_Female": 1,
    "PS_Total": 3,
    "ولسوالي": "خوست و فرنگ",
    "Region": "North Eastern Region"
   },
   "geometry": {
    "x": 7736621.2674561506,
    "y": 4288196.8335015168
   }
  },
  {
   "attributes": {
    "OBJECTID": 1242,
    "ولایت": "بغلان",
    "Province": "BAGHLAN",
    "PC_Code": "0913212",
    "District": "KHOST WA FIRING",
    "د_مرکز_نوم__نام_مرکز": "مکتب متوسطه بهارک",
    "Polling_Center_Name": "Baharak Secondary School",
    "د_مرکز_ځای__موقعیت_مرکز": "بهارک",
    "Polling_Center_Location": "Baharak",
    "Map_Accuracy": "Building",
    "Map_Accuracy_Dari": "تعمیر",
    "Status": "Open",
    "Status_Dari": null,
    "PS_Male": 2,
    "PS_Female": 1,
    "PS_Total": 3,
    "ولسوالي": "خوست و فرنگ",
    "Region": "North Eastern Region"
   },
   "geometry": {
    "x": 7738534.7482021498,
    "y": 4301586.6227510851
   }
  },
  {
   "attributes": {
    "OBJECTID": 1243,
    "ولایت": "بغلان",
    "Province": "BAGHLAN",
    "PC_Code": "0913216",
    "District": "KHOST WA FIRING",
    "د_مرکز_نوم__نام_مرکز": "مکتب گرم آبه",
    "Polling_Center_Name": "Garm Aaba School",
    "د_مرکز_ځای__موقعیت_مرکز": "گرم آبه",
    "Polling_Center_Location": "Garm Aaba",
    "Map_Accuracy": "Building",
    "Map_Accuracy_Dari": "تعمیر",
    "Status": "Open",
    "Status_Dari": null,
    "PS_Male": 1,
    "PS_Female": 1,
    "PS_Total": 2,
    "ولسوالي": "خوست و فرنگ",
    "Region": "North Eastern Region"
   },
   "geometry": {
    "x": 7743443.6850508926,
    "y": 4304309.3664315054
   }
  },
  {
   "attributes": {
    "OBJECTID": 1244,
    "ولایت": "بغلان",
    "Province": "BAGHLAN",
    "PC_Code": "0913217",
    "District": "KHOST WA FIRING",
    "د_مرکز_نوم__نام_مرکز": "مکتب گردن تل",
    "Polling_Center_Name": "Gardan Tal School",
    "د_مرکز_ځای__موقعیت_مرکز": "پل اسد ",
    "Polling_Center_Location": "Pul-e- Asad",
    "Map_Accuracy": "Building",
    "Map_Accuracy_Dari": "تعمیر",
    "Status": "Open",
    "Status_Dari": null,
    "PS_Male": 1,
    "PS_Female": 1,
    "PS_Total": 2,
    "ولسوالي": "خوست و فرنگ",
    "Region": "North Eastern Region"
   },
   "geometry": {
    "x": 7750269.8875083169,
    "y": 4298970.47023963
   }
  },
  {
   "attributes": {
    "OBJECTID": 1245,
    "ولایت": "بغلان",
    "Province": "BAGHLAN",
    "PC_Code": "0904266",
    "District": "NAHREEN",
    "د_مرکز_نوم__نام_مرکز": "مسجد",
    "Polling_Center_Name": "Mosque",
    "د_مرکز_ځای__موقعیت_مرکز": "قوزی بالا",
    "Polling_Center_Location": "Qozi bala",
    "Map_Accuracy": "Building",
    "Map_Accuracy_Dari": "تعمیر",
    "Status": "Open",
    "Status_Dari": null,
    "PS_Male": 2,
    "PS_Female": 1,
    "PS_Total": 3,
    "ولسوالي": "نهرین",
    "Region": "North Eastern Region"
   },
   "geometry": {
    "x": 7685894.2235044707,
    "y": 4313023.5134112304
   }
  },
  {
   "attributes": {
    "OBJECTID": 1246,
    "ولایت": "بغلان",
    "Province": "BAGHLAN",
    "PC_Code": "0901007",
    "District": "PUL-E-KHUMRI",
    "د_مرکز_نوم__نام_مرکز": "دروازه شمرق",
    "Polling_Center_Name": "Shamaroq Gate",
    "د_مرکز_ځای__موقعیت_مرکز": "پارک شمرق",
    "Polling_Center_Location": "Shamaroq Park",
    "Map_Accuracy": "Building",
    "Map_Accuracy_Dari": "تعمیر",
    "Status": "Open",
    "Status_Dari": null,
    "PS_Male": 4,
    "PS_Female": 3,
    "PS_Total": 7,
    "ولسوالي": "پلخمری",
    "Region": "North Eastern Region"
   },
   "geometry": {
    "x": 7653372.8853769172,
    "y": 4286838.8401099388
   }
  },
  {
   "attributes": {
    "OBJECTID": 1247,
    "ولایت": "بغلان",
    "Province": "BAGHLAN",
    "PC_Code": "0901008",
    "District": "PUL-E-KHUMRI",
    "د_مرکز_نوم__نام_مرکز": "تکیه خانه ملا اسحاق",
    "Polling_Center_Name": "Mollah Eshaq Takia Khana ",
    "د_مرکز_ځای__موقعیت_مرکز": "ناحیه دوم",
    "Polling_Center_Location": "Second Nahia",
    "Map_Accuracy": "Building",
    "Map_Accuracy_Dari": "تعمیر",
    "Status": "Open",
    "Status_Dari": null,
    "PS_Male": 3,
    "PS_Female": 2,
    "PS_Total": 5,
    "ولسوالي": "پلخمری",
    "Region": "North Eastern Region"
   },
   "geometry": {
    "x": 7650345.4427316887,
    "y": 4290773.6604469791
   }
  },
  {
   "attributes": {
    "OBJECTID": 1248,
    "ولایت": "بغلان",
    "Province": "BAGHLAN",
    "PC_Code": "0901022",
    "District": "PUL-E-KHUMRI",
    "د_مرکز_نوم__نام_مرکز": "لیسه حسین خیل",
    "Polling_Center_Name": "Hussain Khel  High School",
    "د_مرکز_ځای__موقعیت_مرکز": "ناحیه سوم",
    "Polling_Center_Location": "Third Nahia",
    "Map_Accuracy": "Building",
    "Map_Accuracy_Dari": "تعمیر",
    "Status": "Open",
    "Status_Dari": null,
    "PS_Male": 3,
    "PS_Female": 2,
    "PS_Total": 5,
    "ولسوالي": "پلخمری",
    "Region": "North Eastern Region"
   },
   "geometry": {
    "x": 7645020.3413062096,
    "y": 4303937.4002962317
   }
  },
  {
   "attributes": {
    "OBJECTID": 1249,
    "ولایت": "باميان",
    "Province": "BAMYAN",
    "PC_Code": "1003040",
    "District": "SAIGHAN",
    "د_مرکز_نوم__نام_مرکز": "مسجد قلعچه",
    "Polling_Center_Name": "Qalacha Mosque",
    "د_مرکز_ځای__موقعیت_مرکز": "قلعچه",
    "Polling_Center_Location": "Qalacha",
    "Map_Accuracy": "Building",
    "Map_Accuracy_Dari": "تعمیر",
    "Status": "Open",
    "Status_Dari": null,
    "PS_Male": 1,
    "PS_Female": 1,
    "PS_Total": 2,
    "ولسوالي": "سیغان",
    "Region": "Central Highlands Region"
   },
   "geometry": {
    "x": 7512066.3516420303,
    "y": 4180642.4097762788
   }
  },
  {
   "attributes": {
    "OBJECTID": 1250,
    "ولایت": "باميان",
    "Province": "BAMYAN",
    "PC_Code": "1005071",
    "District": "YAKAWLANG",
    "د_مرکز_نوم__نام_مرکز": "لیسه ذکور زارین",
    "Polling_Center_Name": "Zaarin Boys High School",
    "د_مرکز_ځای__موقعیت_مرکز": "زارین",
    "Polling_Center_Location": "Zaarin",
    "Map_Accuracy": "Building",
    "Map_Accuracy_Dari": "تعمیر",
    "Status": "Open",
    "Status_Dari": null,
    "PS_Male": 2,
    "PS_Female": 1,
    "PS_Total": 3,
    "ولسوالي": "یکاولنگ",
    "Region": "Central Highlands Region"
   },
   "geometry": {
    "x": 7445349.7981563099,
    "y": 4119391.4376308955
   }
  },
  {
   "attributes": {
    "OBJECTID": 1251,
    "ولایت": "باميان",
    "Province": "BAMYAN",
    "PC_Code": "1005081",
    "District": "YAKAWLANG",
    "د_مرکز_نوم__نام_مرکز": "مدرسه سیاه دره",
    "Polling_Center_Name": "Syah Dara Madrassa",
    "د_مرکز_ځای__موقعیت_مرکز": "شهرنو سیاه دره",
    "Polling_Center_Location": "Shahre Naw Syah Dara",
    "Map_Accuracy": "Building",
    "Map_Accuracy_Dari": "تعمیر",
    "Status": "Open",
    "Status_Dari": null,
    "PS_Male": 2,
    "PS_Female": 1,
    "PS_Total": 3,
    "ولسوالي": "یکاولنگ",
    "Region": "Central Highlands Region"
   },
   "geometry": {
    "x": 7434470.5339683658,
    "y": 4102001.4874638948
   }
  },
  {
   "attributes": {
    "OBJECTID": 1252,
    "ولایت": "باميان",
    "Province": "BAMYAN",
    "PC_Code": "1005082",
    "District": "YAKAWLANG",
    "د_مرکز_نوم__نام_مرکز": "مکتب دخترانه بغلک رستم",
    "Polling_Center_Name": "Baghalak-e-Rustam Girls School",
    "د_مرکز_ځای__موقعیت_مرکز": "بغلک رستم",
    "Polling_Center_Location": "Baghalake Rustam",
    "Map_Accuracy": "Building",
    "Map_Accuracy_Dari": "تعمیر",
    "Status": "Open",
    "Status_Dari": null,
    "PS_Male": 1,
    "PS_Female": 1,
    "PS_Total": 2,
    "ولسوالي": "یکاولنگ",
    "Region": "Central Highlands Region"
   },
   "geometry": {
    "x": 7446187.6717996793,
    "y": 4110704.6706761792
   }
  },
  {
   "attributes": {
    "OBJECTID": 1253,
    "ولایت": "باميان",
    "Province": "BAMYAN",
    "PC_Code": "1006100",
    "District": "PANJAB",
    "د_مرکز_نوم__نام_مرکز": "لیسه ذکور سرای زرد سنگ",
    "Polling_Center_Name": "Saray-e-Zard Sang Boys School",
    "د_مرکز_ځای__موقعیت_مرکز": "دهن قوریغک مرکه علیا",
    "Polling_Center_Location": "Dahan-e-Qoorighak Marka Ulya",
    "Map_Accuracy": "Building",
    "Map_Accuracy_Dari": "تعمیر",
    "Status": "Open",
    "Status_Dari": null,
    "PS_Male": 1,
    "PS_Female": 1,
    "PS_Total": 2,
    "ولسوالي": "پنجاب",
    "Region": "Central Highlands Region"
   },
   "geometry": {
    "x": 7477373.4353008047,
    "y": 4080286.019678521
   }
  },
  {
   "attributes": {
    "OBJECTID": 1254,
    "ولایت": "باميان",
    "Province": "BAMYAN",
    "PC_Code": "1006101",
    "District": "PANJAB",
    "د_مرکز_نوم__نام_مرکز": "مدرسه علمیه کاظمیه",
    "Polling_Center_Name": "Elmia Kazimia Madrassa",
    "د_مرکز_ځای__موقعیت_مرکز": "غرغره دراز قول",
    "Polling_Center_Location": "Ghar Ghar-e-Daraz Qol",
    "Map_Accuracy": "Building",
    "Map_Accuracy_Dari": "تعمیر",
    "Status": "Open",
    "Status_Dari": null,
    "PS_Male": 1,
    "PS_Female": 1,
    "PS_Total": 2,
    "ولسوالي": "پنجاب",
    "Region": "Central Highlands Region"
   },
   "geometry": {
    "x": 7498306.3542129369,
    "y": 4080812.5150900478
   }
  },
  {
   "attributes": {
    "OBJECTID": 1255,
    "ولایت": "باميان",
    "Province": "BAMYAN",
    "PC_Code": "1007142",
    "District": "WARAS",
    "د_مرکز_نوم__نام_مرکز": "مسجد شینیه بستوک",
    "Polling_Center_Name": "Shenia Bastook Mosque",
    "د_مرکز_ځای__موقعیت_مرکز": "شینیه بستوک",
    "Polling_Center_Location": "Shenia Bastook",
    "Map_Accuracy": "Building",
    "Map_Accuracy_Dari": "تعمیر",
    "Status": "Open",
    "Status_Dari": null,
    "PS_Male": 1,
    "PS_Female": 1,
    "PS_Total": 2,
    "ولسوالي": "ورس",
    "Region": "Central Highlands Region"
   },
   "geometry": {
    "x": 7466209.3148886422,
    "y": 4045692.7734327568
   }
  },
  {
   "attributes": {
    "OBJECTID": 1256,
    "ولایت": "باميان",
    "Province": "BAMYAN",
    "PC_Code": "1007143",
    "District": "WARAS",
    "د_مرکز_نوم__نام_مرکز": "مسجد رزک",
    "Polling_Center_Name": "Razak Mosque",
    "د_مرکز_ځای__موقعیت_مرکز": "رزک",
    "Polling_Center_Location": "Razak",
    "Map_Accuracy": "Building",
    "Map_Accuracy_Dari": "تعمیر",
    "Status": "Open",
    "Status_Dari": null,
    "PS_Male": 1,
    "PS_Female": 1,
    "PS_Total": 2,
    "ولسوالي": "ورس",
    "Region": "Central Highlands Region"
   },
   "geometry": {
    "x": 7468106.6220258195,
    "y": 4041046.622998998
   }
  },
  {
   "attributes": {
    "OBJECTID": 1257,
    "ولایت": "باميان",
    "Province": "BAMYAN",
    "PC_Code": "1007158",
    "District": "WARAS",
    "د_مرکز_نوم__نام_مرکز": "مکتب وار زاغ ",
    "Polling_Center_Name": "Warzagh School",
    "د_مرکز_ځای__موقعیت_مرکز": "وارزاغ",
    "Polling_Center_Location": "Warzagh",
    "Map_Accuracy": "Building",
    "Map_Accuracy_Dari": "تعمیر",
    "Status": "Open",
    "Status_Dari": null,
    "PS_Male": 1,
    "PS_Female": 1,
    "PS_Total": 2,
    "ولسوالي": "ورس",
    "Region": "Central Highlands Region"
   },
   "geometry": {
    "x": 7468142.1293811621,
    "y": 4037104.8373263362
   }
  },
  {
   "attributes": {
    "OBJECTID": 1258,
    "ولایت": "باميان",
    "Province": "BAMYAN",
    "PC_Code": "1005176",
    "District": "Yakawlang",
    "د_مرکز_نوم__نام_مرکز": "مکتب سر ترنوک",
    "Polling_Center_Name": "Sar tarnok School",
    "د_مرکز_ځای__موقعیت_مرکز": "سرترنوگ",
    "Polling_Center_Location": "Sar tarnok",
    "Map_Accuracy": "Building",
    "Map_Accuracy_Dari": "تعمیر",
    "Status": "Open",
    "Status_Dari": null,
    "PS_Male": 2,
    "PS_Female": 1,
    "PS_Total": 3,
    "ولسوالي": "یکاولنگ",
    "Region": "Central Highlands Region"
   },
   "geometry": {
    "x": 7433496.8489877563,
    "y": 4129629.954364296
   }
  },
  {
   "attributes": {
    "OBJECTID": 1259,
    "ولایت": "باميان",
    "Province": "BAMYAN",
    "PC_Code": "1005177",
    "District": "Yakawlang",
    "د_مرکز_نوم__نام_مرکز": "منبر بغلک سفلی",
    "Polling_Center_Name": "Baghalak sufla Mosque",
    "د_مرکز_ځای__موقعیت_مرکز": "بغلک سفلا",
    "Polling_Center_Location": "Baghalak sufla",
    "Map_Accuracy": "Building",
    "Map_Accuracy_Dari": "تعمیر",
    "Status": "Open",
    "Status_Dari": null,
    "PS_Male": 2,
    "PS_Female": 1,
    "PS_Total": 3,
    "ولسوالي": "یکاولنگ",
    "Region": "Central Highlands Region"
   },
   "geometry": {
    "x": 7443383.9313484952,
    "y": 4135312.0160985794
   }
  },
  {
   "attributes": {
    "OBJECTID": 1260,
    "ولایت": "باميان",
    "Province": "BAMYAN",
    "PC_Code": "1005179",
    "District": "Yakawlang",
    "د_مرکز_نوم__نام_مرکز": "مکتب کشکک نقشی",
    "Polling_Center_Name": "Kushkak naqshi School",
    "د_مرکز_ځای__موقعیت_مرکز": "کشکک سوخته",
    "Polling_Center_Location": "Kushkak sukhta",
    "Map_Accuracy": "Building",
    "Map_Accuracy_Dari": "تعمیر",
    "Status": "Open",
    "Status_Dari": null,
    "PS_Male": 2,
    "PS_Female": 1,
    "PS_Total": 3,
    "ولسوالي": "یکاولنگ",
    "Region": "Central Highlands Region"
   },
   "geometry": {
    "x": 7464043.8202851396,
    "y": 4157754.9788005217
   }
  },
  {
   "attributes": {
    "OBJECTID": 1261,
    "ولایت": "باميان",
    "Province": "BAMYAN",
    "PC_Code": "1006180",
    "District": "PANJAB",
    "د_مرکز_نوم__نام_مرکز": "مدرسه دهن طاهر",
    "Polling_Center_Name": "Dahan taher Madrasa",
    "د_مرکز_ځای__موقعیت_مرکز": "دهن طاهر",
    "Polling_Center_Location": "Dahan zaher",
    "Map_Accuracy": "Building",
    "Map_Accuracy_Dari": "تعمیر",
    "Status": "Open",
    "Status_Dari": null,
    "PS_Male": 2,
    "PS_Female": 1,
    "PS_Total": 3,
    "ولسوالي": "پنجاب",
    "Region": "Central Highlands Region"
   },
   "geometry": {
    "x": 7416756.3375372132,
    "y": 4071107.9697479615
   }
  },
  {
   "attributes": {
    "OBJECTID": 1262,
    "ولایت": "باميان",
    "Province": "BAMYAN",
    "PC_Code": "1007187",
    "District": "WARAS",
    "د_مرکز_نوم__نام_مرکز": "مکتب متوسطه نیک پای",
    "Polling_Center_Name": "Nik pai Secondary school",
    "د_مرکز_ځای__موقعیت_مرکز": "نیک پای قوم یاری",
    "Polling_Center_Location": "Nik pai qawm yari",
    "Map_Accuracy": "District",
    "Map_Accuracy_Dari": "ولسوالی",
    "Status": "Open",
    "Status_Dari": null,
    "PS_Male": 2,
    "PS_Female": 1,
    "PS_Total": 3,
    "ولسوالي": "ورس",
    "Region": "Central Highlands Region"
   },
   "geometry": {
    "x": 7481967.9975585826,
    "y": 4061875.9790264321
   }
  },
  {
   "attributes": {
    "OBJECTID": 1263,
    "ولایت": "باميان",
    "Province": "BAMYAN",
    "PC_Code": "1006184",
    "District": "PANJAB",
    "د_مرکز_نوم__نام_مرکز": "مکتب متوسطه زیره گک",
    "Polling_Center_Name": "Zira gak Secondary School",
    "د_مرکز_ځای__موقعیت_مرکز": "زیره گگ مرکه سفلا",
    "Polling_Center_Location": "Ziragak marka sufla",
    "Map_Accuracy": "Building",
    "Map_Accuracy_Dari": "تعمیر",
    "Status": "Open",
    "Status_Dari": null,
    "PS_Male": 2,
    "PS_Female": 1,
    "PS_Total": 3,
    "ولسوالي": "پنجاب",
    "Region": "Central Highlands Region"
   },
   "geometry": {
    "x": 7466174.5364533272,
    "y": 4076089.0368498294
   }
  },
  {
   "attributes": {
    "OBJECTID": 1264,
    "ولایت": "باميان",
    "Province": "BAMYAN",
    "PC_Code": "1007185",
    "District": "WARAS",
    "د_مرکز_نوم__نام_مرکز": "مکتب سنگ سوراخ",
    "Polling_Center_Name": "Sang sorakh School",
    "د_مرکز_ځای__موقعیت_مرکز": "سنگ سوراخ",
    "Polling_Center_Location": "Sang surakh",
    "Map_Accuracy": "Building",
    "Map_Accuracy_Dari": "تعمیر",
    "Status": "Open",
    "Status_Dari": null,
    "PS_Male": 2,
    "PS_Female": 1,
    "PS_Total": 3,
    "ولسوالي": "ورس",
    "Region": "Central Highlands Region"
   },
   "geometry": {
    "x": 7454876.3110090718,
    "y": 4044638.6496174163
   }
  },
  {
   "attributes": {
    "OBJECTID": 1265,
    "ولایت": "غزنى",
    "Province": "GHAZNI",
    "PC_Code": "1101018",
    "District": "GHAZNI",
    "د_مرکز_نوم__نام_مرکز": "لیسه قلعه نو خواجه روشنائی",
    "Polling_Center_Name": "Qala-e-Naw Khwaja Roshnayee High School",
    "د_مرکز_ځای__موقعیت_مرکز": "قلعه نو خواجه روشنائی ",
    "Polling_Center_Location": "Qala-e-Naw Khwaja Roshnayee",
    "Map_Accuracy": "Village",
    "Map_Accuracy_Dari": "قریه",
    "Status": "Open",
    "Status_Dari": null,
    "PS_Male": 4,
    "PS_Female": 1,
    "PS_Total": 5,
    "ولسوالي": "غزنی",
    "Region": "South Eastern Region"
   },
   "geometry": {
    "x": 7616923.714825293,
    "y": 3965962.8257505964
   }
  },
  {
   "attributes": {
    "OBJECTID": 1266,
    "ولایت": "غزنى",
    "Province": "GHAZNI",
    "PC_Code": "1101019",
    "District": "GHAZNI",
    "د_مرکز_نوم__نام_مرکز": "مسجد احمدی",
    "Polling_Center_Name": "Ahmadi Mosque",
    "د_مرکز_ځای__موقعیت_مرکز": " شهر کهنه",
    "Polling_Center_Location": "Shahr-e-Kohna",
    "Map_Accuracy": "Village",
    "Map_Accuracy_Dari": "قریه",
    "Status": "Open",
    "Status_Dari": null,
    "PS_Male": 5,
    "PS_Female": 0,
    "PS_Total": 5,
    "ولسوالي": "غزنی",
    "Region": "South Eastern Region"
   },
   "geometry": {
    "x": 7618222.0796874044,
    "y": 3970483.2310541556
   }
  },
  {
   "attributes": {
    "OBJECTID": 1267,
    "ولایت": "غزنى",
    "Province": "GHAZNI",
    "PC_Code": "1101042",
    "District": "GHAZNI",
    "د_مرکز_نوم__نام_مرکز": "مسجد بالا بهلول",
    "Polling_Center_Name": "Bala Bahlool Mosque",
    "د_مرکز_ځای__موقعیت_مرکز": "قریه بهلول صاحب ",
    "Polling_Center_Location": "Bahlool Sahib Village",
    "Map_Accuracy": "Building",
    "Map_Accuracy_Dari": "تعمیر",
    "Status": "Open",
    "Status_Dari": null,
    "PS_Male": 3,
    "PS_Female": 0,
    "PS_Total": 3,
    "ولسوالي": "غزنی",
    "Region": "South Eastern Region"
   },
   "geometry": {
    "x": 7617379.0727683576,
    "y": 3970294.5649315184
   }
  },
  {
   "attributes": {
    "OBJECTID": 1268,
    "ولایت": "غزنى",
    "Province": "GHAZNI",
    "PC_Code": "1101043",
    "District": "GHAZNI",
    "د_مرکز_نوم__نام_مرکز": "مسجد پائین",
    "Polling_Center_Name": "Paeen Mosque",
    "د_مرکز_ځای__موقعیت_مرکز": "قریه بهلول صاحب ",
    "Polling_Center_Location": "Bahlool Saheb",
    "Map_Accuracy": "Village",
    "Map_Accuracy_Dari": "قریه",
    "Status": "Open",
    "Status_Dari": null,
    "PS_Male": 0,
    "PS_Female": 3,
    "PS_Total": 3,
    "ولسوالي": "غزنی",
    "Region": "South Eastern Region"
   },
   "geometry": {
    "x": 7617344.1050899122,
    "y": 3969970.1242347984
   }
  },
  {
   "attributes": {
    "OBJECTID": 1269,
    "ولایت": "غزنى",
    "Province": "GHAZNI",
    "PC_Code": "1105066",
    "District": "DEH YAK",
    "د_مرکز_نوم__نام_مرکز": "مسجد کندر مهمان خانه کندر",
    "Polling_Center_Name": "Kandar Mosque",
    "د_مرکز_ځای__موقعیت_مرکز": "کندر",
    "Polling_Center_Location": "Kandar",
    "Map_Accuracy": "Village",
    "Map_Accuracy_Dari": "قریه",
    "Status": "Open",
    "Status_Dari": null,
    "PS_Male": 2,
    "PS_Female": 1,
    "PS_Total": 3,
    "ولسوالي": "ده یک",
    "Region": "South Eastern Region"
   },
   "geometry": {
    "x": 7646414.2127254475,
    "y": 3957126.633198936
   }
  },
  {
   "attributes": {
    "OBJECTID": 1270,
    "ولایت": "غزنى",
    "Province": "GHAZNI",
    "PC_Code": "1107252",
    "District": "ANDAR",
    "د_مرکز_نوم__نام_مرکز": "مکتب ملا محمد ګوډلی",
    "Polling_Center_Name": "Molla Mohammad Gadali School",
    "د_مرکز_ځای__موقعیت_مرکز": "قریه ملا محمد ګوډلی",
    "Polling_Center_Location": "Mula Mohammad Gadali Village",
    "Map_Accuracy": "Building",
    "Map_Accuracy_Dari": "تعمیر",
    "Status": "Open",
    "Status_Dari": null,
    "PS_Male": 1,
    "PS_Female": 2,
    "PS_Total": 3,
    "ولسوالي": "اندر",
    "Region": "South Eastern Region"
   },
   "geometry": {
    "x": 7615048.832999533,
    "y": 3932017.3090438354
   }
  },
  {
   "attributes": {
    "OBJECTID": 1271,
    "ولایت": "غزنى",
    "Province": "GHAZNI",
    "PC_Code": "1109094",
    "District": "RASHIDAN",
    "د_مرکز_نوم__نام_مرکز": "مسجد پائین قریه لاغری",
    "Polling_Center_Name": "Laghari Village Lower Mosque",
    "د_مرکز_ځای__موقعیت_مرکز": "قریه لاغری",
    "Polling_Center_Location": "Laghari Village",
    "Map_Accuracy": "Village",
    "Map_Accuracy_Dari": "قریه",
    "Status": "Open",
    "Status_Dari": null,
    "PS_Male": 2,
    "PS_Female": 1,
    "PS_Total": 3,
    "ولسوالي": "رشیدان",
    "Region": "South Eastern Region"
   },
   "geometry": {
    "x": 7586438.6574249407,
    "y": 3985387.7466708198
   }
  },
  {
   "attributes": {
    "OBJECTID": 1272,
    "ولایت": "غزنى",
    "Province": "GHAZNI",
    "PC_Code": "1110254",
    "District": "NAWUR",
    "د_مرکز_نوم__نام_مرکز": "لیسه شهید غلام حیدر",
    "Polling_Center_Name": "Shaheed Ghulam Haider High School",
    "د_مرکز_ځای__موقعیت_مرکز": "قریه درویش علی وارکلاغ",
    "Polling_Center_Location": "Darwaish Ali War Kolokh",
    "Map_Accuracy": "Building",
    "Map_Accuracy_Dari": "تعمیر",
    "Status": "Open",
    "Status_Dari": null,
    "PS_Male": 4,
    "PS_Female": 1,
    "PS_Total": 5,
    "ولسوالي": "ناور",
    "Region": "South Eastern Region"
   },
   "geometry": {
    "x": 7569315.3653337061,
    "y": 3991172.4745344012
   }
  },
  {
   "attributes": {
    "OBJECTID": 1273,
    "ولایت": "غزنى",
    "Province": "GHAZNI",
    "PC_Code": "1110264",
    "District": "NAWUR",
    "د_مرکز_نوم__نام_مرکز": "لیسه قریه واغ",
    "Polling_Center_Name": "Wagh Village High School",
    "د_مرکز_ځای__موقعیت_مرکز": "قریه واغ ",
    "Polling_Center_Location": "Wagh Village ",
    "Map_Accuracy": "Building",
    "Map_Accuracy_Dari": "تعمیر",
    "Status": "Open",
    "Status_Dari": null,
    "PS_Male": 3,
    "PS_Female": 1,
    "PS_Total": 4,
    "ولسوالي": "ناور",
    "Region": "South Eastern Region"
   },
   "geometry": {
    "x": 7535059.2733535254,
    "y": 3975203.4067658959
   }
  },
  {
   "attributes": {
    "OBJECTID": 1274,
    "ولایت": "غزنى",
    "Province": "GHAZNI",
    "PC_Code": "1110265",
    "District": "NAWUR",
    "د_مرکز_نوم__نام_مرکز": "مکتب قریه قوریه",
    "Polling_Center_Name": "Qoria Village School",
    "د_مرکز_ځای__موقعیت_مرکز": "قریه قوریه ",
    "Polling_Center_Location": "Qoria Village",
    "Map_Accuracy": "Building",
    "Map_Accuracy_Dari": "تعمیر",
    "Status": "Open",
    "Status_Dari": null,
    "PS_Male": 2,
    "PS_Female": 1,
    "PS_Total": 3,
    "ولسوالي": "ناور",
    "Region": "South Eastern Region"
   },
   "geometry": {
    "x": 7537683.7928754296,
    "y": 3958702.9046709235
   }
  },
  {
   "attributes": {
    "OBJECTID": 1275,
    "ولایت": "غزنى",
    "Province": "GHAZNI",
    "PC_Code": "1111152",
    "District": "QARA BAGH",
    "د_مرکز_نوم__نام_مرکز": "مسجد قریه غټ",
    "Polling_Center_Name": "Ghatt Village Mosque",
    "د_مرکز_ځای__موقعیت_مرکز": "مسجد قریه غټ جای آغا صاحب",
    "Polling_Center_Location": "Ghatt Jay-e-Agha Sahib Village",
    "Map_Accuracy": "Village",
    "Map_Accuracy_Dari": "قریه",
    "Status": "Open",
    "Status_Dari": null,
    "PS_Male": 3,
    "PS_Female": 0,
    "PS_Total": 3,
    "ولسوالي": "قره باغ",
    "Region": "South Eastern Region"
   },
   "geometry": {
    "x": 7564221.4744905951,
    "y": 3912439.8765076003
   }
  },
  {
   "attributes": {
    "OBJECTID": 1276,
    "ولایت": "غزنى",
    "Province": "GHAZNI",
    "PC_Code": "1111168",
    "District": "QARA BAGH",
    "د_مرکز_نوم__نام_مرکز": "مسجد وحید علی جنلگ",
    "Polling_Center_Name": "Waheed Ali Janlag Mosque",
    "د_مرکز_ځای__موقعیت_مرکز": "قریه جنګلک",
    "Polling_Center_Location": "Jangalak Village",
    "Map_Accuracy": "Building",
    "Map_Accuracy_Dari": "تعمیر",
    "Status": "Open",
    "Status_Dari": null,
    "PS_Male": 2,
    "PS_Female": 0,
    "PS_Total": 2,
    "ولسوالي": "قره باغ",
    "Region": "South Eastern Region"
   },
   "geometry": {
    "x": 7577369.2258522743,
    "y": 3933935.504073076
   }
  },
  {
   "attributes": {
    "OBJECTID": 1277,
    "ولایت": "غزنى",
    "Province": "GHAZNI",
    "PC_Code": "1111169",
    "District": "QARA BAGH",
    "د_مرکز_نوم__نام_مرکز": "مسجد بلای بلندی",
    "Polling_Center_Name": "Balay-e-Bilandi Mosque",
    "د_مرکز_ځای__موقعیت_مرکز": "قریه جنګلک",
    "Polling_Center_Location": "Jangalak Village",
    "Map_Accuracy": "Building",
    "Map_Accuracy_Dari": "تعمیر",
    "Status": "Open",
    "Status_Dari": null,
    "PS_Male": 0,
    "PS_Female": 2,
    "PS_Total": 2,
    "ولسوالي": "قره باغ",
    "Region": "South Eastern Region"
   },
   "geometry": {
    "x": 7577236.45398241,
    "y": 3933491.053761546
   }
  },
  {
   "attributes": {
    "OBJECTID": 1278,
    "ولایت": "غزنى",
    "Province": "GHAZNI",
    "PC_Code": "1111185",
    "District": "QARA BAGH",
    "د_مرکز_نوم__نام_مرکز": "مکتب  ابو ریحان",
    "Polling_Center_Name": "Abu Raihan School",
    "د_مرکز_ځای__موقعیت_مرکز": "شاکی نوکا",
    "Polling_Center_Location": "Hasina Sarkani",
    "Map_Accuracy": "Village",
    "Map_Accuracy_Dari": "قریه",
    "Status": "Open",
    "Status_Dari": null,
    "PS_Male": 3,
    "PS_Female": 1,
    "PS_Total": 4,
    "ولسوالي": "قره باغ",
    "Region": "South Eastern Region"
   },
   "geometry": {
    "x": 7535729.3704905109,
    "y": 3923939.0012226971
   }
  },
  {
   "attributes": {
    "OBJECTID": 1279,
    "ولایت": "غزنى",
    "Province": "GHAZNI",
    "PC_Code": "1111187",
    "District": "QARA BAGH",
    "د_مرکز_نوم__نام_مرکز": "مسجد ده روضه",
    "Polling_Center_Name": "Deh Rowza Mosque",
    "د_مرکز_ځای__موقعیت_مرکز": "ده روضه",
    "Polling_Center_Location": "Deh Rawza",
    "Map_Accuracy": "Village",
    "Map_Accuracy_Dari": "قریه",
    "Status": "Open",
    "Status_Dari": null,
    "PS_Male": 3,
    "PS_Female": 1,
    "PS_Total": 4,
    "ولسوالي": "قره باغ",
    "Region": "South Eastern Region"
   },
   "geometry": {
    "x": 7583362.037168269,
    "y": 3916685.4113918217
   }
  },
  {
   "attributes": {
    "OBJECTID": 1280,
    "ولایت": "غزنى",
    "Province": "GHAZNI",
    "PC_Code": "1113378",
    "District": "AB BAND",
    "د_مرکز_نوم__نام_مرکز": "هوتل شمس الله",
    "Polling_Center_Name": "Shamsullah Hotel ",
    "د_مرکز_ځای__موقعیت_مرکز": "بازار جدید",
    "Polling_Center_Location": "Bazar Jaded",
    "Map_Accuracy": "Village",
    "Map_Accuracy_Dari": "قریه",
    "Status": "Open",
    "Status_Dari": null,
    "PS_Male": 6,
    "PS_Female": 0,
    "PS_Total": 6,
    "ولسوالي": "آب بند",
    "Region": "South Eastern Region"
   },
   "geometry": {
    "x": 7569159.3343694368,
    "y": 3886738.3444146574
   }
  },
  {
   "attributes": {
    "OBJECTID": 1281,
    "ولایت": "غزنى",
    "Province": "GHAZNI",
    "PC_Code": "1113379",
    "District": "AB BAND",
    "د_مرکز_نوم__نام_مرکز": "مسجد قریه سرفراز ",
    "Polling_Center_Name": "Sarferaz Village Mosque",
    "د_مرکز_ځای__موقعیت_مرکز": "قریه سرفراز ",
    "Polling_Center_Location": "Sarferaz Village",
    "Map_Accuracy": "Village",
    "Map_Accuracy_Dari": "قریه",
    "Status": "Open",
    "Status_Dari": null,
    "PS_Male": 0,
    "PS_Female": 2,
    "PS_Total": 2,
    "ولسوالي": "آب بند",
    "Region": "South Eastern Region"
   },
   "geometry": {
    "x": 7565765.7674849676,
    "y": 3893199.012111838
   }
  },
  {
   "attributes": {
    "OBJECTID": 1282,
    "ولایت": "غزنى",
    "Province": "GHAZNI",
    "PC_Code": "1113381",
    "District": "AB BAND",
    "د_مرکز_نوم__نام_مرکز": "مسجد سدوزی ",
    "Polling_Center_Name": "Sadozai Mosque",
    "د_مرکز_ځای__موقعیت_مرکز": "سدوزی ",
    "Polling_Center_Location": "Sadozai",
    "Map_Accuracy": "Village",
    "Map_Accuracy_Dari": "قریه",
    "Status": "Open",
    "Status_Dari": null,
    "PS_Male": 1,
    "PS_Female": 1,
    "PS_Total": 2,
    "ولسوالي": "آب بند",
    "Region": "South Eastern Region"
   },
   "geometry": {
    "x": 7559478.636340877,
    "y": 3894481.0672395704
   }
  },
  {
   "attributes": {
    "OBJECTID": 1283,
    "ولایت": "غزنى",
    "Province": "GHAZNI",
    "PC_Code": "1113382",
    "District": "AB BAND",
    "د_مرکز_نوم__نام_مرکز": "مسجد بزگی",
    "Polling_Center_Name": "Bazgi Mosque",
    "د_مرکز_ځای__موقعیت_مرکز": "بزگی",
    "Polling_Center_Location": "Bazgi",
    "Map_Accuracy": "Village",
    "Map_Accuracy_Dari": "قریه",
    "Status": "Open",
    "Status_Dari": null,
    "PS_Male": 2,
    "PS_Female": 0,
    "PS_Total": 2,
    "ولسوالي": "آب بند",
    "Region": "South Eastern Region"
   },
   "geometry": {
    "x": 7563235.9140580278,
    "y": 3890468.7979757925
   }
  },
  {
   "attributes": {
    "OBJECTID": 1284,
    "ولایت": "غزنى",
    "Province": "GHAZNI",
    "PC_Code": "1114336",
    "District": "JAGHURI",
    "د_مرکز_نوم__نام_مرکز": "لیسه عالی فیضیه",
    "Polling_Center_Name": "Faizia High School",
    "د_مرکز_ځای__موقعیت_مرکز": "قریه کته سنګ ",
    "Polling_Center_Location": "Kata Sang Village",
    "Map_Accuracy": "Building",
    "Map_Accuracy_Dari": "تعمیر",
    "Status": "Open",
    "Status_Dari": null,
    "PS_Male": 3,
    "PS_Female": 2,
    "PS_Total": 5,
    "ولسوالي": "جاغوری",
    "Region": "South Eastern Region"
   },
   "geometry": {
    "x": 7501288.6545782518,
    "y": 3905650.294792715
   }
  },
  {
   "attributes": {
    "OBJECTID": 1285,
    "ولایت": "غزنى",
    "Province": "GHAZNI",
    "PC_Code": "1114337",
    "District": "JAGHURI",
    "د_مرکز_نوم__نام_مرکز": "لیسه لومان",
    "Polling_Center_Name": "Loman High School",
    "د_مرکز_ځای__موقعیت_مرکز": "قریه لومان ",
    "Polling_Center_Location": "Luman Village",
    "Map_Accuracy": "Building",
    "Map_Accuracy_Dari": "تعمیر",
    "Status": "Open",
    "Status_Dari": null,
    "PS_Male": 2,
    "PS_Female": 2,
    "PS_Total": 4,
    "ولسوالي": "جاغوری",
    "Region": "South Eastern Region"
   },
   "geometry": {
    "x": 7526381.6118043941,
    "y": 3912989.4176931786
   }
  },
  {
   "attributes": {
    "OBJECTID": 1286,
    "ولایت": "غزنى",
    "Province": "GHAZNI",
    "PC_Code": "1115356",
    "District": "MUQUR",
    "د_مرکز_نوم__نام_مرکز": "مکتب نسوان",
    "Polling_Center_Name": "Girls School",
    "د_مرکز_ځای__موقعیت_مرکز": "بازار مقر",
    "Polling_Center_Location": "Muqur Bazar",
    "Map_Accuracy": "Building",
    "Map_Accuracy_Dari": "تعمیر",
    "Status": "Open",
    "Status_Dari": null,
    "PS_Male": 3,
    "PS_Female": 2,
    "PS_Total": 5,
    "ولسوالي": "مقر",
    "Region": "South Eastern Region"
   },
   "geometry": {
    "x": 7543831.6722421004,
    "y": 3871792.5705038235
   }
  },
  {
   "attributes": {
    "OBJECTID": 1287,
    "ولایت": "غزنى",
    "Province": "GHAZNI",
    "PC_Code": "1115357",
    "District": "MUQUR",
    "د_مرکز_نوم__نام_مرکز": "کلینیک ابن سینا",
    "Polling_Center_Name": "Abnisena Clinic",
    "د_مرکز_ځای__موقعیت_مرکز": "بازار مقر",
    "Polling_Center_Location": "Muqur Bazar",
    "Map_Accuracy": "Building",
    "Map_Accuracy_Dari": "تعمیر",
    "Status": "Open",
    "Status_Dari": null,
    "PS_Male": 4,
    "PS_Female": 1,
    "PS_Total": 5,
    "ولسوالي": "مقر",
    "Region": "South Eastern Region"
   },
   "geometry": {
    "x": 7543986.6267468939,
    "y": 3871761.0511837346
   }
  },
  {
   "attributes": {
    "OBJECTID": 1288,
    "ولایت": "غزنى",
    "Province": "GHAZNI",
    "PC_Code": "1115359",
    "District": "MUQUR",
    "د_مرکز_نوم__نام_مرکز": "مسجد چهار قلعه",
    "Polling_Center_Name": "Chahar Qala Mosque",
    "د_مرکز_ځای__موقعیت_مرکز": "قریه چهار قلعه",
    "Polling_Center_Location": "Char Qala",
    "Map_Accuracy": "Village",
    "Map_Accuracy_Dari": "قریه",
    "Status": "Open",
    "Status_Dari": null,
    "PS_Male": 2,
    "PS_Female": 1,
    "PS_Total": 3,
    "ولسوالي": "مقر",
    "Region": "South Eastern Region"
   },
   "geometry": {
    "x": 7544233.7771671601,
    "y": 3870253.81249305
   }
  },
  {
   "attributes": {
    "OBJECTID": 1289,
    "ولایت": "غزنى",
    "Province": "GHAZNI",
    "PC_Code": "1115368",
    "District": "MUQUR",
    "د_مرکز_نوم__نام_مرکز": "مکتب عباس قلعه",
    "Polling_Center_Name": "Abas Qala School",
    "د_مرکز_ځای__موقعیت_مرکز": "قریه عباس قلعه",
    "Polling_Center_Location": "Abas Qala",
    "Map_Accuracy": "Building",
    "Map_Accuracy_Dari": "تعمیر",
    "Status": "Open",
    "Status_Dari": null,
    "PS_Male": 2,
    "PS_Female": 1,
    "PS_Total": 3,
    "ولسوالي": "مقر",
    "Region": "South Eastern Region"
   },
   "geometry": {
    "x": 7547474.7127846032,
    "y": 3866368.9847399034
   }
  },
  {
   "attributes": {
    "OBJECTID": 1290,
    "ولایت": "غزنى",
    "Province": "GHAZNI",
    "PC_Code": "1115369",
    "District": "MUQUR",
    "د_مرکز_نوم__نام_مرکز": "مسجد قریه اختر خیل",
    "Polling_Center_Name": "Akhtar Khel Village Mosque",
    "د_مرکز_ځای__موقعیت_مرکز": "قریه اختر خیل ",
    "Polling_Center_Location": "Akhtar Khel Village ",
    "Map_Accuracy": "Building",
    "Map_Accuracy_Dari": "تعمیر",
    "Status": "Open",
    "Status_Dari": null,
    "PS_Male": 2,
    "PS_Female": 1,
    "PS_Total": 3,
    "ولسوالي": "مقر",
    "Region": "South Eastern Region"
   },
   "geometry": {
    "x": 7542094.7442084979,
    "y": 3869549.6068523764
   }
  },
  {
   "attributes": {
    "OBJECTID": 1291,
    "ولایت": "غزنى",
    "Province": "GHAZNI",
    "PC_Code": "1116296",
    "District": "MALISTAN",
    "د_مرکز_نوم__نام_مرکز": "مسجد قلم مزار بغرا",
    "Polling_Center_Name": "Qalam Mazar Boghra Village Mosque",
    "د_مرکز_ځای__موقعیت_مرکز": "قریه بغرا ",
    "Polling_Center_Location": "Boghra Village ",
    "Map_Accuracy": "Village",
    "Map_Accuracy_Dari": "قریه",
    "Status": "Open",
    "Status_Dari": null,
    "PS_Male": 3,
    "PS_Female": 1,
    "PS_Total": 4,
    "ولسوالي": "مالستان",
    "Region": "South Eastern Region"
   },
   "geometry": {
    "x": 7495389.7946861023,
    "y": 3938153.7344005625
   }
  },
  {
   "attributes": {
    "OBJECTID": 1292,
    "ولایت": "غزنى",
    "Province": "GHAZNI",
    "PC_Code": "1116297",
    "District": "MALISTAN",
    "د_مرکز_نوم__نام_مرکز": "مکتب متوسطه چکتمور",
    "Polling_Center_Name": "Chaktamor Secondary School",
    "د_مرکز_ځای__موقعیت_مرکز": "قریه چکتمور ",
    "Polling_Center_Location": "Chaktamoor Village ",
    "Map_Accuracy": "Building",
    "Map_Accuracy_Dari": "تعمیر",
    "Status": "Open",
    "Status_Dari": null,
    "PS_Male": 2,
    "PS_Female": 1,
    "PS_Total": 3,
    "ولسوالي": "مالستان",
    "Region": "South Eastern Region"
   },
   "geometry": {
    "x": 7454879.3751893751,
    "y": 3897337.796956874
   }
  },
  {
   "attributes": {
    "OBJECTID": 1293,
    "ولایت": "غزنى",
    "Province": "GHAZNI",
    "PC_Code": "1116299",
    "District": "MALISTAN",
    "د_مرکز_نوم__نام_مرکز": "لیسه قریه خارقل داله",
    "Polling_Center_Name": "Khar Qol Dala High School",
    "د_مرکز_ځای__موقعیت_مرکز": "قریه خارقل داله ",
    "Polling_Center_Location": "Khar Qol Dala Village",
    "Map_Accuracy": "Building",
    "Map_Accuracy_Dari": "تعمیر",
    "Status": "Open",
    "Status_Dari": null,
    "PS_Male": 3,
    "PS_Female": 1,
    "PS_Total": 4,
    "ولسوالي": "مالستان",
    "Region": "South Eastern Region"
   },
   "geometry": {
    "x": 7515229.7098195385,
    "y": 3960991.965965692
   }
  },
  {
   "attributes": {
    "OBJECTID": 1294,
    "ولایت": "غزنى",
    "Province": "GHAZNI",
    "PC_Code": "1116301",
    "District": "MALISTAN",
    "د_مرکز_نوم__نام_مرکز": "مسجد میراحمد غیغانتو",
    "Polling_Center_Name": "Mir Ahmad Gheghanto Mosque",
    "د_مرکز_ځای__موقعیت_مرکز": "قریه غیغانتو ",
    "Polling_Center_Location": "Gheghanto Village ",
    "Map_Accuracy": "Building",
    "Map_Accuracy_Dari": "تعمیر",
    "Status": "Open",
    "Status_Dari": null,
    "PS_Male": 2,
    "PS_Female": 1,
    "PS_Total": 3,
    "ولسوالي": "مالستان",
    "Region": "South Eastern Region"
   },
   "geometry": {
    "x": 7498364.4006482158,
    "y": 3933699.1233843747
   }
  },
  {
   "attributes": {
    "OBJECTID": 1295,
    "ولایت": "غزنى",
    "Province": "GHAZNI",
    "PC_Code": "1116302",
    "District": "MALISTAN",
    "د_مرکز_نوم__نام_مرکز": "کلینیک قریه جاکه",
    "Polling_Center_Name": "Jaka Village Clinic",
    "د_مرکز_ځای__موقعیت_مرکز": "قریه جاکه",
    "Polling_Center_Location": "Jaka Village ",
    "Map_Accuracy": "Building",
    "Map_Accuracy_Dari": "تعمیر",
    "Status": "Open",
    "Status_Dari": null,
    "PS_Male": 2,
    "PS_Female": 1,
    "PS_Total": 3,
    "ولسوالي": "مالستان",
    "Region": "South Eastern Region"
   },
   "geometry": {
    "x": 7470054.2088374104,
    "y": 3914310.0478480719
   }
  },
  {
   "attributes": {
    "OBJECTID": 1296,
    "ولایت": "غزنى",
    "Province": "GHAZNI",
    "PC_Code": "1117387",
    "District": "GELAN",
    "د_مرکز_نوم__نام_مرکز": "مسجد قریه آغوجان",
    "Polling_Center_Name": "Agho Jan Village Mosque",
    "د_مرکز_ځای__موقعیت_مرکز": "قریه آغوجان",
    "Polling_Center_Location": "Agho Jan Village",
    "Map_Accuracy": "Building",
    "Map_Accuracy_Dari": "تعمیر",
    "Status": "Open",
    "Status_Dari": null,
    "PS_Male": 4,
    "PS_Female": 1,
    "PS_Total": 5,
    "ولسوالي": "گیلان",
    "Region": "South Eastern Region"
   },
   "geometry": {
    "x": 7525966.5136683714,
    "y": 3861437.3793602353
   }
  },
  {
   "attributes": {
    "OBJECTID": 1297,
    "ولایت": "پکتيکا",
    "Province": "PAKTIKA",
    "PC_Code": "1210158",
    "District": "SURUBI",
    "د_مرکز_نوم__نام_مرکز": "عباس خیل ښوونځی",
    "Polling_Center_Name": "Abas Khel School",
    "د_مرکز_ځای__موقعیت_مرکز": "عباس خیل",
    "Polling_Center_Location": "Abbas Khel",
    "Map_Accuracy": "Village",
    "Map_Accuracy_Dari": "قریه",
    "Status": "Open",
    "Status_Dari": null,
    "PS_Male": 2,
    "PS_Female": 1,
    "PS_Total": 3,
    "ولسوالي": "سروبی",
    "Region": "South Eastern Region"
   },
   "geometry": {
    "x": 7694696.9757672781,
    "y": 3872470.1980196289
   }
  },
  {
   "attributes": {
    "OBJECTID": 1298,
    "ولایت": "پکتيکا",
    "Province": "PAKTIKA",
    "PC_Code": "1211164",
    "District": "URGOON",
    "د_مرکز_نوم__نام_مرکز": "قرخیل نجونو ښوونځی ",
    "Polling_Center_Name": "Qara Khel Girls School",
    "د_مرکز_ځای__موقعیت_مرکز": "قره خیل کلی",
    "Polling_Center_Location": "Qara Khel Village",
    "Map_Accuracy": "Village",
    "Map_Accuracy_Dari": "قریه",
    "Status": "Open",
    "Status_Dari": null,
    "PS_Male": 0,
    "PS_Female": 2,
    "PS_Total": 2,
    "ولسوالي": "اورگون",
    "Region": "South Eastern Region"
   },
   "geometry": {
    "x": 7698644.4762302972,
    "y": 3883257.9745485848
   }
  },
  {
   "attributes": {
    "OBJECTID": 1299,
    "ولایت": "غزنى",
    "Province": "GHAZNI",
    "PC_Code": "1115370",
    "District": "MUQUR",
    "د_مرکز_نوم__نام_مرکز": "مکتب قریه سره زرنده",
    "Polling_Center_Name": "Sra Zranda Village School",
    "د_مرکز_ځای__موقعیت_مرکز": "قریه سره زرنده",
    "Polling_Center_Location": "Sra Zranda Village",
    "Map_Accuracy": "Village",
    "Map_Accuracy_Dari": "قریه",
    "Status": "Open",
    "Status_Dari": null,
    "PS_Male": 1,
    "PS_Female": 2,
    "PS_Total": 3,
    "ولسوالي": "مقر",
    "Region": "South Eastern Region"
   },
   "geometry": {
    "x": 7546894.4142978564,
    "y": 3894187.5970295575
   }
  },
  {
   "attributes": {
    "OBJECTID": 1300,
    "ولایت": "پکتيکا",
    "Province": "PAKTIKA",
    "PC_Code": "1210152",
    "District": "SURUBI",
    "د_مرکز_نوم__نام_مرکز": "مادو میلمستون",
    "Polling_Center_Name": "Mado Guest House",
    "د_مرکز_ځای__موقعیت_مرکز": "ربات",
    "Polling_Center_Location": "Robat",
    "Map_Accuracy": "Village",
    "Map_Accuracy_Dari": "قریه",
    "Status": "Open",
    "Status_Dari": null,
    "PS_Male": 0,
    "PS_Female": 3,
    "PS_Total": 3,
    "ولسوالي": "سروبی",
    "Region": "South Eastern Region"
   },
   "geometry": {
    "x": 7694581.4261358352,
    "y": 3865681.8683881317
   }
  },
  {
   "attributes": {
    "OBJECTID": 1301,
    "ولایت": "پکتيکا",
    "Province": "PAKTIKA",
    "PC_Code": "1210153",
    "District": "SURUBI",
    "د_مرکز_نوم__نام_مرکز": "مستی جومات",
    "Polling_Center_Name": "Masti Mosque",
    "د_مرکز_ځای__موقعیت_مرکز": "مستی",
    "Polling_Center_Location": "Masti",
    "Map_Accuracy": "Village",
    "Map_Accuracy_Dari": "قریه",
    "Status": "Open",
    "Status_Dari": null,
    "PS_Male": 2,
    "PS_Female": 0,
    "PS_Total": 2,
    "ولسوالي": "سروبی",
    "Region": "South Eastern Region"
   },
   "geometry": {
    "x": 7691464.8143520933,
    "y": 3867345.0491156969
   }
  },
  {
   "attributes": {
    "OBJECTID": 1302,
    "ولایت": "غزنى",
    "Province": "GHAZNI",
    "PC_Code": "1101003",
    "District": "GHAZNI",
    "د_مرکز_نوم__نام_مرکز": "ریاست امور زنان",
    "Polling_Center_Name": "Women's Affairs Department",
    "د_مرکز_ځای__موقعیت_مرکز": "مرکز شهر",
    "Polling_Center_Location": "Provincial Center",
    "Map_Accuracy": "Building",
    "Map_Accuracy_Dari": "تعمیر",
    "Status": "Open",
    "Status_Dari": null,
    "PS_Male": 0,
    "PS_Female": 4,
    "PS_Total": 4,
    "ولسوالي": "غزنی",
    "Region": "South Eastern Region"
   },
   "geometry": {
    "x": 7616676.6768377163,
    "y": 3967777.6841172464
   }
  },
  {
   "attributes": {
    "OBJECTID": 1303,
    "ولایت": "وردک",
    "Province": "WARDAK",
    "PC_Code": "0404086",
    "District": "CHAKI WARDAK",
    "د_مرکز_نوم__نام_مرکز": "مکتب محلی",
    "Polling_Center_Name": "Local School",
    "د_مرکز_ځای__موقعیت_مرکز": "بونان",
    "Polling_Center_Location": "Bunan",
    "Map_Accuracy": "Village",
    "Map_Accuracy_Dari": "قریه",
    "Status": "Open",
    "Status_Dari": null,
    "PS_Male": 2,
    "PS_Female": 1,
    "PS_Total": 3,
    "ولسوالي": "چک وردک",
    "Region": "Central Region"
   },
   "geometry": {
    "x": 7625550.4198775142,
    "y": 4029907.9464727882
   }
  },
  {
   "attributes": {
    "OBJECTID": 1304,
    "ولایت": "وردک",
    "Province": "WARDAK",
    "PC_Code": "0408081",
    "District": "JAGHATU",
    "د_مرکز_نوم__نام_مرکز": "خانه شخصی",
    "Polling_Center_Name": "Private House",
    "د_مرکز_ځای__موقعیت_مرکز": "قلعه سلیمان",
    "Polling_Center_Location": "Qala-e-Sulaiman",
    "Map_Accuracy": "Village",
    "Map_Accuracy_Dari": "قریه",
    "Status": "Open",
    "Status_Dari": null,
    "PS_Male": 1,
    "PS_Female": 1,
    "PS_Total": 2,
    "ولسوالي": "جغتو",
    "Region": "South Eastern Region"
   },
   "geometry": {
    "x": 7600194.2655265108,
    "y": 3991461.5763038616
   }
  },
  {
   "attributes": {
    "OBJECTID": 1305,
    "ولایت": "غزنى",
    "Province": "GHAZNI",
    "PC_Code": "1101004",
    "District": "GHAZNI",
    "د_مرکز_نوم__نام_مرکز": "مسجد سید شهدا حیدرآباد",
    "Polling_Center_Name": "Sayed Shuhada Mosque",
    "د_مرکز_ځای__موقعیت_مرکز": "قریه حیدر آباد",
    "Polling_Center_Location": "Haider Abad Village",
    "Map_Accuracy": "Building",
    "Map_Accuracy_Dari": "تعمیر",
    "Status": "Open",
    "Status_Dari": null,
    "PS_Male": 4,
    "PS_Female": 0,
    "PS_Total": 4,
    "ولسوالي": "غزنی",
    "Region": "South Eastern Region"
   },
   "geometry": {
    "x": 7614978.1451228801,
    "y": 3966809.2599234949
   }
  },
  {
   "attributes": {
    "OBJECTID": 1306,
    "ولایت": "غزنى",
    "Province": "GHAZNI",
    "PC_Code": "1101007",
    "District": "GHAZNI",
    "د_مرکز_نوم__نام_مرکز": "مسجد توحید",
    "Polling_Center_Name": "Tawheed Mosque",
    "د_مرکز_ځای__موقعیت_مرکز": "پلان سوم شهر ",
    "Polling_Center_Location": "Plan-e-Sewam Shahar",
    "Map_Accuracy": "Building",
    "Map_Accuracy_Dari": "تعمیر",
    "Status": "Open",
    "Status_Dari": null,
    "PS_Male": 0,
    "PS_Female": 5,
    "PS_Total": 5,
    "ولسوالي": "غزنی",
    "Region": "South Eastern Region"
   },
   "geometry": {
    "x": 7616167.5972215906,
    "y": 3967500.7733198688
   }
  },
  {
   "attributes": {
    "OBJECTID": 1307,
    "ولایت": "غزنى",
    "Province": "GHAZNI",
    "PC_Code": "1101008",
    "District": "GHAZNI",
    "د_مرکز_نوم__نام_مرکز": "لیسه سید احمد مکیی",
    "Polling_Center_Name": "Sayed Ahmad Maki High School",
    "د_مرکز_ځای__موقعیت_مرکز": "اده قرباغ",
    "Polling_Center_Location": "Adah Qara Bagh",
    "Map_Accuracy": "Building",
    "Map_Accuracy_Dari": "تعمیر",
    "Status": "Open",
    "Status_Dari": null,
    "PS_Male": 5,
    "PS_Female": 0,
    "PS_Total": 5,
    "ولسوالي": "غزنی",
    "Region": "South Eastern Region"
   },
   "geometry": {
    "x": 7616529.3243409488,
    "y": 3968316.3855263651
   }
  },
  {
   "attributes": {
    "OBJECTID": 1308,
    "ولایت": "غزنى",
    "Province": "GHAZNI",
    "PC_Code": "1101013",
    "District": "GHAZNI",
    "د_مرکز_نوم__نام_مرکز": "مسجد جامع شامیر",
    "Polling_Center_Name": "Shah Meer Mosque",
    "د_مرکز_ځای__موقعیت_مرکز": "ناحیه دوم",
    "Polling_Center_Location": "Nahia 2",
    "Map_Accuracy": "Building",
    "Map_Accuracy_Dari": "تعمیر",
    "Status": "Open",
    "Status_Dari": null,
    "PS_Male": 4,
    "PS_Female": 0,
    "PS_Total": 4,
    "ولسوالي": "غزنی",
    "Region": "South Eastern Region"
   },
   "geometry": {
    "x": 7617470.3592035901,
    "y": 3968294.0754286232
   }
  },
  {
   "attributes": {
    "OBJECTID": 1309,
    "ولایت": "غزنى",
    "Province": "GHAZNI",
    "PC_Code": "1101014",
    "District": "GHAZNI",
    "د_مرکز_نوم__نام_مرکز": "لیسه ملکه جهان",
    "Polling_Center_Name": "Malika Jahan High School",
    "د_مرکز_ځای__موقعیت_مرکز": "ساحه شامیر",
    "Polling_Center_Location": "Saha-e-Shamer ",
    "Map_Accuracy": "Building",
    "Map_Accuracy_Dari": "تعمیر",
    "Status": "Open",
    "Status_Dari": null,
    "PS_Male": 0,
    "PS_Female": 6,
    "PS_Total": 6,
    "ولسوالي": "غزنی",
    "Region": "South Eastern Region"
   },
   "geometry": {
    "x": 7617181.5519166738,
    "y": 3968649.8533646781
   }
  },
  {
   "attributes": {
    "OBJECTID": 1310,
    "ولایت": "غزنى",
    "Province": "GHAZNI",
    "PC_Code": "1101024",
    "District": "GHAZNI",
    "د_مرکز_نوم__نام_مرکز": "مکتب البرونی",
    "Polling_Center_Name": "Alberoni School",
    "د_مرکز_ځای__موقعیت_مرکز": "قریه نوآباد",
    "Polling_Center_Location": "Nawabad Village",
    "Map_Accuracy": "Building",
    "Map_Accuracy_Dari": "تعمیر",
    "Status": "Open",
    "Status_Dari": null,
    "PS_Male": 5,
    "PS_Female": 2,
    "PS_Total": 7,
    "ولسوالي": "غزنی",
    "Region": "South Eastern Region"
   },
   "geometry": {
    "x": 7614921.8575355522,
    "y": 3973119.4423040864
   }
  },
  {
   "attributes": {
    "OBJECTID": 1311,
    "ولایت": "غزنى",
    "Province": "GHAZNI",
    "PC_Code": "1101025",
    "District": "GHAZNI",
    "د_مرکز_نوم__نام_مرکز": "مسجد سرور کائینات",
    "Polling_Center_Name": "Sarwar-e-Kaenat Mosque",
    "د_مرکز_ځای__موقعیت_مرکز": "قریه نوآباد",
    "Polling_Center_Location": "Nawabad Village",
    "Map_Accuracy": "Building",
    "Map_Accuracy_Dari": "تعمیر",
    "Status": "Open",
    "Status_Dari": null,
    "PS_Male": 6,
    "PS_Female": 0,
    "PS_Total": 6,
    "ولسوالي": "غزنی",
    "Region": "South Eastern Region"
   },
   "geometry": {
    "x": 7614163.4901649393,
    "y": 3973560.2988399626
   }
  },
  {
   "attributes": {
    "OBJECTID": 1312,
    "ولایت": "غزنى",
    "Province": "GHAZNI",
    "PC_Code": "1101034",
    "District": "GHAZNI",
    "د_مرکز_نوم__نام_مرکز": "مسجد قلعه قاضی",
    "Polling_Center_Name": "Qala-e-Qazi Mosque",
    "د_مرکز_ځای__موقعیت_مرکز": " قلعه قاضی",
    "Polling_Center_Location": "Qala-e-Qazi",
    "Map_Accuracy": "Village",
    "Map_Accuracy_Dari": "قریه",
    "Status": "Open",
    "Status_Dari": null,
    "PS_Male": 8,
    "PS_Female": 1,
    "PS_Total": 9,
    "ولسوالي": "غزنی",
    "Region": "South Eastern Region"
   },
   "geometry": {
    "x": 7613744.0338708507,
    "y": 3969408.5845334698
   }
  },
  {
   "attributes": {
    "OBJECTID": 1313,
    "ولایت": "غزنى",
    "Province": "GHAZNI",
    "PC_Code": "1101035",
    "District": "GHAZNI",
    "د_مرکز_نوم__نام_مرکز": "لیسه قلعه شهاده",
    "Polling_Center_Name": "Qala-e-Shahada High School",
    "د_مرکز_ځای__موقعیت_مرکز": "قلعه شهاده ",
    "Polling_Center_Location": "Qala-e-Shahada",
    "Map_Accuracy": "Building",
    "Map_Accuracy_Dari": "تعمیر",
    "Status": "Open",
    "Status_Dari": null,
    "PS_Male": 9,
    "PS_Female": 2,
    "PS_Total": 11,
    "ولسوالي": "غزنی",
    "Region": "South Eastern Region"
   },
   "geometry": {
    "x": 7614502.6940117283,
    "y": 3975022.4470105805
   }
  },
  {
   "attributes": {
    "OBJECTID": 1314,
    "ولایت": "غزنى",
    "Province": "GHAZNI",
    "PC_Code": "1101055",
    "District": "GHAZNI",
    "د_مرکز_نوم__نام_مرکز": "مسجد قلعه جوز",
    "Polling_Center_Name": "Qala-e-Jowz Mosque",
    "د_مرکز_ځای__موقعیت_مرکز": "قریه قلعه جوز",
    "Polling_Center_Location": "Qala-e-Jowz ",
    "Map_Accuracy": "Building",
    "Map_Accuracy_Dari": "تعمیر",
    "Status": "Open",
    "Status_Dari": null,
    "PS_Male": 1,
    "PS_Female": 2,
    "PS_Total": 3,
    "ولسوالي": "غزنی",
    "Region": "South Eastern Region"
   },
   "geometry": {
    "x": 7623964.5178838782,
    "y": 3967370.8441184903
   }
  },
  {
   "attributes": {
    "OBJECTID": 1315,
    "ولایت": "غزنى",
    "Province": "GHAZNI",
    "PC_Code": "1101056",
    "District": "GHAZNI",
    "د_مرکز_نوم__نام_مرکز": "مهمان خانه محمد نور",
    "Polling_Center_Name": "Mohammad Noor Guest House ",
    "د_مرکز_ځای__موقعیت_مرکز": "مرکز شهر",
    "Polling_Center_Location": "Markaz-e-Shahar",
    "Map_Accuracy": "Village",
    "Map_Accuracy_Dari": "قریه",
    "Status": "Open",
    "Status_Dari": null,
    "PS_Male": 1,
    "PS_Female": 2,
    "PS_Total": 3,
    "ولسوالي": "غزنی",
    "Region": "South Eastern Region"
   },
   "geometry": {
    "x": 7616963.7631253051,
    "y": 3968971.9807853526
   }
  },
  {
   "attributes": {
    "OBJECTID": 1316,
    "ولایت": "غزنى",
    "Province": "GHAZNI",
    "PC_Code": "1107236",
    "District": "ANDAR",
    "د_مرکز_نوم__نام_مرکز": "مسجد نو قریه خانی قلعه",
    "Polling_Center_Name": "Khani Qala New Mosque",
    "د_مرکز_ځای__موقعیت_مرکز": "قریه خانی قلعه ",
    "Polling_Center_Location": "Khani Qala",
    "Map_Accuracy": "Village",
    "Map_Accuracy_Dari": "قریه",
    "Status": "Open",
    "Status_Dari": null,
    "PS_Male": 0,
    "PS_Female": 3,
    "PS_Total": 3,
    "ولسوالي": "اندر",
    "Region": "South Eastern Region"
   },
   "geometry": {
    "x": 7627009.1438057013,
    "y": 3939158.3126330427
   }
  },
  {
   "attributes": {
    "OBJECTID": 1317,
    "ولایت": "غزنى",
    "Province": "GHAZNI",
    "PC_Code": "1107237",
    "District": "ANDAR",
    "د_مرکز_نوم__نام_مرکز": "مسجد قریه سرفراز",
    "Polling_Center_Name": "Sarferaz Village Mosque",
    "د_مرکز_ځای__موقعیت_مرکز": "قلعه سرفراز ",
    "Polling_Center_Location": "Qala-e-Sarferaz",
    "Map_Accuracy": "Building",
    "Map_Accuracy_Dari": "تعمیر",
    "Status": "Open",
    "Status_Dari": null,
    "PS_Male": 2,
    "PS_Female": 0,
    "PS_Total": 2,
    "ولسوالي": "اندر",
    "Region": "South Eastern Region"
   },
   "geometry": {
    "x": 7626029.7805291852,
    "y": 3940998.1635844572
   }
  },
  {
   "attributes": {
    "OBJECTID": 1318,
    "ولایت": "غزنى",
    "Province": "GHAZNI",
    "PC_Code": "1107240",
    "District": "ANDAR",
    "د_مرکز_نوم__نام_مرکز": "مکتب قریه کنسف",
    "Polling_Center_Name": "Kanasf Village School",
    "د_مرکز_ځای__موقعیت_مرکز": "قریه کنسف ",
    "Polling_Center_Location": "Kanasf Village",
    "Map_Accuracy": "Building",
    "Map_Accuracy_Dari": "تعمیر",
    "Status": "Open",
    "Status_Dari": null,
    "PS_Male": 0,
    "PS_Female": 2,
    "PS_Total": 2,
    "ولسوالي": "اندر",
    "Region": "South Eastern Region"
   },
   "geometry": {
    "x": 7613875.5389249092,
    "y": 3928617.496530721
   }
  },
  {
   "attributes": {
    "OBJECTID": 1319,
    "ولایت": "غزنى",
    "Province": "GHAZNI",
    "PC_Code": "1107241",
    "District": "ANDAR",
    "د_مرکز_نوم__نام_مرکز": "مسجد قریه شمشی",
    "Polling_Center_Name": "Shamshi Village Mosque",
    "د_مرکز_ځای__موقعیت_مرکز": "قریه شمشی ",
    "Polling_Center_Location": "Shamshai Village",
    "Map_Accuracy": "Village",
    "Map_Accuracy_Dari": "قریه",
    "Status": "Open",
    "Status_Dari": null,
    "PS_Male": 3,
    "PS_Female": 0,
    "PS_Total": 3,
    "ولسوالي": "اندر",
    "Region": "South Eastern Region"
   },
   "geometry": {
    "x": 7628905.0761471717,
    "y": 3942523.2374145393
   }
  },
  {
   "attributes": {
    "OBJECTID": 1320,
    "ولایت": "غزنى",
    "Province": "GHAZNI",
    "PC_Code": "1107246",
    "District": "ANDAR",
    "د_مرکز_نوم__نام_مرکز": "مسجد چینه سرده",
    "Polling_Center_Name": "Chini Sardah Mosque",
    "د_مرکز_ځای__موقعیت_مرکز": "قریه سرده ",
    "Polling_Center_Location": "Sardah Village ",
    "Map_Accuracy": "Building",
    "Map_Accuracy_Dari": "تعمیر",
    "Status": "Open",
    "Status_Dari": null,
    "PS_Male": 0,
    "PS_Female": 3,
    "PS_Total": 3,
    "ولسوالي": "اندر",
    "Region": "South Eastern Region"
   },
   "geometry": {
    "x": 7634623.5227669831,
    "y": 3932042.7543416652
   }
  },
  {
   "attributes": {
    "OBJECTID": 1321,
    "ولایت": "غزنى",
    "Province": "GHAZNI",
    "PC_Code": "1107247",
    "District": "ANDAR",
    "د_مرکز_نوم__نام_مرکز": "مکتب حضرت بلال قریه نرمی",
    "Polling_Center_Name": "Hazrat-e-Bilal School",
    "د_مرکز_ځای__موقعیت_مرکز": "قریه نرمی",
    "Polling_Center_Location": "Narmi Village ",
    "Map_Accuracy": "Building",
    "Map_Accuracy_Dari": "تعمیر",
    "Status": "Open",
    "Status_Dari": null,
    "PS_Male": 3,
    "PS_Female": 0,
    "PS_Total": 3,
    "ولسوالي": "اندر",
    "Region": "South Eastern Region"
   },
   "geometry": {
    "x": 7614509.8039875999,
    "y": 3938346.807910983
   }
  },
  {
   "attributes": {
    "OBJECTID": 1322,
    "ولایت": "غزنى",
    "Province": "GHAZNI",
    "PC_Code": "1109087",
    "District": "RASHIDAN",
    "د_مرکز_نوم__نام_مرکز": "دفتر ولسوالی کمشنر",
    "Polling_Center_Name": "District Commissioner Office",
    "د_مرکز_ځای__موقعیت_مرکز": "حسین خیل",
    "Polling_Center_Location": "Hussain Khel",
    "Map_Accuracy": "Village",
    "Map_Accuracy_Dari": "قریه",
    "Status": "Open",
    "Status_Dari": null,
    "PS_Male": 4,
    "PS_Female": 0,
    "PS_Total": 4,
    "ولسوالي": "رشیدان",
    "Region": "South Eastern Region"
   },
   "geometry": {
    "x": 7593515.30758595,
    "y": 3989223.1149048028
   }
  },
  {
   "attributes": {
    "OBJECTID": 1323,
    "ولایت": "غزنى",
    "Province": "GHAZNI",
    "PC_Code": "1110259",
    "District": "NAWUR",
    "د_مرکز_نوم__نام_مرکز": "مدرسه امام باقیر",
    "Polling_Center_Name": "Imam-e- Baqir Madrass",
    "د_مرکز_ځای__موقعیت_مرکز": "قریه کته قلعه ",
    "Polling_Center_Location": "Kata Qala",
    "Map_Accuracy": "Building",
    "Map_Accuracy_Dari": "تعمیر",
    "Status": "Open",
    "Status_Dari": null,
    "PS_Male": 1,
    "PS_Female": 1,
    "PS_Total": 2,
    "ولسوالي": "ناور",
    "Region": "South Eastern Region"
   },
   "geometry": {
    "x": 7568719.9808295593,
    "y": 4043881.4253903907
   }
  },
  {
   "attributes": {
    "OBJECTID": 1324,
    "ولایت": "غزنى",
    "Province": "GHAZNI",
    "PC_Code": "1110260",
    "District": "NAWUR",
    "د_مرکز_نوم__نام_مرکز": "مکتب ابتدائیه تورغه",
    "Polling_Center_Name": "Torgha Primary School",
    "د_مرکز_ځای__موقعیت_مرکز": "قریه تورغه ",
    "Polling_Center_Location": "Torgha Village",
    "Map_Accuracy": "Building",
    "Map_Accuracy_Dari": "تعمیر",
    "Status": "Open",
    "Status_Dari": null,
    "PS_Male": 2,
    "PS_Female": 1,
    "PS_Total": 3,
    "ولسوالي": "ناور",
    "Region": "South Eastern Region"
   },
   "geometry": {
    "x": 7575836.8050816031,
    "y": 4035094.5860673962
   }
  },
  {
   "attributes": {
    "OBJECTID": 1325,
    "ولایت": "غزنى",
    "Province": "GHAZNI",
    "PC_Code": "1110270",
    "District": "NAWUR",
    "د_مرکز_نوم__نام_مرکز": "مسجد قریه میان قول",
    "Polling_Center_Name": "Mianqol Village Mosque",
    "د_مرکز_ځای__موقعیت_مرکز": "قریه میان قول ",
    "Polling_Center_Location": "Mianqol Village ",
    "Map_Accuracy": "Village",
    "Map_Accuracy_Dari": "قریه",
    "Status": "Open",
    "Status_Dari": null,
    "PS_Male": 1,
    "PS_Female": 1,
    "PS_Total": 2,
    "ولسوالي": "ناور",
    "Region": "South Eastern Region"
   },
   "geometry": {
    "x": 7500046.5850958256,
    "y": 4040235.802437257
   }
  },
  {
   "attributes": {
    "OBJECTID": 1326,
    "ولایت": "غزنى",
    "Province": "GHAZNI",
    "PC_Code": "1110271",
    "District": "NAWUR",
    "د_مرکز_نوم__نام_مرکز": "لیسه سکه ناور",
    "Polling_Center_Name": "Seka Nawer High School",
    "د_مرکز_ځای__موقعیت_مرکز": "بند آبدره شابیردی ",
    "Polling_Center_Location": "Band-e-Aabdara Shaberdi",
    "Map_Accuracy": "Building",
    "Map_Accuracy_Dari": "تعمیر",
    "Status": "Open",
    "Status_Dari": null,
    "PS_Male": 2,
    "PS_Female": 1,
    "PS_Total": 3,
    "ولسوالي": "ناور",
    "Region": "South Eastern Region"
   },
   "geometry": {
    "x": 7523518.2039948255,
    "y": 4041102.341554509
   }
  },
  {
   "attributes": {
    "OBJECTID": 1327,
    "ولایت": "غزنى",
    "Province": "GHAZNI",
    "PC_Code": "1111135",
    "District": "QARA BAGH",
    "د_مرکز_نوم__نام_مرکز": "مسجد قریه پناګیر",
    "Polling_Center_Name": "Pana Geer Village Mosque",
    "د_مرکز_ځای__موقعیت_مرکز": "قریه پنا ګیر",
    "Polling_Center_Location": "Pangeer Village",
    "Map_Accuracy": "Village",
    "Map_Accuracy_Dari": "قریه",
    "Status": "Open",
    "Status_Dari": null,
    "PS_Male": 0,
    "PS_Female": 4,
    "PS_Total": 4,
    "ولسوالي": "قره باغ",
    "Region": "South Eastern Region"
   },
   "geometry": {
    "x": 7575403.7689228291,
    "y": 3921420.177185351
   }
  },
  {
   "attributes": {
    "OBJECTID": 1328,
    "ولایت": "غزنى",
    "Province": "GHAZNI",
    "PC_Code": "1111146",
    "District": "QARA BAGH",
    "د_مرکز_نوم__نام_مرکز": "کلینیک عسکر کوت",
    "Polling_Center_Name": "Askar Kot Clinic",
    "د_مرکز_ځای__موقعیت_مرکز": "بازار عسکر کوټ",
    "Polling_Center_Location": "Askarkot Bazar",
    "Map_Accuracy": "Building",
    "Map_Accuracy_Dari": "تعمیر",
    "Status": "Open",
    "Status_Dari": null,
    "PS_Male": 4,
    "PS_Female": 0,
    "PS_Total": 4,
    "ولسوالي": "قره باغ",
    "Region": "South Eastern Region"
   },
   "geometry": {
    "x": 7574481.5114318943,
    "y": 3910085.8650390087
   }
  },
  {
   "attributes": {
    "OBJECTID": 1329,
    "ولایت": "غزنى",
    "Province": "GHAZNI",
    "PC_Code": "1111147",
    "District": "QARA BAGH",
    "د_مرکز_نوم__نام_مرکز": "مسجد بازاز عسکر کوټ",
    "Polling_Center_Name": "Askar Kot Bazar Mosque",
    "د_مرکز_ځای__موقعیت_مرکز": "بازار عسکر کوټ",
    "Polling_Center_Location": "Askarkot Bazar",
    "Map_Accuracy": "Building",
    "Map_Accuracy_Dari": "تعمیر",
    "Status": "Open",
    "Status_Dari": null,
    "PS_Male": 0,
    "PS_Female": 3,
    "PS_Total": 3,
    "ولسوالي": "قره باغ",
    "Region": "South Eastern Region"
   },
   "geometry": {
    "x": 7574446.0172122577,
    "y": 3910161.7611589725
   }
  },
  {
   "attributes": {
    "OBJECTID": 1330,
    "ولایت": "غزنى",
    "Province": "GHAZNI",
    "PC_Code": "1111163",
    "District": "QARA BAGH",
    "د_مرکز_نوم__نام_مرکز": "مسجد داوود خیل",
    "Polling_Center_Name": "Dawood Khel Mosque",
    "د_مرکز_ځای__موقعیت_مرکز": "قریه موشکی",
    "Polling_Center_Location": "Moshaki Village",
    "Map_Accuracy": "Building",
    "Map_Accuracy_Dari": "تعمیر",
    "Status": "Open",
    "Status_Dari": null,
    "PS_Male": 0,
    "PS_Female": 2,
    "PS_Total": 2,
    "ولسوالي": "قره باغ",
    "Region": "South Eastern Region"
   },
   "geometry": {
    "x": 7590710.14769994,
    "y": 3925802.6597810369
   }
  },
  {
   "attributes": {
    "OBJECTID": 1331,
    "ولایت": "غزنى",
    "Province": "GHAZNI",
    "PC_Code": "1111174",
    "District": "QARA BAGH",
    "د_مرکز_نوم__نام_مرکز": "مسجد گودول",
    "Polling_Center_Name": "Godol Mosque",
    "د_مرکز_ځای__موقعیت_مرکز": "قریه نیخته",
    "Polling_Center_Location": "Nekhta Village",
    "Map_Accuracy": "Building",
    "Map_Accuracy_Dari": "تعمیر",
    "Status": "Open",
    "Status_Dari": null,
    "PS_Male": 3,
    "PS_Female": 0,
    "PS_Total": 3,
    "ولسوالي": "قره باغ",
    "Region": "South Eastern Region"
   },
   "geometry": {
    "x": 7571450.5566567359,
    "y": 3939425.9657809078
   }
  },
  {
   "attributes": {
    "OBJECTID": 1332,
    "ولایت": "غزنى",
    "Province": "GHAZNI",
    "PC_Code": "1111175",
    "District": "QARA BAGH",
    "د_مرکز_نوم__نام_مرکز": "مسجد حبیب",
    "Polling_Center_Name": "Habib Mosque",
    "د_مرکز_ځای__موقعیت_مرکز": "قریه نیخته",
    "Polling_Center_Location": "Nekhta Village",
    "Map_Accuracy": "Village",
    "Map_Accuracy_Dari": "قریه",
    "Status": "Open",
    "Status_Dari": null,
    "PS_Male": 0,
    "PS_Female": 2,
    "PS_Total": 2,
    "ولسوالي": "قره باغ",
    "Region": "South Eastern Region"
   },
   "geometry": {
    "x": 7571746.9358954178,
    "y": 3939346.9914189433
   }
  },
  {
   "attributes": {
    "OBJECTID": 1333,
    "ولایت": "غزنى",
    "Province": "GHAZNI",
    "PC_Code": "1111195",
    "District": "QARA BAGH",
    "د_مرکز_نوم__نام_مرکز": "مسجد سید عالم دفتانی گوډول",
    "Polling_Center_Name": "Sayed Aalam Daftani Godol Mosque",
    "د_مرکز_ځای__موقعیت_مرکز": "قریه ګوډول بازار",
    "Polling_Center_Location": "Qodol Bazar Village",
    "Map_Accuracy": "Village",
    "Map_Accuracy_Dari": "قریه",
    "Status": "Open",
    "Status_Dari": null,
    "PS_Male": 0,
    "PS_Female": 2,
    "PS_Total": 2,
    "ولسوالي": "قره باغ",
    "Region": "South Eastern Region"
   },
   "geometry": {
    "x": 7567139.3876624424,
    "y": 3946621.5312439292
   }
  },
  {
   "attributes": {
    "OBJECTID": 1334,
    "ولایت": "غزنى",
    "Province": "GHAZNI",
    "PC_Code": "1112196",
    "District": "GIRO",
    "د_مرکز_نوم__نام_مرکز": "لیسه شهید حبیب الله خادم",
    "Polling_Center_Name": "Shaheed Habibullah Khadim High School",
    "د_مرکز_ځای__موقعیت_مرکز": "قریه پنه مرکز ولسوالی",
    "Polling_Center_Location": "Pune Village, District Center",
    "Map_Accuracy": "Building",
    "Map_Accuracy_Dari": "تعمیر",
    "Status": "Open",
    "Status_Dari": null,
    "PS_Male": 3,
    "PS_Female": 2,
    "PS_Total": 5,
    "ولسوالي": "گیرو",
    "Region": "South Eastern Region"
   },
   "geometry": {
    "x": 7604411.8716019914,
    "y": 3908668.9002237841
   }
  },
  {
   "attributes": {
    "OBJECTID": 1335,
    "ولایت": "غزنى",
    "Province": "GHAZNI",
    "PC_Code": "1114322",
    "District": "JAGHURI",
    "د_مرکز_نوم__نام_مرکز": "لیسه عالی قریه المیتو",
    "Polling_Center_Name": "Almayto Village High School",
    "د_مرکز_ځای__موقعیت_مرکز": "قریه المیتو",
    "Polling_Center_Location": "Almetoo Village ",
    "Map_Accuracy": "Building",
    "Map_Accuracy_Dari": "تعمیر",
    "Status": "Open",
    "Status_Dari": null,
    "PS_Male": 4,
    "PS_Female": 3,
    "PS_Total": 7,
    "ولسوالي": "جاغوری",
    "Region": "South Eastern Region"
   },
   "geometry": {
    "x": 7498853.497302548,
    "y": 3925609.1211248343
   }
  },
  {
   "attributes": {
    "OBJECTID": 1336,
    "ولایت": "غزنى",
    "Province": "GHAZNI",
    "PC_Code": "1114323",
    "District": "JAGHURI",
    "د_مرکز_نوم__نام_مرکز": "لیسه انگوری",
    "Polling_Center_Name": "Angoori High School",
    "د_مرکز_ځای__موقعیت_مرکز": "قریه انګوری ",
    "Polling_Center_Location": "Angori Village ",
    "Map_Accuracy": "Building",
    "Map_Accuracy_Dari": "تعمیر",
    "Status": "Open",
    "Status_Dari": null,
    "PS_Male": 3,
    "PS_Female": 2,
    "PS_Total": 5,
    "ولسوالي": "جاغوری",
    "Region": "South Eastern Region"
   },
   "geometry": {
    "x": 7517516.7197773056,
    "y": 3889281.3682062645
   }
  },
  {
   "attributes": {
    "OBJECTID": 1337,
    "ولایت": "غزنى",
    "Province": "GHAZNI",
    "PC_Code": "1114331",
    "District": "JAGHURI",
    "د_مرکز_نوم__نام_مرکز": "مکتب ابتدائیه غوغه",
    "Polling_Center_Name": "Ghawgha Primary School",
    "د_مرکز_ځای__موقعیت_مرکز": "قریه غوغه",
    "Polling_Center_Location": "Ghowgha Village",
    "Map_Accuracy": "Village",
    "Map_Accuracy_Dari": "قریه",
    "Status": "Open",
    "Status_Dari": null,
    "PS_Male": 1,
    "PS_Female": 1,
    "PS_Total": 2,
    "ولسوالي": "جاغوری",
    "Region": "South Eastern Region"
   },
   "geometry": {
    "x": 7479323.6525919633,
    "y": 3899628.6905236873
   }
  },
  {
   "attributes": {
    "OBJECTID": 1338,
    "ولایت": "غزنى",
    "Province": "GHAZNI",
    "PC_Code": "1114332",
    "District": "JAGHURI",
    "د_مرکز_نوم__نام_مرکز": "دارالمعلمین غجور",
    "Polling_Center_Name": "Ghajour Teacher Training School",
    "د_مرکز_ځای__موقعیت_مرکز": "قریه غجور",
    "Polling_Center_Location": "Ghajour Village",
    "Map_Accuracy": "Building",
    "Map_Accuracy_Dari": "تعمیر",
    "Status": "Open",
    "Status_Dari": null,
    "PS_Male": 3,
    "PS_Female": 2,
    "PS_Total": 5,
    "ولسوالي": "جاغوری",
    "Region": "South Eastern Region"
   },
   "geometry": {
    "x": 7518317.3718565023,
    "y": 3915256.5402391767
   }
  },
  {
   "attributes": {
    "OBJECTID": 1339,
    "ولایت": "غزنى",
    "Province": "GHAZNI",
    "PC_Code": "1114342",
    "District": "JAGHURI",
    "د_مرکز_نوم__نام_مرکز": "لیسه نسوان شهدا",
    "Polling_Center_Name": "Shuhada Girls High School",
    "د_مرکز_ځای__موقعیت_مرکز": "بازار سنګ ماشه",
    "Polling_Center_Location": "Sang-e-Masha Bazar",
    "Map_Accuracy": "Building",
    "Map_Accuracy_Dari": "تعمیر",
    "Status": "Open",
    "Status_Dari": null,
    "PS_Male": 6,
    "PS_Female": 6,
    "PS_Total": 12,
    "ولسوالي": "جاغوری",
    "Region": "South Eastern Region"
   },
   "geometry": {
    "x": 7508187.991714742,
    "y": 3913751.7965215375
   }
  },
  {
   "attributes": {
    "OBJECTID": 1340,
    "ولایت": "غزنى",
    "Province": "GHAZNI",
    "PC_Code": "1114343",
    "District": "JAGHURI",
    "د_مرکز_نوم__نام_مرکز": "لیسه عالی هدایت",
    "Polling_Center_Name": "Hedayat High School",
    "د_مرکز_ځای__موقعیت_مرکز": "قریه سنګ شانده",
    "Polling_Center_Location": "Sang-e-Shande Village",
    "Map_Accuracy": "Building",
    "Map_Accuracy_Dari": "تعمیر",
    "Status": "Open",
    "Status_Dari": null,
    "PS_Male": 2,
    "PS_Female": 2,
    "PS_Total": 4,
    "ولسوالي": "جاغوری",
    "Region": "South Eastern Region"
   },
   "geometry": {
    "x": 7513750.3149751034,
    "y": 3900083.5571629032
   }
  },
  {
   "attributes": {
    "OBJECTID": 1341,
    "ولایت": "غزنى",
    "Province": "GHAZNI",
    "PC_Code": "1114351",
    "District": "JAGHURI",
    "د_مرکز_نوم__نام_مرکز": "لیسه الیاتو تورمی",
    "Polling_Center_Name": "Ulyatoo Toormi High School",
    "د_مرکز_ځای__موقعیت_مرکز": "قریه الیاتو تورمی",
    "Polling_Center_Location": "Ulyato Toormi Village",
    "Map_Accuracy": "Building",
    "Map_Accuracy_Dari": "تعمیر",
    "Status": "Open",
    "Status_Dari": null,
    "PS_Male": 2,
    "PS_Female": 1,
    "PS_Total": 3,
    "ولسوالي": "جاغوری",
    "Region": "South Eastern Region"
   },
   "geometry": {
    "x": 7526403.2100119963,
    "y": 3934646.6340955761
   }
  },
  {
   "attributes": {
    "OBJECTID": 1342,
    "ولایت": "غزنى",
    "Province": "GHAZNI",
    "PC_Code": "1114352",
    "District": "JAGHURI",
    "د_مرکز_نوم__نام_مرکز": "مکتب صاحلی زیرک",
    "Polling_Center_Name": "Sahili Zirak School",
    "د_مرکز_ځای__موقعیت_مرکز": "قریه زیرک ",
    "Polling_Center_Location": "Zirak Village",
    "Map_Accuracy": "Building",
    "Map_Accuracy_Dari": "تعمیر",
    "Status": "Open",
    "Status_Dari": null,
    "PS_Male": 2,
    "PS_Female": 1,
    "PS_Total": 3,
    "ولسوالي": "جاغوری",
    "Region": "South Eastern Region"
   },
   "geometry": {
    "x": 7528748.4511954049,
    "y": 3902217.1831928645
   }
  },
  {
   "attributes": {
    "OBJECTID": 1343,
    "ولایت": "غزنى",
    "Province": "GHAZNI",
    "PC_Code": "1116307",
    "District": "MALISTAN",
    "د_مرکز_نوم__نام_مرکز": "مکتب ابتدائیه خاکریزک",
    "Polling_Center_Name": "Khakrezak Primary School",
    "د_مرکز_ځای__موقعیت_مرکز": "قریه نوده ",
    "Polling_Center_Location": "Naw Deh Village",
    "Map_Accuracy": "Building",
    "Map_Accuracy_Dari": "تعمیر",
    "Status": "Open",
    "Status_Dari": null,
    "PS_Male": 2,
    "PS_Female": 1,
    "PS_Total": 3,
    "ولسوالي": "مالستان",
    "Region": "South Eastern Region"
   },
   "geometry": {
    "x": 7498982.8750411412,
    "y": 3947573.9122653264
   }
  },
  {
   "attributes": {
    "OBJECTID": 1344,
    "ولایت": "غزنى",
    "Province": "GHAZNI",
    "PC_Code": "1116308",
    "District": "MALISTAN",
    "د_مرکز_نوم__نام_مرکز": "مکتب متوسطه کندلی",
    "Polling_Center_Name": "Kandali Secondary School",
    "د_مرکز_ځای__موقعیت_مرکز": "قریه کندلی ",
    "Polling_Center_Location": "Kandali Village",
    "Map_Accuracy": "Building",
    "Map_Accuracy_Dari": "تعمیر",
    "Status": "Open",
    "Status_Dari": null,
    "PS_Male": 1,
    "PS_Female": 1,
    "PS_Total": 2,
    "ولسوالي": "مالستان",
    "Region": "South Eastern Region"
   },
   "geometry": {
    "x": 7517855.0386341419,
    "y": 3949388.955514472
   }
  },
  {
   "attributes": {
    "OBJECTID": 1345,
    "ولایت": "غزنى",
    "Province": "GHAZNI",
    "PC_Code": "1110284",
    "District": "NAWUR",
    "د_مرکز_نوم__نام_مرکز": "مدرسه علمیه المهدی بورقلعه",
    "Polling_Center_Name": "Alem Ahadi Madrass",
    "د_مرکز_ځای__موقعیت_مرکز": "قریه بورقلعه/قرناله ",
    "Polling_Center_Location": "Bur Qala/Qarnala Village",
    "Map_Accuracy": "Building",
    "Map_Accuracy_Dari": "تعمیر",
    "Status": "Open",
    "Status_Dari": null,
    "PS_Male": 1,
    "PS_Female": 1,
    "PS_Total": 2,
    "ولسوالي": "ناور",
    "Region": "South Eastern Region"
   },
   "geometry": {
    "x": 7580760.2524259659,
    "y": 4018651.9335032785
   }
  },
  {
   "attributes": {
    "OBJECTID": 1346,
    "ولایت": "غزنى",
    "Province": "GHAZNI",
    "PC_Code": "1111149",
    "District": "QARA BAGH",
    "د_مرکز_نوم__نام_مرکز": "مسجد پایین قلعه باران",
    "Polling_Center_Name": "Qala-e-Baran Lower Mosque",
    "د_مرکز_ځای__موقعیت_مرکز": "قلعه باران",
    "Polling_Center_Location": "Qala-e-Baran",
    "Map_Accuracy": "Village",
    "Map_Accuracy_Dari": "قریه",
    "Status": "Open",
    "Status_Dari": null,
    "PS_Male": 0,
    "PS_Female": 2,
    "PS_Total": 2,
    "ولسوالي": "قره باغ",
    "Region": "South Eastern Region"
   },
   "geometry": {
    "x": 7596024.4199653594,
    "y": 3928423.3945822883
   }
  },
  {
   "attributes": {
    "OBJECTID": 1347,
    "ولایت": "غزنى",
    "Province": "GHAZNI",
    "PC_Code": "1111153",
    "District": "QARA BAGH",
    "د_مرکز_نوم__نام_مرکز": "مسجد پایین قریه غټ",
    "Polling_Center_Name": "Ghatt Village Lower Mosque",
    "د_مرکز_ځای__موقعیت_مرکز": "مسجد پایین قریه غټ جای آغا صاحب",
    "Polling_Center_Location": "Ghatt Jay-e-Agha Sahib Village",
    "Map_Accuracy": "Village",
    "Map_Accuracy_Dari": "قریه",
    "Status": "Open",
    "Status_Dari": null,
    "PS_Male": 0,
    "PS_Female": 2,
    "PS_Total": 2,
    "ولسوالي": "قره باغ",
    "Region": "South Eastern Region"
   },
   "geometry": {
    "x": 7555701.7129599852,
    "y": 3915061.6822319436
   }
  },
  {
   "attributes": {
    "OBJECTID": 1348,
    "ولایت": "غزنى",
    "Province": "GHAZNI",
    "PC_Code": "1111154",
    "District": "QARA BAGH",
    "د_مرکز_نوم__نام_مرکز": "مسجد قریه خونیان",
    "Polling_Center_Name": "Khonyan Village Mosque",
    "د_مرکز_ځای__موقعیت_مرکز": "قریه خونیان ",
    "Polling_Center_Location": "Khonyan Village",
    "Map_Accuracy": "Village",
    "Map_Accuracy_Dari": "قریه",
    "Status": "Open",
    "Status_Dari": null,
    "PS_Male": 3,
    "PS_Female": 0,
    "PS_Total": 3,
    "ولسوالي": "قره باغ",
    "Region": "South Eastern Region"
   },
   "geometry": {
    "x": 7575549.9247350702,
    "y": 3915853.6645864109
   }
  },
  {
   "attributes": {
    "OBJECTID": 1349,
    "ولایت": "بدخشان",
    "Province": "BADAKHSHAN",
    "PC_Code": "1709298",
    "District": "YAWAN",
    "د_مرکز_نوم__نام_مرکز": "مسجد جامع افچ",
    "Polling_Center_Name": "Afch Mosque",
    "د_مرکز_ځای__موقعیت_مرکز": "افچ",
    "Polling_Center_Location": "Afch",
    "Map_Accuracy": "Building",
    "Map_Accuracy_Dari": "تعمیر",
    "Status": "Open",
    "Status_Dari": null,
    "PS_Male": 2,
    "PS_Female": 1,
    "PS_Total": 3,
    "ولسوالي": "یاوان",
    "Region": "North Eastern Region"
   },
   "geometry": {
    "x": 7825956.516692901,
    "y": 4521812.80627908
   }
  },
  {
   "attributes": {
    "OBJECTID": 1350,
    "ولایت": "بدخشان",
    "Province": "BADAKHSHAN",
    "PC_Code": "1702288",
    "District": "ARGO",
    "د_مرکز_نوم__نام_مرکز": " مسجد جامع علی",
    "Polling_Center_Name": "Ali Mosque",
    "د_مرکز_ځای__موقعیت_مرکز": "علی منگو",
    "Polling_Center_Location": "Ali mango",
    "Map_Accuracy": "Building",
    "Map_Accuracy_Dari": "تعمیر",
    "Status": "Open",
    "Status_Dari": null,
    "PS_Male": 2,
    "PS_Female": 1,
    "PS_Total": 3,
    "ولسوالي": "ارگو",
    "Region": "North Eastern Region"
   },
   "geometry": {
    "x": 7844305.5474746237,
    "y": 4435865.5564115942
   }
  },
  {
   "attributes": {
    "OBJECTID": 1351,
    "ولایت": "بدخشان",
    "Province": "BADAKHSHAN",
    "PC_Code": "1702289",
    "District": "ARGO",
    "د_مرکز_نوم__نام_مرکز": "لیسه شهباز خان شهید ",
    "Polling_Center_Name": "Shahbaz khan shaheed High school",
    "د_مرکز_ځای__موقعیت_مرکز": "جته",
    "Polling_Center_Location": "Juta",
    "Map_Accuracy": "Building",
    "Map_Accuracy_Dari": "تعمیر",
    "Status": "Open",
    "Status_Dari": null,
    "PS_Male": 2,
    "PS_Female": 1,
    "PS_Total": 3,
    "ولسوالي": "ارگو",
    "Region": "North Eastern Region"
   },
   "geometry": {
    "x": 7849810.5074674226,
    "y": 4459714.4668762954
   }
  },
  {
   "attributes": {
    "OBJECTID": 1352,
    "ولایت": "بدخشان",
    "Province": "BADAKHSHAN",
    "PC_Code": "1701004",
    "District": "FAIZ ABAD",
    "د_مرکز_نوم__نام_مرکز": "مکتب سر قول",
    "Polling_Center_Name": "Sar Qol School",
    "د_مرکز_ځای__موقعیت_مرکز": "سر قول یفتل علیا",
    "Polling_Center_Location": "Sar Qol Yaftal Ulya",
    "Map_Accuracy": "Building",
    "Map_Accuracy_Dari": "تعمیر",
    "Status": "Open",
    "Status_Dari": null,
    "PS_Male": 2,
    "PS_Female": 1,
    "PS_Total": 3,
    "ولسوالي": "فیض آباد",
    "Region": "North Eastern Region"
   },
   "geometry": {
    "x": 7857652.7693375526,
    "y": 4466404.8642614558
   }
  },
  {
   "attributes": {
    "OBJECTID": 1353,
    "ولایت": "بدخشان",
    "Province": "BADAKHSHAN",
    "PC_Code": "1701005",
    "District": "FAIZ ABAD",
    "د_مرکز_نوم__نام_مرکز": "مکتب ده کلان ",
    "Polling_Center_Name": "Deh Kalan School",
    "د_مرکز_ځای__موقعیت_مرکز": "ده کلان یفتل علیا",
    "Polling_Center_Location": "Deh Kalan Yaftal Ulya",
    "Map_Accuracy": "Building",
    "Map_Accuracy_Dari": "تعمیر",
    "Status": "Open",
    "Status_Dari": null,
    "PS_Male": 2,
    "PS_Female": 1,
    "PS_Total": 3,
    "ولسوالي": "فیض آباد",
    "Region": "North Eastern Region"
   },
   "geometry": {
    "x": 7849418.2506437581,
    "y": 4470472.721489463
   }
  },
  {
   "attributes": {
    "OBJECTID": 1354,
    "ولایت": "بدخشان",
    "Province": "BADAKHSHAN",
    "PC_Code": "1704034",
    "District": "YAFTAL-E-SUFLA",
    "د_مرکز_نوم__نام_مرکز": "مکتب اناثت سپین ",
    "Polling_Center_Name": "Speen Girls School",
    "د_مرکز_ځای__موقعیت_مرکز": "قریه سپین",
    "Polling_Center_Location": "Speen Village",
    "Map_Accuracy": "Building",
    "Map_Accuracy_Dari": "تعمیر",
    "Status": "Open",
    "Status_Dari": null,
    "PS_Male": 2,
    "PS_Female": 1,
    "PS_Total": 3,
    "ولسوالي": "یفتل سفلا",
    "Region": "North Eastern Region"
   },
   "geometry": {
    "x": 7836026.3333373647,
    "y": 4484854.9090140611
   }
  },
  {
   "attributes": {
    "OBJECTID": 1355,
    "ولایت": "بدخشان",
    "Province": "BADAKHSHAN",
    "PC_Code": "1705073",
    "District": "KHASH",
    "د_مرکز_نوم__نام_مرکز": "لیسه نسوان سر لوله ",
    "Polling_Center_Name": "Sar Lola High school",
    "د_مرکز_ځای__موقعیت_مرکز": "ظلم آباد",
    "Polling_Center_Location": "Zulm Abad",
    "Map_Accuracy": "Building",
    "Map_Accuracy_Dari": "تعمیر",
    "Status": "Open",
    "Status_Dari": null,
    "PS_Male": 2,
    "PS_Female": 2,
    "PS_Total": 4,
    "ولسوالي": "خاش",
    "Region": "North Eastern Region"
   },
   "geometry": {
    "x": 7878935.4607689204,
    "y": 4423465.7689250074
   }
  },
  {
   "attributes": {
    "OBJECTID": 1356,
    "ولایت": "بدخشان",
    "Province": "BADAKHSHAN",
    "PC_Code": "1705074",
    "District": "KHASH",
    "د_مرکز_نوم__نام_مرکز": "لیسه غلام احمد ",
    "Polling_Center_Name": "Ghulam Mohammad High School",
    "د_مرکز_ځای__موقعیت_مرکز": "ده پاره",
    "Polling_Center_Location": "Deh Para",
    "Map_Accuracy": "Building",
    "Map_Accuracy_Dari": "تعمیر",
    "Status": "Open",
    "Status_Dari": null,
    "PS_Male": 2,
    "PS_Female": 2,
    "PS_Total": 4,
    "ولسوالي": "خاش",
    "Region": "North Eastern Region"
   },
   "geometry": {
    "x": 7875626.4577356363,
    "y": 4426043.087044063
   }
  },
  {
   "attributes": {
    "OBJECTID": 1357,
    "ولایت": "بدخشان",
    "Province": "BADAKHSHAN",
    "PC_Code": "1712116",
    "District": "SHUHADA",
    "د_مرکز_نوم__نام_مرکز": "مرکز ولسوالی میدان ",
    "Polling_Center_Name": "Maidan District Office",
    "د_مرکز_ځای__موقعیت_مرکز": "میدان",
    "Polling_Center_Location": "Maidan",
    "Map_Accuracy": "Building",
    "Map_Accuracy_Dari": "تعمیر",
    "Status": "Open",
    "Status_Dari": null,
    "PS_Male": 1,
    "PS_Female": 1,
    "PS_Total": 2,
    "ولسوالي": "شهدا",
    "Region": "North Eastern Region"
   },
   "geometry": {
    "x": 7914981.7104236176,
    "y": 4447215.3697234867
   }
  },
  {
   "attributes": {
    "OBJECTID": 1358,
    "ولایت": "بدخشان",
    "Province": "BADAKHSHAN",
    "PC_Code": "1712117",
    "District": "SHUHADA",
    "د_مرکز_نوم__نام_مرکز": "مکتب حامدی ",
    "Polling_Center_Name": "Hamedi School",
    "د_مرکز_ځای__موقعیت_مرکز": "شکران",
    "Polling_Center_Location": "Shakran",
    "Map_Accuracy": "Building",
    "Map_Accuracy_Dari": "تعمیر",
    "Status": "Open",
    "Status_Dari": null,
    "PS_Male": 1,
    "PS_Female": 1,
    "PS_Total": 2,
    "ولسوالي": "شهدا",
    "Region": "North Eastern Region"
   },
   "geometry": {
    "x": 7918646.2044583876,
    "y": 4449134.3152223704
   }
  },
  {
   "attributes": {
    "OBJECTID": 1359,
    "ولایت": "بدخشان",
    "Province": "BADAKHSHAN",
    "PC_Code": "1713146",
    "District": "SHAHR-E-BUZURG",
    "د_مرکز_نوم__نام_مرکز": "مکتب متوسطه آب گنده ",
    "Polling_Center_Name": "Aab Gandah Secondary School",
    "د_مرکز_ځای__موقعیت_مرکز": "آب گنده",
    "Polling_Center_Location": "Aab Gandah",
    "Map_Accuracy": "Building",
    "Map_Accuracy_Dari": "تعمیر",
    "Status": "Open",
    "Status_Dari": null,
    "PS_Male": 1,
    "PS_Female": 1,
    "PS_Total": 2,
    "ولسوالي": "شهر بزرگ",
    "Region": "North Eastern Region"
   },
   "geometry": {
    "x": 7818884.789302418,
    "y": 4507562.0723814992
   }
  },
  {
   "attributes": {
    "OBJECTID": 1360,
    "ولایت": "بدخشان",
    "Province": "BADAKHSHAN",
    "PC_Code": "1714234",
    "District": "RAGHISTAN",
    "د_مرکز_نوم__نام_مرکز": "مکتب آجرش",
    "Polling_Center_Name": "Aajresh School",
    "د_مرکز_ځای__موقعیت_مرکز": "آجرش ",
    "Polling_Center_Location": "Aajresh",
    "Map_Accuracy": "Building",
    "Map_Accuracy_Dari": "تعمیر",
    "Status": "Open",
    "Status_Dari": null,
    "PS_Male": 2,
    "PS_Female": 2,
    "PS_Total": 4,
    "ولسوالي": "راغستان ",
    "Region": "North Eastern Region"
   },
   "geometry": {
    "x": 7858980.843145364,
    "y": 4517160.4906929908
   }
  },
  {
   "attributes": {
    "OBJECTID": 1361,
    "ولایت": "بدخشان",
    "Province": "BADAKHSHAN",
    "PC_Code": "1714235",
    "District": "RAGHISTAN",
    "د_مرکز_نوم__نام_مرکز": "مسجد سلام ده",
    "Polling_Center_Name": "Salam Deh Mosque",
    "د_مرکز_ځای__موقعیت_مرکز": "سلام ده",
    "Polling_Center_Location": "Salam Deh",
    "Map_Accuracy": "Village",
    "Map_Accuracy_Dari": "قریه",
    "Status": "Open",
    "Status_Dari": null,
    "PS_Male": 2,
    "PS_Female": 2,
    "PS_Total": 4,
    "ولسوالي": "راغستان ",
    "Region": "North Eastern Region"
   },
   "geometry": {
    "x": 7836904.3736133585,
    "y": 4537200.305798227
   }
  },
  {
   "attributes": {
    "OBJECTID": 1362,
    "ولایت": "بدخشان",
    "Province": "BADAKHSHAN",
    "PC_Code": "1715154",
    "District": "KISHM",
    "د_مرکز_نوم__نام_مرکز": "مکتب گندم قول ",
    "Polling_Center_Name": "Gandum Qol School",
    "د_مرکز_ځای__موقعیت_مرکز": "گندم قول",
    "Polling_Center_Location": "Gandum Qol",
    "Map_Accuracy": "Building",
    "Map_Accuracy_Dari": "تعمیر",
    "Status": "Open",
    "Status_Dari": null,
    "PS_Male": 3,
    "PS_Female": 2,
    "PS_Total": 5,
    "ولسوالي": "کشم",
    "Region": "North Eastern Region"
   },
   "geometry": {
    "x": 7815309.975362624,
    "y": 4420194.272333377
   }
  },
  {
   "attributes": {
    "OBJECTID": 1363,
    "ولایت": "بدخشان",
    "Province": "BADAKHSHAN",
    "PC_Code": "1717168",
    "District": "TAGAB",
    "د_مرکز_نوم__نام_مرکز": "مکتب کرسده",
    "Polling_Center_Name": "Karsada School",
    "د_مرکز_ځای__موقعیت_مرکز": "قریه کرسده ",
    "Polling_Center_Location": "Karsada Village",
    "Map_Accuracy": "Building",
    "Map_Accuracy_Dari": "تعمیر",
    "Status": "Open",
    "Status_Dari": null,
    "PS_Male": 1,
    "PS_Female": 1,
    "PS_Total": 2,
    "ولسوالي": "تگاب",
    "Region": "North Eastern Region"
   },
   "geometry": {
    "x": 7819574.1786637586,
    "y": 4387852.4835050413
   }
  },
  {
   "attributes": {
    "OBJECTID": 1364,
    "ولایت": "بدخشان",
    "Province": "BADAKHSHAN",
    "PC_Code": "1718258",
    "District": "YAMGAN",
    "د_مرکز_نوم__نام_مرکز": "مکتب گوهر ",
    "Polling_Center_Name": "Gawhar School",
    "د_مرکز_ځای__موقعیت_مرکز": "گوهر ",
    "Polling_Center_Location": "Gawhar",
    "Map_Accuracy": "Building",
    "Map_Accuracy_Dari": "تعمیر",
    "Status": "Open",
    "Status_Dari": null,
    "PS_Male": 2,
    "PS_Female": 1,
    "PS_Total": 3,
    "ولسوالي": "یمگان",
    "Region": "North Eastern Region"
   },
   "geometry": {
    "x": 7877033.9168119179,
    "y": 4356425.0864057289
   }
  },
  {
   "attributes": {
    "OBJECTID": 1365,
    "ولایت": "بدخشان",
    "Province": "BADAKHSHAN",
    "PC_Code": "1718259",
    "District": "YAMGAN",
    "د_مرکز_نوم__نام_مرکز": "مکتب لرکی ",
    "Polling_Center_Name": "Larkai School",
    "د_مرکز_ځای__موقعیت_مرکز": "لرکی",
    "Polling_Center_Location": "Larkai",
    "Map_Accuracy": "Building",
    "Map_Accuracy_Dari": "تعمیر",
    "Status": "Open",
    "Status_Dari": null,
    "PS_Male": 2,
    "PS_Female": 2,
    "PS_Total": 4,
    "ولسوالي": "یمگان",
    "Region": "North Eastern Region"
   },
   "geometry": {
    "x": 7866798.5059683723,
    "y": 4344308.0023155427
   }
  },
  {
   "attributes": {
    "OBJECTID": 1366,
    "ولایت": "بدخشان",
    "Province": "BADAKHSHAN",
    "PC_Code": "1721249",
    "District": "KUFAB",
    "د_مرکز_نوم__نام_مرکز": "لیسه دراج ",
    "Polling_Center_Name": "Daraaj High School",
    "د_مرکز_ځای__موقعیت_مرکز": "قریه دراج پایان",
    "Polling_Center_Location": "Daraaj Payan Village",
    "Map_Accuracy": "Building",
    "Map_Accuracy_Dari": "تعمیر",
    "Status": "Open",
    "Status_Dari": null,
    "PS_Male": 2,
    "PS_Female": 1,
    "PS_Total": 3,
    "ولسوالي": "کوف آب",
    "Region": "North Eastern Region"
   },
   "geometry": {
    "x": 7872528.1312914537,
    "y": 4569743.134775917
   }
  },
  {
   "attributes": {
    "OBJECTID": 1367,
    "ولایت": "بدخشان",
    "Province": "BADAKHSHAN",
    "PC_Code": "1721250",
    "District": "KUFAB",
    "د_مرکز_نوم__نام_مرکز": "مکتب شخرو ",
    "Polling_Center_Name": "Shakhro School",
    "د_مرکز_ځای__موقعیت_مرکز": "شخرو ",
    "Polling_Center_Location": "Shakhro",
    "Map_Accuracy": "Building",
    "Map_Accuracy_Dari": "تعمیر",
    "Status": "Open",
    "Status_Dari": null,
    "PS_Male": 2,
    "PS_Female": 1,
    "PS_Total": 3,
    "ولسوالي": "کوف آب",
    "Region": "North Eastern Region"
   },
   "geometry": {
    "x": 7864794.3354596132,
    "y": 4569696.4052179968
   }
  },
  {
   "attributes": {
    "OBJECTID": 1368,
    "ولایت": "بدخشان",
    "Province": "BADAKHSHAN",
    "PC_Code": "1722263",
    "District": "DARWAZ-E-PAYIN",
    "د_مرکز_نوم__نام_مرکز": "مکتب ورفد ",
    "Polling_Center_Name": "Warfad School",
    "د_مرکز_ځای__موقعیت_مرکز": "قریه ورفد",
    "Polling_Center_Location": "Warfad Village",
    "Map_Accuracy": "Village",
    "Map_Accuracy_Dari": "قریه",
    "Status": "Open",
    "Status_Dari": null,
    "PS_Male": 2,
    "PS_Female": 1,
    "PS_Total": 3,
    "ولسوالي": "درواز پائین (مایمی)",
    "Region": "North Eastern Region"
   },
   "geometry": {
    "x": 7917064.496983164,
    "y": 4633285.7455529291
   }
  },
  {
   "attributes": {
    "OBJECTID": 1369,
    "ولایت": "بدخشان",
    "Province": "BADAKHSHAN",
    "PC_Code": "1724276",
    "District": "SHIKI",
    "د_مرکز_نوم__نام_مرکز": "مکتب غمی",
    "Polling_Center_Name": "Ghamai School",
    "د_مرکز_ځای__موقعیت_مرکز": "غمی پایان",
    "Polling_Center_Location": "Ghamai Payan",
    "Map_Accuracy": "Village",
    "Map_Accuracy_Dari": "قریه",
    "Status": "Open",
    "Status_Dari": null,
    "PS_Male": 3,
    "PS_Female": 1,
    "PS_Total": 4,
    "ولسوالي": "شکی",
    "Region": "North Eastern Region"
   },
   "geometry": {
    "x": 7860002.1148705836,
    "y": 4620041.5905833747
   }
  },
  {
   "attributes": {
    "OBJECTID": 1370,
    "ولایت": "بدخشان",
    "Province": "BADAKHSHAN",
    "PC_Code": "1724277",
    "District": "SHIKI",
    "د_مرکز_نوم__نام_مرکز": "ماه نو",
    "Polling_Center_Name": "Maah Naw",
    "د_مرکز_ځای__موقعیت_مرکز": "مناو",
    "Polling_Center_Location": "Manaaw",
    "Map_Accuracy": "Village",
    "Map_Accuracy_Dari": "قریه",
    "Status": "Open",
    "Status_Dari": null,
    "PS_Male": 1,
    "PS_Female": 2,
    "PS_Total": 3,
    "ولسوالي": "شکی",
    "Region": "North Eastern Region"
   },
   "geometry": {
    "x": 7869541.8390091956,
    "y": 4636016.2067504842
   }
  },
  {
   "attributes": {
    "OBJECTID": 1371,
    "ولایت": "بدخشان",
    "Province": "BADAKHSHAN",
    "PC_Code": "1724280",
    "District": "SHIKI",
    "د_مرکز_نوم__نام_مرکز": "مکتب سر ناظم",
    "Polling_Center_Name": "Sar Naazem School",
    "د_مرکز_ځای__موقعیت_مرکز": "سر ناظم",
    "Polling_Center_Location": "Sar Naazem",
    "Map_Accuracy": "Village",
    "Map_Accuracy_Dari": "قریه",
    "Status": "Open",
    "Status_Dari": null,
    "PS_Male": 1,
    "PS_Female": 1,
    "PS_Total": 2,
    "ولسوالي": "شکی",
    "Region": "North Eastern Region"
   },
   "geometry": {
    "x": 7856115.5417912593,
    "y": 4605991.8581675831
   }
  },
  {
   "attributes": {
    "OBJECTID": 1372,
    "ولایت": "بدخشان",
    "Province": "BADAKHSHAN",
    "PC_Code": "1724281",
    "District": "SHIKI",
    "د_مرکز_نوم__نام_مرکز": "مکتب خان دره",
    "Polling_Center_Name": "Khan Dara School",
    "د_مرکز_ځای__موقعیت_مرکز": "خان دره",
    "Polling_Center_Location": "Khan Dara",
    "Map_Accuracy": "Village",
    "Map_Accuracy_Dari": "قریه",
    "Status": "Open",
    "Status_Dari": null,
    "PS_Male": 1,
    "PS_Female": 1,
    "PS_Total": 2,
    "ولسوالي": "شکی",
    "Region": "North Eastern Region"
   },
   "geometry": {
    "x": 7873054.2027146546,
    "y": 4625282.7463865867
   }
  },
  {
   "attributes": {
    "OBJECTID": 1373,
    "ولایت": "بدخشان",
    "Province": "BADAKHSHAN",
    "PC_Code": "1728206",
    "District": "WAKHAN",
    "د_مرکز_نوم__نام_مرکز": "لیسه پنجه",
    "Polling_Center_Name": "Panja High School",
    "د_مرکز_ځای__موقعیت_مرکز": "پنجه",
    "Polling_Center_Location": "Panja",
    "Map_Accuracy": "Building",
    "Map_Accuracy_Dari": "تعمیر",
    "Status": "Open",
    "Status_Dari": null,
    "PS_Male": 1,
    "PS_Female": 1,
    "PS_Total": 2,
    "ولسوالي": "واخان",
    "Region": "North Eastern Region"
   },
   "geometry": {
    "x": 8079374.9458618211,
    "y": 4438971.5826222645
   }
  },
  {
   "attributes": {
    "OBJECTID": 1374,
    "ولایت": "بدخشان",
    "Province": "BADAKHSHAN",
    "PC_Code": "1728207",
    "District": "WAKHAN",
    "د_مرکز_نوم__نام_مرکز": "مکتب متوسطه کیپ کوت ",
    "Polling_Center_Name": "Kep Kot Secondary School",
    "د_مرکز_ځای__موقعیت_مرکز": "کیپ کوت ",
    "Polling_Center_Location": "Kep Kot",
    "Map_Accuracy": "Building",
    "Map_Accuracy_Dari": "تعمیر",
    "Status": "Open",
    "Status_Dari": null,
    "PS_Male": 1,
    "PS_Female": 1,
    "PS_Total": 2,
    "ولسوالي": "واخان",
    "Region": "North Eastern Region"
   },
   "geometry": {
    "x": 8114885.132055819,
    "y": 4434705.7015105039
   }
  },
  {
   "attributes": {
    "OBJECTID": 1375,
    "ولایت": "غزنى",
    "Province": "GHAZNI",
    "PC_Code": "1111160",
    "District": "QARA BAGH",
    "د_مرکز_نوم__نام_مرکز": "مسجد نو بهادرګی",
    "Polling_Center_Name": "Bahadoorgi New Mosque",
    "د_مرکز_ځای__موقعیت_مرکز": "قریه بهادورګی",
    "Polling_Center_Location": "Bahadoorgi Village",
    "Map_Accuracy": "Building",
    "Map_Accuracy_Dari": "تعمیر",
    "Status": "Open",
    "Status_Dari": null,
    "PS_Male": 2,
    "PS_Female": 0,
    "PS_Total": 2,
    "ولسوالي": "قره باغ",
    "Region": "South Eastern Region"
   },
   "geometry": {
    "x": 7576099.7973785968,
    "y": 3919577.6417006515
   }
  },
  {
   "attributes": {
    "OBJECTID": 1376,
    "ولایت": "غزنى",
    "Province": "GHAZNI",
    "PC_Code": "1111179",
    "District": "QARA BAGH",
    "د_مرکز_نوم__نام_مرکز": "مسجد قریه زردالو",
    "Polling_Center_Name": "Zardalo Village School",
    "د_مرکز_ځای__موقعیت_مرکز": "قریه زردالو",
    "Polling_Center_Location": "Zardalo Village",
    "Map_Accuracy": "Village",
    "Map_Accuracy_Dari": "قریه",
    "Status": "Open",
    "Status_Dari": null,
    "PS_Male": 0,
    "PS_Female": 3,
    "PS_Total": 3,
    "ولسوالي": "قره باغ",
    "Region": "South Eastern Region"
   },
   "geometry": {
    "x": 7552096.3763290131,
    "y": 3919064.5308112483
   }
  },
  {
   "attributes": {
    "OBJECTID": 1377,
    "ولایت": "غزنى",
    "Province": "GHAZNI",
    "PC_Code": "1111180",
    "District": "QARA BAGH",
    "د_مرکز_نوم__نام_مرکز": "کلینیک تاق چین",
    "Polling_Center_Name": "Taq Cheen Clinic",
    "د_مرکز_ځای__موقعیت_مرکز": "قریه تاق چین ",
    "Polling_Center_Location": "Taq Cheen Village",
    "Map_Accuracy": "Village",
    "Map_Accuracy_Dari": "قریه",
    "Status": "Open",
    "Status_Dari": null,
    "PS_Male": 5,
    "PS_Female": 0,
    "PS_Total": 5,
    "ولسوالي": "قره باغ",
    "Region": "South Eastern Region"
   },
   "geometry": {
    "x": 7544118.7117755003,
    "y": 3911316.4990763902
   }
  },
  {
   "attributes": {
    "OBJECTID": 1378,
    "ولایت": "غزنى",
    "Province": "GHAZNI",
    "PC_Code": "1111190",
    "District": "QARA BAGH",
    "د_مرکز_نوم__نام_مرکز": "مسجد ملک غلام حسین",
    "Polling_Center_Name": "Malak Ghulam Hussain Mosque",
    "د_مرکز_ځای__موقعیت_مرکز": "قریه گلکو",
    "Polling_Center_Location": "Gulko Village",
    "Map_Accuracy": "Village",
    "Map_Accuracy_Dari": "قریه",
    "Status": "Open",
    "Status_Dari": null,
    "PS_Male": 3,
    "PS_Female": 0,
    "PS_Total": 3,
    "ولسوالي": "قره باغ",
    "Region": "South Eastern Region"
   },
   "geometry": {
    "x": 7559539.3922925601,
    "y": 3930528.464622112
   }
  },
  {
   "attributes": {
    "OBJECTID": 1379,
    "ولایت": "غزنى",
    "Province": "GHAZNI",
    "PC_Code": "1113376",
    "District": "AB BAND",
    "د_مرکز_نوم__نام_مرکز": "مکتب غازی صاحب خان",
    "Polling_Center_Name": "Ghazi Sahib Khan School",
    "د_مرکز_ځای__موقعیت_مرکز": "عالم خیل",
    "Polling_Center_Location": "Alam Khel",
    "Map_Accuracy": "Village",
    "Map_Accuracy_Dari": "قریه",
    "Status": "Open",
    "Status_Dari": null,
    "PS_Male": 1,
    "PS_Female": 1,
    "PS_Total": 2,
    "ولسوالي": "آب بند",
    "Region": "South Eastern Region"
   },
   "geometry": {
    "x": 7580009.2466132781,
    "y": 3874228.9459783956
   }
  },
  {
   "attributes": {
    "OBJECTID": 1380,
    "ولایت": "غزنى",
    "Province": "GHAZNI",
    "PC_Code": "1114328",
    "District": "JAGHURI",
    "د_مرکز_نوم__نام_مرکز": "مدرسه ده مرده",
    "Polling_Center_Name": "Deh Mordah Madrassa",
    "د_مرکز_ځای__موقعیت_مرکز": "قریه ده مرده ",
    "Polling_Center_Location": "Deh Mordah",
    "Map_Accuracy": "District",
    "Map_Accuracy_Dari": "ولسوالی",
    "Status": "Open",
    "Status_Dari": null,
    "PS_Male": 2,
    "PS_Female": 1,
    "PS_Total": 3,
    "ولسوالي": "جاغوری",
    "Region": "South Eastern Region"
   },
   "geometry": {
    "x": 7518217.8577977046,
    "y": 3917374.1681874087
   }
  },
  {
   "attributes": {
    "OBJECTID": 1381,
    "ولایت": "غزنى",
    "Province": "GHAZNI",
    "PC_Code": "1114333",
    "District": "JAGHURI",
    "د_مرکز_نوم__نام_مرکز": "مسجد قلتار غو",
    "Polling_Center_Name": "Qaltar Gho Mosque",
    "د_مرکز_ځای__موقعیت_مرکز": "قریه قلتارغو حیدر ",
    "Polling_Center_Location": "Qaltargho Haider Village",
    "Map_Accuracy": "Building",
    "Map_Accuracy_Dari": "تعمیر",
    "Status": "Open",
    "Status_Dari": null,
    "PS_Male": 2,
    "PS_Female": 1,
    "PS_Total": 3,
    "ولسوالي": "جاغوری",
    "Region": "South Eastern Region"
   },
   "geometry": {
    "x": 7514767.8664029399,
    "y": 3905579.1999473842
   }
  },
  {
   "attributes": {
    "OBJECTID": 1382,
    "ولایت": "غزنى",
    "Province": "GHAZNI",
    "PC_Code": "1114334",
    "District": "JAGHURI",
    "د_مرکز_نوم__نام_مرکز": "لیسه عالی شریفی",
    "Polling_Center_Name": "Sharifi High School",
    "د_مرکز_ځای__موقعیت_مرکز": "قریه حوت قول ",
    "Polling_Center_Location": "Hatqool Village",
    "Map_Accuracy": "Building",
    "Map_Accuracy_Dari": "تعمیر",
    "Status": "Open",
    "Status_Dari": null,
    "PS_Male": 5,
    "PS_Female": 2,
    "PS_Total": 7,
    "ولسوالي": "جاغوری",
    "Region": "South Eastern Region"
   },
   "geometry": {
    "x": 7515245.9201637879,
    "y": 3886596.2984195496
   }
  },
  {
   "attributes": {
    "OBJECTID": 1383,
    "ولایت": "غزنى",
    "Province": "GHAZNI",
    "PC_Code": "1116312",
    "District": "MALISTAN",
    "د_مرکز_نوم__نام_مرکز": "مسجد عامه قریه اولوم بلخسان",
    "Polling_Center_Name": "Ulom Balkhsan Village Public Mosque",
    "د_مرکز_ځای__موقعیت_مرکز": "قریه اولوم بلخسان",
    "Polling_Center_Location": "Ulom Balkhsan Village",
    "Map_Accuracy": "Building",
    "Map_Accuracy_Dari": "تعمیر",
    "Status": "Open",
    "Status_Dari": null,
    "PS_Male": 2,
    "PS_Female": 1,
    "PS_Total": 3,
    "ولسوالي": "مالستان",
    "Region": "South Eastern Region"
   },
   "geometry": {
    "x": 7507705.6755305873,
    "y": 3948629.0513629266
   }
  },
  {
   "attributes": {
    "OBJECTID": 1384,
    "ولایت": "غزنى",
    "Province": "GHAZNI",
    "PC_Code": "1116313",
    "District": "MALISTAN",
    "د_مرکز_نوم__نام_مرکز": "لیسه پای جلگه",
    "Polling_Center_Name": "Pay Jalgah High school",
    "د_مرکز_ځای__موقعیت_مرکز": "قریه پای جلګه",
    "Polling_Center_Location": "Pay Jalga Village ",
    "Map_Accuracy": "Building",
    "Map_Accuracy_Dari": "تعمیر",
    "Status": "Open",
    "Status_Dari": null,
    "PS_Male": 3,
    "PS_Female": 2,
    "PS_Total": 5,
    "ولسوالي": "مالستان",
    "Region": "South Eastern Region"
   },
   "geometry": {
    "x": 7467802.9079458974,
    "y": 3910877.3608852006
   }
  },
  {
   "attributes": {
    "OBJECTID": 1385,
    "ولایت": "غزنى",
    "Province": "GHAZNI",
    "PC_Code": "1116318",
    "District": "MALISTAN",
    "د_مرکز_نوم__نام_مرکز": "مسجد قریه قاره ورده مکنک",
    "Polling_Center_Name": "Qara Warda Maknak Village Mosque",
    "د_مرکز_ځای__موقعیت_مرکز": "قریه ورده مکنک ",
    "Polling_Center_Location": "Warda Maknak Village",
    "Map_Accuracy": "Building",
    "Map_Accuracy_Dari": "تعمیر",
    "Status": "Open",
    "Status_Dari": null,
    "PS_Male": 2,
    "PS_Female": 1,
    "PS_Total": 3,
    "ولسوالي": "مالستان",
    "Region": "South Eastern Region"
   },
   "geometry": {
    "x": 7493247.3609169945,
    "y": 3949232.8531369912
   }
  },
  {
   "attributes": {
    "OBJECTID": 1386,
    "ولایت": "غزنى",
    "Province": "GHAZNI",
    "PC_Code": "1116319",
    "District": "MALISTAN",
    "د_مرکز_نوم__نام_مرکز": "مسجد کهنه ده",
    "Polling_Center_Name": "Kohnda Deh Mosque",
    "د_مرکز_ځای__موقعیت_مرکز": "قریه بیچی لال ",
    "Polling_Center_Location": "Bechi Lal Village",
    "Map_Accuracy": "Building",
    "Map_Accuracy_Dari": "تعمیر",
    "Status": "Open",
    "Status_Dari": null,
    "PS_Male": 2,
    "PS_Female": 1,
    "PS_Total": 3,
    "ولسوالي": "مالستان",
    "Region": "South Eastern Region"
   },
   "geometry": {
    "x": 7467571.1875202488,
    "y": 3923784.110466436
   }
  },
  {
   "attributes": {
    "OBJECTID": 1387,
    "ولایت": "غزنى",
    "Province": "GHAZNI",
    "PC_Code": "1117394",
    "District": "GELAN",
    "د_مرکز_نوم__نام_مرکز": "مسجد قریه ازاد",
    "Polling_Center_Name": "Azad Village Mosque",
    "د_مرکز_ځای__موقعیت_مرکز": "قریه ازاد",
    "Polling_Center_Location": "Azad Village ",
    "Map_Accuracy": "Building",
    "Map_Accuracy_Dari": "تعمیر",
    "Status": "Open",
    "Status_Dari": null,
    "PS_Male": 2,
    "PS_Female": 1,
    "PS_Total": 3,
    "ولسوالي": "گیلان",
    "Region": "South Eastern Region"
   },
   "geometry": {
    "x": 7538582.912610204,
    "y": 3861916.6662093797
   }
  },
  {
   "attributes": {
    "OBJECTID": 1388,
    "ولایت": "پکتيکا",
    "Province": "PAKTIKA",
    "PC_Code": "1201006",
    "District": "SHARAN",
    "د_مرکز_نوم__نام_مرکز": "جومات مسواس",
    "Polling_Center_Name": "Maswas Mosque",
    "د_مرکز_ځای__موقعیت_مرکز": "مسواس",
    "Polling_Center_Location": "Maswas",
    "Map_Accuracy": "Village",
    "Map_Accuracy_Dari": "قریه",
    "Status": "Open",
    "Status_Dari": null,
    "PS_Male": 0,
    "PS_Female": 4,
    "PS_Total": 4,
    "ولسوالي": "شرن",
    "Region": "South Eastern Region"
   },
   "geometry": {
    "x": 7651878.7440395402,
    "y": 3925401.2840124494
   }
  },
  {
   "attributes": {
    "OBJECTID": 1389,
    "ولایت": "پکتيکا",
    "Province": "PAKTIKA",
    "PC_Code": "1201007",
    "District": "SHARAN",
    "د_مرکز_نوم__نام_مرکز": "لومړنی ښوونځی مسواس",
    "Polling_Center_Name": "Maswas Primary School",
    "د_مرکز_ځای__موقعیت_مرکز": "څلی مسواس ",
    "Polling_Center_Location": "Chalai Maswas",
    "Map_Accuracy": "Village",
    "Map_Accuracy_Dari": "قریه",
    "Status": "Open",
    "Status_Dari": null,
    "PS_Male": 3,
    "PS_Female": 1,
    "PS_Total": 4,
    "ولسوالي": "شرن",
    "Region": "South Eastern Region"
   },
   "geometry": {
    "x": 7651859.8965365551,
    "y": 3925545.5923975129
   }
  },
  {
   "attributes": {
    "OBJECTID": 1390,
    "ولایت": "پکتيکا",
    "Province": "PAKTIKA",
    "PC_Code": "1201012",
    "District": "SHARAN",
    "د_مرکز_نوم__نام_مرکز": "میلمستون ملک احمدجان",
    "Polling_Center_Name": "Malik Ahmad Jan Guest House",
    "د_مرکز_ځای__موقعیت_مرکز": "دلاو",
    "Polling_Center_Location": "Dulow",
    "Map_Accuracy": "Village",
    "Map_Accuracy_Dari": "قریه",
    "Status": "Open",
    "Status_Dari": null,
    "PS_Male": 0,
    "PS_Female": 4,
    "PS_Total": 4,
    "ولسوالي": "شرن",
    "Region": "South Eastern Region"
   },
   "geometry": {
    "x": 7658149.1839391785,
    "y": 3920963.9184639729
   }
  },
  {
   "attributes": {
    "OBJECTID": 1391,
    "ولایت": "پکتيکا",
    "Province": "PAKTIKA",
    "PC_Code": "1201013",
    "District": "SHARAN",
    "د_مرکز_نوم__نام_مرکز": "جومات سپوانی",
    "Polling_Center_Name": "Sepvani Mosque",
    "د_مرکز_ځای__موقعیت_مرکز": "سپوانی",
    "Polling_Center_Location": "Spavani",
    "Map_Accuracy": "Building",
    "Map_Accuracy_Dari": "تعمیر",
    "Status": "Open",
    "Status_Dari": null,
    "PS_Male": 4,
    "PS_Female": 0,
    "PS_Total": 4,
    "ولسوالي": "شرن",
    "Region": "South Eastern Region"
   },
   "geometry": {
    "x": 7657308.1084132968,
    "y": 3915271.9795730677
   }
  },
  {
   "attributes": {
    "OBJECTID": 1392,
    "ولایت": "پکتيا",
    "Province": "PAKTYA",
    "PC_Code": "1307073",
    "District": "JAJI ARYOB",
    "د_مرکز_نوم__نام_مرکز": "د صبیل کور",
    "Polling_Center_Name": "Sabil House",
    "د_مرکز_ځای__موقعیت_مرکز": "غونزی احمدخیل",
    "Polling_Center_Location": "Ghonzai Ahmad Khel",
    "Map_Accuracy": "Building",
    "Map_Accuracy_Dari": "تعمیر",
    "Status": "Open",
    "Status_Dari": null,
    "PS_Male": 4,
    "PS_Female": 1,
    "PS_Total": 5,
    "ولسوالي": "ځاځی اریوب",
    "Region": "South Eastern Region"
   },
   "geometry": {
    "x": 7766505.2151909526,
    "y": 4023322.9785502898
   }
  },
  {
   "attributes": {
    "OBJECTID": 1393,
    "ولایت": "پکتيا",
    "Province": "PAKTYA",
    "PC_Code": "1307211",
    "District": "JAJI ARYOB",
    "د_مرکز_نوم__نام_مرکز": "سرواڼ خيل مكتب",
    "Polling_Center_Name": "Sarwan Khel School",
    "د_مرکز_ځای__موقعیت_مرکز": "سرواڼ خيل",
    "Polling_Center_Location": "Sarwan Khel",
    "Map_Accuracy": "Village",
    "Map_Accuracy_Dari": "قریه",
    "Status": "Open",
    "Status_Dari": null,
    "PS_Male": 1,
    "PS_Female": 1,
    "PS_Total": 2,
    "ولسوالي": "ځاځی اریوب",
    "Region": "South Eastern Region"
   },
   "geometry": {
    "x": 7756422.30871021,
    "y": 4022446.2096500699
   }
  },
  {
   "attributes": {
    "OBJECTID": 1394,
    "ولایت": "پکتيا",
    "Province": "PAKTYA",
    "PC_Code": "1307212",
    "District": "JAJI ARYOB",
    "د_مرکز_نوم__نام_مرکز": "دخيرمني مكتب",
    "Polling_Center_Name": "Khair Meni School",
    "د_مرکز_ځای__موقعیت_مرکز": "خيرمنه",
    "Polling_Center_Location": "Khair Mena",
    "Map_Accuracy": "Building",
    "Map_Accuracy_Dari": "تعمیر",
    "Status": "Open",
    "Status_Dari": null,
    "PS_Male": 1,
    "PS_Female": 1,
    "PS_Total": 2,
    "ولسوالي": "ځاځی اریوب",
    "Region": "South Eastern Region"
   },
   "geometry": {
    "x": 7758082.8927238323,
    "y": 4015923.5331729678
   }
  },
  {
   "attributes": {
    "OBJECTID": 1395,
    "ولایت": "سمنگان",
    "Province": "SAMANGAN",
    "PC_Code": "2007038",
    "District": "DARA-E-SOOF-E-BALA",
    "د_مرکز_نوم__نام_مرکز": "منبر خمی حوض ",
    "Polling_Center_Name": "Menbar Khami Hawz",
    "د_مرکز_ځای__موقعیت_مرکز": "قریه خمی حوض",
    "Polling_Center_Location": "Khami Hawz Village",
    "Map_Accuracy": "Building",
    "Map_Accuracy_Dari": "تعمیر",
    "Status": "Open",
    "Status_Dari": null,
    "PS_Male": 1,
    "PS_Female": 1,
    "PS_Total": 2,
    "ولسوالي": "دره صوف بالا",
    "Region": "Northern Region"
   },
   "geometry": {
    "x": 7515642.4312844323,
    "y": 4276128.8835494425
   }
  },
  {
   "attributes": {
    "OBJECTID": 1396,
    "ولایت": "سمنگان",
    "Province": "SAMANGAN",
    "PC_Code": "2007039",
    "District": "DARA-E-SOOF-E-BALA",
    "د_مرکز_نوم__نام_مرکز": "منبر سرخ شهر",
    "Polling_Center_Name": "Menbar Surkh Shahr",
    "د_مرکز_ځای__موقعیت_مرکز": " قریه سرخ شهر",
    "Polling_Center_Location": "Surkh Shahr Village",
    "Map_Accuracy": "Building",
    "Map_Accuracy_Dari": "تعمیر",
    "Status": "Open",
    "Status_Dari": null,
    "PS_Male": 2,
    "PS_Female": 1,
    "PS_Total": 3,
    "ولسوالي": "دره صوف بالا",
    "Region": "Northern Region"
   },
   "geometry": {
    "x": 7499649.8279591072,
    "y": 4274846.3924417682
   }
  },
  {
   "attributes": {
    "OBJECTID": 1397,
    "ولایت": "سمنگان",
    "Province": "SAMANGAN",
    "PC_Code": "2001004",
    "District": "AYBAK",
    "د_مرکز_نوم__نام_مرکز": "مکتب متوسطه دلخکی",
    "Polling_Center_Name": "Dalkhaky Secondary School",
    "د_مرکز_ځای__موقعیت_مرکز": "قریه دلخکی ",
    "Polling_Center_Location": "Dalkhalky Village",
    "Map_Accuracy": "Building",
    "Map_Accuracy_Dari": "تعمیر",
    "Status": "Open",
    "Status_Dari": null,
    "PS_Male": 3,
    "PS_Female": 1,
    "PS_Total": 4,
    "ولسوالي": "ایبک",
    "Region": "Northern Region"
   },
   "geometry": {
    "x": 7562616.6871453486,
    "y": 4347691.9537162501
   }
  },
  {
   "attributes": {
    "OBJECTID": 1398,
    "ولایت": "سمنگان",
    "Province": "SAMANGAN",
    "PC_Code": "2001005",
    "District": "AYBAK",
    "د_مرکز_نوم__نام_مرکز": "مکتب متوسطه لرغان",
    "Polling_Center_Name": "Larghan Secondary School",
    "د_مرکز_ځای__موقعیت_مرکز": "قریه لرغان",
    "Polling_Center_Location": "Larghan Village",
    "Map_Accuracy": "Building",
    "Map_Accuracy_Dari": "تعمیر",
    "Status": "Open",
    "Status_Dari": null,
    "PS_Male": 3,
    "PS_Female": 2,
    "PS_Total": 5,
    "ولسوالي": "ایبک",
    "Region": "Northern Region"
   },
   "geometry": {
    "x": 7570260.9442579588,
    "y": 4342148.6371979192
   }
  },
  {
   "attributes": {
    "OBJECTID": 1399,
    "ولایت": "سمنگان",
    "Province": "SAMANGAN",
    "PC_Code": "2001010",
    "District": "AYBAK",
    "د_مرکز_نوم__نام_مرکز": "لیسه آئینچه ",
    "Polling_Center_Name": "Aayencha High School",
    "د_مرکز_ځای__موقعیت_مرکز": "شهر ایبک",
    "Polling_Center_Location": "Aibak City",
    "Map_Accuracy": "Building",
    "Map_Accuracy_Dari": "تعمیر",
    "Status": "Open",
    "Status_Dari": null,
    "PS_Male": 5,
    "PS_Female": 3,
    "PS_Total": 8,
    "ولسوالي": "ایبک",
    "Region": "Northern Region"
   },
   "geometry": {
    "x": 7573126.7242858717,
    "y": 4337394.4746991592
   }
  },
  {
   "attributes": {
    "OBJECTID": 1400,
    "ولایت": "سمنگان",
    "Province": "SAMANGAN",
    "PC_Code": "2001011",
    "District": "AYBAK",
    "د_مرکز_نوم__نام_مرکز": "مکتب متوسطه ظهرابی ",
    "Polling_Center_Name": "Zahrabi Secondary School",
    "د_مرکز_ځای__موقعیت_مرکز": "قریه ظهرابی ",
    "Polling_Center_Location": "Zahrabi Village",
    "Map_Accuracy": "Building",
    "Map_Accuracy_Dari": "تعمیر",
    "Status": "Open",
    "Status_Dari": null,
    "PS_Male": 3,
    "PS_Female": 3,
    "PS_Total": 6,
    "ولسوالي": "ایبک",
    "Region": "Northern Region"
   },
   "geometry": {
    "x": 7574078.1296722777,
    "y": 4335803.3044492938
   }
  }
 ]
}