"lon","lat","ps_male","pc_name","pc_code","province","ps_total","district","ps_female","pc_location","iec_prov_id","map_accuracy","iec_district_id"
69.18066344,34.50867443,3,"Ashuqan-O-Arifan High School",101001,"Kabul",6,"Kabul-D01",3,"Achekzai Street",1,"Building",1
69.6333802,33.87580948,3,"Venus Khel Mosque",1308138,"Paktya",3,"Laja Ahmad Khel",0,"Kwandi Hassan Khel Village",13,"District",8
70.594289245,34.456239627,2,"Darbang School",605160,"Nangarhar",3,"Kama",1,"Darbang",6,"Village",5
69.99698577,34.24672994,0,"Mama Khel High School",619243,"Nangarhar",3,"Sher Zad",3,"Mama Khel",6,"Village",19
70.92009011,34.47952462,0,"Private House",614499,"Nangarhar",2,"Goshta",2,"Ali Khel Village",6,"Village",14
62.14273845,33.30640805,4,"Qandiz Qademi Mosque",3214301,"Herat",5,"Shindand",1,"Qandiz",32,"Building",14
66.848346863,36.910654936,1,"Shamsullah Private House",2106177,"Balkh",2,"Balkh",1,"Shahab Afghania Village",21,"Building",6
69.68533361,34.88705194,4,"Shaheed Hafizullah Secondary School",206095,"Kapisa",4,"Tagab",0,"Shokut",2,"Building",6
68.541312151,34.94656316,1,"District Building",310131,"Parwan",2,"Shaykh Ali",1,"District Bazar Dasht-E-Guzar",3,"Building",10
63.24147262,34.27624227,3,"Posht-E- Paji Mosque",3212376,"Herat",5,"Obe",2,"Posht-E- Paji",32,"Village",12
63.05783067,34.28907849,3,"Sarwan School",3212377,"Herat",5,"Obe",2,"Sarwan Village",32,"Building",12
68.86111751,35.00530741,2,"Du Aab Mosque",307090,"Parwan",3,"Syahgirdi Ghorband",1,"Sar-E-Pul Du Aab",3,"District",7
65.70398113,34.99556325,3,"Jandak School",2301039,"Ghor",5,"Chighcheran",2,"Jandak",23,"Village",1
70.36992997,34.86126123,2,"Parwayee School",704076,"Laghman",4,"Alingar",2,"Parwayee",7,"Building",4
71.22808631,34.94980635,4,"Primary School",1506063,"Kunar",6,"Shigal Wa Shiltan",2,"Shenkorak",15,"Building",6
71.27483787,34.96645553,3,"District Compound",1506064,"Kunar",5,"Shigal Wa Shiltan",2,"Shegal Washilton",15,"Building",6
71.39875741,35.01560098,2,"Byadad Primary School",1512054,"Kunar",4,"Dangam",2,"Byadad",15,"Village",12
64.8916015,33.78764238,2,"Takhta Tarma Bazar Tent",2305113,"Ghor",3,"Pasaband",1,"Takhta Tarma Village",23,"Building",5
63.71988353,33.97186444,3,"Tolak School",2309178,"Ghor",4,"Tulak",1,"Khwajaha Village",23,"Building",9
63.79730451,33.94593145,2,"Sang Khalq Primary School",2309193,"Ghor",3,"Tulak",1,"Sang Khalq",23,"Building",9
64.47085691,32.404516,6,"Asad Suri High School",3007196,"Helmand",7,"Nawzad",1,"Nawzad Kalan",30,"Village",7
64.6983095,32.23240214,3,"Noor Mohammad Private House",3009184,"Helmand",5,"Musa Qala",2,"Sher Ghazai",30,"Village",9
64.74522454,32.26020614,3,"Khan Mohammad Mosque",3009185,"Helmand",5,"Musa Qala",2,"Kaani Manda",30,"Village",9
63.31073532,35.61373847,2,"Akazi School",3105153,"Badghis",3,"Bala Murghab",1,"Akaziha",31,"Building",5
63.37038205,35.52160345,2,"Joy-E- Kar School",3105158,"Badghis",3,"Bala Murghab",1,"Joy-E-Kar",31,"Building",5
63.32484536,35.61215435,2,"Sarkhlang Joy-E-Ganj Mosque",3105188,"Badghis",3,"Bala Murghab",1,"Sarkhlang Joy-E-Ganj",31,"Village",5
61.90357121,32.90659178,1,"Kariz Sadiq Mosque",3303055,"Farah",2,"Khak-E-Safed",1,"Kariz Sadiq",33,"Village",3
61.29710971,32.29932536,2,"Hassan Abad Ulya Mosque",3304072,"Farah",3,"Qala-E-Kah",1,"Hassan Abad Ulya",33,"Building",4
62.57846224,32.76432537,1,"Todanak Village Tent (Kuchi)",3306149,"Farah",2,"Bala Buluk",1,"Todanak Village",33,"Village",6
63.23385868,32.55547772,1,"Mughol Abad Mosque",3310177,"Farah",2,"Gulistan",1,"Mughol Abad",33,"Village",10
69.59841878,34.95213325,1,"Qazi Abdul Jamil  School",205039,"Kapisa",4,"Nijrab",3,"Afghania",2,"Building",5
69.64536943,34.85358832,4,"Ghazi Usman High School",206078,"Kapisa",4,"Tagab",0,"District Compound",2,"Building",6
69.3929361,34.85720486,2,"Mula Ahmad Khel School",308143,"Parwan",3,"Kohi Safi",1,"Mula Ahmad Khel",3,"Building",8
69.46397381,34.79483419,1,"Dandar School",308144,"Parwan",2,"Kohi Safi",1,"Dandar",3,"Building",8
70.11452913,34.77972019,2,"Kotwal Khando Village Mosque",703093,"Laghman",3,"Alishing",1,"Alishang",7,"Village",3
70.76200808,34.61408006,1,"Bar Noor Gul Boys High School",1514083,"Kunar",4,"Noor Gal",3,"Bar Noor Gul",15,"Building",14
70.63250517,36.98623977,2,"Gazan Mosque",1702054,"Badakhshan",3,"Argo",1,"Gazan",17,"Building",2
70.65470123,37.05528508,2,"Bagh Mubarak School",1702055,"Badakhshan",3,"Argo",1,"Bagh Mubarak",17,"Building",2
64.22200661,33.59241815,1,"Seb Talkh School",2308232,"Ghor",2,"Taywara",1,"Seb Talkh",23,"Village",8
67.121170598,33.90772129,2,"Mosque",2407191,"Daykundi",3,"Miramor",1,"Shazan",24,"Building",7
67.245977242,33.832265672,2,"Mosque",2407192,"Daykundi",3,"Miramor",1,"Ghajorak",24,"Building",7
66.666722599,33.539880313,2,"Mosque",2402172,"Daykundi",3,"Shahristan",1,"Rakhan",24,"Building",2
68.498323224,35.751902467,2,"Nawamad Mosque",902260,"Baghlan",3,"Dahana-E-Ghuri",1,"Naw Amad Qara Khwal Shakar To",9,"Building",2
68.730003688,35.59830178,2,"Abo Hanifa Madrasa",903261,"Baghlan",3,"Doshi",1,"Khwaja Zaid Sufla",9,"Building",3
69.248404801,34.466101132,2,"Qala Hasan Khan Mosque",104539,"Kabul",3,"Bagrami",1,"Qalai Hasan Khan Sufla",1,"Building",4
69.31229847,34.492235239,2,"Mehtarlam Baba Mosque",104540,"Kabul",3,"Bagrami",1,"Hasan Khil Village_Said Jamaludin Second Part",1,"Building",4
70.377063666,34.906862353,2,"School",704131,"Laghman",3,"Alingar",1,"Lokar",7,"Building",4
70.297346097,34.75865579,2,"Mosque",704132,"Laghman",3,"Alingar",1,"Chinchar Pol",7,"Building",4
68.735631698,36.290958017,2,"Mulah Khal Muhammad Mosque",905275,"Baghlan",3,"Baglan-E-Jadeed",1,"Larkhwabi",9,"Building",5
69.864384958,33.316118869,2,"Mosque",1402177,"Khost",3,"Manduzay",1,"Dikano Village",14,"Building",2
71.175247317,37.057933355,2,"Wakil Abdul Jabar School",1712305,"Badakhshan",3,"Shuhada",1,"Dargab",17,"Building",12
66.236171748,36.043066468,2,"Mosque",2204141,"Sar-E-Pul",3,"Sozma Qala",1,"Safar Qeshlaq",22,"Building",4
66.374167956,31.83222133,2,"Haji Abdul Aziz Pump Station",2602052,"Zabul",3,"Tarank Wa Jaldak",1,"Daro",26,"Village",2
65.260903405,35.723481607,2,"Qala Tardi Female Primary School",2908212,"Faryab",3,"Gurziwan",1,"Qala Tori",29,"Building",8
69.242327555,34.50909961,2,"Hzor Hazrat Nabi Mosque",101520,"Kabul",3,"Nahia_08",1,"Behaind Of Cokakola Industary",1,"Building",1
69.169276122,34.577129423,2,"Muhammad Hanifa Ghazi Mosque",101528,"Kabul",3,"Nahia_15",1,"District-15",1,"Building",1
69.285446149,35.142909838,2,"Abdul Hadi Shaheed Secondary School",305154,"Parwan",3,"Jabulussaraj",1,"Ezatullah Khil_ Gul Bahar",3,"Building",5
70.564862527,34.414383097,2,"Clinic",605512,"Nangarhar",3,"Kama",1,"Koza Deh Ghazi",6,"Building",5
70.628792683,34.441254681,2,"Molawi Ebarahim Kamawi School",605513,"Nangarhar",3,"Kama",1,"Dar Gul Sufla",6,"Building",5
69.880302232,35.640124196,2,"Chawni School",807108,"Panjshir",3,"Paryan",1,"Chaoni",8,"Village",7
69.424468827,35.30317036,2,"Chamal Warda Mosque",802099,"Panjshir",3,"Rukha",1,"Chamal Warda",8,"Village",2
69.003424525,36.089925676,2,"Khwaja Gul Khar School",904265,"Baghlan",3,"Nahreen",1,"Khwaja Gul Khor",9,"District",4
66.461486995,34.932332993,2,"Kaligan Femal High School",1005178,"Bamyan",3,"Yakawlang",1,"Kaligan",10,"Building",5
62.363835,34.27125241,0,"Sar Asiab Scondary School",3202062,"Herat",3,"Enjil",3,"Sar Asiab Village",32,"Building",2
69.25501896,36.71706323,5,"Dahana Bangi School",1804059,"Takhar",7,"Bangi",2,"Saqaba",18,"Building",4
69.36576055,36.52873468,3,"Mawlawi Ezzatullah Shaheed High School",1804060,"Takhar",5,"Bangi",2,"Mirza Bacha",18,"Building",4
69.72089006,36.9165261,2,"Koktaba High School",1810119,"Takhar",3,"Rustaq",1,"Dasht Mirzayee",18,"Building",10
69.80510956,37.16897375,2,"Ganda Secondary School",1810120,"Takhar",4,"Rustaq",2,"Ganda",18,"Building",10
67.82924916,36.52187461,2,"Dawlat Abad Secondary School",2002022,"Samangan",3,"Hazrat-E-Sultan",1,"Dawlat Abad Village",20,"Building",2
67.89622142,36.45507944,3,"District Office",2002023,"Samangan",4,"Hazrat-E-Sultan",1,"District Compound",20,"Building",2
61.47871013,34.3447002,1,"Sar Asia Mosque",3211456,"Herat",3,"Ghoryan",2,"Markaz-E-Sar Asia",32,"Building",11
63.17585974,34.36984989,4,"Markaz-E-Oba High School",3212365,"Herat",6,"Obe",2,"Markaz-E-Oba Char Mahal",32,"Village",12
67.067175607,34.13035484,2,"Dara Ghol Sia Mosque",1007186,"Bamyan",3,"Waras",1,"Dara Ghol Sia",10,"Building",7
70.107234913,37.008310634,2,"Qala Zafar Mosque",1702287,"Badakhshan",3,"Argo",1,"Now Abad Qala Zafar",17,"Building",2
70.0865715,33.584588859,2,"Sari Pili School",1413185,"Khost",3,"Jaji Maidan",1,"Sara Pila",14,"Building",13
70.339929196,36.96926175,2,"Chapa Village Mosque",1707295,"Badakhshan",3,"Darayim",1,"Chapa",17,"Building",7
70.12431706,37.046219474,2,"Mosque",1810209,"Takhar",3,"Rustaq",1,"Dasht Amani",18,"Building",10
70.948278249,36.566111801,2,"Ogh Female Secondary School",1718313,"Badakhshan",3,"Yamgan",1,"Awrugh",17,"Building",18
68.579586645,36.96337173,2,"Secondary School",1907219,"Kunduz",3,"Qala-E-Zal",1,"Shor Aruq",19,"Building",7
65.716202445,33.939944208,2,"Mosque",2405182,"Daykundi",3,"Khedir",1,"Dahan Abdara",24,"Village",5
63.874135958,34.8362794,2,"Kaftar Khan Mosque",3106198,"Badghis",3,"Jawand",1,"Kaftar Khan",31,"Building",6
64.837401346,32.071870008,3,"New School",3008226,"Helmand",4,"Sangin Qala",1,"Nawi Maktab",30,"Building",8
62.161099311,34.364726459,2,"Sayed Qanad Secondary School",3201474,"Herat",4,"District_12",2,"Said Qunad Secondary School",32,"Building",1
62.18022871,34.373389482,2,"Mawlana Jame",3201475,"Herat",4,"Herat",2,"9Th District",32,"Building",1
69.26238547,34.60836995,2,"Haji Ahmad Shah Mosque",105474,"Kabul",4,"Dehsabz",2,"Qala-E-Zarin",1,"Building",5
69.03443985,34.68545039,4,"Dara-E-Shakar Dara High School",106394,"Kabul",7,"Shakar Dara",3,"Qala-E-Wazir",1,"Building",6
69.07541514,34.66741061,3,"Qala-E-Murad Big High School",106395,"Kabul",6,"Shakar Dara",3,"Qala-E-Murad Big",1,"Building",6
69.18468964,34.86588865,2,"Abdul Rahman Ba Ba Secondary School",114366,"Kabul",4,"Qara Bagh",2,"Denar Khel",1,"Building",14
69.15720909,34.84395674,3,"Abdul Wakil Shaheed High School",114367,"Kabul",5,"Qara Bagh",2,"District Capital",1,"Building",14
69.71990075,34.56868747,2,"Yar Del Orya Khel Mosque",115479,"Kabul",3,"Surubi",1,"Loy Kalai",1,"Building",15
69.57981103,34.36484157,2,"Tezen-E-Khas Primary School",115480,"Kabul",3,"Surubi",1,"Loy Kalai",1,"Building",15
69.59578261,34.57776629,1,"Guga Manda School",115517,"Kabul",2,"Surubi",1,"Guga Manda",1,"Building",15
69.83624382,34.66239124,1,"Sperkundi School",115518,"Kabul",2,"Surubi",1,"Sper Kundi",1,"Building",15
70.40295759,34.43259103,0,"Bakhtaan Clinic",603084,"Nangarhar",2,"Surkh Rud",2,"Du Saraka",6,"Village",3
70.22309465,34.35657341,3,"Fateh Abad Clinic",603085,"Nangarhar",3,"Surkh Rud",0,"Fateh Abad",6,"Building",3
66.92585335,34.08106757,1,"Takhta Ha Mosque",1007150,"Bamyan",2,"Waras",1,"Takhta Ha",10,"Building",7
66.97161039,34.03167321,1,"Waaz Darghan Mosque",1007151,"Bamyan",2,"Waras",1,"Waaz Darghan",10,"Building",7
66.96819418,34.11790565,2,"Toop-E-Ismael Mosque",1007159,"Bamyan",3,"Waras",1,"Nas Patan",10,"Building",7
69.07377057,32.9709349,2,"Big Mosque",1205081,"Paktika",2,"Sar Rawza",0,"Shah Tori",12,"Village",5
69.07476653,32.97138823,0,"Mohammad Hayat Guest House",1205082,"Paktika",2,"Sar Rawza",2,"Shah Tori",12,"Village",5
70.802447,34.35120751,2,"Dor Khel Maidan",614495,"Nangarhar",2,"Goshta",0,"Dor Khel",6,"Village",14
70.694153828,34.096795171,3,"Koshtal Mainz Village Mosque",615355,"Nangarhar",3,"Achin",0,"Koshtal",6,"Village",15
70.758938,34.11713102,3,"Perokhelo Tapa Mosque",615362,"Nangarhar",4,"Achin",1,"Zordeh Road",6,"Village",15
70.73537675,34.13147321,1,"Deh Sarak Kuhna High School",615363,"Nangarhar",2,"Achin",1,"Shekh Mal Khel",6,"Village",15
70.89086265,34.22176719,3,"Amaan Village Speen Mosque",617462,"Nangarhar",4,"Muhmand Dara",1,"Damaan Village",6,"Village",17
69.13194054,34.499387,3,"Resalat Madrassa",101123,"Kabul",6,"Kabul-D06",3,"Qala-E-Wazir",1,"Building",1
69.12361663,34.49259015,4,"Safid Mosque",101124,"Kabul",7,"Kabul-D06",3,"Qala-E-Wazir",1,"Building",1
69.15713866,34.49059366,3,"Sultan Razia Girls High School",101130,"Kabul",10,"Kabul-D07",7,"Bagh-E-Raees",1,"Building",1
69.13631605,34.43177569,3,"Family Haie Reshkhur High School",101131,"Kabul",6,"Kabul-D07",3,"Family Haie Reshkhur",1,"Building",1
69.23200021,34.51012161,3,"Sayed Noor Mohammad Shah Mohammadia Mosque",101157,"Kabul",4,"Kabul-D08",1,"Kart-E-Naw",1,"Building",1
69.23463786,34.50590043,3,"Ahmadi Mosque",101158,"Kabul",5,"Kabul-D08",2,"Kart-E-Naw",1,"Building",1
69.20139129,34.53786616,3,"Alfath High School",101182,"Kabul",6,"Kabul-D09",3,"3Rd Makrorian",1,"Building",1
69.20102822,34.54156532,3,"Abul Qasim Ferdawsi High School",101183,"Kabul",5,"Kabul-D09",2,"3Rd Makrorian",1,"Building",1
69.17536697,34.56037592,2,"Mohammadia Mosque",101198,"Kabul",4,"Kabul-D10",2,"Chahar Qala",1,"Building",1
69.16987809,34.56087391,2,"Bibi Ruqia Mosque",101199,"Kabul",4,"Kabul-D10",2,"Chahar Qala",1,"Building",1
69.17151227,34.54594068,2,"Fatimia Mosque",101213,"Kabul",4,"Kabul-D10",2,"Qala-E-Fathullah",1,"Building",1
69.16593309,34.54569498,1,"Sarak-E-Chahar Mosque",101214,"Kabul",2,"Kabul-D10",1,"Qala-E-Fathullah",1,"Building",1
69.19785094,34.54416071,2,"Haji Qasim Mosque",101218,"Kabul",3,"Kabul-D10",1,"Sarak-E-Bi Bi Mahro",1,"Building",1
69.20001902,34.54655347,2,"Bibi Mahru Girls High School",101219,"Kabul",6,"Kabul-D10",4,"Airport Road",1,"Building",1
69.00664213,32.18463805,3,"Mawlavi Serajuddin Madressa",1208126,"Paktika",4,"Gomal",1,"Payandi Village",12,"Building",8
68.85172837,32.44728365,3,"Shekin Bazaar Mosque",1208127,"Paktika",3,"Gomal",0,"Shekin",12,"Village",8
69.67766876,33.885779689,1,"Moti School",1308207,"Paktya",2,"Laja Ahmad Khel",1,"Moti Village, Sakander Khel",13,"Village",8
69.7848217,33.66666217,3,"Kotkai Mosque",1309170,"Paktya",3,"Jani Khel",0,"Kotkai, Setar Kalai",13,"Village",9
69.9427947,33.32614995,4,"Omer Village Dermand",1401003,"Khost",5,"Khost",1,"Omar Village",14,"Village",1
69.94409176,33.3276505,2,"Mohammad Vally Shah Hojra",1401004,"Khost",4,"Khost",2,"Shamal Omar Village",14,"Village",1
68.849979684,36.632766822,2,"Salarzai Mosque",1902115,"Kunduz",3,"Char Dara",1,"Naqil Salarzai",19,"Building",2
68.89822911,37.19456548,3,"Nomania Secondary School",1905093,"Kunduz",4,"Hazrat-E-Imam Sahib",1,"Imam Sahib City",19,"Building",5
68.90591411,37.15549619,3,"Ortablaqi School",1905094,"Kunduz",4,"Hazrat-E-Imam Sahib",1,"Ota Blaqiha Village",19,"Building",5
67.76274366,35.50397325,3,"Aabkhorak Madrassa",2005072,"Samangan",4,"Roi-Do-Ab",1,"Aabkhorak Village",20,"Building",5
67.81933833,35.56491998,2,"Do Aab Madrassa",2005073,"Samangan",3,"Roi-Do-Ab",1,"District Compound",20,"Building",5
66.08406227,37.00583957,3,"Chaar Changhoo High School",2804069,"Jawzjan",5,"Mingajik",2,"Chaar Changhoo",28,"Building",4
66.13708515,37.01402769,2,"Mangjeek School",2804070,"Jawzjan",4,"Mingajik",2,"Mangjeek",28,"Building",4
65.71695304,37.53171547,2,"Qarnas School",2806086,"Jawzjan",3,"Khamyab",1,"Qarnas",28,"Building",6
65.80223849,37.49518735,1,"Chopli Tapa",2806087,"Jawzjan",2,"Khamyab",1,"Chopli",28,"Building",6
64.88473039,36.41997614,3,"Qozi Bay Qala Girls High School",2909158,"Faryab",5,"Dawlat Abad",2,"Bay Qala Qozi",29,"Building",9
64.90297028,36.36500584,2,"Jar Qala School",2909159,"Faryab",4,"Dawlat Abad",2,"Kokcha Qala",29,"Building",9
62.39698059,34.27960544,2,"Shohada Secondary School",3202078,"Herat",2,"Enjil",0,"Sar Hasan Khwaja Village",32,"Building",2
62.62732016,34.22481174,3,"Shah Abad School",3206128,"Herat",5,"Pashtun Zarghun",2,"Shad Abad Village",32,"Building",6
62.59203992,34.2180142,2,"Gul Meer High School",3206129,"Herat",3,"Pashtun Zarghun",1,"Gul Meer Village",32,"Village",6
61.858275,30.946666,2,"Zaranj Hostel",3401007,"Nimroz",3,"Zaranj",1,"Zaranj",34,"Village",1
69.112452,34.524206,4,"Hazrat Shamsul Mashayakh High School",101086,"Kabul",8,"Kabul-D05",4,"Phase A Of Khush-Hal Mina",1,"Village",1
69.1707,34.5335,4,"Parsa Primary School",101022,"Kabul",8,"Kabul-D02",4,"Joy Sher",1,"Village",1
69.12468,34.544457,3,"Dehkepak Girls High School",101060,"Kabul",8,"Kabul-D04",5,"Naw Abad Dehkepak",1,"Building",1
63.82927902,33.82865917,2,"Khameen Secondary School",2309189,"Ghor",3,"Tulak",1,"Rabat",23,"Village",9
63.85116644,34.14520214,2,"Arbab Malek Private House",2309190,"Ghor",4,"Tulak",2,"Gaw Gosh",23,"Village",9
70.6901128,34.13027579,2,"Medanak Sadeq Hujra",615375,"Nangarhar",3,"Achin",1,"Medanak",6,"Building",15
70.79602604,34.0716142,2,"Tarkhai Primary School",620402,"Nangarhar",3,"Nazyan",1,"Morchal Village",6,"Village",20
68.76837563,33.13743336,3,"Merza Qala Mosque",1201017,"Paktika",3,"Sharan",0,"Merza Qala",12,"Village",1
68.76859979,33.13720056,0,"Asghar Guest House",1201018,"Paktika",3,"Sharan",3,"Merza Qala",12,"Village",1
62.37629026,34.06038433,1,"Kochis Location",3203117,"Herat",2,"Guzara",1,"Gumbadi Village",32,"Village",3
68.66176371,34.13266218,2,"Saleh Mohammad House",404083,"Wardak",4,"Chaki Wardak",2,"Noor Khel",4,"Village",4
69.34195848,32.79120847,0,"Makhfirollah Guest House",1214264,"Paktika",2,"Barmal",2,"Serdag",12,"District",14
65.16030108,32.05788655,1,"Juma Khan Private House",2709131,"Kandahar",2,"Ghorak",1,"Ishaaqzo Village",27,"District",9
63.70694444,34.67777777,1,"Gunbad Mosque",3104075,"Badghis",2,"Qadis",1,"Gunbad Village",31,"Building",4
66.928750303,34.274728609,2,"Mosque",1007188,"Bamyan",3,"Waras",1,"Qala Sia",10,"Village",7
68.14171882,33.247075315,2,"Qari Abdullah School",1111406,"Ghazni",3,"Qara Bagh",1,"Ashlian",11,"Building",11
69.178974,34.507042,1,"Khwaja Safa Mosque",101014,"Kabul",2,"Kabul-D01",1,"Balajoie Ashuqan-O-Arifan",1,"Village",1
69.18972,34.52555,3,"Ansori Balkhi School",101016,"Kabul",5,"Kabul-D01",2,"Bagh-E-Ali Mardan",1,"Village",1
69.13353,34.4696,2,"Deh Dana Girls High School",101141,"Kabul",6,"Kabul-D07",4,"Deh Dana",1,"Village",1
69.224282,34.506806,3,"Mohammad Hashim Maiwandwal High School",101153,"Kabul",5,"Kabul-D08",2,"Sarak-E-3 Rahman Mina",1,"Building",1
69.2342,34.5,3,"Usman Ghani Mosque",101160,"Kabul",5,"Kabul-D08",2,"Kart-E-Naw",1,"Building",1
69.225044,34.509681,3,"Shah Pacha Mosque",101162,"Kabul",5,"Kabul-D08",2,"First Road Of Rahman Mina, Behind Of Asphalt Factory",1,"Village",1
69.149183,34.591459,2,"500 Family Mosque",101248,"Kabul",3,"Kabul-D11",1,"Sarak-E-500 Family",1,"Village",1
69.129,34.4891,2,"Emam Jafar Mosque",101496,"Kabul",3,"Kabul-D11",1,"Imam-E-Jafar Mosque, Tapa-E-Sadat",1,"Building",1
69.159334,34.582873,3,"Parwareshgah Fresht-E-Nejat",101291,"Kabul",7,"Kabul-D15",4,"Khwaja Bughra Squre",1,"Village",1
69.16,34.5853,2,"Hazrat-E-Yousuf Mosque",101308,"Kabul",4,"Kabul-D15",2,"Sari Pule Khaja Bughra",1,"Building",1
65.709543,31.592479,3,"Haji Arab School",2717015,"Kandahar",6,"Dand",3,"D02 - Nahia 2",27,"Village",17
65.696402,31.591113,4,"Salo Khan Chaman Mosque",2717052,"Kandahar",7,"Dand",3,"Alkozo Koch Khana",27,"Building",17
69.13585256,34.5765601,4,"Abdul Ghafor Nadim High School",101237,"Kabul",7,"Kabul-D11",3,"Khair Khana Kindergarten",1,"Building",1
69.14429722,34.56518055,2,"Hazrat Yousuf Mosque",101238,"Kabul",6,"Kabul-D11",4,"Lab Jar",1,"Building",1
69.06990089,34.50474088,1,"Imam Mohammad Taqi Mosque",101257,"Kabul",3,"Kabul-D13",2,"Bagh-E-Khan",1,"Building",1
69.07752777,34.49613888,6,"Abdur Rahim Shaheed High School",101258,"Kabul",12,"Kabul-D13",6,"Dasht-E-Best Hazari",1,"Building",1
69.06700537,34.48731744,1,"Musa Ibne Jafar Mosque",101262,"Kabul",3,"Kabul-D13",2,"Naw Abad Dogh Abad",1,"Building",1
69.05467935,34.49991778,5,"Marefat High School",101263,"Kabul",9,"Kabul-D13",4,"Guzar-E-Gulistan",1,"Building",1
71.04422899,34.20087095,4,"Sulh Azadi Commerce High School",617463,"Nangarhar",4,"Muhmand Dara",0,"Loy Daka",6,"Building",17
69.160067815,34.572254345,2,"Prozha Khurasan Mosque",101529,"Kabul",3,"Nahia_15",1,"District-15",1,"Building",1
69.1636212,34.581793968,2,"Khoja Bughra Mosque",101530,"Kabul",3,"Nahia_15",1,"Pawar Station Street",1,"Building",1
69.068285149,34.606757086,3,"Sedeq Akbar High School",101531,"Kabul",5,"Nahia_17",2,"Nejat Town",1,"Building",1
69.390961368,34.56682518,2,"Haji Abdullah Khan Mosque",105533,"Kabul",3,"Dehsabz",1,"Torkham Transportation Station",1,"Building",5
69.372638397,34.603846217,2,"Qais Wa Lang Mosque",105541,"Kabul",3,"Dehsabz",1,"Jeeran",1,"Village",5
69.1692788,34.617692925,2,"Shahrak Alghawi Mosque",106542,"Kabul",3,"Shakar Dara",1,"Alghawi Town",1,"Building",6
70.622426047,34.403086896,2,"School",605511,"Nangarhar",3,"Kama",1,"Deh Taher",6,"Building",5
70.663916925,34.387488467,2,"Primary School",602509,"Nangarhar",3,"Behsud",1,"Gardiks",6,"Village",2
70.323374439,34.424059719,2,"Saido Khil School",603510,"Nangarhar",3,"Surkh Rud",1,"Saido Khil",6,"Building",3
70.65022811,34.431119083,2,"Mosque",605514,"Nangarhar",3,"Kama",1,"Bazid Khil",6,"Building",5
70.530009643,34.563740734,2,"Gambiri School",606515,"Nangarhar",3,"Kuz Kunar",1,"Gambiri",6,"Building",6
70.189873303,34.347362086,2,"High School",608516,"Nangarhar",3,"Khugyani",1,"Chemtala",6,"Building",8
69.546815897,35.30975224,2,"Koh Manjahoor Secondary School",801097,"Panjshir",3,"Bazarak",1,"Dashtak",8,"Building",1
69.47956859,35.277739142,2,"Marshal Faheem Mosque",801098,"Panjshir",3,"Bazarak",1,"Province Center_Bazarak",8,"Building",1
68.769196919,35.758910542,2,"Sang Sorakh Secondary School",903262,"Baghlan",3,"Doshi",1,"Sang Sorakh",9,"Building",3
68.805076824,35.837026663,2,"Nasri Secondary School",903263,"Baghlan",3,"Doshi",1,"Naseri Ha",9,"Building",3
68.647883396,35.598126999,2,"School",903264,"Baghlan",3,"Doshi",1,"Dara Gai",9,"Building",3
70.536641035,37.105604606,2,"Al Jahad High School",1701284,"Badakhshan",3,"Faiz Abad",1,"Dasht Shhada",17,"Building",1
70.455790503,37.298549245,2,"Warig High School",1704292,"Badakhshan",3,"Yaftal-E-Sufla",1,"Warang",17,"Building",4
70.426839277,37.364836385,2,"Pahn Dara Secondary School",1704293,"Badakhshan",3,"Yaftal-E-Sufla",1,"Pahn Dara",17,"Building",4
70.437277503,36.864329893,2,"Targani Payan Madrasa",1707294,"Badakhshan",3,"Darayim",1,"Trangai Paian",17,"Building",7
69.867197476,33.288715133,2,"Shahr Kli Mosque",1404182,"Khost",3,"Tanay",1,"Shaher Village",14,"District",4
69.881096,33.334015,2,"Mohammad Anwer Mosque And Hojra",1401024,"Khost",3,"Khost",1,"Maton Chinay Village",14,"Village",1
69.158374,32.918975,2,"Orgon Old School",1211163,"Paktika",2,"Urgoon",0,"Qara Khel Village",12,"Village",11
69.286422,32.740717,0,"Molla Aqib Khan Guest House",1214252,"Paktika",3,"Barmal",3,"Fakhir Khan Madrassa",12,"Village",14
72.794213572,36.976909753,1,"Khana Qala Panja Mosque",1728211,"Badakhshan",2,"Wakhan",1,"Sast",17,"Building",28
70.5771989,37.11921975,4,"Itifaq Mosque",1701008,"Badakhshan",6,"Faiz Abad",2,"D01 - Zone One",17,"Building",1
70.52952398,37.15679029,3,"Ziauddin Shaheed School",1701009,"Badakhshan",4,"Faiz Abad",1,"Aas Village",17,"Building",1
69.17453754,37.08745351,2,"Mula Qali High School",1906185,"Kunduz",3,"Dasht-E-Archi",1,"Mula Qali Village",19,"Building",6
68.94444444,37.21777777,3,"Qarghan Tapa Secondary School",1905067,"Kunduz",4,"Hazrat-E-Imam Sahib",1,"Qorghan Tapa",19,"Building",5
70.58084193,37.11750057,3,"Makhfi High School Old Building",1701019,"Badakhshan",5,"Faiz Abad",2,"Nahia 1 Shahr Kuhna",17,"Building",1
70.42126568,37.05186245,3,"Shahr-E-Wahdat Girls High School",1702056,"Badakhshan",4,"Argo",1,"Shahr-E-Wahdat",17,"Building",2
70.32949994,37.0478517,2,"Barlaas Chenar School",1702057,"Badakhshan",3,"Argo",1,"Barlaas Chenar",17,"Building",2
70.41409324,37.28183873,2,"Naland Clinic - District Office",1704025,"Badakhshan",4,"Yaftal-E-Sufla",2,"Naland",17,"Building",4
70.27127866,37.21973997,3,"Anar Dara School",1704026,"Badakhshan",4,"Yaftal-E-Sufla",1,"Anar Dara",17,"Building",4
70.33566635,37.33960511,1,"Keshtgaah School",1704031,"Badakhshan",3,"Yaftal-E-Sufla",2,"Dasht Shebar",17,"Building",4
70.34956235,37.39818137,2,"Shalakhzar School",1704032,"Badakhshan",3,"Yaftal-E-Sufla",1,"Shalakhzar",17,"Building",4
70.71704087,36.99123999,2,"Tajekan Girls High School",1705077,"Badakhshan",4,"Khash",2,"Tajekan",17,"Building",5
70.7494541,37.02623219,2,"Durkhaan Secondary School",1705078,"Badakhshan",4,"Khash",2,"Durkhaan",17,"Building",5
70.3481802,36.93047356,3,"Madina High School",1707063,"Badakhshan",4,"Darayim",1,"Fazlan Village",17,"Building",7
70.37225426,36.9031265,2,"Naw Abaad Roy Dasht Mosque",1707068,"Badakhshan",3,"Darayim",1,"Sahibuddin House",17,"Building",7
70.47925158,36.85902402,2,"Aarifan High School",1707071,"Badakhshan",3,"Darayim",1,"Bagh Sufi",17,"Building",7
70.52943455,36.84420123,2,"Do-Aab Manji High School",1707072,"Badakhshan",3,"Darayim",1,"Do-Aab",17,"Building",7
70.48580701,37.50666117,2,"Zo School",1709134,"Badakhshan",3,"Yawan",1,"Zo",17,"Building",9
70.50989858,37.52152262,1,"Petaaw School",1709135,"Badakhshan",2,"Yawan",1,"Petaaw",17,"Building",9
70.8390593,36.85327794,2,"Ghulam Mohammad Khar Andab High School",1710084,"Badakhshan",4,"Jurm",2,"Khar Andab",17,"Building",10
70.16815296,37.31107211,2,"Khordakan High School",1713137,"Badakhshan",4,"Shahr-E-Buzurg",2,"Khordakan",17,"Building",13
70.17411809,37.38181749,2,"Kura Been School",1713138,"Badakhshan",3,"Shahr-E-Buzurg",1,"Kura Been",17,"Building",13
70.04925382,37.35579982,1,"Baari Kham",1713143,"Badakhshan",2,"Shahr-E-Buzurg",1,"Baari Kham",17,"Building",13
70.13734916,37.41058833,2,"Chawgani High School",1713144,"Badakhshan",3,"Shahr-E-Buzurg",1,"Chawgani",17,"Building",13
70.17859775,36.82647285,1,"Wakhshi School",1715162,"Badakhshan",2,"Kishm",1,"Wakhshi",17,"Building",15
70.17093583,36.83144968,1,"Khumbak School",1715163,"Badakhshan",2,"Kishm",1,"Khumbak",17,"Building",15
71.140130126,36.688865244,1,"Teer Garan Girls High School",1716098,"Badakhshan",2,"Wardooj",1,"Teer Garan",17,"Building",16
71.54261771,37.77451852,1,"Chansoor Ulya High School",1719221,"Badakhshan",2,"Shighnan",1,"Chansor Ulya",17,"Building",19
70.22138848,37.884655,2,"Sang Aab Mosque",1720238,"Badakhshan",3,"Khwahan",1,"Sang Aab",17,"Building",20
71.52269,36.85506,1,"Yakhdaro School",1723199,"Badakhshan",2,"Eshkashim",1,"Yakhdaro",17,"Building",23
71.4294805,37.06001627,1,"Zeech School",1723200,"Badakhshan",2,"Eshkashim",1,"Zeech",17,"Building",23
71.3891728,36.60264288,1,"Aashor Bek School",1725193,"Badakhshan",2,"Zebak",1,"Zarkhan",17,"Building",25
71.3918012,36.5730477,1,"Dand School",1725194,"Badakhshan",2,"Zebak",1,"Dand Village",17,"Building",25
70.90075681,35.98193043,1,"Shahran Clinic",1726191,"Badakhshan",2,"Kiran Wa Menjan",1,"Shahran",17,"Building",26
70.92810794,38.2738718,3,"Khurkad Madrassa",1727268,"Badakhshan",4,"Darwaz-E-Bala",1,"Khurkad",17,"Village",27
70.567483963,37.453043658,2,"Zard Noor Mosque",1708296,"Badakhshan",3,"Kohistan",1,"Zarnod Bala",17,"Building",8
70.585417967,37.124716072,2,"Makhfi High School",1701285,"Badakhshan",3,"Faiz Abad",1,"Gozar Mahkama",17,"Building",1
70.449294951,37.049150545,2,"Gnda Chasma Secondary High School",1702286,"Badakhshan",3,"Argo",1,"Ganda Cheshma",17,"Building",2
70.179560896,36.970783704,2,"Pista Khor School",1711303,"Badakhshan",3,"Tashkan",1,"Pista Khor",17,"Building",11
70.258990402,36.92515974,2,"Hazrat Abas School",1711304,"Badakhshan",3,"Tashkan",1,"Totak",17,"Village",11
70.036224542,37.476131366,2,"School",1713306,"Badakhshan",3,"Shahr-E-Buzurg",1,"Aspa Khwa",17,"Building",13
70.124401614,37.350399749,2,"Bul Bul Dara Mowque",1713307,"Badakhshan",3,"Shahr-E-Buzurg",1,"Bul Bul Dara!",17,"Building",13
71.058029287,36.87623437,2,"Sar Qalat Mosque",1716311,"Badakhshan",3,"Wardooj",1,"Qalat",17,"Building",16
70.837992583,36.523328995,2,"Primary School",1718314,"Badakhshan",3,"Yamgan",1,"Ta Lolich",17,"Building",18
71.439398524,37.219533004,2,"Gharan Bala High School",1723315,"Badakhshan",3,"Eshkashim",1,"Qaz Deh",17,"Village",23
69.64891581,36.67202229,4,"Khatayan High School",1801002,"Takhar",6,"Taluqan",2,"Khatayan",18,"Building",1
69.6140482,36.71013466,5,"Alfarooq School",1801003,"Takhar",7,"Taluqan",2,"Alfarooq",18,"Building",1
69.6698006,36.7960468,3,"Khwaja Khalil School",1801005,"Takhar",4,"Taluqan",1,"Khwaja Khalil",18,"Building",1
69.53944421,36.73917365,5,"Sayed Abdullah Boys High School",1801006,"Takhar",7,"Taluqan",2,"D03 - Nahia 3",18,"Building",1
69.53416046,36.73622772,5,"Doctar Sayed Hussain High School",1801010,"Takhar",7,"Taluqan",2,"D03 - Nahia 3",18,"Building",1
69.5491905,36.73069365,6,"Abu Usman Boys High School",1801011,"Takhar",9,"Taluqan",3,"D01 - Nahia 1",18,"Building",1
69.3639122,36.74086425,4,"Gul Nazar High School",1801021,"Takhar",6,"Taluqan",2,"Shuhada Qalbaras",18,"Building",1
69.42963423,36.72563101,5,"Aaq Masjid High School",1801022,"Takhar",8,"Taluqan",3,"Aaq Masjid",18,"Building",1
69.59076978,36.7430891,2,"Ganj Ali Beg High School",1801032,"Takhar",4,"Taluqan",2,"Ganj Ali Beg",18,"Building",1
67.09460181,36.68296109,4,"Sayed Ismail Balkhi School",2101023,"Balkh",7,"Mazar-E-Sharif",3,"D05 - Nahia 5",21,"Building",1
67.08301316,36.67879383,3,"Nasaji",2101024,"Balkh",5,"Mazar-E-Sharif",2,"D05 - Nahia 5",21,"Building",1
67.12259213,36.69122549,4,"Khurasan Girls School",2101029,"Balkh",8,"Mazar-E-Sharif",4,"D07 - Nahia 7 Karta-E-Khurasan",21,"Building",1
67.13865026,36.71593479,1,"Ustad Jaahed School",2101030,"Balkh",3,"Mazar-E-Sharif",2,"D07 - Nahia 7 Karta-E-Sulh",21,"Building",1
67.156912832,36.719204918,4,"Shaheed Abdul Ali Mazari Number 2 School",2101041,"Balkh",8,"Mazar-E-Sharif",4,"D10 - Nahia 10 Guzar Ali Chopan",21,"Building",1
67.12696153,36.71042604,3,"Neft O Gas Institute",2101042,"Balkh",6,"Mazar-E-Sharif",3,"D06 - Nahia 6 Gas Institute",21,"Building",1
66.93153895,36.66783093,4,"Bibi Zainab School",2103052,"Balkh",7,"Dehdadi",3,"Kod Wa Barq Familiha",21,"Village",3
66.95107762,36.70424663,2,"Kaka Kot School",2103053,"Balkh",3,"Dehdadi",1,"Kaka Kot Village",21,"Building",3
67.00513582,36.6657706,3,"Ghulam Mohammad Shaheed School",2103056,"Balkh",4,"Dehdadi",1,"Pul Baboo Village",21,"Building",3
66.96611752,36.65728069,2,"Saleh Mohammad School",2103057,"Balkh",4,"Dehdadi",2,"Pusht Bagh",21,"Building",3
66.98563354,36.66921338,2,"Shaikh Abad School",2103062,"Balkh",4,"Dehdadi",2,"Shekh Abad Village",21,"Building",3
67.18882246,36.41572155,2,"Shar Shar Sufla School",2104274,"Balkh",3,"Char Kent",1,"Shar Shar Village",21,"Building",4
66.89287681,36.73866946,2,"Amir Mohammad Tokhi School",2106149,"Balkh",3,"Balkh",1,"Rabat Village",21,"Building",6
66.8982958,36.75115568,2,"Sehat Aama Clinic",2106151,"Balkh",3,"Balkh",1,"District Compound",21,"Building",6
66.94018596,36.8331655,1,"Colombo School",2106162,"Balkh",2,"Balkh",1,"Colombo Village",21,"Building",6
66.91052784,36.90615655,2,"Dewali Maidan School",2106163,"Balkh",3,"Balkh",1,"Dewali Maidan Village",21,"Building",6
66.78835042,36.82595595,1,"Arghandab Mosque",2106173,"Balkh",2,"Balkh",1,"Arghandab Village",21,"Building",6
66.87986969,36.6876157,2,"Oof Maleek School",2106174,"Balkh",3,"Balkh",1,"Oof Maleek Village",21,"Building",6
66.88584901,36.38632024,2,"Bibi Amena School",2107244,"Balkh",3,"Sholgara",1,"Qor Baqa Khana Village",21,"Building",7
66.88643168,36.39942851,1,"Agha Jan School",2107245,"Balkh",2,"Sholgara",1,"Agha Jan Village",21,"Building",7
66.88052238,36.36404936,2,"Ahmad Alkhadroya School",2107250,"Balkh",4,"Sholgara",2,"Baba Ewaz Village",21,"Building",7
66.88051663,36.34903405,2,"Bibi Maryam School",2107251,"Balkh",3,"Sholgara",1,"Sar Asyab Village",21,"Building",7
66.9329974,36.41312523,2,"Qaland Khalili School",2107256,"Balkh",3,"Sholgara",1,"Qaland Khalili Village",21,"Building",7
66.91434837,36.31602631,2,"Ai Latan School",2107257,"Balkh",3,"Sholgara",1,"Ai Latan Village",21,"Building",7
66.88757994,36.39270831,1,"Lal Mohammad Private House",2107273,"Balkh",2,"Sholgara",1,"Qor Baqa Khana",21,"Building",7
66.90842625,36.64142692,2,"Mir Qasim Jan School",2108211,"Balkh",3,"Chimtal",1,"Mir Qasim Jan Village",21,"Building",8
66.94397298,36.59627844,1,"Rabat School",2108232,"Balkh",2,"Chimtal",1,"Rabat Village",21,"Building",8
66.57765352,36.72690038,2,"Nawshahr Alizai Mosque",2108233,"Balkh",3,"Chimtal",1,"Nawshahr Alizai Village",21,"Village",8
66.77331454,37.02582625,2,"Tali Gag School",2109133,"Balkh",3,"Dawlat Abad",1,"Tali Gag Village",21,"Building",9
66.87380091,36.96468585,1,"Hashim Abad Mosque",2109134,"Balkh",2,"Dawlat Abad",1,"Hashim Abad Watani Village",21,"Building",9
66.94331175,37.02871516,1,"Zadiyan School",2109139,"Balkh",2,"Dawlat Abad",1,"Zadiyan Village",21,"Building",9
66.8254389,36.94535127,1,"Bay Mashhad School",2109140,"Balkh",2,"Dawlat Abad",1,"Bay Mashhad Village",21,"Building",9
67.7277756,36.70437375,1,"Khwaja Burhan Girls School",2110079,"Balkh",3,"Khulm",2,"Sarhang",21,"Building",10
67.68690377,36.71153203,1,"Amin Hussain Girls School",2110080,"Balkh",3,"Khulm",2,"Khanqah Mirza Khairuddin",21,"Building",10
66.67056431,36.75380946,1,"Abu Shakoor Balkhi School",2111180,"Balkh",2,"Char Bolak",1,"Aaq Tapa",21,"Building",11
66.62354126,36.89589412,2,"Ahmad Abad School",2111181,"Balkh",3,"Char Bolak",1,"Ahmad Abad Village",21,"Building",11
66.68034754,36.82546374,2,"Arnagha School",2111184,"Balkh",3,"Char Bolak",1,"Arnagha Village",21,"Building",11
66.70254091,36.89436801,1,"Adeena Mosque",2111185,"Balkh",2,"Char Bolak",1,"Aadina Mosque Village",21,"Building",11
66.56485238,36.92522358,1,"Borolok School",2111190,"Balkh",2,"Char Bolak",1,"Borolok Village",21,"Building",11
66.59436644,36.77254882,1,"Badaye Bakhli School",2111191,"Balkh",2,"Char Bolak",1,"Taimorak Village",21,"Building",11
66.70557881,36.76744425,1,"Districts Building",2111201,"Balkh",2,"Char Bolak",1,"Chahar Bolak District Office",21,"Building",11
66.59314553,36.87782087,1,"Mangoli School",2111202,"Balkh",2,"Char Bolak",1,"Mangoli Village",21,"Building",11
66.743505,36.84249054,1,"Jame Mosque",2111206,"Balkh",2,"Char Bolak",1,"Shekh Tash Taimor Village",21,"Building",11
66.74912891,36.78573044,1,"Mula Shaheen Private House",2111207,"Balkh",2,"Char Bolak",1,"Mula Shaheen Village",21,"Building",11
67.32541634,37.17481985,2,"Jirtan School",2112109,"Balkh",3,"Shortepa",1,"Jirtan Village",21,"Building",12
67.21001137,37.20217915,2,"Tashguzar School",2112110,"Balkh",3,"Shortepa",1,"Hazara Toqi Village",21,"Building",12
67.5054935,37.23345408,2,"Tazlaq Secondary School",2113101,"Balkh",3,"Kaldar",1,"Tazlaq Village",21,"Building",13
67.74368254,37.18503166,1,"Haji Wali Private House",2113102,"Balkh",2,"Kaldar",1,"Taza Areekh Village",21,"Building",13
67.7200387,37.19529916,1,"Bozareekh Secondary School",2113105,"Balkh",2,"Kaldar",1,"Boz Areekh Village",21,"Building",13
67.67817135,37.19878578,1,"Kareem Qaryadar Private House",2113106,"Balkh",2,"Kaldar",1,"Qaraja Village",21,"Building",13
66.90077498,36.07968956,2,"Kushenda Bala School",2114290,"Balkh",3,"Kishindeh",1,"Kushenda Bala Village",21,"Building",14
66.92153775,36.15308457,2,"Kushenda Payan School",2114291,"Balkh",3,"Kishindeh",1,"Kushenda Payan Village",21,"Building",14
66.73298013,35.8317105,3,"Abdaalgan Secondary School",2115313,"Balkh",4,"Zari",1,"Banigo Village",21,"Building",15
69.62556305,36.78475052,2,"Ochqadaq",1801033,"Takhar",3,"Taluqan",1,"Ochqadaq",18,"Building",1
69.68538256,36.90286679,1,"Khwaja Lamtoo Mosque",1802038,"Takhar",2,"Hazar Sumuch",1,"Khwaja Lamtoo",18,"Building",2
69.61232873,36.98979419,1,"Qala Mama Ye School",1802039,"Takhar",2,"Hazar Sumuch",1,"Qala Mama Ye",18,"Building",2
69.3418959,36.66492815,5,"Etihad High School",1804062,"Takhar",8,"Bangi",3,"Afaqi",18,"Building",4
69.3587132,36.58588341,2,"Mansoor Shaheed High School",1804063,"Takhar",4,"Bangi",2,"Chala Tash",18,"Building",4
65.926926358,31.426069541,2,"Tbc Clinic",2703086,"Kandahar",3,"Daman",1,"Haji Aziz Village",27,"Village",3
65.32078235,31.44977518,1,"Talgaan Camp",2704175,"Kandahar",2,"Panjwayee",1,"Talgan",27,"Village",4
65.25783581,31.4666463,1,"Shar Ali Camp",2704176,"Kandahar",2,"Panjwayee",1,"Moshan",27,"Village",4
65.45488092,31.54288046,4,"Shamsuddin Kakar School",2704180,"Kandahar",4,"Panjwayee",0,"Panjwayee Markaz",27,"Building",4
65.39819452,31.67175419,1,"6Th Camp School",2705155,"Kandahar",2,"Zhire",1,"Zharee Dasht",27,"Building",5
65.49932066,31.62737545,1,"5Th Camp School",2705156,"Kandahar",2,"Zhire",1,"Zharee Dasht",27,"Village",5
66.43391831,30.96608532,5,"Doctar Mohammad Dawood Private House",2711205,"Kandahar",6,"Spin Boldak",1,"Nawee Village",27,"Building",11
66.41453319,30.98503304,4,"Haji Kamaluddin Private House",2711227,"Kandahar",6,"Spin Boldak",2,"Bilal Abad",27,"Building",11
65.64584103,29.78775459,4,"Sher Shah School",2716196,"Kandahar",7,"Reg",3,"Sher Shah",27,"Village",16
65.07035892,29.58181044,4,"Kaami School",2716197,"Kandahar",6,"Reg",2,"Kaami",27,"Village",16
65.65040373,31.58133525,4,"Zakir Sharif School",2717064,"Kandahar",6,"Dand",2,"D06 - Nahia 6",27,"District",17
65.836688262,31.39352192,4,"Peer Mohammad Private House",2718237,"Kandahar",8,"Takhta Pul",4,"Mirano Village",27,"Village",18
65.712426147,31.477177611,4,"Camp School",2718238,"Kandahar",8,"Takhta Pul",4,"Tajo Khan Village",27,"Village",18
65.79635831,36.53147198,4,"Afghan Tapa High School",2801025,"Jawzjan",6,"Sheberghan",2,"D01 - Nahia 1",28,"Building",1
65.83629619,36.73310635,3,"Chaharshanba Secondary School",2801026,"Jawzjan",5,"Sheberghan",2,"D04 - Nahia 4",28,"Building",1
65.70772241,36.66211309,2,"Lab Jar Khurasan Secondary School",2801027,"Jawzjan",3,"Sheberghan",1,"D02 - Nahia 2",28,"Building",1
65.751975004,36.681679035,2,"Chobash Kalan Secondary School",2801028,"Jawzjan",3,"Sheberghan",1,"D04 - Nahia 4",28,"Building",1
65.75134211,36.60177472,2,"Shakarak Secondary School",2801031,"Jawzjan",3,"Sheberghan",1,"D03 - Nahia 3",28,"Building",1
65.76944668,36.61539363,2,"Hassan Tabeen High School",2801032,"Jawzjan",3,"Sheberghan",1,"D03 - Nahia 3",28,"Building",1
66.10100832,36.88280696,1,"Bakawal Turkmania Mosque",2803118,"Jawzjan",2,"Khanaqa",1,"Bakawal Turkmania",28,"Building",3
66.10836769,36.84241831,2,"Aleek Rabat Secondary School",2803119,"Jawzjan",3,"Khanaqa",1,"Aleek Rabat",28,"Building",3
65.46201696,36.16901708,2,"Choqma Chaqoor School",2805090,"Jawzjan",4,"Qush Tepa",2,"Qosh Taba",28,"Building",5
65.48422199,36.30457647,3,"Jarqadoq School",2805091,"Jawzjan",4,"Qush Tepa",1,"Qosh Taba",28,"Building",5
66.1831244,36.91258154,2,"Aaqcha Girls High School",2807038,"Jawzjan",4,"Aqchah",2,"D01 - Nahia 1",28,"Building",7
66.18906133,36.9065459,2,"Abu Bakr Sediq Mosque",2807039,"Jawzjan",4,"Aqchah",2,"D01 - Nahia 1",28,"Building",7
66.49247092,36.92369511,2,"Bala Mardiyan Boys High School",2808052,"Jawzjan",3,"Faizabad",1,"Bala Mardiyan Village",28,"Building",8
66.38579856,36.82281417,1,"Noor Abad Secondary School",2808053,"Jawzjan",2,"Faizabad",1,"Noor Abad Village",28,"Building",8
66.26745896,36.89846106,2,"Hindukush Primary School",2809063,"Jawzjan",3,"Mardyan",1,"Hindukush",28,"Building",9
66.35597865,37.02487299,1,"Farok Qala Secondary School",2809064,"Jawzjan",2,"Mardyan",1,"Farok Qala",28,"Building",9
66.31164861,36.86096946,1,"Saltaq School",2809068,"Jawzjan",2,"Mardyan",1,"Saltaq Village",28,"Building",9
66.03388355,37.41319326,6,"Makhdoom Qali Faraghi High School",2810080,"Jawzjan",9,"Qarqin",3,"Makhdoom Qali Faraghi",28,"Building",10
66.06893117,37.40445102,3,"Joy Sarai Secondary School",2810081,"Jawzjan",4,"Qarqin",1,"Joy Sarai",28,"Building",10
66.192821144,37.345530283,1,"Kok Secondary School",2810082,"Jawzjan",2,"Qarqin",1,"Shahab Village",28,"Building",10
65.38575476,35.97807055,3,"Darzaab Boys High School",2811096,"Jawzjan",4,"Darzab",1,"District Compound",28,"Building",11
65.39607937,35.97869227,2,"Abu Zar Ghaffari School",2811097,"Jawzjan",3,"Darzab",1,"Mafal",28,"Building",11
65.48009886,36.02757456,2,"Tash Jawaz School",2811102,"Jawzjan",3,"Darzab",1,"Tash Jawaz Village",28,"Building",11
65.76628845,36.64339751,4,"Kok Gunbad Girls High School",2801011,"Jawzjan",6,"Sheberghan",2,"D03 - Nahia 3",28,"Building",1
65.77724422,36.65605427,5,"Arab Khana High School",2801012,"Jawzjan",8,"Sheberghan",3,"D01 - Nahia 1",28,"Building",1
65.79870492,36.65051478,4,"Aalti Khwaja High School",2801020,"Jawzjan",6,"Sheberghan",2,"D01 - Nahia 1",28,"Building",1
65.81236926,36.55976264,3,"Qara Kent Boys High School",2801021,"Jawzjan",5,"Sheberghan",2,"D01 - Nahia 1",28,"Building",1
65.63238222,36.75863461,2,"Chob Bash High School",2802112,"Jawzjan",3,"Khwaja Dukoh",1,"Chob Bash",28,"Building",2
66.16999784,36.869482016,2,"Khanqah Uzbekya Girls High School",2803120,"Jawzjan",3,"Khanaqa",1,"Khanqah Uzbekya",28,"Building",3
66.06001537,37.06251246,2,"Safar Wali Awal School",2804072,"Jawzjan",3,"Mingajik",1,"Safar Wali Awal",28,"Building",4
65.96813097,37.03736691,1,"Qowenli Muhajir School",2804075,"Jawzjan",2,"Mingajik",1,"Qowenli Muhajir",28,"Building",4
66.05047808,36.91876332,2,"Sultan Areegh School",2804076,"Jawzjan",3,"Mingajik",1,"Sultan Areegh",28,"Building",4
65.9458042,37.07302692,1,"Qara-E-Adeek Mosque",2804079,"Jawzjan",2,"Mingajik",1,"Masjid Qara-E-Adeek",28,"Building",4
65.37244852,36.06262223,4,"Sher Bek School",2805088,"Jawzjan",6,"Qush Tepa",2,"Qosh Taba",28,"Building",5
66.22116927,36.88634069,2,"Laghmani Mosque",2807042,"Jawzjan",3,"Aqchah",1,"Laghmani Village",28,"Building",7
66.24548547,36.84677491,1,"Yandagh Areegh Mosque",2807043,"Jawzjan",2,"Aqchah",1,"Yandagh Areegh",28,"Building",7
65.7747411,36.65930437,5,"General Abdul Rashid Dostam High School",2801004,"Jawzjan",8,"Sheberghan",3,"D01 - Nahia 1",28,"Building",1
65.7574523,36.68300868,4,"Zokoor Yaka Bagh Boys High School",2801005,"Jawzjan",7,"Sheberghan",3,"D04 - Nahia 4",28,"Building",1
66.15835072,36.91780844,3,"Yangee Areegh Turkmania Boys High School",2807044,"Jawzjan",5,"Aqchah",2,"Yangee Areegh",28,"Building",7
66.15488049,36.88841852,3,"Besh Kapa Surkh School",2807045,"Jawzjan",4,"Aqchah",1,"Besh Kapa Surkh",28,"Building",7
66.45631585,36.82390554,2,"Shaheed Latifa Habibi Girls High School",2808049,"Jawzjan",4,"Faizabad",2,"Sanseez Village",28,"Building",8
66.46061417,36.787783,2,"Shisha Khana Boys High School",2808054,"Jawzjan",3,"Faizabad",1,"Shisha Khana Arabia Village",28,"Building",8
66.52927959,36.84811135,1,"Memleek Secondary School",2808055,"Jawzjan",2,"Faizabad",1,"Memleek Village",28,"Building",8
66.5648053,36.80236166,1,"Koshgak Girls High School",2808056,"Jawzjan",2,"Faizabad",1,"Koshgak Village",28,"Building",8
66.50101108,36.77338453,2,"Garjak Boys Secondary School",2808057,"Jawzjan",3,"Faizabad",1,"Garjak Village",28,"Building",8
66.41299969,36.86140732,1,"Nasrat Abad Secondary School",2808059,"Jawzjan",2,"Faizabad",1,"Nasrat Abad Village",28,"Building",8
66.26003749,36.94693523,3,"Jangal Areegh Secondary School",2809061,"Jawzjan",5,"Mardyan",2,"Jangal Areegh Village",28,"Building",9
66.23539951,37.0109254,1,"Cheleek Ganj Secondary School",2809066,"Jawzjan",2,"Mardyan",1,"Cheleek Ganj Village",28,"Building",9
65.5214442,36.09054113,1,"Aqsaay School",2811106,"Jawzjan",2,"Darzab",1,"Aqsaay",28,"Village",11
65.375782515,35.979389936,1,"Turkman Qadoq School",2811107,"Jawzjan",2,"Darzab",1,"Darzaab",28,"Building",11
66.459936302,36.855724596,2,"Char Bagh High School",2808126,"Jawzjan",3,"Faizabad",1,"Chahar Bagh",28,"Building",8
64.73979583,35.94856963,3,"Sar Balaq School",2901008,"Faryab",5,"Maimana",2,"D09 - Nahia 9",29,"Building",1
64.77917882,35.91522957,5,"Abu Muslim Khurasani Madrassa",2901009,"Faryab",5,"Maimana",0,"D03 - Nahia 3",29,"Building",1
64.77063459,35.92529673,5,"Maimana Agriculture Vocational High School",2901014,"Faryab",5,"Maimana",0,"D03 - Nahia 3",29,"Building",1
64.80351784,35.90736653,3,"Deh Sayedan Girls High School",2901015,"Faryab",5,"Maimana",2,"D06 - Nahia 6",29,"Building",1
64.66497137,36.03524103,3,"Khwaja Namosi Boys School",2902018,"Faryab",3,"Pashtun Kot",0,"Khwaja Namosi",29,"Village",2
69.84615913,36.84483707,3,"Mir Hassan Nawan Secondary School",1807094,"Takhar",5,"Kalafgan",2,"Nawan",18,"Building",7
69.97050021,36.8640258,3,"Hazrat Khalid High School",1807095,"Takhar",4,"Kalafgan",1,"Char Toot",18,"Building",7
69.944982,36.774088,4,"Kalafgaan Girls High School",1807097,"Takhar",5,"Kalafgan",1,"Markaz Shahr",18,"Building",7
69.85475268,36.73146449,2,"Abu Ubaida High School",1807098,"Takhar",4,"Kalafgan",2,"Aaq Balaq",18,"Building",7
69.86498245,36.46439723,3,"Chaman Khasdah",1808084,"Takhar",5,"Farkhar",2,"Khasdah",18,"Building",8
69.9306241,36.57470223,2,"Qaneyat Shaheed High School",1808085,"Takhar",4,"Farkhar",2,"Aardeshan",18,"Building",8
69.92886236,36.36854362,2,"Lazhdah High School",1808087,"Takhar",3,"Farkhar",1,"Lazhdah",18,"Building",8
70.05710539,36.34733375,2,"Mushtan School",1808088,"Takhar",3,"Farkhar",1,"Mushtan",18,"Building",8
69.81275315,36.62571112,1,"Makhdoom Abdullah Shaheed School",1808090,"Takhar",2,"Farkhar",1,"Koraani",18,"Building",8
69.76858488,36.58058602,2,"Nahr Aab Madrassa",1808091,"Takhar",3,"Farkhar",1,"Nahr Aab",18,"Building",8
69.83752346,37.245334,3,"Faiz Abad Primary School",1810108,"Takhar",4,"Rustaq",1,"Sayed Abad",18,"Building",10
69.72115887,37.32317215,3,"Hazrat Abdullah Bin Masood High School",1810109,"Takhar",4,"Rustaq",1,"Kewan",18,"Building",10
69.64643781,37.0548519,3,"Yamchi Primary School",1810111,"Takhar",4,"Rustaq",1,"Yamchi",18,"Building",10
69.90581502,37.10650301,4,"Hazrat Khelali High School",1810112,"Takhar",6,"Rustaq",2,"Sar Rostaq",18,"Building",10
69.90656391,37.18514997,3,"Hazar Smooch Secondary School",1810114,"Takhar",5,"Rustaq",2,"Hazar Smooch",18,"Building",10
69.97333588,37.16970579,2,"Sar Ghaar Secondary School",1810115,"Takhar",3,"Rustaq",1,"Sar Ghaar",18,"Building",10
69.83943842,37.26847506,1,"Tawheed Islami School",1810122,"Takhar",2,"Rustaq",1,"Keshan",18,"Building",10
69.65880156,37.14133788,3,"Qadaq Tajikan Mosque",1810123,"Takhar",4,"Rustaq",1,"Qadaq Tajikan",18,"Building",10
69.2155138,36.50850986,1,"Qashlaq Say Mosque",1811071,"Takhar",2,"Eshkamesh",1,"Qashlaq Say",18,"Building",11
69.22077728,36.43768124,1,"Boyerak Mosque",1811072,"Takhar",2,"Eshkamesh",1,"Boyerak",18,"Building",11
69.39138335,36.31576563,2,"Dara-E-Kalan Primary School",1811074,"Takhar",3,"Eshkamesh",1,"Dara-E-Kalan",18,"Building",11
69.37841835,36.43851785,2,"Qandahari Fakhrak Mosque",1811075,"Takhar",3,"Eshkamesh",1,"Fakhrak",18,"Building",11
69.5124152,37.16919924,2,"Nawabad Secondary School",1812174,"Takhar",4,"Dasht-E-Qala",2,"Nawabad",18,"Building",12
69.30362858,36.72665417,2,"Chenza Yee School",1801028,"Takhar",4,"Taluqan",2,"Chenza Yee",18,"Building",1
69.49737326,36.79743769,2,"Tarma Baay School",1801029,"Takhar",3,"Taluqan",1,"Tarma Baay",18,"Building",1
69.53443773,36.76146277,2,"Abdul Rahman Taloqani High School",1801030,"Takhar",3,"Taluqan",1,"Qazaq",18,"Building",1
69.703216239,36.576813541,2,"Sad Bargan School",1806082,"Takhar",3,"Namak Ab",1,"Sad Bargan",18,"Building",6
69.94651683,36.75056528,3,"Mohammad Hussain Shaheed High School",1807100,"Takhar",4,"Kalafgan",1,"Zardaalo Dara Sufla",18,"Building",7
69.41659914,37.136819,2,"Haji Mirza Mohammad Secondary School",1809054,"Takhar",3,"Khwaja Ghar",1,"Jalom Khor",18,"Building",9
69.38411449,36.92565137,2,"Hamwar Say Primary School",1809055,"Takhar",4,"Khwaja Ghar",2,"Hamwar Say",18,"Building",9
69.36678506,37.00993179,3,"Hasamuddin Shaheed High School",1809190,"Takhar",4,"Khwaja Ghar",1,"Keshwari",18,"Building",9
69.7970337,37.14129302,5,"Hazrat Omar Farooq High School",1810101,"Takhar",7,"Rustaq",2,"Shahr Jadid Rostaq",18,"Building",10
69.7738298,36.96552569,3,"Qadaq Jawaz Khana Clinic",1810116,"Takhar",4,"Rustaq",1,"Qadaq Jawaz Khana",18,"Building",10
69.79212202,36.93446413,1,"Chenar Village Mosque",1810117,"Takhar",2,"Rustaq",1,"Chenar Village",18,"Building",10
69.97054678,36.95981788,1,"Abu Huraira Secondary School",1810126,"Takhar",2,"Rustaq",1,"Shingar Aab",18,"Building",10
69.94942945,37.08291909,3,"Mawlawi Abdul Qudoos Shaheed Secondary School",1810127,"Takhar",4,"Rustaq",1,"Ghenj",18,"Building",10
69.945730308,36.933804094,1,"Aabzan Secondary School",1810197,"Takhar",2,"Rustaq",1,"Aabzan",18,"Building",10
69.47595999,37.24508,1,"Arabkakul Secondary School",1812201,"Takhar",2,"Dasht-E-Qala",1,"Arabkakul",18,"Building",12
69.53992667,37.33827908,3,"Khwaja Bahauddin Boys High School",1814155,"Takhar",4,"Khwaja Bahawudin",1,"Markaz Shahr",18,"Building",14
69.53044711,37.33687851,2,"Imam Abu Hanifa High School",1814156,"Takhar",3,"Khwaja Bahawudin",1,"Afghania",18,"Building",14
69.938795519,37.038918632,2,"Secondary School",1810210,"Takhar",3,"Rustaq",1,"Khwaja Khirab",18,"Building",10
69.765293815,37.025418737,2,"Primary School",1810211,"Takhar",3,"Rustaq",1,"Dashtak Sufla",18,"Building",10
68.878826,36.70589307,7,"Ghazi Khan High School",1901003,"Kunduz",10,"Kunduz",3,"D05 - Nahia 5",19,"Building",1
68.87379756,36.72259749,3,"Fatima Zahra High School",1901004,"Kunduz",6,"Kunduz",3,"D01 - Nahia 1",19,"Building",1
68.88428099,36.72398589,4,"Khwaja Mashhad High School",1901006,"Kunduz",5,"Kunduz",1,"D04 - Nahia 4",19,"Building",1
68.86837624,36.72394432,6,"Sher Khan High School",1901007,"Kunduz",8,"Kunduz",2,"D02 - Nahia 2",19,"Building",1
68.96579177,36.7317496,5,"Qochi Kalan School",1901028,"Kunduz",8,"Kunduz",3,"Qochi Kalan",19,"Building",1
68.98337469,36.65954073,3,"Malraghi Girls High School",1901029,"Kunduz",4,"Kunduz",1,"Malraghi",19,"Building",1
68.9440444,36.67753118,3,"Kata Khel Secondary School",1901038,"Kunduz",4,"Kunduz",1,"Kata Khel",19,"Building",1
68.98758546,36.74977559,2,"Choqor Qishlaq School",1901048,"Kunduz",4,"Kunduz",2,"Choqor Qishlaq Village",19,"Building",1
68.88341666,36.69805555,2,"Medyoteek Markaz",1901049,"Kunduz",3,"Kunduz",1,"D05 - Nahia 5",19,"Building",1
68.7968554,36.69200327,3,"Jamiyat High School",1902114,"Kunduz",5,"Char Dara",2,"Chardara Markaz",19,"Building",2
68.68682829,36.78070283,2,"Ainul Majar High School",1902122,"Kunduz",4,"Char Dara",2,"Ainul Majar",19,"Building",2
68.64747777,36.78242777,2,"Juma Bazar Mosque",1902125,"Kunduz",3,"Char Dara",1,"Juma Bazar",19,"Building",2
69.045039581,36.439059549,2,"Zangi Say School",1903139,"Kunduz",4,"Ali Abad",2,"Zangi Say Village",19,"Village",3
68.904435,36.576103,2,"Pul Kheshti High School",1903140,"Kunduz",4,"Ali Abad",2,"Pul Kheshti Village",19,"Building",3
68.8566453,36.57698835,1,"Mir Shekh Secondary School",1903209,"Kunduz",2,"Ali Abad",1,"Mir Shekh Village",19,"Building",3
68.9198675,36.48289588,2,"Cheep Secondary School",1903217,"Kunduz",4,"Ali Abad",2,"Cheep Village",19,"Building",3
69.11793826,36.48750198,1,"Chonai Secondary School",1904150,"Kunduz",2,"Khan Abad",1,"Chonai Village",19,"Building",4
69.10770113,36.66545241,1,"Chahar Toot High School",1904151,"Kunduz",2,"Khan Abad",1,"Chahar Toot Oryakhel",19,"Building",4
69.13513209,36.70512121,1,"Kuhna Qala Secondary School",1904160,"Kunduz",2,"Khan Abad",1,"Band-E-Barq",19,"Building",4
69.05851833,36.69563012,1,"Jangal Bashi Boys High School",1904161,"Kunduz",2,"Khan Abad",1,"Jangal Bashi",19,"Building",4
68.90350455,37.18603908,2,"Naswan Markazi High School",1905073,"Kunduz",5,"Hazrat-E-Imam Sahib",3,"D03 - Nahia 3",19,"Building",5
68.97864311,37.20008673,5,"Alef Berdy School",1905074,"Kunduz",7,"Hazrat-E-Imam Sahib",2,"Alef Berdy Village",19,"Building",5
68.76687552,37.19376564,3,"Murad Shaikh Secondary School",1905200,"Kunduz",4,"Hazrat-E-Imam Sahib",1,"Murad Shaikh",19,"Building",5
69.04223763,37.13017502,2,"Juma Khowani Payeen Mosque",1905201,"Kunduz",3,"Hazrat-E-Imam Sahib",1,"Qarya Chaghar",19,"Building",5
69.24043135,37.03393587,4,"Jamhoriat High School",1906178,"Kunduz",6,"Dasht-E-Archi",2,"Markaz Archi",19,"Building",6
69.2657402,37.05068483,3,"Qashqari Secondary School",1906179,"Kunduz",4,"Dasht-E-Archi",1,"Tajik Qashlaq Village",19,"Building",6
69.27934477,36.91752539,3,"Jaame Mosque",1906189,"Kunduz",5,"Dasht-E-Archi",2,"Qara Ghoshi Uzbekya Village",19,"Building",6
69.21916666,36.87805555,4,"Gul Balaq Secondary School",1906190,"Kunduz",5,"Dasht-E-Archi",1,"Gul Balaq",19,"Building",6
68.52304527,37.01114514,3,"Etihaad High School",1907109,"Kunduz",4,"Qala-E-Zal",1,"Qoq Masjid",19,"Building",7
68.39715131,37.03714247,2,"Halqa Kol School",1907110,"Kunduz",3,"Qala-E-Zal",1,"Halqa Kol",19,"Building",7
68.132773,36.947773,1,"Baghicha Secondary School",1907112,"Kunduz",2,"Qala-E-Zal",1,"Baghicha",19,"Building",7
68.54887437,36.92346851,1,"Zulm Aabad School",1907113,"Kunduz",2,"Qala-E-Zal",1,"Zulm Abad",19,"Building",7
68.86304798,36.71288946,5,"Hazrat Ali High School",1901010,"Kunduz",7,"Kunduz",2,"D02 - Nahia 2",19,"Building",1
68.86846013,36.72269586,5,"Law Department",1901011,"Kunduz",7,"Kunduz",2,"D02 - Nahia 2",19,"Building",1
68.86636625,36.73787679,3,"Bibi Ayesha Sediqa High School",1901014,"Kunduz",8,"Kunduz",5,"D03 - Nahia 3",19,"Building",1
68.87099521,36.72249638,3,"Municipality Office",1901015,"Kunduz",5,"Kunduz",2,"D01 - Nahia 1",19,"Building",1
68.86723702,36.74705784,4,"Kuhan Duzh High School",1901020,"Kunduz",6,"Kunduz",2,"D03 - Nahia 3",19,"Building",1
68.84858644,36.70317013,4,"Zakhil Khamdan",1901021,"Kunduz",5,"Kunduz",1,"D03 - Nahia 3",19,"Building",1
68.892646491,36.655840985,2,"Qazaq Mosque",1901043,"Kunduz",4,"Kunduz",2,"Qaraq Village",19,"Building",1
68.91916666,36.73083333,2,"Khazani Secondary School",1901044,"Kunduz",4,"Kunduz",2,"Khazani Village",19,"Building",1
66.91380067,36.35913867,2,"Zowarha Mosque",2107262,"Balkh",3,"Sholgara",1,"Zowarha Village",21,"Building",7
66.80741523,36.67925041,2,"Chamtal School",2108213,"Balkh",3,"Chimtal",1,"Chamtaal Village",21,"Village",8
66.87568592,36.64524892,2,"Sar Asyab School",2108214,"Balkh",3,"Chimtal",1,"Sar Asyab Village",21,"Building",8
66.6780782,36.68968118,2,"Qala-E-Raziq School",2108221,"Balkh",3,"Chimtal",1,"Qala-E-Raziq Village",21,"Village",8
66.64654328,36.71874996,1,"Nawshahr Alizai Mosque",2108222,"Balkh",2,"Chimtal",1,"Alizai Village",21,"Village",8
66.82169871,36.98804151,3,"Dawlat Abad Municipality Building",2109118,"Balkh",4,"Dawlat Abad",1,"Dawlat Abad Center",21,"Building",9
66.82017521,36.98692556,1,"Rabia Balkhi School",2109119,"Balkh",2,"Dawlat Abad",1,"Dawlat Abad Center",21,"Building",9
67.00618278,36.97283838,2,"Maulana Wayezi Boys High School",2109122,"Balkh",2,"Dawlat Abad",0,"Qara Ghajla Village",21,"Building",9
67.00316007,36.98097094,1,"Wazyezi Girls High School",2109123,"Balkh",2,"Dawlat Abad",1,"Qara Ghajla Village",21,"Building",9
66.73193726,36.96941651,1,"Sadr Abad School",2109125,"Balkh",2,"Dawlat Abad",1,"Sadr Abad Village",21,"Building",9
66.5522439,36.99545135,2,"Delbar Jeen School",2109126,"Balkh",3,"Dawlat Abad",1,"Delbar Jeen Village",21,"Building",9
66.7636778,36.90954875,1,"Khowala Bachgan School",2109129,"Balkh",2,"Dawlat Abad",1,"Khowala Bachgan Village",21,"Building",9
66.75654304,37.00031125,1,"Hayatan School",2109130,"Balkh",2,"Dawlat Abad",1,"Hayatan Village",21,"Building",9
66.81653969,36.95979943,1,"Yakhdan Mosque",2109144,"Balkh",2,"Dawlat Abad",1,"Yakhdan Village",21,"Building",9
66.84463998,36.95715655,1,"Afghania Mosque",2109145,"Balkh",2,"Dawlat Abad",1,"Pay Mashhad Afghania",21,"Building",9
67.68674702,36.71468987,2,"Shahee Ahmad Shah Masood High School",2110083,"Balkh",3,"Khulm",1,"Ameen Hussain Village",21,"Building",10
67.77397422,36.73259354,1,"Ghazi Abad Secondary School",2110084,"Balkh",2,"Khulm",1,"Ghazi Abad Village",21,"Building",10
67.68883433,36.78506281,1,"Deh Warda Village Mosque",2110094,"Balkh",2,"Khulm",1,"Deh Warda Village",21,"Building",10
68.0649628,36.58631829,1,"Khoshtoot Secondary School",2110096,"Balkh",2,"Khulm",1,"Khoshtoot Village",21,"Building",10
66.74931222,36.754114,1,"Sikandar Khel Zhangora School",2111195,"Balkh",2,"Char Bolak",1,"Zhangora Watani",21,"Building",11
66.47382707,37.29857827,2,"Islam Ulya School",2112114,"Balkh",3,"Shortepa",1,"Islam Ulya Village",21,"Building",12
66.97226293,37.34843839,2,"Joy Wakil Clinic",2112115,"Balkh",3,"Shortepa",1,"Joy Wakeel Village",21,"Building",12
66.959255843,35.773908401,1,"Qara Bay School",2114295,"Balkh",2,"Kishindeh",1,"Wakheshk Village",21,"Building",14
66.88340723,35.96665403,2,"Qara Bay Mosque",2114296,"Balkh",3,"Kishindeh",1,"Qara Bay Village",21,"Building",14
66.64924657,35.81957717,1,"Bakhtgaan Mosque",2115306,"Balkh",2,"Zari",1,"Bakhtgaan Village",21,"Building",15
66.65655685,35.79864902,2,"Bazar Kuhna Mosque",2115307,"Balkh",3,"Zari",1,"Bazar Kuhna Hamrukh Village",21,"Building",15
66.712397889,35.97729811,1,"Mir Hashim School",2115308,"Balkh",2,"Zari",1,"Naw Abad Baloch Village",21,"Building",15
66.664744262,35.737647126,2,"Imam Hassan School",2115309,"Balkh",3,"Zari",1,"Murghzar Village",21,"Building",15
66.79616272,35.86633564,1,"Hazar Paimana Mosque",2115317,"Balkh",2,"Zari",1,"Folad Village",21,"Building",15
66.73298269,35.71117501,1,"Khatimul Anbiya High School",2115318,"Balkh",3,"Zari",2,"Baam Shakh Village",21,"Building",15
65.30353115,34.87356121,4,"That Ghelmeen High School",2301018,"Ghor",6,"Chighcheran",2,"Kashkak",23,"Building",1
65.85197676,35.03999785,2,"Abdul Haq Open Space",2301023,"Ghor",4,"Chighcheran",2,"Aab Reem",23,"Village",1
65.55135784,34.28206278,3,"Nadir Khan Pahlo Sang Qala",2301024,"Ghor",4,"Chighcheran",1,"Pahlo Sang",23,"Village",1
65.36159133,34.56424449,2,"Qots Sufla Secondary School",2301028,"Ghor",4,"Chighcheran",2,"Qots Sufla",23,"Building",1
65.24894707,34.87349369,3,"Sadmen Ghelmeen Primary School",2301029,"Ghor",5,"Chighcheran",2,"Darband",23,"Building",1
65.44099928,34.88362632,3,"Tameer Hassan",2301045,"Ghor",5,"Chighcheran",2,"Ghaar Siyagak",23,"Village",1
64.81949201,34.6045462,2,"Maidan Bara Khana",2301235,"Ghor",4,"Chighcheran",2,"Bara Khana",23,"Building",1
64.90466557,33.88372044,1,"Mohammad Yaqoob Private House",2302100,"Ghor",2,"Duleena",1,"Chashma Safid",23,"Village",2
64.88174259,34.27261155,1,"Gala Asyaab Bazar",2302101,"Ghor",3,"Duleena",2,"Gala Asyaab",23,"Village",2
64.80037387,34.4074557,1,"Salmeen School",2302108,"Ghor",3,"Duleena",2,"Salmeen",23,"Building",2
65.78680996,34.55552929,3,"Dawlatyar School",2303046,"Ghor",4,"Dawlatyar",1,"Markaz Dawlat Yar",23,"Building",3
65.91717699,34.63458067,2,"Poshta Noor School",2303047,"Ghor",4,"Dawlatyar",2,"Joy Nashr",23,"Village",3
65.66050378,34.52478221,2,"Shiniya Mosque",2303049,"Ghor",3,"Dawlatyar",1,"Shiniya",23,"Building",3
65.7166036,34.58221754,2,"Khairullah Mosque",2303050,"Ghor",3,"Dawlatyar",1,"Sharshar",23,"Building",3
65.83823426,34.66676784,1,"Bazar Samak Tent",2303052,"Ghor",2,"Dawlatyar",1,"Samak Village",23,"Building",3
65.86803751,34.43509059,1,"Narm Tih Mosque",2303053,"Ghor",2,"Dawlatyar",1,"Narm Tih",23,"Building",3
65.67075304,34.44121009,2,"Loka Mazar Mosque",2303057,"Ghor",3,"Dawlatyar",1,"Loka Mazar",23,"Building",3
65.73594199,34.66988765,1,"Jira School",2303058,"Ghor",3,"Dawlatyar",2,"Awlad Qadam",23,"Building",3
64.95196839,35.14103838,2,"Mohammad Ibrahim Private House",2304059,"Ghor",4,"Char Sada",2,"Malmanj",23,"Building",4
65.0722261,35.03095756,3,"Khafak Mosque",2304060,"Ghor",4,"Char Sada",1,"Khafak",23,"Building",4
65.18763308,35.03931853,2,"Deh Haji School",2304063,"Ghor",3,"Char Sada",1,"Deh Haji",23,"Building",4
65.1315262,35.17707778,3,"Qala Gawhar High School",2304064,"Ghor",4,"Char Sada",1,"Gawhar Qala",23,"Building",4
64.89881573,35.17950238,2,"Bagh Habibullah",2304071,"Ghor",3,"Char Sada",1,"Kandakh",23,"Building",4
65.0634923,33.57960026,2,"Sangan School",2305111,"Ghor",3,"Pasaband",1,"Bazar Sangan",23,"Building",5
65.10444131,33.70155416,2,"Bazar Kalagi Tent",2305114,"Ghor",4,"Pasaband",2,"Kalagi Village",23,"Village",5
64.848727,33.69216423,1,"Kuhna Shenkot Bazar Tent",2305118,"Ghor",2,"Pasaband",1,"Shinkot Village",23,"Village",5
61.669087743,31.56609036,1,"Dewalak Ha Secondary School",3309099,"Farah",2,"Lash-E-Juwayn",1,"Dewalak Ha",33,"Building",9
61.4925271,31.58175551,2,"Dombalai Ulya Primary School",3309100,"Farah",3,"Lash-E-Juwayn",1,"Dombalai Ulya",33,"Building",9
61.4677033,31.53374694,1,"Qoch Secondary School",3309103,"Farah",2,"Lash-E-Juwayn",1,"Qoch",33,"Building",9
61.62042119,31.78028705,1,"Char Gawak Ulya Mosque",3309104,"Farah",2,"Lash-E-Juwayn",1,"Char Gawak",33,"Building",9
62.07623693,32.36831305,4,"Girls High School",3301034,"Farah",5,"Farah",1,"Bagh-E-Pul",33,"Building",1
62.10462594,32.35572093,3,"Qala-E-Mohammad Mosque",3301035,"Farah",4,"Farah",1,"Qala-E-Mohammad",33,"Building",1
62.13953171,32.49169223,1,"Khwaja Abdullah Bedar High School",3302042,"Farah",2,"Pushtrud",1,"Chin Farsi",33,"Building",2
62.1266819,32.51396093,2,"Dokeen Primary School",3302043,"Farah",3,"Pushtrud",1,"Dokeen Village",33,"Building",2
62.06173023,32.44085307,1,"Shahr-E-Kohna Mosque",3302234,"Farah",2,"Pushtrud",1,"Shahr-E-Kohna",33,"Building",2
61.74648794,32.16375788,1,"Hawzak-E- Mohammad Aslam School",3305240,"Farah",2,"Shib Koh",1,"Hawzak Mohammad Aslam",33,"Building",5
62.42233778,32.62086967,2,"Grani Primary School",3306127,"Farah",3,"Bala Buluk",1,"Grani",33,"Building",6
64.8814651,33.78655058,1,"Norak Primary School",2305119,"Ghor",2,"Pasaband",1,"Norak Markaz",23,"Building",5
64.39221649,34.29115912,1,"Yak Sang School",2306089,"Ghor",2,"Shahrak",1,"Yaka Sang Village",23,"Building",6
64.54532989,34.46017858,1,"Bedan School",2306090,"Ghor",2,"Shahrak",1,"Pala Surkhak",23,"Building",6
66.04347148,34.459791,3,"Qazal School",2307137,"Ghor",4,"Lal Wa Sarjangal",1,"Dahan Bareeki Village",23,"Building",7
65.94952516,34.45425827,2,"Garm Aab Sufla School",2307138,"Ghor",4,"Lal Wa Sarjangal",2,"Sare Nodah Village",23,"Building",7
66.12465571,34.55538971,3,"Bekh Sang School",2307153,"Ghor",4,"Lal Wa Sarjangal",1,"Diwkan Village",23,"Building",7
66.35861918,34.42040414,1,"Sare Diwalak School",2307154,"Ghor",2,"Lal Wa Sarjangal",1,"Asad Abad Village",23,"Building",7
66.04356804,34.58484828,1,"Sang Zard School",2307158,"Ghor",2,"Lal Wa Sarjangal",1,"Sang Zard",23,"Building",7
66.34146456,34.48657423,1,"Qala Shakraki Mosque",2307159,"Ghor",2,"Lal Wa Sarjangal",1,"Qala-E-Shakarki",23,"Building",7
66.2061091,34.7300598,1,"Ghighanak School",2307172,"Ghor",2,"Lal Wa Sarjangal",1,"Sang Polak Village",23,"Village",7
66.21421912,34.5722086,1,"Shinya Haigal Mosque",2307173,"Ghor",2,"Lal Wa Sarjangal",1,"Shinya Haigal",23,"Village",7
66.01518937,34.51962011,1,"Sar Sokhta Mosque",2307177,"Ghor",2,"Lal Wa Sarjangal",1,"Sar Sokhta Village",23,"Building",7
64.41814755,33.52450558,3,"Pas Qala High School",2308209,"Ghor",4,"Taywara",1,"Pas Qala",23,"Village",8
66.29019732,36.06989894,1,"Bagh Ishaaq Village Mosque",2204047,"Sar-E-Pul",2,"Sozma Qala",1,"Bagh Ishaaq Village",22,"Building",4
66.36867878,35.96487932,2,"Irfan Secondary School",2205106,"Sar-E-Pul",4,"Sang Charak",2,"Khulkhana Tafaikhor Village",22,"Building",5
66.44215851,35.95968159,2,"Chinar Mosque",2205111,"Sar-E-Pul",4,"Sang Charak",2,"Farshaqan Kalan Village",22,"Building",5
66.39752112,36.01072321,2,"Archatoo Primary School",2205116,"Sar-E-Pul",4,"Sang Charak",2,"Archatoo",22,"Building",5
66.36859865,35.73040866,1,"Kabood Aab Mosque",2205121,"Sar-E-Pul",2,"Sang Charak",1,"Pushta Kabood Aab Village",22,"Building",5
66.57553751,36.06651494,1,"Shekyar Village Mosque",2206124,"Sar-E-Pul",2,"Gosfandi",1,"Shekyar Village",22,"Building",6
66.56350641,35.7682304,1,"Aabdara Village Mosque",2206132,"Sar-E-Pul",2,"Gosfandi",1,"Aabdara Village",22,"Building",6
65.40862607,34.32874465,4,"Zartali School",2301005,"Ghor",6,"Chighcheran",2,"Kanjak",23,"Building",1
65.40259383,34.2057611,4,"Bazaar Qibi",2301006,"Ghor",5,"Chighcheran",1,"Qebi Dahna Shor Qol",23,"Building",1
64.26253579,33.58988278,2,"Aashoqan School",2308211,"Ghor",3,"Taywara",1,"Aashoqan",23,"Building",8
64.15545811,33.57948062,1,"Abdullah Larqa Private House",2308212,"Ghor",3,"Taywara",2,"Larqa",23,"Building",8
65.00104257,34.67500197,4,"Lal Mohammad Private House",2301012,"Ghor",6,"Chighcheran",2,"Shora Bazar",23,"Village",1
65.48809266,34.52073045,4,"Badgah Girls High School",2301013,"Ghor",5,"Chighcheran",1,"Badgah",23,"Building",1
64.81748049,34.71326514,1,"Sanmay Rakhna Safid Mosque",2301034,"Ghor",3,"Chighcheran",2,"Sanmay Rakhna Safid",23,"Village",1
64.65098401,34.55458393,4,"Ghulaman School",2301035,"Ghor",5,"Chighcheran",1,"Ghulaman",23,"Building",1
65.05918863,35.1751676,2,"Maseen Mosque",2304069,"Ghor",3,"Char Sada",1,"Maseen",23,"Building",4
64.11548882,34.26801824,1,"Nasfanj Primary School",2306083,"Ghor",2,"Shahrak",1,"Nasfanji",23,"Village",6
66.16168708,34.36665361,2,"Joqal School",2307143,"Ghor",3,"Lal Wa Sarjangal",1,"Peshband Bala Village",23,"Village",7
66.23578037,34.41086544,1,"Qolani School",2307144,"Ghor",2,"Lal Wa Sarjangal",1,"Qolani Village",23,"Village",7
66.34112402,34.51949802,1,"Rashk Mosque",2307147,"Ghor",2,"Lal Wa Sarjangal",1,"Rashk Village",23,"Building",7
66.52105273,34.46095482,2,"Sray Karman School",2307148,"Ghor",3,"Lal Wa Sarjangal",1,"Siyasang Village",23,"Building",7
64.41245297,33.24331259,3,"Nili School",2308215,"Ghor",5,"Taywara",2,"Darz Aab",23,"Village",8
64.4729016,33.61982457,1,"Khum Paay Hisar School",2308216,"Ghor",2,"Taywara",1,"Khum Paay Hisar",23,"Village",8
64.23193105,33.46522637,2,"Sayed Alauddin Private House",2308223,"Ghor",3,"Taywara",1,"Yageen",23,"Building",8
64.33476514,33.17906012,1,"Zarni Secondary School",2308227,"Ghor",3,"Taywara",2,"Zarni",23,"Building",8
64.769593198,35.216059952,2,"Hawz Saaleh",2301031,"Ghor",4,"Chighcheran",2,"Hawz Saaleh",23,"Village",1
64.859652245,34.444350772,2,"Fazal Ahmad Bagh",2302104,"Ghor",4,"Duleena",2,"Khwaja Gan",23,"Village",2
64.69357218,34.39352751,1,"Arbab Sakhi Private House",2302105,"Ghor",3,"Duleena",2,"Razqan",23,"Village",2
64.85495172,34.00716375,2,"Sar Chehl Gazai Mosque",2302110,"Ghor",3,"Duleena",1,"Chehl Gazai",23,"Village",2
64.87965093,35.1918517,2,"Najibullah Private House",2304066,"Ghor",3,"Char Sada",1,"Pas Archa",23,"Village",4
65.19422547,33.70256215,1,"Dahna Dewalak School",2305129,"Ghor",3,"Pasaband",2,"Bazar Dahan Pushta Roq",23,"Building",5
64.07092777,34.15309857,1,"Dahn Hisar School",2306078,"Ghor",3,"Shahrak",2,"Dahn Hisar",23,"Village",6
64.34763666,34.38438752,1,"Girls School",2306079,"Ghor",2,"Shahrak",1,"Kamanj",23,"Village",6
64.09427826,34.5055969,2,"Barzo Primary School",2306086,"Ghor",3,"Shahrak",1,"Barzo",23,"Village",6
64.26494728,34.35146229,1,"Margha Primary School",2306087,"Ghor",2,"Shahrak",1,"Margha",23,"Village",6
65.99943691,34.39251319,1,"Sang Shanda School",2307140,"Ghor",3,"Lal Wa Sarjangal",2,"Qala-E-Sang Shanda Village",23,"Building",7
65.9320289,34.57898409,1,"Dahn Laka Sang Mosque",2307156,"Ghor",2,"Lal Wa Sarjangal",1,"Dahan Laka Sang Village",23,"Building",7
66.02642683,34.6645587,2,"Kata Chashma School",2307161,"Ghor",3,"Lal Wa Sarjangal",1,"Kata Chashma Village",23,"Building",7
66.59280065,34.57021543,1,"Safid Aab Shinya Mosque",2307168,"Ghor",2,"Lal Wa Sarjangal",1,"Safid Aab Shinya",23,"Village",7
66.55703029,34.61036941,2,"Tagab Sayeed Mosque",2307169,"Ghor",3,"Lal Wa Sarjangal",1,"Tagab Sayeed",23,"Village",7
66.46968251,34.46903092,1,"Talto Karman School",2307175,"Ghor",2,"Lal Wa Sarjangal",1,"Talto Village",23,"Village",7
63.90040867,33.99119319,1,"Dahan Guldan Mosque",2309181,"Ghor",2,"Tulak",1,"Dahan Guldan",23,"Village",9
63.72614579,33.97656562,2,"Kabotar Khan Primary School",2309182,"Ghor",4,"Tulak",2,"Kabotar Khan",23,"Building",9
63.46830262,33.54298048,1,"Dila Bagh",2310199,"Ghor",3,"Saghar",2,"Dila",23,"Village",10
63.972337786,33.853533123,1,"Dahn Dotayee School",2310200,"Ghor",2,"Saghar",1,"Dahan Dotayee",23,"Village",10
63.89883358,33.67354458,2,"Manak Sufla Secondary School",2310201,"Ghor",3,"Saghar",1,"Manak Sufla",23,"Village",10
63.5970147,33.64255038,2,"Akheri Secondary School",2310204,"Ghor",4,"Saghar",2,"Akheri",23,"Building",10
63.98685635,33.78979922,1,"Zer Tangi Mosque",2310205,"Ghor",2,"Saghar",1,"Zer Tangi",23,"Village",10
66.32841832,33.74388019,2,"Shiniya Mosque",2402015,"Daykundi",4,"Shahristan",2,"Shiniya Haidar Beg",24,"Building",2
66.60552723,33.67066782,1,"Palich Mosque",2402016,"Daykundi",2,"Shahristan",1,"Palich",24,"Building",2
66.26024213,33.64992188,3,"Shalij Mosque",2402024,"Daykundi",5,"Shahristan",2,"Shalij",24,"Building",2
66.58585862,33.60942849,1,"Ashkar Abad Mosque",2402025,"Daykundi",2,"Shahristan",1,"Ashkar Abad",24,"Building",2
66.0283413,36.14920994,2,"Qashqari Village School",2201027,"Sar-E-Pul",4,"Sar-E-Pul",2,"Qashqari Village",22,"Building",1
65.90595251,36.10334154,1,"Tarbalaq Secondary School",2202051,"Sar-E-Pul",2,"Sayad",1,"Tarbalaq",22,"Building",2
65.7058002,36.0969887,2,"Dara-E-Band Mosque Property",2202052,"Sar-E-Pul",4,"Sayad",2,"Dara-E-Band Village",22,"Village",2
65.79474113,35.99268518,1,"Mirza Walang Secondary School",2202057,"Sar-E-Pul",3,"Sayad",2,"Mirza Walang",22,"Building",2
65.88383982,35.91189592,1,"Nagala Mosque",2203062,"Sar-E-Pul",2,"Kohistanat",1,"Nagala",22,"Building",3
65.89634291,35.83589729,2,"Sar Deh Mosque",2203063,"Sar-E-Pul",4,"Kohistanat",2,"Sar Deh",22,"Building",3
66.33688544,35.86624099,2,"Sabz Village Mosque",2205103,"Sar-E-Pul",4,"Sang Charak",2,"Sabz Village",22,"Building",5
66.35143747,35.8968961,2,"Topkhana Village Mosque",2205104,"Sar-E-Pul",3,"Sang Charak",1,"Topkhana Village",22,"Building",5
66.44255611,35.8593959,1,"Charoo Mosque",2205113,"Sar-E-Pul",2,"Sang Charak",1,"Charoo Ulya",22,"Building",5
66.45884443,35.93637667,1,"Farshqan Miyana Mosque",2205119,"Sar-E-Pul",2,"Sang Charak",1,"Farshaqan Miyana",22,"Building",5
66.4097305,36.05550148,1,"Rostam Qaryadar Mosque",2205120,"Sar-E-Pul",2,"Sang Charak",1,"Larak Afghania",22,"Building",5
66.48618482,35.86972977,2,"Shah Mard Village Madrassa",2206129,"Sar-E-Pul",3,"Gosfandi",1,"Shah Mard Village",22,"Building",6
66.52368167,35.91086629,2,"Karan Village Madrassa",2206130,"Sar-E-Pul",4,"Gosfandi",2,"Karan Village",22,"Building",6
66.53189742,36.00027945,2,"Alghan Afghania Mosque",2206134,"Sar-E-Pul",4,"Gosfandi",2,"Alghan Afghania",22,"Building",6
66.40347416,35.30891734,2,"Zawj Madrassa",2207097,"Sar-E-Pul",4,"Balkhab",2,"Zawj",22,"Building",7
66.60898963,35.67001757,3,"Bajgah Madrassa",2207098,"Sar-E-Pul",4,"Balkhab",1,"Shekh Mang",22,"Building",7
66.56947356,35.66846562,2,"Pitab Secondar School",2207100,"Sar-E-Pul",4,"Balkhab",2,"Pitab",22,"Building",7
65.25869389,34.52115061,6,"Sultan Alauddin Ghori High School",2301001,"Ghor",10,"Chighcheran",4,"Taht Shahr",23,"Building",1
65.93437488,36.22578867,6,"Rahmat Abad High School",2201003,"Sar-E-Pul",9,"Sar-E-Pul",3,"Rahmat Abad Village",22,"Building",1
65.9493037,36.21489948,5,"Imam Yahya High School",2201004,"Sar-E-Pul",8,"Sar-E-Pul",3,"Imam Khord Village",22,"Building",1
65.77179256,35.76667834,2,"Himat Deh Surkh O Pas Nai High School",2203065,"Sar-E-Pul",3,"Kohistanat",1,"Deh Surkh Village",22,"Building",3
66.23491332,36.02450553,2,"Gorkaab Ulya Mosque",2204036,"Sar-E-Pul",3,"Sozma Qala",1,"Gorkaab Ulya",22,"Building",4
66.22241207,36.00471307,1,"Tanzeel Mosque",2204037,"Sar-E-Pul",2,"Sozma Qala",1,"Tanzeel",22,"Building",4
66.14349231,35.88455294,3,"Khanqah Girls Secondary School",2204041,"Sar-E-Pul",4,"Sozma Qala",1,"Khanqah",22,"Building",4
66.51863414,35.95484356,2,"Yoltarab Girls Secondary School",2206136,"Sar-E-Pul",3,"Gosfandi",1,"Yoltarab Village",22,"Building",6
66.91759075,35.65852671,3,"Tagab Takht Madrassa",2207087,"Sar-E-Pul",4,"Balkhab",1,"Tagab Takht",22,"Building",7
66.79544838,35.4636563,3,"Doshakh School",2207090,"Sar-E-Pul",5,"Balkhab",2,"Doshakh",22,"Building",7
66.71674994,35.57724984,2,"Tolo Jorazi High School",2207091,"Sar-E-Pul",4,"Balkhab",2,"Jorazi",22,"Building",7
66.44140698,35.45935187,3,"Pay Ziarat Mosque",2207094,"Sar-E-Pul",5,"Balkhab",2,"Pay Ziarat",22,"Building",7
66.33172895,35.41564898,2,"Peghola Madrassa",2207095,"Sar-E-Pul",4,"Balkhab",2,"Peghola",22,"Building",7
66.124362818,35.875472772,2,"School",2204140,"Sar-E-Pul",3,"Sozma Qala",1,"Malek Uzbakia Village",22,"Building",4
66.373931824,36.039848479,2,"Khwaja Surkh School",2205142,"Sar-E-Pul",3,"Sang Charak",1,"Khwaja Sorkh",22,"Village",5
66.666373394,36.091067853,2,"Mosque",2206143,"Sar-E-Pul",3,"Gosfandi",1,"Chaghdan",22,"Building",6
65.87225272,36.28150717,3,"Korak Uzbekya Secondary School",2201008,"Sar-E-Pul",5,"Sar-E-Pul",2,"Korak Uzbekya Village",22,"Building",1
66.07767318,36.17798779,4,"Baghawi Uzbekya Secondary School",2201009,"Sar-E-Pul",6,"Sar-E-Pul",2,"Baghawi Uzbekya Village",22,"Building",1
65.89139495,36.34297924,5,"Qosh Tapa High School",2201010,"Sar-E-Pul",6,"Sar-E-Pul",1,"Qosh Tapa Village",22,"Building",1
66.17719715,36.23309756,2,"Qadam Jay Madrassa",2201020,"Sar-E-Pul",3,"Sar-E-Pul",1,"Qadam Jay Village",22,"Village",1
65.83224888,36.14023822,4,"Mula Sakhidad Girls High School",2202048,"Sar-E-Pul",6,"Sayad",2,"Mula Sakhidad",22,"Building",2
65.85870416,36.18022533,2,"Angushka Secondary School",2202049,"Sar-E-Pul",3,"Sayad",1,"Angushka",22,"Building",2
65.64685523,36.03979421,2,"Qara Khowal Mosque Property",2202053,"Sar-E-Pul",4,"Sayad",2,"Qara Khowal Village",22,"Village",2
65.54751382,36.00950696,2,"Shah Toot Village Madrassa",2202054,"Sar-E-Pul",3,"Sayad",1,"Shah Toot Village",22,"Village",2
65.56829456,35.54631387,1,"Qala-E-Shahr Madrassa",2203069,"Sar-E-Pul",2,"Kohistanat",1,"Qala-E-Shahr Madrassa",22,"Building",3
65.55233503,35.52415506,2,"Haji Mula Qurban Mosque",2203070,"Sar-E-Pul",3,"Kohistanat",1,"Naw Qala Shahr",22,"Building",3
66.19626033,35.28273861,2,"Azadi High School",2203082,"Sar-E-Pul",3,"Kohistanat",1,"Safid Maidan Shina",22,"Building",3
66.23395703,35.13366593,1,"Shaheed Mazari High School",2203083,"Sar-E-Pul",2,"Kohistanat",1,"Dahna Kashan",22,"Building",3
66.28385007,36.11104887,1,"Sabzi Kalan Mosque",2204043,"Sar-E-Pul",2,"Sozma Qala",1,"Sabzi Kalan",22,"Building",4
65.1207597,34.45342651,4,"Tagha-E-Taimur School",2301008,"Ghor",5,"Chighcheran",1,"Tagha-E-Taimur",23,"Village",1
65.29291044,34.60099389,4,"Kaasi Ulya School",2301009,"Ghor",6,"Chighcheran",2,"Sar Pul Kasi",23,"Building",1
64.92134177,34.64503323,3,"Abdul Ahmad Open Space",2301017,"Ghor",5,"Chighcheran",2,"Lashara Sufla",23,"Village",1
65.840845552,33.865881244,2,"School",2405183,"Daykundi",3,"Khedir",1,"Rang Darakht",24,"Building",5
65.838021977,33.4289057,2,"Mosque",2406184,"Daykundi",3,"Kiti",1,"Sar Bagh Kisaw",24,"Building",6
65.69132907,33.482172302,2,"Mosque",2406185,"Daykundi",3,"Kiti",1,"Tajreeb",24,"Building",6
65.7603058,33.48991363,2,"Hoshi Mosque",2406143,"Daykundi",3,"Kiti",1,"Hoshi",24,"Building",6
66.92274098,33.8361289,1,"Orlak Mosque",2407144,"Daykundi",4,"Miramor",3,"Teyorsal",24,"Building",7
65.7319024,33.57957573,2,"Shina Kiti Mosque",2406129,"Daykundi",3,"Kiti",1,"Shina Kiti",24,"Building",6
65.618818814,33.68892001,2,"School",2405180,"Daykundi",3,"Khedir",1,"Chaghan",24,"Building",5
65.908072577,33.891592349,2,"Mosque",2405181,"Daykundi",3,"Khedir",1,"Kharbid Sar Qul",24,"Building",5
66.14335153,33.69642324,2,"Sang Moom Mosque",2401007,"Daykundi",5,"Nili",3,"Sang Moom",24,"Building",1
66.15224204,33.75897298,5,"Dasht Mosque",2401008,"Daykundi",8,"Nili",3,"Dasht",24,"Building",1
66.61681736,33.54324787,2,"Asho Gholaka Mosque",2402035,"Daykundi",3,"Shahristan",1,"Asho Ghokala",24,"Building",2
66.08165481,33.67146809,1,"Sahib Zaman Wageer Mosque",2403109,"Daykundi",2,"Gizab",1,"Wageer",24,"Building",3
66.12831695,33.4707791,1,"Chalzai Bazar School",2403110,"Daykundi",2,"Gizab",1,"Chalzai",24,"District",3
66.01680647,33.36589848,3,"Sohoor Tagabdar Mosque",2403114,"Daykundi",5,"Gizab",2,"Sohoor Tagabdar",24,"Building",3
66.37603146,33.98332047,2,"Siyah Nawar Abdi Mosque",2404036,"Daykundi",4,"Ishterlai",2,"Siyah Nawar Abdi",24,"Building",4
66.50461421,34.02964707,2,"Safid Sang Mosque",2404037,"Daykundi",3,"Ishterlai",1,"Pirestan",24,"Building",4
66.523270044,34.289447601,1,"Gum Aab Mosque",2404042,"Daykundi",2,"Ishterlai",1,"Gum Aab",24,"Building",4
66.29132915,33.95999533,2,"Loran Khushk Mosque",2404043,"Daykundi",3,"Ishterlai",1,"Loran Khushk",24,"Building",4
65.91978829,33.92720075,1,"Khadeer Sufla Mosque",2405088,"Daykundi",3,"Khedir",2,"Khadeer Sufla",24,"Building",5
65.70597798,33.82363892,1,"Shakar Dara Mosque",2405089,"Daykundi",3,"Khedir",2,"Shakar Dara",24,"Building",5
65.66240424,33.80223138,1,"Dastani School",2405091,"Daykundi",3,"Khedir",2,"Dastani",24,"Building",5
65.68336159,33.75145633,1,"Bazi Village Mosque",2405092,"Daykundi",3,"Khedir",2,"Bazi Village",24,"Building",5
66.79247481,33.7296933,2,"Askan Mosque",2407146,"Daykundi",4,"Miramor",2,"Askan",24,"Building",7
66.8711677,33.8877444,2,"Surkh Joy Mosque",2407147,"Daykundi",4,"Miramor",2,"Surkh Joy",24,"Building",7
67.14600031,33.8516617,1,"Watana Boys High School",2407154,"Daykundi",2,"Miramor",1,"Pitap Joy",24,"Building",7
67.29941134,33.87642714,1,"Shinya Nek Mosque",2407155,"Daykundi",2,"Miramor",1,"Shinya Nek",24,"Building",7
67.05414139,33.77585948,2,"Shinya Barkar School",2407157,"Daykundi",3,"Miramor",1,"Shinya Barkar",24,"Building",7
66.95718975,33.70275132,1,"Shina Ashto Mosque",2407158,"Daykundi",2,"Miramor",1,"Ashto",24,"Building",7
66.60367713,33.97174462,1,"Gargai Village Mosque",2407166,"Daykundi",2,"Miramor",1,"Gargai",24,"Building",7
67.05045427,33.85756736,1,"Do Jahan Tikan Barkar Mosque",2407167,"Daykundi",2,"Miramor",1,"Do Jahan",24,"Building",7
66.1804537,34.20791122,2,"Shinya Qaramat School",2408074,"Daykundi",3,"Sang-E-Takht",1,"Shinya Qaramat",24,"Building",8
66.07943836,34.11891857,2,"Qala-E-Sangi Mosque",2408075,"Daykundi",3,"Sang-E-Takht",1,"Shekh Ali",24,"Building",8
65.62905408,34.03836363,2,"Siyah Chob Bazar Mosque",2408079,"Daykundi",4,"Sang-E-Takht",2,"Siyah Chob",24,"Building",8
65.71669634,34.10876096,1,"Shinya Les Mosque",2408080,"Daykundi",2,"Sang-E-Takht",1,"Shinya Les",24,"Building",8
65.46505128,33.23277331,1,"Laghar Joy School",2409059,"Daykundi",2,"Kejran",1,"Laghar Joy",24,"Building",9
65.69176758,33.22924569,1,"Baghban Mosque",2409060,"Daykundi",2,"Kejran",1,"Baghban",24,"Building",9
65.59533175,33.23698359,1,"Sulaiman Abad Mosque",2409070,"Daykundi",2,"Kejran",1,"Sulaiman Abad",24,"Building",9
65.72167609,33.32862255,1,"Haftad Nafar Mosque",2409168,"Daykundi",2,"Kejran",1,"Haftad Nafar",24,"Building",9
66.02443966,33.84077196,2,"Shish School",2401003,"Daykundi",4,"Nili",2,"Shish",24,"Building",1
66.16112607,33.8866269,2,"Bazar Pishok Mosque",2401004,"Daykundi",4,"Nili",2,"Pishok",24,"Building",1
66.17854221,33.69695559,3,"Pai Nili Mosque",2401012,"Daykundi",5,"Nili",2,"Pai Nili",24,"Building",1
66.43822593,33.6686245,3,"Waras School",2402013,"Daykundi",5,"Shahristan",2,"Waras, Surkh Keji",24,"Building",2
66.54928033,33.69570692,2,"Olqan Mosque",2402019,"Daykundi",4,"Shahristan",2,"Olqan",24,"Building",2
66.39620431,33.8886167,1,"Tagab Largar Mosque",2402020,"Daykundi",2,"Shahristan",1,"Tagab Largar",24,"Building",2
66.63039011,33.73795337,1,"Tagag High School",2402030,"Daykundi",2,"Shahristan",1,"Tagag",24,"Building",2
66.61570275,33.80847717,1,"Faiz Abad Mosque",2402031,"Daykundi",2,"Shahristan",1,"Faiz Abad",24,"Building",2
66.30810555,34.25157577,1,"Qalandaran Mosque",2404046,"Daykundi",2,"Ishterlai",1,"Jangan Kalan",24,"Building",4
66.34967862,34.21823835,1,"Elsafi Mosque",2404047,"Daykundi",3,"Ishterlai",2,"Jangan Khord",24,"Building",4
66.28569855,34.1846229,1,"Chaka Jankan Mosque",2404052,"Daykundi",2,"Ishterlai",1,"Chaka Jankan",24,"Building",4
66.27536504,34.03260385,1,"Surkh Joy Mosque",2404053,"Daykundi",3,"Ishterlai",2,"Surkh Joy",24,"Building",4
65.76879382,33.90424922,1,"Dahan Gham Qol School",2405095,"Daykundi",3,"Khedir",2,"Gham Qol",24,"Building",5
66.05138915,33.88531186,1,"Pitabak Korga School",2405096,"Daykundi",3,"Khedir",2,"Pitabak",24,"Building",5
65.87878633,33.7820898,2,"Takht Kiyan Mosque",2405100,"Daykundi",3,"Khedir",1,"Takht Kiyan",24,"Building",5
65.7863709,33.9989494,2,"Qorb Ali School",2405101,"Daykundi",3,"Khedir",1,"Shalgham",24,"Building",5
65.78115505,33.64543306,2,"Kuhna Deh Madrassa",2406126,"Daykundi",3,"Kiti",1,"Kuhna Deh",24,"Building",6
65.7052117,33.63642963,2,"Karwan Sarai Mosque",2406127,"Daykundi",3,"Kiti",1,"Karwan Sarai",24,"Building",6
65.7702395,33.41126712,2,"Shoro Kiso Mosque",2406139,"Daykundi",3,"Kiti",1,"Shoro Kiso",24,"Building",6
65.73272946,33.53448614,2,"Monami Mosque",2406140,"Daykundi",3,"Kiti",1,"Monami",24,"Building",6
66.91081256,33.67396683,1,"Tai Jang Mosque",2407161,"Daykundi",2,"Miramor",1,"Nadak",24,"Building",7
68.7147415,36.85171182,3,"Tobra Kash School",1901025,"Kunduz",4,"Kunduz",1,"Tobra Kash",19,"Village",1
68.88841092,36.79462406,4,"Taimori Alcheen School",1901026,"Kunduz",5,"Kunduz",1,"Taimori Alcheen",19,"Building",1
66.76181876,33.94866866,1,"Siyah Bomak Rabat Mosque",2407162,"Daykundi",2,"Miramor",1,"Siyah Bomak",24,"Building",7
66.500231271,33.88388162,2,"Mosque",2402173,"Daykundi",3,"Shahristan",1,"Safid Pushta Largar",24,"Building",2
66.709412969,33.806664976,2,"Mosque",2402174,"Daykundi",3,"Shahristan",1,"Ghaf",24,"Building",2
66.265259451,33.845345012,2,"School",2402175,"Daykundi",3,"Shahristan",1,"Ghaibi",24,"Building",2
66.26317942,33.38038757,1,"Chonai Bazar Mosque",2403117,"Daykundi",2,"Gizab",1,"Chonai Village",24,"Village",3
65.94492796,33.91461772,1,"Shiniya Khadeer Ulya Mosque",2405085,"Daykundi",3,"Khedir",2,"Khadeer Ulya",24,"Building",5
65.91929767,34.03569733,1,"Dahn Say Pasi Band School",2405086,"Daykundi",2,"Khedir",1,"Dahn Say Pasi Band",24,"Building",5
66.85698672,33.65778379,1,"Zaspa Tuqman Dara Mosque",2407163,"Daykundi",2,"Miramor",1,"Toqman Dara, Mir Ghulam",24,"Building",7
67.01443308,33.79113795,1,"Tai Barkar Mosque",2407164,"Daykundi",2,"Miramor",1,"Dahan Shahrak, Tai Barkar",24,"Building",7
66.13526031,34.26387995,3,"Jafaria Bazar Sang Takht Mosque",2408071,"Daykundi",5,"Sang-E-Takht",2,"Dahan Qarghan Payeen",24,"Building",8
66.07140697,34.28226066,3,"Shinya Chaka Mosque",2408072,"Daykundi",4,"Sang-E-Takht",1,"Shinya Chaka",24,"Building",8
65.87733785,34.27275754,2,"Bazar Siyah Kharak School",2408076,"Daykundi",3,"Sang-E-Takht",1,"Siyah Kharak",24,"Building",8
65.81678949,34.18860929,2,"Bazar Salbito School",2408077,"Daykundi",4,"Sang-E-Takht",2,"Salbito",24,"Building",8
65.46905046,33.20630388,2,"Balaagh Mosque",2409054,"Daykundi",4,"Kejran",2,"Balaagh",24,"Building",9
65.52496207,33.20917796,1,"Boka Sof Mosque",2409055,"Daykundi",3,"Kejran",2,"Sof",24,"Building",9
65.75762185,33.63923501,2,"Shalizar Mosque",2406134,"Daykundi",3,"Kiti",1,"Shalizar",24,"Building",6
65.80445621,33.43086617,2,"Dasht Kiso Mosque",2406135,"Daykundi",3,"Kiti",1,"Dasht Kiso",24,"Building",6
65.84716315,33.42131996,2,"Ghotla Mosque",2406137,"Daykundi",3,"Kiti",1,"Ghotla",24,"Building",6
65.916495568,32.776587574,3,"Sajawal School",2501050,"Urozgan",6,"Tirinkot",3,"Sajawal",25,"Building",1
65.45593432,32.62509329,0,"Girls High School",2502040,"Urozgan",5,"Dehraoud",5,"Dehrawood Bazar",25,"Building",2
65.4748798,32.73065928,5,"Chatoo School",2502042,"Urozgan",6,"Dehraoud",1,"Chatoo",25,"Building",2
66.04271683,32.86135687,1,"Dinarkhel Girls School",2503017,"Urozgan",4,"Chora",3,"District Womens Clinic",25,"Building",3
66.050539928,32.846936708,3,"Qala-E-Ragh School",2503018,"Urozgan",4,"Chora",1,"Qalacha Bazar",25,"Building",3
66.013779994,32.920317039,2,"Awiyan School",2503020,"Urozgan",4,"Chora",2,"Qala-E-Ragh",25,"Building",3
66.28177016,32.73883897,0,"Womens Clinic",2506046,"Urozgan",5,"Chenarto",5,"Chinarto",25,"Building",6
65.82220318,32.61809279,4,"Talani Secondary School",2501006,"Urozgan",7,"Tirinkot",3,"Talani Village",25,"Building",1
65.957,32.58730555,3,"Garm Aab School",2501007,"Urozgan",5,"Tirinkot",2,"Garm Aab",25,"Building",1
65.8830093,32.68611167,3,"Pirosha Madrassa Mosque",2501011,"Urozgan",5,"Tirinkot",2,"Pirosha",25,"Building",1
65.90733,32.73398382,3,"Shah Hussain High School",2501012,"Urozgan",6,"Tirinkot",3,"Surkh Marghab Village",25,"Building",1
65.564029,32.939945,6,"Chahar Chino Bazar High School",2504030,"Urozgan",6,"Shahid-E-Hassas",0,"Chahar Chino Bazar",25,"Building",4
65.56377844,32.94304256,0,"Chahar Chino Bazar Women'S Clinic",2504031,"Urozgan",5,"Shahid-E-Hassas",5,"Chahar Chino Bazar",25,"Building",4
66.91388327,32.10349824,6,"Shekh Mati High School",2601002,"Zabul",8,"Qalat",2,"Hawashnasi",26,"Building",1
66.91609981,32.10699395,3,"Kandak School",2601003,"Zabul",5,"Qalat",2,"Nawai Resala",26,"Building",1
67.01802085,32.19259439,5,"Spina Ghbarga Madrassa",2601008,"Zabul",7,"Qalat",2,"Spina Ghbarga",26,"Building",1
66.87705355,32.0824005,3,"Haji Allah Dad Mosque",2601009,"Zabul",5,"Qalat",2,"Kharwaryan Village",26,"Building",1
66.5227827,31.89322648,5,"Ghaishi Rabat School",2602029,"Zabul",5,"Tarank Wa Jaldak",0,"Foladgai",26,"Building",2
66.72946306,32.05792463,5,"Haji Khadi Khan Private House",2602030,"Zabul",5,"Tarank Wa Jaldak",0,"Kheshaki Village",26,"Building",2
67.0379149,31.97093948,5,"Syori (Shenkai) District Office",2603033,"Zabul",10,"Shinkai",5,"Syori",26,"Building",3
67.41391912,32.51981393,7,"Baba Hotak High School",2606010,"Zabul",8,"Shah Joi",1,"Shah Joy",26,"Building",6
67.3764111,32.47751681,4,"Karbaghi School",2606014,"Zabul",5,"Shah Joi",1,"Karbaghi",26,"Building",6
66.91530493,32.11466272,3,"Sinak High School",2601005,"Zabul",5,"Qalat",2,"Sinak",26,"Building",1
66.89370716,32.10074875,4,"Chonai School",2601006,"Zabul",6,"Qalat",2,"Nawai Village",26,"Building",1
67.4830004,32.00536025,2,"Omomi School",2609042,"Zabul",3,"Naw Bahar",1,"Lorgai",26,"Building",9
67.63875802,32.20409758,2,"District Clinic",2609043,"Zabul",3,"Naw Bahar",1,"District Compound",26,"Building",9
67.61611111,31.56277777,1,"Jangi Borj Mosque",2610038,"Zabul",2,"Shemel Zayi",1,"Dagar Jangai",26,"Building",10
67.74406898,32.01677998,2,"Seenzai School",2610039,"Zabul",3,"Shemel Zayi",1,"Seenzai",26,"Building",10
66.91446329,32.110215523,2,"Resala Female School",2601050,"Zabul",3,"Qalat",1,"Rsala",26,"Building",1
66.573372539,31.906913215,2,"Muhammad Jan Village Mosque",2602051,"Zabul",3,"Tarank Wa Jaldak",1,"Muhammad Zai Village",26,"Village",2
67.111875599,32.026882685,3,"Ziarat Madrasa",2603053,"Zabul",4,"Shinkai",1,"Badin",26,"Village",3
67.481234788,32.575642287,2,"Qaiom Village School",2606070,"Zabul",3,"Shah Joi",1,"Shor Bar, Qaiom Village",26,"Building",6
66.32468242,31.79946917,6,"Boys School",2602026,"Zabul",6,"Tarank Wa Jaldak",0,"District Compound",26,"Building",2
66.32492155,31.80171793,0,"Girls School",2602027,"Zabul",4,"Tarank Wa Jaldak",4,"District Compound",26,"Building",2
65.70268177,31.62244711,6,"Mir Bazar School",2701005,"Kandahar",6,"Kandahar",0,"D06 - Nahia 6",27,"Building",1
65.72299555,31.63939867,4,"Qawmi Secondary School",2701006,"Kandahar",7,"Kandahar",3,"D10 - Nahia 10",27,"Building",1
65.73046173,31.621283,10,"Mirwais Neeka High School",2701040,"Kandahar",12,"Kandahar",2,"D04 - Nahia 4",27,"Building",1
65.70153099,31.64059597,6,"Shaheed Azeemullah School",2701042,"Kandahar",10,"Kandahar",4,"D09 - Nahia 9",27,"Building",1
65.70043481,31.7398762,3,"Sheen Awliya School",2702102,"Kandahar",3,"Arghandab",0,"Sheen Awliya",27,"Building",2
65.65458503,31.71188923,3,"Jala Oar School",2702103,"Kandahar",3,"Arghandab",0,"Doraahi",27,"Building",2
65.60953264,31.6873428,2,"Manara School",2702107,"Kandahar",3,"Arghandab",1,"Manara",27,"Building",2
65.58540293,31.64907262,1,"Khushal Khan School",2702108,"Kandahar",3,"Arghandab",2,"Nagahan",27,"Building",2
65.9709932,31.47412105,3,"Sayed Mohammad Kor",2703074,"Kandahar",3,"Daman",0,"Nawe Ada",27,"Village",3
66.04034782,31.572936,3,"Haji Sultan Mohammad Aka Private House",2703075,"Kandahar",3,"Daman",0,"Madzi",27,"Building",3
65.45551939,31.54306135,2,"Girls School",2704185,"Kandahar",4,"Panjwayee",2,"Tbc",27,"Building",4
65.46399049,31.55029324,4,"Chehl Ghor School",2704186,"Kandahar",4,"Panjwayee",0,"Chehl Ghor",27,"Building",4
65.31551355,31.43922059,2,"Talgaan Village School",2704189,"Kandahar",4,"Panjwayee",2,"Talgan Village",27,"Village",4
69.09801223,34.49676374,2,"Sanaie Mosque",101260,"Kabul",4,"Kabul-D13",2,"Deh Qabil Village",1,"Building",1
69.08699278,34.49747357,2,"Mir Sayed Ali Yakhsuz Mosque",101280,"Kabul",4,"Kabul-D13",2,"Qala-E-Sultan Jan",1,"Building",1
69.1625,34.56944444,4,"Khwaja Bughra No.2 Secondary School",101296,"Kabul",8,"Kabul-D15",4,"Khair Khana Electricity Junction",1,"Building",1
69.26938616,34.52997563,4,"Halo Khel Secondary School",101313,"Kabul",7,"Kabul-D16",3,"Halo Khel",1,"Building",1
69.272798717,34.663543852,2,"Shahrak-E-Mohammadia High School",101508,"Kabul",5,"Kabul-D18",3,"Shahrak-E-Mohammadia",1,"Building",1
68.98042099,34.53315146,2,"Hazrat-E-Khalid Ibne Walid High School",102409,"Kabul",4,"Paghman",2,"Karezak",1,"Building",2
69.12548831,34.42428806,3,"Reshkhur-E-Ulya Primary School",103494,"Kabul",4,"Chahar Asyab",1,"Reshkhur",1,"Building",3
69.39915005,34.57290983,3,"Sulh High School",105470,"Kabul",5,"Dehsabz",2,"Pul-E-Charkhi 2",1,"Building",5
69.17569377,34.3546893,1,"Qala-E- Janan Mosque",107435,"Kabul",3,"Musahi",2,"Qala-E-Janan, Deh Kalan",1,"Village",7
69.42253445,34.36873804,2,"Wali Khan Secondary School",109445,"Kabul",4,"Khak-E-Jabar",2,"Zendan",1,"Building",9
69.08759042,34.82095706,2,"Shaheed Ahmad Shah Masoud High School",113375,"Kabul",3,"Estalef",1,"Qabr Malak",1,"Building",13
69.73560063,34.57699678,3,"Dar-E-Hesara Mosque",115476,"Kabul",4,"Surubi",1,"Dara-E-Hesar",1,"Building",15
69.37047394,35.03855431,4,"Girls High School",201007,"Kapisa",6,"Mahmudi Raqi",2,"Karataz",2,"Building",1
69.29947765,35.01664767,3,"Mawlawi Ghulam Eshan House",201008,"Kapisa",5,"Mahmudi Raqi",2,"Deh Babi",2,"Building",1
69.41014102,35.11632865,1,"Mohammad Omarkhel Mosque",203068,"Kapisa",2,"Koh Band",1,"Aram Kot",2,"Building",3
69.32830197,35.0904472,2,"Molla Khalil Mosque",204037,"Kapisa",3,"Hissa-E-Awali Kohistan",1,"Molla Khalil",2,"Building",4
65.27060519,31.45634205,2,"Bazar Madrassa",2704190,"Kandahar",2,"Panjwayee",0,"Moshan",27,"Village",4
65.36432778,31.67057505,2,"Awal Camp Tent",2705149,"Kandahar",4,"Zhire",2,"Zharee Dasht Village",27,"Building",5
65.50963058,31.59774157,2,"Aashoqa School",2705150,"Kandahar",3,"Zhire",1,"Aashoqa",27,"Village",5
65.39318419,31.53098485,2,"Amanullah School",2705160,"Kandahar",2,"Zhire",0,"Sablaghi",27,"Village",5
65.52713516,31.62213409,2,"Haji Lala Oil Station",2705161,"Kandahar",3,"Zhire",1,"Senzari",27,"Building",5
65.49351383,31.90385895,1,"Haji Qayoom Guest House",2707121,"Kandahar",2,"Khakrez",1,"Aroq Shah Khan",27,"Building",7
65.17564375,32.07841071,2,"Pir Khadim Mosque",2709130,"Kandahar",2,"Ghorak",0,"Pir Khadim",27,"Building",9
65.65759441,32.42136393,3,"District Building Office",2712263,"Kandahar",6,"Nish",3,"Niazo Khel",27,"Village",12
65.67159114,32.41962007,3,"Haji Agha Lala Private House",2712264,"Kandahar",3,"Nish",0,"Chopani",27,"Village",12
67.17797326,31.64940853,4,"District Building Office",2715254,"Kandahar",6,"Maruf",2,"District Compound",27,"Village",15
67.32400657,31.34158915,3,"Haji Manan Private House",2715255,"Kandahar",5,"Maruf",2,"Salisoon",27,"Village",15
67.03522199,31.48632695,3,"Obto School",2715257,"Kandahar",5,"Maruf",2,"Obto Village",27,"Village",15
67.76578998,31.36849267,5,"Aala Jirga Mosque",2715258,"Kandahar",7,"Maruf",2,"Aala Jirga Village",27,"Village",15
65.69651096,31.62359614,1,"Aino Secondary School",2701010,"Kandahar",7,"Kandahar",6,"D06 - Nahia 6",27,"Building",1
65.7126059,31.6181172,7,"Pakhwanai Walayat",2701012,"Kandahar",7,"Kandahar",0,"D04 - Nahia 4",27,"Building",1
65.64720464,31.61567499,4,"Mirwais Mena Girls School",2701022,"Kandahar",6,"Kandahar",2,"D06 - Nahia 6",27,"Building",1
65.76504105,31.62114067,5,"Sayed Jamaluddin High School",2701023,"Kandahar",8,"Kandahar",3,"Aino Mena",27,"Building",1
65.6107392,31.61771754,4,"Yateemano School",2701061,"Kandahar",5,"Kandahar",1,"Kokaran",27,"Building",1
65.83629141,31.6183483,5,"Ameer Lalee Hotel",2701062,"Kandahar",8,"Kandahar",3,"D10 - Nahia 10",27,"Building",1
65.72564015,31.73407696,1,"Mohammad Yaqoob Qalacha School",2702109,"Kandahar",3,"Arghandab",2,"Mohammad Yaqoob Qalacha",27,"Building",2
65.65779807,31.65820728,3,"Baba Wali Sahib Old District Office",2702110,"Kandahar",3,"Arghandab",0,"Baba Wali Sahib",27,"Building",2
65.57770777,31.6134289,3,"Bagh Pul Hotel Park",2702113,"Kandahar",5,"Arghandab",2,"Bagh Pul",27,"Building",2
65.7466871,31.78014096,2,"Khana Gardab Madrassa",2702114,"Kandahar",3,"Arghandab",1,"Khana Gardab",27,"Building",2
65.9473361,31.64569559,3,"Azam Qala School",2703083,"Kandahar",5,"Daman",2,"Azam Qala",27,"Building",3
65.875274347,31.490184055,3,"Faram Tarank School",2703084,"Kandahar",5,"Daman",2,"Hakeem Jana Kalacha",27,"Building",3
65.44812416,31.36110229,4,"Tranining Center Place",2704193,"Kandahar",8,"Panjwayee",4,"Marghar",27,"Village",4
65.53871174,31.56071513,2,"Salihan Mosque",2704194,"Kandahar",4,"Panjwayee",2,"Karez Village",27,"Building",4
65.31836114,31.54902085,2,"Old Clinic",2705163,"Kandahar",3,"Zhire",1,"Hawz Madad",27,"Village",5
65.40918084,31.55722354,1,"Asad Soor School",2705164,"Kandahar",2,"Zhire",1,"Pashmol",27,"Village",5
65.96801075,31.96879479,3,"Wiyan Clinic",2706089,"Kandahar",6,"Shah Wali Kot",3,"Wiyan",27,"Village",6
66.02687838,32.07574627,2,"Haji Fayab Private House",2706090,"Kandahar",2,"Shah Wali Kot",0,"Baghto",27,"Village",6
66.06644177,32.02147762,2,"Safullah Private House",2706091,"Kandahar",2,"Shah Wali Kot",0,"Asakzo Sozni",27,"District",6
66.02799602,31.94826795,2,"Malak Salam Private House",2706092,"Kandahar",4,"Shah Wali Kot",2,"Borgi",27,"Village",6
66.04625696,32.16932389,2,"Fazal Karam Mosque",2706095,"Kandahar",2,"Shah Wali Kot",0,"Shah Toot",27,"Village",6
65.60199657,31.98671283,2,"Naasir School",2707118,"Kandahar",2,"Khakrez",0,"Naasir",27,"Village",7
65.47167655,31.98600713,1,"Khakrez Village Clinic",2707124,"Kandahar",4,"Khakrez",3,"Khak Rez Village",27,"Building",7
66.58508825,31.56294971,3,"Mohamamd Neeka School",2708246,"Kandahar",5,"Arghistan",2,"Khogyani",27,"Village",8
66.7329135,31.6940352,2,"Speen Agra Mosque",2708247,"Kandahar",3,"Arghistan",1,"Speen Agra",27,"Village",8
66.54681623,31.38476271,2,"Taisan Village School",2708252,"Kandahar",4,"Arghistan",2,"Taisan Village",27,"Village",8
66.58131426,31.33292331,2,"Tesan Village School",2708253,"Kandahar",3,"Arghistan",1,"Bala Zhara",27,"Village",8
65.12994252,31.74779912,2,"Shahidano School",2710137,"Kandahar",2,"Maiwand",0,"Maiwand Chana",27,"Village",10
65.03081805,31.63745174,3,"Mohammad Yousuf Private House",2710138,"Kandahar",3,"Maiwand",0,"Safozi Enjaran",27,"Building",10
65.23264025,31.50780448,1,"Sardar Asad Private House",2710144,"Kandahar",2,"Maiwand",1,"Mirab Khor",27,"Village",10
65.05610836,31.6226324,0,"District Building Office",2710145,"Kandahar",3,"Maiwand",3,"District Compound",27,"Building",10
65.06197733,31.80142529,2,"Balos Haji Amanullah Village",2710148,"Kandahar",2,"Maiwand",0,"Balos Haji Amanullah Village",27,"Village",10
66.41408787,30.99102689,6,"Haji Raziq Guest House",2711203,"Kandahar",7,"Spin Boldak",1,"Haji Raziq Village",27,"Building",11
66.41691556,30.97136213,3,"Haji Ahmad Shah Market School",2711208,"Kandahar",6,"Spin Boldak",3,"Boldak Wesh",27,"Building",11
66.44213304,31.09279945,4,"Bambol Madrassa",2711209,"Kandahar",5,"Spin Boldak",1,"Bambol",27,"Village",11
66.39986734,31.00904248,4,"Qazi Madrassa",2711212,"Kandahar",6,"Spin Boldak",2,"Speen Boldak",27,"Village",11
66.39174875,31.002958,2,"Malyad Alizai",2711213,"Kandahar",4,"Spin Boldak",2,"Haji Afzal Village",27,"Building",11
65.65213232,32.41381515,2,"Haji Mirza Jamal Private House",2712267,"Kandahar",3,"Nish",1,"Gordang",27,"Village",12
65.75547667,32.41398586,3,"Wahab Khel School",2712268,"Kandahar",3,"Nish",0,"Kanda Village",27,"Village",12
65.99435898,30.17954185,4,"Wali Mohammad Khan Private House",2714199,"Kandahar",6,"Shorabak",2,"Torzi",27,"Village",14
66.00318497,30.13752704,3,"Faiz Mohammad Private House",2714200,"Kandahar",5,"Shorabak",2,"Abozi",27,"Village",14
65.70954999,31.57355926,3,"Haji Baba Guest House",2717004,"Kandahar",6,"Dand",3,"Dand District",27,"Village",17
65.64597159,31.58191418,3,"Rwani Secondary School",2717011,"Kandahar",6,"Dand",3,"Dand District",27,"Village",17
65.6818364,31.58284707,3,"Baldi Secondary School",2717021,"Kandahar",6,"Dand",3,"Dand District",27,"Village",17
65.72178756,31.54897458,4,"Chaplani School",2717051,"Kandahar",5,"Dand",1,"Chaplani",27,"District",17
65.962931981,31.32015694,2,"District Building Office",2718231,"Kandahar",5,"Takhta Pul",3,"Shaga",27,"Village",18
66.20142877,31.323333613,1,"Madad Khan School",2718232,"Kandahar",2,"Takhta Pul",1,"Madad Khan Village",27,"Village",18
66.167359533,31.32856132,2,"Madad Khan Village Clinic",2718233,"Kandahar",2,"Takhta Pul",0,"Madad Khan Village",27,"Village",18
65.979612295,31.181683036,2,"Road Side School",2718234,"Kandahar",4,"Takhta Pul",2,"Hassanzai",27,"Building",18
66.046446971,31.113953821,3,"Haji Mohammad Khan Village School",2718235,"Kandahar",5,"Takhta Pul",2,"Haji Mohammad Khan Village",27,"Village",18
65.97900134,31.29422926,4,"Haji Mohmand Village School",2718236,"Kandahar",6,"Takhta Pul",2,"Haji Mohmand Village",27,"Village",18
66.01944899,31.05686727,4,"Maalem Sadullah School Tent",2718239,"Kandahar",8,"Takhta Pul",4,"Ameer Khan Village",27,"Village",18
65.550920808,31.458441137,5,"Tangai Village Tent",2718240,"Kandahar",8,"Takhta Pul",3,"Tangai Village",27,"Village",18
65.74654757,31.62127597,4,"Shaheed Abdul Ahad Khan Karzai High School",2701058,"Kandahar",6,"Kandahar",2,"Karta-E-Malemeen",27,"Building",1
65.676999,31.60097461,2,"Abdul Hadi Dawi Secondary School",2701063,"Kandahar",8,"Kandahar",6,"D07 - Nahia 7",27,"Building",1
65.67305838,31.722425,1,"Ghazi Mohammad Akbar Khan School",2702099,"Kandahar",4,"Arghandab",3,"Babar",27,"Building",2
65.91205328,31.44772126,3,"Haji Saifullah Oil Station School",2703070,"Kandahar",4,"Daman",1,"Dalai Village",27,"Building",3
65.97863744,31.61645477,2,"Latif Agha School",2703072,"Kandahar",3,"Daman",1,"Najwi Village",27,"Building",3
65.80766527,31.58322218,2,"Haji Anfiya Kalacha/Shorandam Markaz",2703085,"Kandahar",3,"Daman",1,"D05 - Nahia 5",27,"Building",3
64.654321,36.04493734,0,"Khwaja Namosi Girls School",2902023,"Faryab",3,"Pashtun Kot",3,"Khwaja Namosi",29,"Village",2
64.80595251,35.53557283,1,"Telaan Mosque",2902024,"Faryab",2,"Pashtun Kot",1,"Telaan",29,"Village",2
64.97846193,35.64062794,1,"Mir Qasim Madrassa",2902028,"Faryab",2,"Pashtun Kot",1,"Mir Qasim Gleem Baft",29,"Village",2
62.163891776,30.245990361,2,"Ashkanak School",3404064,"Nimroz",3,"Char Burjak",1,"Eshkanak Haji Joma Khan",34,"Building",4
69.157910511,34.589477723,3,"Bi Bi Fatima Zahra Talemul Quran Madrassa",101304,"Kabul",5,"Kabul-D15",2,"Posta-E-Kachalu",1,"Building",1
68.75550053,33.14646574,4,"School",1201019,"Paktika",4,"Sharan",0,"Kotwal",12,"Village",1
68.85914995,33.27073416,0,"District Center",1202028,"Paktika",4,"Mata Khan",4,"Zarra Qala",12,"Building",2
68.4622826,32.85254807,0,"Haji Mir Ahmad Guest House",1207086,"Paktika",2,"Zarghun Shahr",2,"Khair Kot",12,"Building",7
69.08469915,33.14770746,0,"Marzak Girls School",1205076,"Paktika",3,"Sar Rawza",3,"Marzak",12,"Village",5
68.97065434,33.06422717,3,"Big Mosque",1205077,"Paktika",3,"Sar Rawza",0,"Sultani",12,"Village",5
68.85169469,32.4473061,0,"Zarif Khan Guest House",1208128,"Paktika",3,"Gomal",3,"Shekin",12,"Village",8
69.08527955,32.1257959,3,"Haji Omar Mosque",1208129,"Paktika",3,"Gomal",0,"Amovaz",12,"Village",8
68.4943129,32.79963724,0,"Sharif Guest House",1207094,"Paktika",2,"Zarghun Shahr",2,"Meli Zai",12,"Village",7
68.54518563,32.81990027,0,"Ajab Khan Guest House",1207104,"Paktika",2,"Zarghun Shahr",2,"Shah Khel",12,"Village",7
68.94004699,32.74249173,0,"Saied Ahmad Madrassa",1208136,"Paktika",2,"Gomal",2,"Tabot",12,"Village",8
68.40064473,32.76417635,0,"Jani Khel Bazaar Mosque",1209110,"Paktika",3,"Jani Khel",3,"District Center",12,"Building",9
68.39860019,32.74827956,3,"Molla Ghani Guest House",1209111,"Paktika",3,"Jani Khel",0,"Jalalzo",12,"Village",9
68.39710272,32.76294915,2,"Ahmad Guest House",1209117,"Paktika",2,"Jani Khel",0,"Jafar",12,"Village",9
